~V
VERS. 2.00: Ver 2.00
~W
STRT.M 135.0000:
STOP.M 270.0000:
STEP.M 0.1250:
NULL. -999.2500:
UWI. DF3063:
~C
DEPT.M :
SP.MV :
GR.API :
CALI.CM :
RXO.OHMM :
RI. :
RML.OHMM :
DEN.GM/CC :
~A
# ...
  225.0000   -31.3840    64.7840    25.1240    89.6180    94.1050   103.0640     2.2150 
  225.1250   -31.3400    63.7930    25.1210    87.6570    97.1190   107.6480     2.2110 
  225.2500   -31.2810    64.7350    25.0720    93.8300   103.2870   115.9520     2.2160 
  225.3750   -31.1970    68.1590    25.0280   111.0560   112.3470   127.4170     2.2310 
  225.5000   -31.1370    70.7700    25.0370   138.3930   123.2320   140.8390     2.2430 
  225.6250   -31.1650    68.6450    25.1400   166.4560   134.0630   153.7510     2.2440 
  225.7500   -31.2440    64.6450    25.1690   175.8040   142.9100   163.8980     2.2360 
  225.8750   -31.3280    62.5060    25.1640   179.0070   148.7370   170.0540     2.2280 
  226.0000   -31.3910    64.5580    25.0420   180.3520   151.1470   171.7820     2.2230 
  226.1250   -31.3800    67.9790    25.0150   176.7480   150.2570   169.5550     2.2200 
  226.2500   -31.2810    68.6640    24.9750   173.1000   147.9220   165.8380     2.2170 
  226.3750   -31.1270    65.9690    24.9320   168.8110   145.3840   162.1840     2.2210 
  226.5000   -30.9580    63.6470    24.9010   162.0250   143.4210   159.3720     2.2310 
  226.6250   -30.7750    63.5120    24.8200   158.0500   142.1140   156.9940     2.2350 
  226.7500   -30.6220    62.9770    24.9190   155.8410   140.5960   153.9800     2.2220 
  226.8750   -30.5060    62.4300    24.7200   153.5700   137.7770   149.2460     2.2090 
  227.0000   -30.4420    63.2420    24.4290   156.4380   132.9290   142.2060     2.2280 
  227.1250   -30.4560    63.7980    24.3190   158.0960   125.2730   132.1450     2.2780 
  227.2500   -30.5060    62.1520    24.1740   155.2370   115.1520   119.7560     2.3290 
  227.3750   -30.5260    61.1830    24.0700   146.5530   103.3080   106.2410     2.3470 
  227.5000   -30.4660    62.5010    24.3150   120.9870    91.2940    93.2870     2.3380 
  227.6250   -30.3110    64.0230    24.5220    95.2020    80.9010    82.6880     2.3120 
  227.7500   -30.1100    63.9400    24.8730    75.8990    72.7830    74.7770     2.2810 
  227.8750   -29.8870    63.6210    24.9640    69.0340    67.2110    69.5980     2.2530 
  228.0000   -29.6550    63.7570    24.9900    63.0460    64.1450    67.0400     2.2320 
  228.1250   -29.4140    62.9360    24.9870    62.0890    63.5260    66.9780     2.2220 
  228.2500   -29.1890    61.1010    24.9680    66.8200    64.4720    68.4140     2.2250 
  228.3750   -29.0240    58.9500    24.9580    73.6470    66.4020    70.7510     2.2440 
  228.5000   -28.9290    58.1570    24.9580    75.2440    68.5340    73.1840     2.2710 
  228.6250   -28.8900    61.0960    24.9680    74.1160    70.1420    75.0750     2.2990 
  228.7500   -28.8350    64.3610    24.9860    73.7720    71.0990    76.3340     2.3190 
  228.8750   -28.7130    64.3460    24.9610    73.8800    71.4300    76.9710     2.3150 
  229.0000   -28.5080    61.9380    24.9710    72.9010    71.2780    77.1230     2.2880 
  229.1250   -28.2450    61.0060    24.9670    70.9370    70.9550    77.2510     2.2550 
  229.2500   -27.9080    61.2120    24.9460    72.5340    70.8930    77.7050     2.2390 
  229.3750   -27.5060    59.7300    24.8780    89.2190    71.0400    78.2870     2.2480 
  229.5000   -27.0930    55.9170    24.8000   119.7100    71.3220    78.8390     2.2560 
  229.6250   -26.7210    52.8520    24.8020   113.8420    71.5260    79.1880     2.2460 
  229.7500   -26.4130    52.1210    24.9560    87.4160    71.5270    79.1950     2.2260 
  229.8750   -26.1900    53.6140    24.9680    73.0870    71.2340    78.8910     2.2160 
  230.0000   -26.0380    54.9610    24.9510    70.6460    70.7560    78.4290     2.2230 
  230.1250   -25.9310    54.6860    24.8300    67.9120    70.3390    78.0820     2.2390 
  230.2500   -25.8700    55.0290    24.7330    75.0370    70.1180    78.0380     2.2510 
  230.3750   -25.8350    55.8010    24.6260    83.3680    70.1110    78.2130     2.2560 
  230.5000   -25.7510    56.2280    24.6560    84.3950    69.9550    78.2110     2.2570 
  230.6250   -25.5670    57.1840    24.7210    76.8950    69.2450    77.5390     2.2580 
  230.7500   -25.2780    59.0410    24.7670    82.7630    67.9290    76.1530     2.2580 
  230.8750   -24.9140    61.9900    24.6950    88.8960    66.0340    74.1600     2.2620 
  231.0000   -24.5160    63.7380    24.7320    93.6320    63.8600    71.9380     2.2640 
  231.1250   -24.1040    61.9560    24.8270    87.3700    62.0430    70.3210     2.2600 
  231.2500   -23.7110    59.3970    24.9340    76.3790    61.1920    69.9520     2.2520 
  231.3750   -23.3330    60.0080    24.9450    68.3470    61.6840    71.2630     2.2500 
  231.5000   -22.9850    63.5780    24.8140    71.3850    64.0890    74.6390     2.2500 
  231.6250   -22.7060    65.2570    24.8050    77.7050    68.8670    80.3310     2.2430 
  231.7500   -22.4910    64.7810    24.8610    84.3110    74.9790    87.2960     2.2330 
  231.8750   -22.2910    63.2570    24.9320    89.8880    81.8940    94.8460     2.2480 
  232.0000   -22.0760    61.4770    24.9390    92.7650    89.3510   102.6350     2.2950 
  232.1250   -21.8150    61.4320    24.9190    99.6400    97.0880   110.1070     2.3500 
  232.2500   -21.4660    62.5970    24.7800   134.8550   104.7730   116.8380     2.3810 
  232.3750   -21.0080    63.5200    24.4610   175.3800   111.8650   121.9670     2.3930 
  232.5000   -20.4560    62.5740    24.1460   164.5990   115.1560   121.8800     2.4300 
  232.6250   -19.8080    59.4300    24.0850   105.3910   108.2660   111.2620     2.5080 
  232.7500   -19.1110    54.9030    24.0540   134.5600    91.6310    92.5490     2.6070 
  232.8750   -18.4370    52.5030    24.0640   263.5490    69.7920    70.2750     2.6890 
  233.0000   -17.7850    54.0610    24.0830   349.1320    48.3970    49.0380     2.7270 
  233.1250   -17.1500    57.1920    24.0760   241.1450    32.2130    32.7980     2.7110 
  233.2500   -16.5740    58.2890    24.0310    86.4430    21.1090    21.5750     2.6500 
  233.3750   -16.0610    57.9110    23.9190    19.6450    13.9220    14.3650     2.5730 
  233.5000   -15.6340    56.4130    24.2240     7.7360     9.7140    10.2300     2.5080 
  233.6250   -15.2760    55.8040    24.0440     7.1100     7.6750     8.3050     2.4620 
  233.7500   -14.9570    58.5570    23.9940     6.4300     6.5950     7.4390     2.4240 
  233.8750   -14.6450    64.4050    23.8900     6.1950     6.1570     7.2250     2.3810 
  234.0000   -14.3470    71.2920    23.7440     6.0040     6.1560     7.4100     2.3470 
  234.1250   -14.0910    81.3890    23.7000     5.7450     6.4820     7.8510     2.3430 
  234.2500   -13.8590    92.9770    23.6830     5.7660     6.9430     8.3570     2.3730 
  234.3750   -13.6620    99.7570    23.7700     6.4440     7.4840     8.8940     2.4170 
  234.5000   -13.4750   100.8400    23.9140     7.4370     8.0520     9.4180     2.4450 
  234.6250   -13.3190   103.2010    23.9740     7.9790     8.5370     9.8280     2.4470 
  234.7500   -13.2070   107.6000    23.9380     8.1410     8.8910    10.1010     2.4320 
  234.8750   -13.1440   107.5770    23.7550     7.9350     9.0910    10.2290     2.4260 
  235.0000   -13.1120   103.7000    23.5530     7.7570     9.1430    10.2420     2.4360 
  235.1250   -13.1030   101.4950    23.5520     7.9550     9.0890    10.2150     2.4440 
  235.2500   -13.1150   100.2770    23.6910     7.9000     9.0040    10.2390     2.4360 
  235.3750   -13.1490   100.7200    23.7560     7.7910     8.9310    10.3320     2.4210 
  235.5000   -13.2000   102.1900    23.8180     8.3550     8.8820    10.4580     2.4230 
  235.6250   -13.2390   103.3470    24.0640     9.4950     8.8440    10.5950     2.4410 
  235.7500   -13.2250   101.9590    24.4350    10.0930     8.7890    10.6940     2.4640 
  235.8750   -13.1460   101.7350    24.5990    10.0480     8.7020    10.7420     2.4770 
  236.0000   -13.0110   105.2160    24.5330     9.7640     8.5800    10.7320     2.4780 
  236.1250   -12.8450   107.9430    24.5270     9.6030     8.4180    10.6460     2.4720 
