~V
VERS. 2.00: Ver 2.00
~W
STRT.M 105.0000:
STOP.M 279.0000:
STEP.M 0.1250:
NULL. -999.2500:
UWI. DF3027:
~C
DEPT.M :
DEN.GM/CC :
AC.US/MT :
GR.API :
CALI.CM :
RXO.OHMM :
RI. :
RML.OHMM :
SP.MV :
~A
# ...
  115.0000     2.2870   415.3480    96.6700    30.7070     5.6450     5.3800     6.7890   -14.2670 
  115.1250     2.3010   419.0420    94.0460    30.7070     5.7530     5.2400     6.6390   -13.8250 
  115.2500     2.3200   418.3650    92.1630    30.7060     5.6330     5.2000     6.6140   -13.5130 
  115.3750     2.3240   413.9440    91.8890    30.7060     5.4040     5.2370     6.6880   -13.2800 
  115.5000     2.3130   407.4320    93.4420    30.7060     5.3250     5.3230     6.8190   -13.0950 
  115.6250     2.3070   402.3620    94.8310    30.7060     5.5350     5.4080     6.9350   -12.9170 
  115.7500     2.3110   401.6230    95.6790    30.7050     5.8270     5.4320     6.9370   -12.7110 
  115.8750     2.3070   405.7360    96.8160    30.7020     5.9090     5.3460     6.7540   -12.4860 
  116.0000     2.2830   412.7010    98.3690    30.7110     5.5900     5.1390     6.3880   -12.2680 
  116.1250     2.2480   418.4940   101.4350    30.7880     4.9970     4.8580     5.9510   -12.0660 
  116.2500     2.2300   420.2930   106.5370    30.9940     4.5290     4.6080     5.6230   -11.9040 
  116.3750     2.2390   417.5240   110.6800    31.1960     4.3750     4.4550     5.5010   -11.8300 
  116.5000     2.2750   411.3190   109.9010    31.1320     4.5750     4.4300     5.6110   -11.8580 
  116.6250     2.3210   403.7540   104.0400    30.6800     5.0510     4.5350     5.9050   -12.0630 
  116.7500     2.3450   397.1110    97.8810    30.1360     5.5040     4.6900     6.2160   -12.4990 
  116.8750     2.3370   392.3290    93.9530    29.6930     5.7940     4.8400     6.4500   -13.2140 
  117.0000     2.3180   389.2410    91.4120    29.3440     5.9590     4.9710     6.6110   -14.2260 
  117.1250     2.3180   387.0290    87.9470    29.0640     6.1560     5.1280     6.8180   -15.5630 
  117.2500     2.3300   385.1770    82.2390    28.8560     6.6910     5.3710     7.1980   -17.1250 
  117.3750     2.3300   384.3400    76.0650    28.6470     7.9530     5.7370     7.8020   -18.8110 
  117.5000     2.3010   385.4750    71.5750    28.3550     9.8880     6.2210     8.5800   -20.5360 
  117.6250     2.2510   389.0660    70.2950    28.0050    11.5330     6.7530     9.3500   -22.1860 
  117.7500     2.2130   393.4530    71.9330    27.7450    12.1610     7.2110     9.9160   -23.6660 
  117.8750     2.2040   397.0140    71.5920    27.6130    12.0810     7.5220    10.1920   -24.8900 
  118.0000     2.2170   398.8230    69.3220    27.5230    11.9270     7.6700    10.2080   -25.7770 
  118.1250     2.2310   398.7460    67.6020    27.3920    12.0120     7.6900    10.0840   -26.2210 
  118.2500     2.2350   397.3000    66.9000    27.2490    12.1840     7.6920    10.0090   -26.2500 
  118.3750     2.2380   394.1160    65.5740    27.1390    12.2530     7.7530    10.1060   -25.8740 
  118.5000     2.2490   388.9500    65.1000    27.0700    12.0880     7.9180    10.4310   -25.1220 
  118.6250     2.2720   382.9470    65.4740    27.0330    11.8290     8.1810    10.9470   -24.0010 
  118.7500     2.2980   379.1070    65.1850    27.0120    11.8530     8.4030    11.3830   -22.6100 
  118.8750     2.3230   380.1000    64.6260    27.0040    12.2450     8.3940    11.4120   -20.9930 
  119.0000     2.3430   387.3150    66.0660    26.9950    12.1910     7.9780    10.7540   -19.2590 
  119.1250     2.3560   400.2440    70.9790    27.0300    10.3360     7.0820     9.3150   -17.5850 
  119.2500     2.3670   413.5770    80.8940    27.3000     7.5040     6.0100     7.6200   -16.1460 
  119.3750     2.3730   421.9470    91.6960    27.7980     5.2220     5.0320     6.1400   -15.0640 
  119.5000     2.3780   421.4070    96.8860    28.2290     4.1770     4.3330     5.1890   -14.4460 
  119.6250     2.3840   410.9190    93.9510    28.3010     4.0750     4.0630     5.0000   -14.4140 
  119.7500     2.3840   397.0620    87.8060    28.1520     4.4280     4.1830     5.4570   -14.8690 
  119.8750     2.3650   385.4550    83.8400    27.8940     5.4510     4.6820     6.4790   -15.7520 
  120.0000     2.3270   379.3940    79.5480    27.5450     7.3360     5.5090     7.8940   -16.9350 
  120.1250     2.2910   378.9660    73.1160    27.2180     9.5870     6.5380     9.3590   -18.2230 
  120.2500     2.2740   380.2330    68.3150    27.0580    11.1430     7.4850    10.4560   -19.4220 
  120.3750     2.2690   381.3840    67.2680    27.0390    11.6020     8.1320    10.9660   -20.4340 
  120.5000     2.2630   382.5300    67.6190    27.0840    11.4030     8.3920    10.9200   -21.1580 
  120.6250     2.2560   384.5590    66.7030    27.1350    11.2940     8.3080    10.5350   -21.5140 
  120.7500     2.2560   386.9500    66.7140    27.1780    11.3470     8.0900    10.1210   -21.5740 
  120.8750     2.2650   388.7050    68.2980    27.2630    11.1880     7.8440     9.7860   -21.3920 
  121.0000     2.2730   389.4510    69.0350    27.4230    10.6430     7.6170     9.5490   -21.0410 
  121.1250     2.2690   389.8360    69.2960    27.6060    10.0470     7.4460     9.4180   -20.6080 
  121.2500     2.2540   390.8060    71.4090    27.7350     9.7860     7.3390     9.3830   -20.1450 
  121.3750     2.2350   392.4930    74.0200    27.8100     9.8520     7.3030     9.4410   -19.6430 
  121.5000     2.2170   394.3440    74.6830    27.8610    10.0580     7.3210     9.5640   -19.1160 
  121.6250     2.2110   395.2690    72.6430    27.9140    10.2280     7.3480     9.6680   -18.5750 
  121.7500     2.2150   394.5240    70.7970    27.9970    10.2880     7.3250     9.6540   -18.0180 
  121.8750     2.2280   391.3130    69.2560    28.1260    10.2120     7.2160     9.4740   -17.4450 
  122.0000     2.2430   384.8490    67.8640    28.2710     9.9860     7.0220     9.1420   -16.8870 
  122.1250     2.2540   374.4960    69.6150    28.3610     9.5830     6.7820     8.7480   -16.3810 
  122.2500     2.2650   362.0920    75.6550    28.3900     9.0880     6.5740     8.4390   -15.9590 
  122.3750     2.2870   349.1650    80.0080    28.3910     8.6710     6.4630     8.3200   -15.6800 
  122.5000     2.3330   336.4600    78.1020    28.3900     8.4750     6.4890     8.4410   -15.5810 
  122.6250     2.3980   324.2620    72.6990    28.3900     8.5470     6.6790     8.8080   -15.6650 
  122.7500     2.4510   314.0220    71.1570    28.4030     8.8000     6.9690     9.2850   -15.8990 
  122.8750     2.4670   308.9690    71.8450    28.4290     9.2000     7.2960     9.7510   -16.2620 
  123.0000     2.4400   312.3500    70.8650    28.4560     9.6530     7.5930    10.1020   -16.6820 
  123.1250     2.3890   325.7350    68.4580    28.4650    10.1280     7.8130    10.3010   -17.0780 
  123.2500     2.3420   342.8960    68.0420    28.4590    10.7200     8.0030    10.4700   -17.3870 
  123.3750     2.3150   357.3770    68.7560    28.4320    11.4490     8.2190    10.7160   -17.5360 
  123.5000     2.3160   364.1090    68.3690    28.3840    12.2720     8.5100    11.1070   -17.4730 
  123.6250     2.3500   360.1820    66.9310    28.3510    13.2160     8.8960    11.6450   -17.1680 
  123.7500     2.3970   349.5200    65.0610    28.3620    14.0270     9.3160    12.2080   -16.6930 
  123.8750     2.4370   335.5230    63.7140    28.4190    14.2990     9.7000    12.6910   -16.1000 
  124.0000     2.4630   321.3270    63.3760    28.5010    14.0660    10.0000    13.0450   -15.4640 
  124.1250     2.4820   310.1160    62.6680    28.5790    13.8020    10.2130    13.2940   -14.8600 
  124.2500     2.5040   303.3760    59.8620    28.6360    13.5200    10.3910    13.5200   -14.3560 
  124.3750     2.5160   301.9250    57.1710    28.6660    12.9940    10.5620    13.7540   -13.9960 
  124.5000     2.5030   305.7460    56.6260    28.6810    12.3990    10.7230    13.9690   -13.7910 
  124.6250     2.4630   314.7080    58.1180    28.6860    12.3170    10.7820    14.0010   -13.7500 
  124.7500     2.4180   326.6740    60.7640    28.6890    12.9480    10.6420    13.7160   -13.7980 
  124.8750     2.3800   339.8660    63.9730    28.6930    13.8900    10.2640    13.0800   -13.8630 
