~V
VERS. 2.00: Ver 2.00
~W
STRT.M 65.0000:
STOP.M 270.0000:
STEP.M 0.1250:
NULL. -999.2500:
UWI. DF3062:
~C
DEPT.M :
SP.MV :
GR.API :
CALI.CM :
RXO.OHMM :
RI. :
RML.OHMM :
DEN.GM/CC :
~A
# ...
   76.2500   -39.9120    62.9370    23.2500    11.0970     8.8100    10.7200  -999.2500 
   76.3750   -39.5840    64.6440    23.3690    10.8040     8.8090    10.8940  -999.2500 
   76.5000   -39.2720    69.2890    23.5020    10.7070     8.8310    11.0220  -999.2500 
   76.6250   -39.0200    71.5170    23.4030    11.3010     8.8900    11.1180  -999.2500 
   76.7500   -38.7530    71.0600    23.2340    12.9760     8.9800    11.1920  -999.2500 
   76.8750   -38.4540    68.9330    22.8740    14.2600     9.0880    11.2580  -999.2500 
   77.0000   -38.1980    67.2700    22.5360    13.9250     9.1980    11.2910  -999.2500 
   77.1250   -38.0090    67.9510    22.5490    11.9510     9.2510    11.1990  -999.2500 
   77.2500   -37.7770    70.3280    22.6410    11.5210     9.2010    11.0190  -999.2500 
   77.3750   -37.4810    70.7950    22.7550    11.3090     9.0230    10.7490  -999.2500 
   77.5000   -37.1370    68.5320    22.8160    11.0580     8.7450    10.3610  -999.2500 
   77.6250   -36.8200    69.9590    22.8130    10.6690     8.4010     9.9080  -999.2500 
   77.7500   -36.5180    75.3430    22.8710     9.6310     8.0570     9.4680  -999.2500 
   77.8750   -36.2390    81.1300    23.0270     8.5100     7.7570     9.0930  -999.2500 
   78.0000   -35.9900    83.9430    23.1860     8.1460     7.5180     8.7910  -999.2500 
   78.1250   -35.7860    83.1850    23.1270     8.5610     7.3490     8.6090  -999.2500 
   78.2500   -35.6330    80.6640    23.1380     8.9840     7.2460     8.5330  -999.2500 
   78.3750   -35.5400    78.2910    23.1850     9.0680     7.2010     8.5070  -999.2500 
   78.5000   -35.5080    78.1350    23.1220     8.8260     7.1680     8.4900  -999.2500 
   78.6250   -35.5460    81.4820    23.2150     8.5800     7.1160     8.4430  -999.2500 
   78.7500   -35.6090    84.8130    23.0980     8.2780     7.0570     8.4000  -999.2500 
   78.8750   -35.6620    85.6800    22.8930     8.5240     7.0090     8.3910  -999.2500 
   79.0000   -35.7280    84.0870    22.7110     9.1750     6.9950     8.4450  -999.2500 
   79.1250   -35.8280    83.9110    22.7440     8.4640     7.0630     8.6250  -999.2500 
   79.2500   -35.9930    86.5880    23.0290     7.1150     7.2230     8.9280  -999.2500 
   79.3750   -36.2310    87.3660    23.5770     6.3460     7.4770     9.3480  -999.2500 
   79.5000   -36.5080    81.8170    23.6320     6.5420     7.8180     9.8520  -999.2500 
   79.6250   -36.7540    72.6330    23.4340     7.2120     8.2260    10.3610  -999.2500 
   79.7500   -36.9750    67.6840    23.2510     8.7730     8.6290    10.7900  -999.2500 
   79.8750   -37.1830    68.0270    23.1760    10.1780     8.9820    11.1060  -999.2500 
   80.0000   -37.3440    69.0410    23.2690    10.9780     9.2560    11.3140  -999.2500 
   80.1250   -37.4310    66.9460    23.1700    11.0740     9.4310    11.4300  -999.2500 
   80.2500   -37.4360    64.1450    23.2070    10.8100     9.5400    11.5220  -999.2500 
   80.3750   -37.3260    64.5020    23.2350    10.9220     9.6460    11.6420  -999.2500 
   80.5000   -37.0760    67.5480    23.1470    11.2870     9.7430    11.7660  -999.2500 
   80.6250   -36.6930    67.5350    23.3210    11.2530     9.7400    11.7610  -999.2500 
   80.7500   -36.2100    63.7900    23.3770    11.1740     9.5560    11.5350  -999.2500 
   80.8750   -35.6300    60.3170    23.3930    11.0080     9.1670    11.0390  -999.2500 
   81.0000   -34.9840    61.3900    23.4970    10.9220     8.5740    10.2790  -999.2500 
   81.1250   -34.3110    69.0240    23.5230    10.4440     7.8520     9.3730  -999.2500 
   81.2500   -33.6450    80.4840    23.7410     9.2240     7.1740     8.5770  -999.2500 
   81.3750   -33.0330    90.6910    24.0810     7.3490     6.6250     7.9990  -999.2500 
   81.5000   -32.5130    95.7090    24.3110     6.3540     6.2630     7.6850  -999.2500 
   81.6250   -32.1120    97.3210    24.3530     6.9660     6.1450     7.6940  -999.2500 
   81.7500   -31.8330    96.2960    24.3570     7.2080     6.1950     7.9130  -999.2500 
   81.8750   -31.7050    93.2710    24.2020     7.5170     6.3430     8.2280  -999.2500 
   82.0000   -31.7260    92.2660    24.0580     8.1280     6.5340     8.5620  -999.2500 
   82.1250   -31.8800   100.7240    24.0910     7.7240     6.7100     8.8020  -999.2500 
   82.2500   -32.1320   110.5540    24.0670     6.6640     6.8210     8.8930  -999.2500 
   82.3750   -32.4570   111.0050    24.0610     6.4340     6.8790     8.8860  -999.2500 
   82.5000   -32.8360   101.4550    24.0110     7.0760     6.9250     8.8610  -999.2500 
   82.6250   -33.2680    90.6830    23.7400     7.8310     6.9930     8.8710  -999.2500 
   82.7500   -33.7180    85.3590    23.2440     8.3340     7.1100     8.9630  -999.2500 
   82.8750   -34.1490    86.8060    22.9110     8.9380     7.3090     9.2130  -999.2500 
   83.0000   -34.5320    91.4860    22.9300     9.5580     7.6160     9.6460  -999.2500 
   83.1250   -34.8450    92.8770    22.8340     9.8470     8.0970    10.3730  -999.2500 
   83.2500   -35.0630    89.7290    22.8730    10.4680     8.7810    11.3930  -999.2500 
   83.3750   -35.1890    86.0500    22.9680    11.4220     9.6860    12.6590  -999.2500 
   83.5000   -35.2580    83.0270    23.1170    12.6310    10.7580    14.0110  -999.2500 
   83.6250   -35.3460    78.2070    23.5170    14.7690    11.8360    15.1590  -999.2500 
   83.7500   -35.5110    74.0940    23.8010    18.3800    12.6660    15.8520  -999.2500 
   83.8750   -35.7540    73.4460    23.9370    22.7830    13.0230    15.9190  -999.2500 
   84.0000   -36.0810    73.6770    23.8000    24.5180    12.7990    15.3320  -999.2500 
   84.1250   -36.5040    72.2370    23.6180    21.7830    12.0310    14.1820  -999.2500 
   84.2500   -36.9750    70.5160    23.2930    17.3510    11.0770    12.9100  -999.2500 
   84.3750   -37.4510    70.7230    22.9200    13.4810    10.1390    11.7650  -999.2500 
   84.5000   -37.9050    73.0490    22.9780    11.2240     9.3580    10.9150  -999.2500 
   84.6250   -38.2730    76.2450    22.8540    10.8400     8.8500    10.4870  -999.2500 
   84.7500   -38.5180    76.5720    22.8990    10.4380     8.5750    10.3660  -999.2500 
   84.8750   -38.6860    74.3280    22.9450    10.6710     8.4870    10.4680  -999.2500 
   85.0000   -38.8080    73.3670    22.8370    11.2200     8.5300    10.6740  -999.2500 
   85.1250   -38.8940    76.1920    23.0260    11.7070     8.6440    10.8490  -999.2500 
   85.2500   -38.9940    79.1720    23.0560    11.4080     8.7510    10.9310  -999.2500 
   85.3750   -39.1040    79.3000    23.1030    10.9390     8.8240    10.9140  -999.2500 
   85.5000   -39.1860    77.1190    23.0940    10.6080     8.8570    10.8200  -999.2500 
   85.6250   -39.2630    75.5290    23.1800    10.8000     8.8470    10.6780  -999.2500 
   85.7500   -39.3300    76.2110    23.1680    10.8160     8.8070    10.5260  -999.2500 
   85.8750   -39.3740    78.6260    23.1200    10.7180     8.7650    10.4190  -999.2500 
   86.0000   -39.3880    79.4810    23.0680    10.4660     8.7440    10.3930  -999.2500 
   86.1250   -39.3770    77.6040    22.8950    10.2870     8.7690    10.4760  -999.2500 
   86.2500   -39.3420    75.6960    22.9250    10.5290     8.8390    10.5940  -999.2500 
   86.3750   -39.3020    72.9640    22.9890    11.3920     8.9450    10.7300  -999.2500 
   86.5000   -39.3140    68.4530    22.9960    12.0680     9.0730    10.8770  -999.2500 
   86.6250   -39.3110    65.1500    22.8390    11.9620     9.1780    10.9590  -999.2500 
   86.7500   -39.3140    65.0820    22.8340    11.7640     9.2430    10.9870  -999.2500 
   86.8750   -39.3540    66.0110    22.8220    11.4630     9.2700    10.9720  -999.2500 
   87.0000   -39.4060    65.9920    22.8040    11.1510     9.2610    10.9210  -999.2500 
   87.1250   -39.4550    67.6400    22.9790    11.3880     9.2150    10.8470  -999.2500 
   87.2500   -39.4760    68.5760    23.1460    11.8190     9.1280    10.7500  -999.2500 
   87.3750   -39.4700    65.9420    23.1620    12.0530     9.0180    10.6420  -999.2500 
