~V
VERS. 2.00: Ver 2.00
~W
STRT.M 60.0000:
STOP.M 270.0000:
STEP.M 0.1250:
NULL. -999.2500:
UWI. DF3075:
~C
DEPT.M :
GR.API :
RML.OHMM :
RI. :
RXO.OHMM :
CALI.CM :
DEN.GM/CC :
SP.MV :
~A
# ...
  251.2500    68.8660     8.9220     7.7220     7.9690    23.5860     2.3730   -12.7730 
  251.3750    70.2030     8.8870     7.6870     8.2380    23.5850     2.3640   -12.7670 
  251.5000    70.1780     8.8580     7.6580     8.3420    23.5840     2.3580   -12.7790 
  251.6250    69.0650     8.8310     7.6310     8.2230    23.5810     2.3630   -12.7870 
  251.7500    67.9820     8.8030     7.6030     8.0780    23.5790     2.3800   -12.7950 
  251.8750    68.3640     8.7720     7.5720     7.8660    23.5770     2.4000   -12.8120 
  252.0000    69.7490     8.7430     7.5430     7.4910    23.5760     2.4170   -12.8770 
  252.1250    71.5700     8.7280     7.5280     7.2480    23.5760     2.4260   -12.9810 
  252.2500    72.6990     8.7290     7.5290     7.2950    23.5760     2.4230   -13.1180 
  252.3750    72.4370     8.7470     7.5470     7.4600    23.5720     2.4120   -13.2880 
  252.5000    71.3350     8.7750     7.5750     7.5460    23.5630     2.3990   -13.4750 
  252.6250    70.9490     8.8030     7.6030     7.7600    23.5460     2.3890   -13.6840 
  252.7500    72.7660     8.8210     7.6210     7.9000    23.5240     2.3870   -13.8990 
  252.8750    78.0040     8.8230     7.6230     8.0080    23.5050     2.3950   -14.0780 
  253.0000    83.3080     8.8020     7.6020     8.1020    23.5010     2.4100   -14.2200 
  253.1250    82.8890     8.7580     7.5580     7.9800    23.5120     2.4260   -14.3130 
  253.2500    78.1830     8.6970     7.4970     7.7700    23.5220     2.4330   -14.3330 
  253.3750    72.7590     8.6210     7.4210     7.6410    23.5340     2.4300   -14.3110 
  253.5000    70.4630     8.5370     7.3370     7.6730    23.5470     2.4190   -14.2630 
  253.6250    71.6600     8.4520     7.2520     7.7290    23.5560     2.4060   -14.1730 
  253.7500    72.3750     8.3760     7.1760     7.6860    23.5620     2.3980   -14.0580 
  253.8750    71.9930     8.3070     7.1070     7.6810    23.5660     2.3930   -13.9480 
  254.0000    72.0480     8.2400     7.0400     7.7730    23.5650     2.3880   -13.8480 
  254.1250    75.0270     8.1800     6.9800     7.9720    23.5610     2.3800   -13.7640 
  254.2500    77.1410     8.1270     6.9270     8.1570    23.5630     2.3670   -13.7220 
  254.3750    75.9300     8.0820     6.8820     7.9870    23.5600     2.3540   -13.7180 
  254.5000    73.1200     8.0450     6.8450     7.7030    23.5510     2.3450   -13.7680 
  254.6250    69.9860     8.0160     6.8160     7.4970    23.5520     2.3440   -13.8480 
  254.7500    68.4710     7.9970     6.7970     7.2870    23.5500     2.3520   -13.8930 
  254.8750    69.8570     7.9850     6.7850     7.0880    23.5460     2.3640   -13.9070 
  255.0000    72.6270     7.9710     6.7710     6.9710    23.5540     2.3740   -13.9030 
  255.1250    72.4910     7.9420     6.7420     6.7240    23.5630     2.3800   -13.9220 
  255.2500    70.8970     7.8880     6.6880     6.4580    23.5650     2.3830   -13.9540 
  255.3750    70.7700     7.8110     6.6110     6.3790    23.5590     2.3850   -13.9590 
  255.5000    70.9880     7.7100     6.5100     6.5710    23.5600     2.3890   -13.9270 
  255.6250    67.9540     7.5800     6.3800     6.8080    23.5810     2.3940   -13.8950 
  255.7500    65.0100     7.4330     6.2330     6.8520    23.6100     2.3960   -13.9030 
  255.8750    64.4880     7.2820     6.0820     6.3430    23.6410     2.3900   -13.9470 
  256.0000    64.7820     7.1350     5.9350     5.9090    23.6750     2.3770   -14.0120 
  256.1250    63.8500     7.0170     5.8170     5.7480    23.6910     2.3560   -14.0690 
  256.2500    62.9880     6.9270     5.7270     5.6220    23.6760     2.3370   -14.1040 
  256.3750    63.5730     6.8720     5.6720     5.4070    23.6290     2.3250   -14.1390 
  256.5000    65.4440     6.8550     5.6550     5.2990    23.5610     2.3240   -14.1830 
  256.6250    66.0260     6.8760     5.6760     5.1260    23.5270     2.3350   -14.2410 
  256.7500    64.8160     6.9290     5.7290     4.9350    23.5750     2.3540   -14.3240 
  256.8750    63.1990     6.9950     5.7950     4.9110    23.6800     2.3720   -14.4200 
  257.0000    63.1580     7.0560     5.8560     5.1060    23.6720     2.3840   -14.5190 
  257.1250    64.5250     7.0790     5.8790     5.3670    23.4900     2.3860   -14.6470 
  257.2500    65.9240     7.0600     5.8600     5.6230    23.2620     2.3780   -14.8580 
  257.3750    66.3870     7.0100     5.8100     5.6970    23.1270     2.3630   -15.1280 
  257.5000    65.2160     6.9430     5.7430     5.4740    23.1420     2.3460   -15.4100 
  257.6250    64.0020     6.8740     5.6740     5.1780    23.2580     2.3300   -15.6830 
  257.7500    63.5620     6.8130     5.6130     4.9880    23.3620     2.3220   -15.9470 
  257.8750    62.9460     6.7710     5.5710     4.8740    23.4160     2.3250   -16.2070 
  258.0000    62.5910     6.7590     5.5590     4.7870    23.4010     2.3370   -16.4600 
  258.1250    63.5630     6.7710     5.5710     4.7060    23.3630     2.3530   -16.6890 
  258.2500    64.6940     6.7800     5.5800     4.6720    23.4230     2.3660   -16.8660 
  258.3750    64.6080     6.7700     5.5700     4.6550    23.4800     2.3690   -16.9970 
  258.5000    64.5170     6.7380     5.5380     4.6620    23.4950     2.3620   -17.1010 
  258.6250    64.5170     6.7010     5.5010     4.7030    23.4760     2.3500   -17.1540 
  258.7500    64.5170     6.6700     5.4700     4.7450    23.4870     2.3410   -17.1650 
  258.8750    64.5170     6.6480     5.4480     4.7860    23.5270     2.3380   -17.1530 
  259.0000    64.5170     6.6260     5.4260     4.8740    23.5460     2.3420   -17.1500 
  259.1250    64.5170     6.6050     5.4050     5.0390    23.5450     2.3490   -17.1860 
  259.2500    64.5170     6.5980     5.3980     5.2380    23.5590     2.3550   -17.2590 
  259.3750    64.5170     6.6060     5.4060     5.3390    23.5760     2.3580   -17.3510 
  259.5000    64.5170     6.6360     5.4360     5.4110    23.5840     2.3540   -17.4730 
  259.6250    64.5170     6.6890     5.4890     5.3550    23.5740     2.3430   -17.7290 
  259.7500    64.5170     6.7580     5.5580     5.2750    23.5380     2.3280   -18.0930 
  259.8750    64.5170     6.8380     5.6380     5.2000    23.4540     2.3120   -18.5200 
  260.0000    64.5170     6.9250     5.7250     5.1950    23.3130     2.2970   -18.9810 
  260.1250    64.5170     7.0100     5.8100     5.3470    23.1470     2.2820   -19.4290 
  260.2500    64.5170     7.0800     5.8800     5.5130    23.0210     2.2650   -19.8290 
  260.3750    64.5170     7.1400     5.9400     5.6600    22.9430     2.2520   -20.2060 
  260.5000    64.5170     7.1910     5.9910     5.6730    22.9050     2.2480   -20.5370 
  260.6250    64.5170     7.2330     6.0330     5.6130    22.8390     2.2540   -20.6940 
  260.7500    64.5170     7.2740     6.0740     5.6000    22.7090     2.2680   -20.6410 
  260.8750    64.5170     7.3110     6.1110     5.7420    22.5270     2.2800   -20.3450 
  261.0000    64.5170     7.3430     6.1430     5.9320    22.3090     2.2870   -19.8350 
  261.1250    64.5170     7.3540     6.1540     5.9570    22.0620     2.2900   -19.2140 
  261.2500    64.5170     7.3550     6.1550     5.9400    21.7040     2.2910   -18.5840 
  261.3750    64.5170     7.3610     6.1610     6.0170    21.2230     2.2920   -17.9670 
  261.5000    64.5170     7.3830     6.1830     6.2260    20.6750     2.2940   -17.3750 
  261.6250    64.5170     7.4490     6.2490     6.5340    20.1190     2.2960   -16.8690 
  261.7500    64.5170     7.5560     6.3560     6.9730    19.6500     2.2960   -16.5390 
  261.8750    64.5170     7.6930     6.4930     7.2390    19.2950     2.2930   -16.4070 
  262.0000    64.5170     7.8470     6.6470     7.2650    19.0810     2.2880   -16.4350 
  262.1250    64.5170     7.9970     6.7970     7.2700    19.0220     2.2820   -16.5530 
  262.2500    64.5170     8.1280     6.9280     7.3980    19.0580     2.2810   -16.6700 
  262.3750    64.5170     8.2230     7.0230     7.6230    19.1550     2.2850   -16.7470 
