~V
VERS. 2.00: Ver 2.00
~W
STRT.M 56.0000:
STOP.M 270.0000:
STEP.M 0.1250:
NULL. -999.2500:
UWI. DF3053:
~C
DEPT.M :
GR.API :
CALI.CM :
RXO.OHMM :
RI. :
RML.OHMM :
DEN.GM/CC :
SP.MV :
~A
# ...
  235.8750    99.6060    24.6110    10.9660     8.5200     9.5620     2.3090   -25.4920 
  236.0000    98.3810    24.5530    12.9870     9.1080    10.5270     2.3070   -25.7320 
  236.1250    93.1140    24.3010    15.8770    10.4310    12.5990     2.3250   -25.9980 
  236.2500    89.4110    24.1220    19.7920    12.6340    15.9040     2.3400   -26.2800 
  236.3750    86.0150    24.1090    28.6630    15.8760    20.5390     2.3380   -26.5520 
  236.5000    79.4870    24.1400    49.2800    20.0850    26.2880     2.3170   -26.8060 
  236.6250    70.9220    24.1520    63.4620    24.7200    32.3220     2.2860   -27.0300 
  236.7500    66.0260    24.1790    54.9160    28.8450    37.4700     2.2600   -27.2360 
  236.8750    64.8260    24.2320    42.6350    32.0800    41.3450     2.2450   -27.4310 
  237.0000    63.8510    24.2900    45.5140    34.6840    44.4780     2.2430   -27.6390 
  237.1250    63.3040    24.2960    48.1800    37.4820    48.1820     2.2470   -27.9060 
  237.2500    63.6960    24.2450    43.1920    41.3260    53.6620     2.2500   -28.2380 
  237.3750    63.9060    24.1440    41.1140    46.7530    61.7690     2.2460   -28.6180 
  237.5000    61.5880    24.0070    54.9420    53.8320    72.6920     2.2340   -29.0030 
  237.6250    57.1190    23.8900    78.3830    62.0010    85.5800     2.2180   -29.3350 
  237.7500    54.0240    23.8560    88.7380    69.7390    97.6480     2.2050   -29.5910 
  237.8750    53.5990    23.9200    81.7330    75.7820   106.2710     2.2000   -29.7600 
  238.0000    52.8680    24.0420    72.6360    79.5530   110.2960     2.2020   -29.8450 
  238.1250    48.4450    24.2030    85.0610    81.6490   111.3610     2.2050   -29.8770 
  238.2500    46.0210    24.3670   100.9990    83.8170   112.7840     2.2070   -29.9220 
  238.3750    48.2930    24.4570   105.9970    86.4870   114.7430     2.2090   -30.0120 
  238.5000    51.9120    24.4130   100.8980    88.5380   114.7870     2.2110   -30.1400 
  238.6250    54.1350    24.2830   106.4340    87.1550   108.8480     2.2110   -30.2870 
  238.7500    56.4390    24.1350   108.7630    81.5710    97.6220     2.2090   -30.4450 
  238.8750    59.4410    23.9050    97.0100    72.7980    84.0090     2.2080   -30.6300 
  239.0000    62.2710    23.5610    72.9870    63.0980    71.2640     2.2090   -30.8380 
  239.1250    64.0040    23.2580    53.2490    54.8260    61.6420     2.2120   -31.0190 
  239.2500    63.5340    23.2420    45.3590    48.5100    54.6230     2.2150   -31.1160 
  239.3750    61.0670    23.5100    45.5170    43.9300    49.5500     2.2180   -31.1240 
  239.5000    60.5750    23.7900    46.3430    40.7390    45.9590     2.2200   -31.0690 
  239.6250    64.9320    23.7980    42.6720    38.9350    43.8930     2.2210   -30.9890 
  239.7500    69.5020    23.6750    38.7110    38.2720    43.1680     2.2200   -30.9160 
  239.8750    70.9210    23.6000    35.7670    38.7470    43.8550     2.2180   -30.8900 
  240.0000    69.1230    23.5300    42.0660    40.3470    45.9070     2.2180   -30.9610 
  240.1250    65.4590    23.3800    52.6100    43.0500    49.1890     2.2210   -31.1640 
  240.2500    61.6450    23.3000    57.9770    46.2040    52.8710     2.2260   -31.4540 
  240.3750    59.8590    23.3680    55.8300    49.1380    56.2070     2.2300   -31.7730 
  240.5000    60.7470    23.4660    55.7990    51.2280    58.5380     2.2320   -32.0570 
  240.6250    61.0660    23.4620    60.9780    52.0080    59.3110     2.2320   -32.3100 
  240.7500    59.8470    23.4330    63.3310    51.9010    59.0170     2.2330   -32.5880 
  240.8750    58.5170    23.4170    58.8610    51.3690    58.2650     2.2340   -32.9480 
  241.0000    58.0600    23.3720    54.0300    50.8510    57.6300     2.2350   -33.3860 
  241.1250    57.9430    23.2890    55.7580    50.6240    57.4020     2.2360   -33.8360 
  241.2500    57.1780    23.2530    56.8320    50.7140    57.4230     2.2340   -34.2500 
  241.3750    57.2140    23.3470    54.9410    51.2300    57.7110     2.2310   -34.6140 
  241.5000    58.9170    23.5820    56.8530    52.4110    58.5610     2.2290   -34.9800 
  241.6250    61.2970    23.8510    57.8450    54.7880    60.7730     2.2270   -35.4000 
  241.7500    63.7370    24.0030    56.3370    58.4160    64.5840     2.2270   -35.8360 
  241.8750    65.3530    24.0070    58.2060    62.8670    69.4860     2.2280   -36.2200 
  242.0000    65.7660    23.9410    71.1500    66.5970    73.2980     2.2300   -36.4780 
  242.1250    63.1840    23.8910    82.1970    66.4120    71.5870     2.2310   -36.5640 
  242.2500    59.6660    23.8900    81.8790    61.6620    64.2050     2.2330   -36.5460 
  242.3750    57.1420    23.9430    64.5280    53.8590    54.0620     2.2340   -36.4930 
  242.5000    55.9840    23.9810    42.5300    45.6570    44.6650     2.2370   -36.4910 
  242.6250    58.8130    23.8350    29.4350    39.6090    38.5240     2.2370   -36.5970 
  242.7500    63.6450    23.5550    26.8270    36.2040    35.4810     2.2360   -36.7760 
  242.8750    67.6290    23.3580    30.6920    35.2900    35.1210     2.2330   -36.9820 
  243.0000    68.8320    23.3800    33.1090    36.4410    36.8560     2.2320   -37.1500 
  243.1250    67.9030    23.4480    34.0570    39.2880    40.1490     2.2310   -37.2260 
  243.2500    66.5920    23.3720    39.7780    42.8010    43.9010     2.2290   -37.2580 
  243.3750    64.4210    23.2370    46.3900    46.3120    47.4590     2.2250   -37.3060 
  243.5000    62.8400    23.2180    49.7000    49.5500    50.6560     2.2250   -37.4180 
  243.6250    62.2220    23.3560    49.3860    52.9230    54.1010     2.2290   -37.6160 
  243.7500    61.7650    23.4750    49.0530    57.2520    58.7240     2.2350   -37.8600 
  243.8750    61.2670    23.5330    60.6430    63.3200    65.3120     2.2340   -38.1180 
  244.0000    60.6940    23.5930    81.6830    71.5120    74.2650     2.2250   -38.3570 
  244.1250    60.2430    23.6990    93.8440    81.1190    84.8540     2.2190   -38.5950 
  244.2500    60.7180    23.7850    98.1410    89.3460    93.7190     2.2290   -38.8470 
  244.3750    62.7090    23.8150   106.7060    93.5440    97.5080     2.2470   -39.0580 
  244.5000    65.0530    23.8230   106.1370    92.4630    95.1420     2.2580   -39.1970 
  244.6250    65.1580    23.8180    95.0950    86.8100    88.5750     2.2530   -39.2800 
  244.7500    64.8190    23.7980    77.5100    80.1680    81.8770     2.2410   -39.3540 
  244.8750    66.2680    23.7860    73.5820    74.7420    76.9650     2.2340   -39.4280 
  245.0000    66.5410    23.8360    78.3010    71.6270    74.5290     2.2320   -39.4680 
  245.1250    63.5540    23.9900    84.3340    71.4640    74.9520     2.2320   -39.4210 
  245.2500    61.2650    24.1490    90.7350    73.5010    77.5030     2.2300   -39.2720 
  245.3750    61.1570    24.2160   115.0070    77.0250    81.5410     2.2270   -39.0270 
  245.5000    61.3870    24.1800   127.9120    80.7790    85.7840     2.2250   -38.7040 
  245.6250    59.6310    24.1320   133.6810    82.8370    87.8670     2.2230   -38.2720 
  245.7500    58.6340    24.1240   118.2810    82.3620    86.6820     2.2190   -37.7520 
  245.8750    58.6720    24.1250   102.3980    79.4690    82.5060     2.2140   -37.1970 
  246.0000    59.3820    24.1060    84.8110    75.2610    76.9640     2.2130   -36.6710 
  246.1250    60.2310    24.0750    75.8580    71.7860    72.8030     2.2220   -36.2100 
  246.2500    60.9590    24.0390    69.6520    70.6360    71.6540     2.2400   -35.7880 
  246.3750    62.7620    23.9830    69.8310    72.6700    74.2090     2.2530   -35.3710 
  246.5000    65.5390    23.9310    83.2470    78.2510    80.7750     2.2480   -34.9360 
  246.6250    68.4280    23.9340   101.2670    87.6840    92.0320     2.2270   -34.4760 
  246.7500    70.4020    23.9260   125.9880    99.1130   106.4270     2.2020   -34.0160 
  246.8750    70.4430    23.8570   140.3310   110.2070   121.3880     2.1800   -33.5940 
  247.0000    69.1080    23.7900   137.6420   118.0160   132.6120     2.1660   -33.2520 
