~V
VERS. 2.00: Ver 2.00
~W
STRT.M 61.0000:
STOP.M 279.0000:
STEP.M 0.1250:
NULL. -999.2500:
UWI. DF3040:
~C
DEPT.M :
GR.API :
CALI.CM :
RXO.OHMM :
RI. :
RML.OHMM :
DEN.GM/CC :
SP.MV :
~A
# ...
  196.0000    53.8600    24.2860   278.8430   444.0340   543.1360     2.2070   -29.6700 
  196.1250    54.1120    24.3140   283.4610   446.0610   544.2560     2.1910   -29.3110 
  196.2500    53.8360    24.3150   286.1960   435.7450   523.3720     2.1780   -28.9930 
  196.3750    52.6700    24.2950   275.6840   403.3440   467.4330     2.1670   -28.7260 
  196.5000    51.8490    24.2540   270.3010   351.6530   388.3540     2.1550   -28.4990 
  196.6250    52.6580    24.2320   271.8980   292.2400   308.8470     2.1540   -28.2630 
  196.7500    54.1350    24.1120   270.6150   237.2220   244.0540     2.1690   -27.9810 
  196.8750    55.6030    23.9830   228.4660   192.1180   197.4560     2.1920   -27.6440 
  197.0000    58.1660    23.9480   150.9140   161.2540   170.0690     2.2110   -27.2550 
  197.1250    60.0550    23.8450    79.6580   147.7860   161.3520     2.2290   -26.8160 
  197.2500    57.3690    23.8180    62.4270   147.5360   165.7080     2.2490   -26.3150 
  197.3750    51.7800    23.7400    88.8840   159.1450   182.7290     2.2610   -25.7740 
  197.5000    49.0860    23.7160   123.7130   179.6630   211.3550     2.2560   -25.1810 
  197.6250    51.0010    23.7120   139.7600   205.5780   251.2460     2.2410   -24.5850 
  197.7500    52.8590    23.6950   133.8090   233.7240   298.0880     2.2310   -24.0400 
  197.8750    55.4620    23.6500   117.0040   258.6250   341.4220     2.2340   -23.5960 
  198.0000    59.8000    23.5940   110.8330   271.9470   362.7810     2.2420   -23.2470 
  198.1250    61.1740    23.6370   147.0070   265.9960   346.3330     2.2440   -22.9880 
  198.2500    57.3290    23.8200   202.1000   248.8440   313.0410     2.2330   -22.8140 
  198.3750    52.9220    23.9940   235.9060   225.2370   273.0960     2.2120   -22.7040 
  198.5000    51.5590    24.1850   237.8610   199.4320   235.0570     2.1930   -22.6310 
  198.6250    54.8380    23.9020   196.8660   176.1220   205.2030     2.1890   -22.5670 
  198.7500    59.1610    23.7210   152.8320   156.4530   181.9450     2.2040   -22.4720 
  198.8750    60.7820    23.7180   116.9530   140.3680   163.5820     2.2270   -22.3090 
  199.0000    59.0630    23.8430   111.0960   126.8960   146.9900     2.2380   -22.0820 
  199.1250    57.2960    23.9590   152.6140   113.3520   129.4230     2.2300   -21.8030 
  199.2500    57.3080    23.7610   186.9840    98.3280   110.3050     2.2300   -21.4510 
  199.3750    58.2590    23.4090   167.0620    82.6940    91.2010     2.2550   -21.0390 
  199.5000    60.6980    23.0550   103.0050    68.1140    74.4170     2.3000   -20.5880 
  199.6250    65.6730    22.7260    57.0700    56.4690    61.6350     2.3400   -20.1160 
  199.7500    69.3270    22.8980    42.5410    47.8910    52.6940     2.3630   -19.6570 
  199.8750    68.5280    23.4940    37.2930    42.3920    47.1170     2.3690   -19.2390 
  200.0000    63.8070    23.8470    33.2450    39.5600    44.4500     2.3700   -18.8610 
  200.1250    60.5470    23.9190    33.8800    39.1850    44.4170     2.3840   -18.5150 
  200.2500    61.3080    23.7930    40.7880    40.4520    46.1840     2.4260   -18.2360 
  200.3750    63.1290    23.6650    47.9230    43.3220    49.6250     2.4780   -18.0030 
  200.5000    62.3930    23.6940    56.1370    47.5190    54.0690     2.4970   -17.8060 
  200.6250    59.1030    23.8590    57.9250    51.1190    57.4410     2.4530   -17.6350 
  200.7500    56.7730    23.8540    69.8990    51.7870    57.6120     2.3980   -17.4490 
  200.8750    56.2390    23.6660    83.0480    47.8940    53.2790     2.3880   -17.2360 
  201.0000    56.2360    23.4870    97.0580    39.8180    44.7880     2.4510   -16.9700 
  201.1250    55.6150    23.2380   100.4760    30.0090    34.0850     2.5600   -16.6610 
  201.2500    55.9080    22.9160    76.4730    21.4080    24.3240     2.6530   -16.3240 
  201.3750    57.0200    22.8650    35.6350    14.8770    16.7100     2.6920   -15.9550 
  201.5000    56.7500    23.2870    11.6320    10.3700    11.5880     2.6710   -15.5730 
  201.6250    53.9270    23.8370     6.7840     7.9180     8.9730     2.6050   -15.2160 
  201.7500    51.7680    24.1940     5.9070     6.6350     7.7520     2.5350   -14.9180 
  201.8750    51.0960    24.2130     5.4570     6.0650     7.4110     2.4770   -14.6870 
  202.0000    50.1730    24.0090     5.1800     5.9720     7.5770     2.4410   -14.5420 
  202.1250    48.0640    24.2080     4.8880     6.1900     7.9410     2.4300   -14.4890 
  202.2500    47.0450    25.8720     5.1600     6.4680     8.2480     2.4340   -14.5000 
  202.3750    46.8010    27.8440     5.7650     6.6680     8.3820     2.4400   -14.6290 
  202.5000    46.2610    28.4830     6.4550     6.7720     8.3770     2.4350   -14.8530 
  202.6250    44.6780    28.1740     6.9070     6.7880     8.3060     2.4170   -15.1200 
  202.7500    43.6130    26.8250     6.9820     6.7500     8.2480     2.4060   -15.4330 
  202.8750    44.4000    25.0940     6.8840     6.6830     8.2200     2.4120   -15.7780 
  203.0000    46.9010    24.3550     7.1690     6.6330     8.2670     2.4270   -16.1470 
  203.1250    52.2390    23.9120     7.0050     6.6260     8.4600     2.4340   -16.5420 
  203.2500    59.1540    23.6840     6.4530     6.7040     8.7980     2.4300   -16.9090 
  203.3750    64.8320    23.5620     5.8980     6.8850     9.3030     2.4290   -17.2040 
  203.5000    68.4030    23.5880     6.2240     7.1780     9.9620     2.4420   -17.4520 
  203.6250    72.9590    23.8950     7.1160     7.6020    10.7690     2.4690   -17.7170 
  203.7500    79.3870    23.9290     8.2420     8.0920    11.5870     2.5000   -17.9710 
  203.8750    85.1780    23.9580    10.1950     8.5690    12.3390     2.5260   -18.2190 
  204.0000    87.9810    23.9490    11.6980     8.9380    12.9330     2.5400   -18.4710 
  204.1250    89.7920    24.0690    11.3170     9.1220    13.2610     2.5360   -18.7510 
  204.2500    91.9010    24.1490    10.3530     9.1560    13.4100     2.5220   -19.1140 
  204.3750    92.8460    24.1290    10.2070     9.0860    13.4500     2.5050   -19.5600 
  204.5000    90.0000    24.0610    10.1270     8.9650    13.5010     2.4950   -20.0810 
  204.6250    85.0590    24.3670    10.1270     8.8620    13.6370     2.4910   -20.6390 
  204.7500    83.3470    24.4920     9.9850     8.8210    13.8840     2.4840   -21.2070 
  204.8750    85.0620    24.3530    10.6410     8.8510    14.1840     2.4690   -21.7690 
  205.0000    87.5120    23.9900    12.1210     8.9360    14.4750     2.4510   -22.2890 
  205.1250    88.4930    23.5750    13.1240     9.1010    14.8190     2.4440   -22.7480 
  205.2500    88.6030    23.3740    13.0360     9.3660    15.2540     2.4470   -23.1280 
  205.3750    89.2670    23.0850    12.8420     9.7850    15.8880     2.4470   -23.4350 
  205.5000    88.9790    22.7210    13.0720    10.4160    16.7960     2.4380   -23.6370 
  205.6250    85.2340    22.4700    14.0260    11.3340    18.0650     2.4230   -23.7180 
  205.7500    79.6480    22.4120    16.0020    12.4960    19.6360     2.4080   -23.6860 
  205.8750    77.3620    22.4090    19.8310    13.8740    21.4190     2.3880   -23.5490 
  206.0000    78.7180    22.3760    24.0020    15.3620    23.2790     2.3690   -23.3390 
  206.1250    77.7720    22.2180    25.9590    16.8060    24.8940     2.3660   -23.0320 
  206.2500    75.0850    22.5950    26.3680    17.9300    25.9820     2.3820   -22.6680 
  206.3750    73.3200    22.9230    25.5970    18.4810    26.2780     2.4030   -22.2480 
  206.5000    73.1600    22.8030    24.5520    18.2880    25.5980     2.4170   -21.8140 
  206.6250    74.0470    22.9230    26.2060    17.2390    23.9220     2.4170   -21.3390 
  206.7500    75.8830    23.5080    28.7040    15.6250    21.5500     2.4140   -20.8650 
  206.8750    78.1690    24.3010    29.4260    13.7190    18.8530     2.4170   -20.4090 
  207.0000    80.6080    24.8420    25.8100    11.8750    16.3060     2.4280   -19.9900 
  207.1250    84.0800    25.2550    17.2040    10.4830    14.4490     2.4430   -19.6450 
