~V
VERS. 2.00: Ver 2.00
~W
STRT.M 105.0000:
STOP.M 269.0000:
STEP.M 0.1250:
NULL. -999.2500:
UWI. DF304:
~C
DEPT.M :
GR.API :
CALI.CM :
RXO.OHMM :
RI. :
RML.OHMM :
SP.MV :
DEN.GM/CC :
AC.US/MT :
~A
# ...
  145.0000    90.2910    24.9360     6.3690     5.6130     6.6460   -13.2550     2.3590   405.1200 
  145.1250    80.5220    24.9510     6.6980     5.8850     6.9340   -13.5080     2.3610   405.9900 
  145.2500    78.1210    24.9810     6.7280     6.0860     7.0960   -13.7280     2.3610   406.3650 
  145.3750    82.4000    25.0080     6.5910     6.2070     7.1430   -13.9110     2.3540   406.5720 
  145.5000    85.9550    25.0160     6.5290     6.2740     7.1390   -14.0790     2.3420   406.8520 
  145.6250    86.3690    25.0130     6.5910     6.3320     7.1700   -14.2650     2.3390   405.9230 
  145.7500    85.2140    24.9940     6.6180     6.4220     7.2930   -14.4630     2.3520   400.7230 
  145.8750    82.8150    24.9520     6.5980     6.5540     7.5150   -14.6610     2.3750   389.5390 
  146.0000    81.5520    24.9080     6.6100     6.7050     7.7980   -14.8780     2.3930   375.7980 
  146.1250    80.3240    24.8290     6.7960     6.8040     8.0390   -15.0990     2.3970   369.8570 
  146.2500    78.7170    24.7280     7.1300     6.7820     8.1230   -15.3110     2.3930   375.8650 
  146.3750    80.3660    24.6560     7.4150     6.5980     7.9770   -15.4860     2.3820   389.1680 
  146.5000    85.7790    24.6430     7.4200     6.2880     7.6300   -15.5980     2.3650   400.7340 
  146.6250    89.2960    24.6900     7.1020     6.0190     7.3000   -15.6210     2.3360   403.2510 
  146.7500    86.4490    24.7640     6.8830     6.0190     7.3390   -15.5980     2.3000   399.5940 
  146.8750    83.7710    24.8130     7.1990     6.5160     8.1180   -15.5250     2.2690   394.3420 
  147.0000    84.4970    24.8460     8.6140     7.7900    10.0540   -15.3900     2.2500   390.7640 
  147.1250    82.6000    24.9000    13.0290    10.4950    13.9620   -15.2380     2.2490   389.0960 
  147.2500    73.1930    24.9670    21.7620    14.9420    20.0380   -15.0880     2.2640   386.0910 
  147.3750    61.7900    25.0030    34.0600    21.2360    28.1730   -14.9570     2.2930   379.1780 
  147.5000    56.3270    25.0110    45.3150    28.3700    36.8970   -14.8540     2.3280   368.6350 
  147.6250    60.7720    25.0110    49.7260    33.3520    42.2320   -14.7590     2.3500   358.6190 
  147.7500    68.7940    25.0110    48.2490    34.8130    42.6640   -14.6550     2.3540   352.3980 
  147.8750    73.0850    25.0110    43.8850    33.7620    39.9360   -14.5650     2.3610   347.4660 
  148.0000    70.7720    25.0110    38.3610    31.9600    36.6940   -14.5000     2.3950   337.9600 
  148.1250    65.5430    25.0110    33.0820    30.5890    34.5610   -14.4480     2.4530   322.2040 
  148.2500    63.6810    25.0110    31.1510    29.7760    33.4230   -14.4080     2.4920   310.2590 
  148.3750    66.4970    25.0110    32.7490    29.3100    32.8280   -14.3780     2.4830   311.4070 
  148.5000    70.1350    25.0110    36.2010    28.9310    32.3140   -14.3590     2.4240   327.1920 
  148.6250    69.7890    25.0110    36.2500    28.3220    31.4290   -14.3640     2.3480   351.0720 
  148.7500    69.3200    25.0110    32.8500    27.1700    29.8680   -14.3930     2.2960   373.2640 
  148.8750    72.0590    25.0110    28.0970    25.1520    27.3450   -14.4310     2.2790   389.6470 
  149.0000    75.7250    25.0110    25.0480    22.1490    23.7960   -14.4630     2.2900   398.9190 
  149.1250    77.0460    24.9980    23.2810    18.4340    19.5250   -14.4940     2.3140   401.0650 
  149.2500    78.8220    24.9670    19.3990    14.8140    15.3790   -14.5210     2.3360   399.9000 
  149.3750    81.8040    24.9360    13.4270    11.8170    11.9520   -14.5580     2.3500   397.4940 
  149.5000    85.4560    24.9220     8.6480     9.6710     9.5400   -14.6090     2.3520   394.0440 
  149.6250    87.7330    24.9000     7.0570     8.4810     8.2860   -14.6920     2.3460   389.1040 
  149.7500    90.6940    24.8390     6.8460     7.9460     7.8050   -14.8050     2.3410   384.7020 
  149.8750    94.1040    24.7440     7.2550     7.8660     7.8240   -14.9310     2.3460   383.3970 
  150.0000    97.4410    24.6630     7.8680     8.0160     8.0450   -15.0610     2.3580   385.4360 
  150.1250    95.0460    24.6360     8.0910     8.1630     8.1860   -15.1810     2.3680   386.5480 
  150.2500    89.8940    24.6310     7.8470     8.1960     8.1670   -15.2960     2.3760   382.4360 
  150.3750    88.8950    24.6310     7.3930     8.1700     8.0940   -15.3920     2.3870   373.0990 
  150.5000    92.0700    24.6310     7.1160     8.2160     8.1550   -15.4450     2.4030   361.0810 
  150.6250    91.8410    24.6280     7.1820     8.5060     8.5770   -15.4240     2.4190   347.8510 
  150.7500    87.8310    24.6110     7.5920     9.0370     9.3220   -15.3290     2.4360   333.5860 
  150.8750    83.4800    24.5720     8.5500     9.7040    10.2410   -15.1840     2.4550   319.6540 
  151.0000    80.4530    24.5430    10.7300    10.3240    11.0950   -14.9880     2.4800   308.3270 
  151.1250    78.1820    24.5330    14.1800    10.7010    11.6430   -14.7350     2.5180   298.9960 
  151.2500    77.0060    24.5330    15.8490    10.9250    12.0050   -14.4300     2.5690   286.6310 
  151.3750    75.0690    24.5330    14.4550    11.2420    12.5140   -14.0970     2.6160   269.3150 
  151.5000    71.4720    24.5330    12.7560    11.9370    13.5900   -13.7740     2.6370   251.1220 
  151.6250    66.5370    24.5330    14.6040    13.3530    15.7080   -13.4810     2.6260   240.4680 
  151.7500    61.9930    24.5330    18.5520    15.4560    18.7170   -13.2100     2.6080   238.0750 
  151.8750    60.0410    24.5330    21.9690    18.0470    22.2120   -12.9610     2.5990   240.1110 
  152.0000    63.2820    24.5330    23.0410    20.6040    25.4180   -12.7670     2.5990   242.7460 
  152.1250    67.5080    24.5330    22.3290    22.2890    27.2570   -12.6410     2.6060   244.7510 
  152.2500    65.6490    24.5330    21.8430    22.9910    27.7630   -12.5720     2.6120   246.1660 
  152.3750    59.0100    24.5130    21.5950    23.0130    27.4640   -12.5450     2.6100   246.5960 
  152.5000    54.5150    24.4210    21.5610    22.7600    26.9590   -12.5350     2.6020   246.1830 
  152.6250    55.8490    24.1930    22.2030    22.5110    26.6170   -12.5450     2.6020   245.8610 
  152.7500    56.7490    23.9860    22.8290    22.3980    26.5010   -12.5600     2.6090   245.5240 
  152.8750    56.1750    23.9140    22.6410    22.4790    26.6320   -12.5750     2.6160   243.9130 
  153.0000    56.4540    23.9520    21.7740    22.7730    27.0110   -12.5780     2.6180   240.6360 
  153.1250    57.7400    24.0230    22.0150    23.2220    27.5700   -12.5860     2.6180   237.8410 
  153.2500    58.3000    24.0780    23.8870    23.6490    28.0950   -12.5930     2.6200   238.1150 
  153.3750    58.7640    24.1680    27.1190    23.9320    28.4310   -12.6010     2.6230   241.3420 
  153.5000    58.4690    24.3050    28.7800    24.0010    28.4830   -12.6030     2.6210   245.1500 
  153.6250    55.5080    24.4050    27.0730    23.8180    28.2060   -12.5860     2.6140   247.2920 
  153.7500    55.1070    24.4450    24.3400    23.4690    27.7410   -12.5660     2.6030   248.9740 
  153.8750    60.6840    24.4680    23.3910    22.9980    27.1620   -12.5510     2.5920   252.1040 
  154.0000    67.3390    24.5070    23.6750    22.4140    26.4720   -12.5480     2.5800   257.1580 
  154.1250    67.7260    24.5260    23.0750    21.7050    25.6110   -12.5310     2.5660   262.5960 
  154.2500    65.9030    24.5330    21.2410    20.9520    24.6440   -12.5050     2.5580   266.3170 
  154.3750    65.4320    24.5330    19.3440    20.2630    23.7150   -12.4610     2.5570   267.2090 
  154.5000    64.7500    24.5330    18.1530    19.7650    23.0160   -12.4070     2.5620   265.1960 
  154.6250    63.4940    24.5330    17.8220    19.6080    22.7740   -12.3460     2.5680   261.2590 
  154.7500    63.9330    24.5330    17.8650    19.7500    22.9350   -12.2820     2.5770   257.4980 
  154.8750    64.7510    24.5330    18.0640    20.1030    23.3750   -12.2180     2.5890   254.7770 
