~V
VERS. 2.00: Ver 2.00
~W
STRT.M 60.0000:
STOP.M 232.0000:
STEP.M 0.1250:
NULL. -999.2500:
UWI. DF3065:
~C
DEPT.M :
GR.API :
CALI.CM :
RXO.OHMM :
RI. :
RML.OHMM :
DEN.GM/CC :
SP.MV :
~A
# ...
   82.5000    84.9760    22.3000    13.8010     9.7820    15.7930  -999.2500   -26.0030 
   82.6250    87.4060    22.3460    12.8780     9.3450    15.0500  -999.2500   -25.9740 
   82.7500    85.6920    22.4340    11.6680     8.7400    14.0150  -999.2500   -25.9110 
   82.8750    83.0170    22.5790    10.3080     8.0370    12.7680  -999.2500   -25.8030 
   83.0000    82.1930    22.7750     9.4150     7.3290    11.5010  -999.2500   -25.6760 
   83.1250    82.7150    23.2750     8.9920     6.7310    10.4390  -999.2500   -25.5530 
   83.2500    83.4200    23.5710     8.9820     6.3120     9.7300  -999.2500   -25.5090 
   83.3750    84.3430    23.6620     9.1460     6.1370     9.4340  -999.2500   -25.5560 
   83.5000    83.6690    23.6600     9.6640     6.2110     9.5160  -999.2500   -25.6810 
   83.6250    80.1950    23.5440    10.5860     6.5420     9.9400  -999.2500   -25.9010 
   83.7500    74.3660    23.3990    11.5990     7.0540    10.5710  -999.2500   -26.1780 
   83.8750    69.4130    23.2150    12.2610     7.6640    11.2790  -999.2500   -26.4650 
   84.0000    68.6410    23.1030    12.5290     8.2740    11.9230  -999.2500   -26.7470 
   84.1250    71.5730    22.9700    12.6470     8.7930    12.4020  -999.2500   -27.0110 
   84.2500    72.3380    23.0330    12.8980     9.1780    12.7250  -999.2500   -27.1890 
   84.3750    69.0190    23.1320    13.1760     9.3980    12.8930  -999.2500   -27.2940 
   84.5000    65.8980    23.2270    13.1200     9.4610    12.9350  -999.2500   -27.3360 
   84.6250    66.8820    23.2330    12.6720     9.3930    12.8710  -999.2500   -27.3040 
   84.7500    69.1480    23.2080    11.7030     9.2500    12.7290  -999.2500   -27.2290 
   84.8750    69.9110    23.1740    10.6310     9.0650    12.5400  -999.2500   -27.1630 
   85.0000    69.5730    23.0970     9.8530     8.8650    12.3530  -999.2500   -27.0980 
   85.1250    69.8610    22.9540     9.4900     8.6720    12.2150  -999.2500   -27.0410 
   85.2500    71.0680    23.0190     9.3340     8.5060    12.1380  -999.2500   -27.0400 
   85.3750    71.7140    23.0970     9.3190     8.3850    12.1180  -999.2500   -27.0690 
   85.5000    71.5160    23.0920     9.7330     8.3090    12.1370  -999.2500   -27.0930 
   85.6250    70.5640    22.9820    10.8760     8.2740    12.1790  -999.2500   -27.1270 
   85.7500    69.7200    23.0510    12.0660     8.2610    12.2130  -999.2500   -27.2140 
   85.8750    69.9220    23.1020    12.5080     8.2650    12.2290  -999.2500   -27.3220 
   86.0000    70.4740    23.0890    12.4120     8.2930    12.2260  -999.2500   -27.4620 
   86.1250    72.9530    22.9500    12.3400     8.3370    12.2190  -999.2500   -27.6030 
   86.2500    75.6200    22.9440    12.5310     8.3880    12.2220  -999.2500   -27.6910 
   86.3750    76.2460    23.0480    12.8720     8.4370    12.2370  -999.2500   -27.7700 
   86.5000    73.0540    23.0960    12.8990     8.4830    12.2640  -999.2500   -27.8630 
   86.6250    69.3940    23.0620    12.8780     8.5300    12.3100  -999.2500   -27.9320 
   86.7500    69.6580    23.2540    12.9820     8.5730    12.3700  -999.2500   -27.9270 
   86.8750    71.3010    23.3570    13.0660     8.6260    12.4360  -999.2500   -27.8740 
   87.0000    70.9890    23.4060    12.6070     8.6790    12.4960  -999.2500   -27.7200 
   87.1250    67.8620    23.2690    11.8510     8.7060    12.5070  -999.2500   -27.5050 
   87.2500    65.2810    23.3500    11.7260     8.6990    12.4690  -999.2500   -27.2820 
   87.3750    63.9940    23.4980    12.2070     8.6570    12.3600  -999.2500   -26.9860 
   87.5000    63.8100    23.5420    12.5390     8.5500    12.1460  -999.2500   -26.6130 
   87.6250    64.7440    23.5590    12.3880     8.3150    11.7580  -999.2500   -26.2120 
   87.7500    65.4900    23.5980    11.9090     7.9900    11.2540  -999.2500   -25.7800 
   87.8750    67.0430    23.6130    11.5860     7.6040    10.6930  -999.2500   -25.3460 
   88.0000    70.4120    23.5680    12.0910     7.1930    10.0950  -999.2500   -24.9700 
   88.1250    76.1760    23.5820    12.0540     6.8170     9.5670  -999.2500   -24.6320 
   88.2500    83.1670    23.6640    10.6190     6.5300     9.2090  -999.2500   -24.3330 
   88.3750    89.4580    23.8370     8.8060     6.3510     9.0430  -999.2500   -24.1870 
   88.5000    92.9650    23.7880     8.8000     6.3100     9.0930  -999.2500   -24.1910 
   88.6250    90.9610    23.4540     7.8580     6.4750     9.4270  -999.2500   -24.2840 
   88.7500    86.5650    23.2200     7.3730     6.7970     9.9650  -999.2500   -24.5220 
   88.8750    82.6560    23.1960     7.8600     7.2400    10.6450  -999.2500   -24.8510 
   89.0000    78.4680    23.2090     9.7990     7.7810    11.4020  -999.2500   -25.2360 
   89.1250    73.7840    23.3350    12.4780     8.3520    12.0900  -999.2500   -25.6500 
   89.2500    71.9730    23.5030    17.0880     8.8250    12.5470  -999.2500   -26.0770 
   89.3750    73.2850    23.8720    18.1320     9.1440    12.7590  -999.2500   -26.4470 
   89.5000    73.6290    24.0090    15.4970     9.3030    12.7800  -999.2500   -26.7560 
   89.6250    72.7530    23.7790    11.5030     9.2910    12.6150  -999.2500   -27.0410 
   89.7500    73.8520    23.4610    10.3350     9.1990    12.4030  -999.2500   -27.2590 
   89.8750    75.6990    23.2770     9.8170     9.1300    12.2760  -999.2500   -27.4200 
   90.0000    75.2220    23.2370     9.7640     9.1380    12.2950  -999.2500   -27.5380 
   90.1250    73.1520    23.2590     9.7870     9.2700    12.5130  -999.2500   -27.6210 
   90.2500    71.5370    23.2560     9.8120     9.5030    12.8610  -999.2500   -27.6360 
   90.3750    68.8500    23.2560    10.0390     9.7830    13.2230  -999.2500   -27.6150 
   90.5000    65.9260    23.2700    10.1350    10.0150    13.4600  -999.2500   -27.5700 
   90.6250    67.4330    23.2690    10.0140    10.1260    13.4920  -999.2500   -27.4930 
   90.7500    72.9690    23.2700     9.6950    10.1090    13.3630  -999.2500   -27.3710 
   90.8750    78.1920    23.2800     9.3490     9.9690    13.1010  -999.2500   -27.2550 
   91.0000    77.3430    23.2010     9.0600     9.7420    12.7780  -999.2500   -27.1530 
   91.1250    71.2860    23.1680     8.8390     9.4830    12.4700  -999.2500   -27.0530 
   91.2500    65.5280    23.0510     8.7190     9.2410    12.2110  -999.2500   -26.9990 
   91.3750    61.1390    23.1030     8.8120     9.0440    12.0370  -999.2500   -26.9590 
   91.5000    56.6510    23.0950     9.3940     8.9050    11.9480  -999.2500   -26.9010 
   91.6250    55.0670    22.9890     9.4980     8.8350    11.9350  -999.2500   -26.8460 
   91.7500    58.0720    22.9960     9.2040     8.8070    11.9480  -999.2500   -26.8100 
   91.8750    61.8680    23.0430     9.1820     8.8080    11.9700  -999.2500   -26.7820 
   92.0000    64.1790    23.0190     9.3900     8.8230    11.9760  -999.2500   -26.7550 
   92.1250    64.7830    22.9350     9.6260     8.8270    11.9500  -999.2500   -26.7180 
   92.2500    64.2060    22.9430     9.8190     8.8070    11.8900  -999.2500   -26.6450 
   92.3750    62.2980    22.9740     9.8070     8.7570    11.7990  -999.2500   -26.5620 
   92.5000    60.6480    22.9850     9.4150     8.6730    11.6800  -999.2500   -26.5030 
   92.6250    62.6660    22.9570     9.0030     8.5460    11.5410  -999.2500   -26.4370 
   92.7500    65.9730    22.9720     8.7140     8.3940    11.3930  -999.2500   -26.3750 
   92.8750    68.6280    22.9840     8.5610     8.2240    11.2320  -999.2500   -26.2850 
   93.0000    69.0720    22.9720     8.3240     8.0440    11.0560  -999.2500   -26.1540 
   93.1250    67.7380    22.8750     7.9880     7.8560    10.8650  -999.2500   -26.0040 
   93.2500    67.6630    22.8890     7.6960     7.6790    10.6700  -999.2500   -25.8520 
   93.3750    69.8220    23.0240     7.6390     7.5320    10.5240  -999.2500   -25.6960 
   93.5000    73.9160    23.0640     7.8750     7.4510    10.4570  -999.2500   -25.5360 
   93.6250    78.7690    22.8890     7.8950     7.4520    10.5320  -999.2500   -25.3880 
