~V
VERS. 2.00: Ver 2.00
~W
STRT.M 67.0000:
STOP.M 279.0000:
STEP.M 0.1250:
NULL. -999.2500:
UWI. DF3057:
~C
DEPT.M :
GR.API :
CALI.CM :
RXO.OHMM :
RI. :
RML.OHMM :
DEN.GM/CC :
SP.MV :
~A
# ...
   78.2500    64.8560    24.0660    10.6310     8.7200    11.5630  -999.2500   -28.3410 
   78.3750    64.0020    23.9030    11.0810     8.9160    11.8530  -999.2500   -28.4460 
   78.5000    66.1860    23.6370    11.2350     9.0600    12.0710  -999.2500   -28.4630 
   78.6250    67.0920    23.6060    11.2360     9.1270    12.1740  -999.2500   -28.3700 
   78.7500    66.5820    23.5950    11.1520     9.1310    12.1890  -999.2500   -28.2250 
   78.8750    66.9140    23.5900    11.0490     9.0980    12.1690  -999.2500   -28.0520 
   79.0000    67.5140    23.6030    10.9520     9.0620    12.1630  -999.2500   -27.8890 
   79.1250    66.1600    23.7030    10.9240     9.0290    12.1750  -999.2500   -27.7380 
   79.2500    65.5290    23.6700    11.0280     8.9880    12.1830  -999.2500   -27.6090 
   79.3750    68.0500    23.6220    11.1610     8.9360    12.1880  -999.2500   -27.5200 
   79.5000    71.4780    23.6000    11.2010     8.8710    12.1610  -999.2500   -27.4680 
   79.6250    72.1340    23.5920    11.1120     8.7720    12.0550  -999.2500   -27.4210 
   79.7500    71.6770    23.5700    10.9190     8.6500    11.8870  -999.2500   -27.3160 
   79.8750    71.4310    23.4710    10.7290     8.5290    11.6910  -999.2500   -27.1420 
   80.0000    71.0390    23.3330    11.0010     8.4350    11.5070  -999.2500   -26.9190 
   80.1250    71.4110    23.3630    12.4930     8.3990    11.4120  -999.2500   -26.7330 
   80.2500    72.5330    23.4120    13.1300     8.4320    11.3990  -999.2500   -26.6200 
   80.3750    71.3840    23.2440    12.1200     8.5190    11.4650  -999.2500   -26.5670 
   80.5000    66.9290    23.1980    10.8050     8.6500    11.5890  -999.2500   -26.5350 
   80.6250    66.2240    23.2730    10.8770     8.8020    11.7420  -999.2500   -26.5270 
   80.7500    69.9860    23.2920    11.0700     8.9320    11.8530  -999.2500   -26.5620 
   80.8750    71.7980    23.3350    10.9810     9.0110    11.8940  -999.2500   -26.6300 
   81.0000    69.5250    23.4540    10.6540     9.0220    11.8480  -999.2500   -26.7180 
   81.1250    69.2200    23.7020    10.4610     8.9350    11.6610  -999.2500   -26.7650 
   81.2500    72.2620    23.9130    10.4430     8.7500    11.3520  -999.2500   -26.7360 
   81.3750    73.8440    24.1130    10.4930     8.5000    10.9820  -999.2500   -26.6660 
   81.5000    72.9600    24.2110    10.5090     8.2320    10.6100  -999.2500   -26.6080 
   81.6250    72.6920    24.2810    10.5460     7.9810    10.2760  -999.2500   -26.6070 
   81.7500    74.2620    24.3540    10.3020     7.7910    10.0500  -999.2500   -26.6300 
   81.8750    76.6100    24.3070     9.6010     7.6980     9.9730  -999.2500   -26.6340 
   82.0000    76.9270    24.2140     8.8560     7.7110    10.0290  -999.2500   -26.5840 
   82.1250    73.6030    24.0870     9.0310     7.8350    10.1940  -999.2500   -26.4710 
   82.2500    70.5700    23.8060     9.5940     8.0170    10.3690  -999.2500   -26.3150 
   82.3750    69.3120    23.6040    10.1120     8.2110    10.5010  -999.2500   -26.1140 
   82.5000    68.5260    23.4690    10.7440     8.4430    10.6920  -999.2500   -25.9070 
   82.6250    65.7060    23.5550    11.0910     8.8920    11.3190  -999.2500   -25.6830 
   82.7500    62.7000    23.7290    11.1530     9.6720    12.5580  -999.2500   -25.4030 
   82.8750    60.5100    23.8860    10.9630    10.7880    14.3330  -999.2500   -25.0920 
   83.0000    58.8090    24.0340    10.9880    12.1440    16.4120  -999.2500   -24.7360 
   83.1250    58.1030    24.0250    12.9660    13.4350    18.2290  -999.2500   -24.3330 
   83.2500    58.2810    23.8690    20.5460    14.1050    19.0780  -999.2500   -23.8970 
   83.3750    59.9550    23.5610    31.3610    13.7250    18.4650  -999.2500   -23.4380 
   83.5000    66.8300    23.5340    34.1490    12.2500    16.3720  -999.2500   -22.9540 
   83.6250    82.1380    23.3090    22.0320    10.1540    13.3540  -999.2500   -22.5000 
   83.7500    98.3280    23.2700    10.9750     8.1830    10.4660  -999.2500   -22.1740 
   83.8750   107.4090    23.1690     6.6370     6.6590     8.3020  -999.2500   -22.0300 
   84.0000   108.3380    22.9920     5.9250     5.6820     7.0730  -999.2500   -22.0820 
   84.1250   107.3730    22.8080     5.9630     5.3120     6.8300  -999.2500   -22.3150 
   84.2500   106.2280    22.9310     6.4790     5.3710     7.1790  -999.2500   -22.6520 
   84.3750   101.8180    22.8290     7.4640     5.7580     7.8790  -999.2500   -23.0400 
   84.5000    93.8770    22.6520     8.5950     6.3610     8.7300  -999.2500   -23.4420 
   84.6250    87.9140    22.5740     9.1390     7.0130     9.4760  -999.2500   -23.8530 
   84.7500    86.7340    22.7240     9.1290     7.5510    10.0000  -999.2500   -24.2320 
   84.8750    86.5540    23.1220     9.2250     7.9490    10.3030  -999.2500   -24.5250 
   85.0000    83.1970    23.5530     9.4870     8.2000    10.4310  -999.2500   -24.7290 
   85.1250    80.0750    23.8760     9.4770     8.2720    10.3960  -999.2500   -24.8820 
   85.2500    78.8590    24.0120     9.4860     8.2550    10.3410  -999.2500   -25.0410 
   85.3750    78.9470    24.1390     9.3940     8.2480    10.4000  -999.2500   -25.2220 
   85.5000    80.0930    24.2020     8.8110     8.3000    10.5980  -999.2500   -25.3760 
   85.6250    81.9920    24.1720     8.7920     8.4100    10.9040  -999.2500   -25.3840 
   85.7500    82.0230    24.0260     9.3130     8.5190    11.1840  -999.2500   -25.2600 
   85.8750    79.0570    23.8490     9.7370     8.5170    11.2770  -999.2500   -25.0270 
   86.0000    77.8340    23.6670     9.8330     8.3020    11.0330  -999.2500   -24.7290 
   86.1250    81.2990    23.5640     9.8220     7.8360    10.4030  -999.2500   -24.3390 
   86.2500    88.6030    23.6450     9.5990     7.2150     9.5530  -999.2500   -23.8720 
   86.3750    99.0790    23.9180     8.5190     6.5480     8.6370  -999.2500   -23.3920 
   86.5000   108.3330    24.6240     7.0120     5.9460     7.8610  -999.2500   -22.9730 
   86.6250   110.2610    24.7400     5.9610     5.5460     7.4650  -999.2500   -22.7180 
   86.7500   107.4750    24.7170     5.9710     5.3550     7.4130  -999.2500   -22.5700 
   86.8750   105.5250    24.5360     6.3710     5.3630     7.6460  -999.2500   -22.5000 
   87.0000   106.6330    24.2570     6.6920     5.5170     8.0480  -999.2500   -22.4910 
   87.1250   105.9510    24.2250     6.6930     5.7330     8.4310  -999.2500   -22.5970 
   87.2500   101.6590    24.2430     6.6870     5.9490     8.7230  -999.2500   -22.8380 
   87.3750    97.4250    24.1240     6.8500     6.1740     8.9910  -999.2500   -23.1940 
   87.5000    97.6740    23.7650     7.2320     6.4540     9.3390  -999.2500   -23.6250 
   87.6250    98.8740    23.2080     7.7670     6.8790     9.9390  -999.2500   -24.1100 
   87.7500    93.6600    22.8680     8.1610     7.4450    10.7970  -999.2500   -24.6290 
   87.8750    83.1150    22.7630     8.5890     8.1430    11.8480  -999.2500   -25.1880 
   88.0000    73.3850    22.7860     9.8550     8.8900    12.9310  -999.2500   -25.7720 
   88.1250    70.8890    22.8700    13.9960     9.5350    13.8070  -999.2500   -26.3410 
   88.2500    72.4680    23.1300    16.9330     9.9140    14.2750  -999.2500   -26.8310 
   88.3750    74.6850    23.4590    15.6040     9.9480    14.2750  -999.2500   -27.2290 
   88.5000    76.0410    23.5600    12.2810     9.6910    13.9100  -999.2500   -27.5660 
   88.6250    74.5940    23.4840    10.8390     9.2810    13.3940  -999.2500   -27.8570 
   88.7500    71.4200    23.4800    10.7520     8.8980    12.9640  -999.2500   -28.1640 
   88.8750    69.0030    23.5520    10.7530     8.6150    12.7350  -999.2500   -28.4890 
   89.0000    68.3220    23.6030    10.6990     8.4710    12.7250  -999.2500   -28.7980 
   89.1250    66.1970    23.6280    10.7050     8.4790    12.9000  -999.2500   -29.0680 
   89.2500    62.6660    23.8220    10.7640     8.5350    13.0870  -999.2500   -29.3040 
   89.3750    61.5720    24.1960    10.8990     8.5870    13.1710  -999.2500   -29.4770 
