~V
VERS. 2.00: Ver 2.00
~W
STRT.M 57.0000:
STOP.M 272.0000:
STEP.M 0.1250:
NULL. -999.2500:
UWI. DF3050:
~C
DEPT.M :
SP.MV :
GR.API :
CALI.CM :
RXO.OHMM :
RI. :
RML.OHMM :
DEN.GM/CC :
~A
# ...
  102.0000   -27.6010    81.9920    24.9590     6.3770     6.1350     8.2400  -999.2500 
  102.1250   -27.7240    82.3030    24.1830     6.1510     5.9660     7.9220  -999.2500 
  102.2500   -27.8040    84.3720    23.9810     5.5590     5.6970     7.4340  -999.2500 
  102.3750   -27.8560    86.3380    23.8960     5.4820     5.4980     7.1230  -999.2500 
  102.5000   -27.8800    86.3950    23.8560     5.7700     5.5050     7.2780  -999.2500 
  102.6250   -27.8830    85.2980    23.6840     6.0550     5.8650     8.1760  -999.2500 
  102.7500   -27.9060    83.8290    23.8760     6.2260     6.7510    10.0160  -999.2500 
  102.8750   -27.9690    81.7320    23.9390     6.4700     8.0960    12.5210  -999.2500 
  103.0000   -28.0630    78.9430    23.9080    10.0210     9.8070    15.3620  -999.2500 
  103.1250   -28.2130    76.2070    23.8990    18.0290    11.6200    17.9870  -999.2500 
  103.2500   -28.4470    75.4900    23.9060    28.6770    12.8030    19.2050  -999.2500 
  103.3750   -28.7160    76.5280    23.9070    32.2800    12.9690    18.7060  -999.2500 
  103.5000   -29.0070    76.0520    23.7150    24.5550    12.2140    16.8300  -999.2500 
  103.6250   -29.3040    71.3840    23.6130    12.2970    10.9380    14.3600  -999.2500 
  103.7500   -29.5990    66.3430    23.5790     8.7370     9.6570    12.2040  -999.2500 
  103.8750   -29.8690    65.2070    23.5010     7.9030     8.7040    10.8520  -999.2500 
  104.0000   -30.0930    65.9110    23.3060     7.4500     8.1330    10.2530  -999.2500 
  104.1250   -30.2680    65.2760    23.0690     7.3050     7.8980    10.1910  -999.2500 
  104.2500   -30.3930    65.6240    23.0490     7.3490     7.9400    10.4480  -999.2500 
  104.3750   -30.4880    68.9540    23.1450     7.4150     8.0730    10.7010  -999.2500 
  104.5000   -30.5640    70.9780    23.1590     7.6010     8.1680    10.7890  -999.2500 
  104.6250   -30.6460    68.9030    23.0300     7.9100     8.1850    10.7260  -999.2500 
  104.7500   -30.7240    66.6370    23.0020     8.0460     8.1220    10.5590  -999.2500 
  104.8750   -30.8050    67.4020    23.1070     7.9760     8.0100    10.3480  -999.2500 
  105.0000   -30.8860    70.5070    23.3460     7.9210     7.8700    10.1420  -999.2500 
  105.1250   -30.9640    73.4300    23.4950     7.8110     7.7290     9.9930  -999.2500 
  105.2500   -31.0220    76.8130    23.5720     7.7390     7.6140     9.9230  -999.2500 
  105.3750   -31.0640    79.2360    23.6280     7.8560     7.5330     9.9180  -999.2500 
  105.5000   -31.0930    76.8800    23.7950     7.9790     7.4930     9.9720  -999.2500 
  105.6250   -31.0980    71.2710    23.6950     7.8430     7.4960    10.0590  -999.2500 
  105.7500   -31.0780    68.8560    23.7060     7.5260     7.5210    10.1370  -999.2500 
  105.8750   -31.0310    68.7260    23.7190     7.4060     7.5480    10.1990  -999.2500 
  106.0000   -30.9560    67.1300    23.6630     7.5170     7.5720    10.2360  -999.2500 
  106.1250   -30.8540    64.6470    23.5850     7.6950     7.5790    10.2650  -999.2500 
  106.2500   -30.7120    66.2460    23.5710     7.6880     7.5600    10.2910  -999.2500 
  106.3750   -30.5460    70.0430    23.6500     7.6170     7.5250    10.2920  -999.2500 
  106.5000   -30.3570    72.0180    23.7650     7.5600     7.4790    10.2860  -999.2500 
  106.6250   -30.1400    71.4300    23.6270     7.6140     7.4250    10.2860  -999.2500 
  106.7500   -29.9010    70.4870    23.6100     7.6590     7.3830    10.2780  -999.2500 
  106.8750   -29.6520    72.2680    23.4090     7.6770     7.3530    10.2590  -999.2500 
  107.0000   -29.4080    74.6160    23.3080     7.7040     7.3300    10.2240  -999.2500 
  107.1250   -29.1580    73.5010    23.2610     7.7240     7.3100    10.1660  -999.2500 
  107.2500   -28.9350    71.8090    23.1320     7.6340     7.2940    10.1190  -999.2500 
  107.3750   -28.7520    73.8210    23.2250     7.6450     7.2950    10.1120  -999.2500 
  107.5000   -28.6110    75.8840    23.0660     7.6010     7.3240    10.1420  -999.2500 
  107.6250   -28.4870    73.5570    23.0070     7.4290     7.3700    10.1830  -999.2500 
  107.7500   -28.3860    71.2850    22.9920     7.2020     7.4000    10.2070  -999.2500 
  107.8750   -28.3160    72.7580    22.9590     7.1420     7.3960    10.1680  -999.2500 
  108.0000   -28.2640    73.7420    22.8770     7.0870     7.3550    10.0350  -999.2500 
  108.1250   -28.2430    71.8650    22.9280     7.0310     7.2720     9.8210  -999.2500 
  108.2500   -28.2630    70.6870    22.8710     6.8310     7.1670     9.5940  -999.2500 
  108.3750   -28.3040    73.4770    22.7400     6.5490     7.0880     9.4470  -999.2500 
  108.5000   -28.3540    78.3550    22.7090     6.2220     7.0560     9.4020  -999.2500 
  108.6250   -28.4260    80.9850    22.7280     6.2990     7.0990     9.4770  -999.2500 
  108.7500   -28.5190    77.7950    22.6710     6.9360     7.2340     9.7040  -999.2500 
  108.8750   -28.6210    73.6750    22.5890     7.6860     7.4250    10.0140  -999.2500 
  109.0000   -28.7280    73.7240    22.6150     8.0740     7.6340    10.3460  -999.2500 
  109.1250   -28.8290    76.4370    22.8990     8.0840     7.8280    10.6480  -999.2500 
  109.2500   -28.8820    77.1920    23.4940     8.0340     7.9770    10.8430  -999.2500 
  109.3750   -28.9020    78.5060    23.9570     7.8320     8.0560    10.9270  -999.2500 
  109.5000   -28.9170    81.8060    24.0390     7.8350     8.0760    10.9040  -999.2500 
  109.6250   -28.9260    83.3830    24.0010     8.0560     8.0350    10.7820  -999.2500 
  109.7500   -28.9050    80.3360    23.8040     8.5260     7.9280    10.5400  -999.2500 
  109.8750   -28.8440    76.6860    23.6450     8.7890     7.7770    10.2380  -999.2500 
  110.0000   -28.7280    74.9840    23.6370     8.5450     7.6010     9.8900  -999.2500 
  110.1250   -28.5540    74.7270    23.8360     8.0120     7.4130     9.5480  -999.2500 
  110.2500   -28.3630    74.5350    23.9530     7.6400     7.2460     9.2640  -999.2500 
  110.3750   -28.1610    73.8690    23.9460     7.3190     7.1010     9.0450  -999.2500 
  110.5000   -27.9210    72.6950    23.9200     7.1270     6.9820     8.8870  -999.2500 
  110.6250   -27.6640    72.1300    23.9140     7.1160     6.8900     8.7620  -999.2500 
  110.7500   -27.4120    74.2790    23.8920     7.2850     6.8030     8.6300  -999.2500 
  110.8750   -27.1690    77.6220    23.7670     7.5990     6.7010     8.4940  -999.2500 
  111.0000   -26.9770    79.1210    23.8810     7.5350     6.6000     8.3700  -999.2500 
  111.1250   -26.8460    75.4500    24.2200     7.0330     6.5110     8.2750  -999.2500 
  111.2500   -26.7390    72.0430    24.5070     6.3980     6.4380     8.1960  -999.2500 
  111.3750   -26.6420    74.0490    24.1480     6.1270     6.3700     8.1320  -999.2500 
  111.5000   -26.5760    78.5770    23.9750     6.0310     6.3020     8.0520  -999.2500 
  111.6250   -26.5470    82.4010    23.9260     6.1510     6.2020     7.8990  -999.2500 
  111.7500   -26.5440    86.1710    23.9460     6.4870     6.0290     7.6100  -999.2500 
  111.8750   -26.5720    87.1000    23.9920     6.5860     5.8060     7.2420  -999.2500 
  112.0000   -26.6220    83.9960    23.9480     6.1290     5.5750     6.8890  -999.2500 
  112.1250   -26.6880    80.8120    23.9160     5.4550     5.3840     6.6370  -999.2500 
  112.2500   -26.7900    82.2490    23.9840     5.3790     5.3150     6.6220  -999.2500 
  112.3750   -26.9530    84.6790    24.1680     5.4900     5.4040     6.8720  -999.2500 
  112.5000   -27.1530    85.9140    24.2250     5.3650     5.6480     7.3690  -999.2500 
  112.6250   -27.3580    84.9020    24.1210     5.8440     6.0270     8.0500  -999.2500 
  112.7500   -27.5540    80.2820    23.9450     7.0820     6.4940     8.8000  -999.2500 
  112.8750   -27.7280    77.5090    23.9200     8.0740     6.9380     9.4320  -999.2500 
  113.0000   -27.8740    78.3530    23.9810     8.2560     7.2820     9.8490  -999.2500 
  113.1250   -27.9870    77.1900    23.9510     8.0800     7.4850    10.0230  -999.2500 
