~V
VERS. 2.00: Ver 2.00
~W
STRT.M 60.0000:
STOP.M 258.0000:
STEP.M 0.1250:
NULL. -999.2500:
UWI. DF3032:
~C
DEPT.M :
GR.API :
RML.OHMM :
RI. :
RXO.OHMM :
CALI.CM :
DEN.GM/CC :
SP.MV :
~A
# ...
  217.5000    77.3210    53.5780    52.1990    45.7820    24.3160     2.2120   -18.3900 
  217.6250    81.0130    52.2010    50.4100    46.8160    24.3330     2.2200   -18.3670 
  217.7500    83.1880    54.1420    51.7000    50.5480    24.3830     2.2300   -18.3470 
  217.8750    82.5400    59.4940    56.2110    53.0640    24.5050     2.2440   -18.4140 
  218.0000    80.4530    67.7510    63.5910    52.3480    24.6670     2.2570   -18.4450 
  218.1250    77.8460    77.2380    72.5110    57.5050    24.7990     2.2630   -18.5060 
  218.2500    74.5190    84.8300    80.0720    73.2070    24.8490     2.2570   -18.7260 
  218.3750    70.5680    88.0080    83.8070    91.2940    24.8530     2.2380   -18.8310 
  218.5000    67.7100    85.7020    82.4480    98.2910    24.8530     2.2170   -18.8420 
  218.6250    68.0950    78.9210    76.5020    85.6230    24.8620     2.2030   -19.0050 
  218.7500    69.9200    71.8590    69.7160    69.5740    24.8730     2.2000   -19.0460 
  218.8750    72.7220    67.3080    64.7730    55.9890    24.8790     2.2100   -19.0050 
  219.0000    77.1210    66.5590    63.1340    52.9760    24.8790     2.2240   -19.1040 
  219.1250    80.0320    69.8880    65.3700    58.9400    24.8790     2.2350   -19.1470 
  219.2500    79.1260    75.3780    69.9010    65.6570    24.8790     2.2420   -19.0800 
  219.3750    75.4080    81.4970    75.3970    70.9560    24.8760     2.2440   -19.1730 
  219.5000    72.2050    86.7360    80.4530    77.4470    24.7810     2.2450   -19.3240 
  219.6250    71.3590    89.5910    83.5760    82.5350    24.5070     2.2440   -19.3280 
  219.7500    71.5100    90.1920    84.6450    83.1080    24.1940     2.2410   -19.4790 
  219.8750    72.3170    89.1230    84.0480    80.5920    24.1660     2.2340   -19.6850 
  220.0000    74.6920    87.2680    82.5030    78.5160    24.3730     2.2260   -19.7570 
  220.1250    76.3540    85.5410    80.7910    76.5060    24.6020     2.2210   -19.9190 
  220.2500    74.9070    84.4830    79.4880    74.6590    24.7960     2.2210   -20.1380 
  220.3750    71.2200    84.3100    78.8430    74.6430    24.8670     2.2250   -20.2480 
  220.5000    68.3000    85.1140    78.9880    76.2690    24.8620     2.2310   -20.4410 
  220.6250    68.3870    87.1100    80.1690    79.2200    24.8240     2.2330   -20.6820 
  220.7500    69.4490    90.1220    82.2940    82.5340    24.7870     2.2310   -20.7980 
  220.8750    70.5520    94.0890    85.3560    85.1720    24.7780     2.2260   -21.0420 
  221.0000    71.4950    98.9470    89.3230    84.2630    24.7890     2.2190   -21.3440 
  221.1250    72.3790   104.9630    94.4340    91.5960    24.8090     2.2140   -21.5100 
  221.2500    72.3460   112.3900   100.8420    98.2210    24.8530     2.2130   -21.7860 
  221.3750    70.2790   121.7780   108.9760   103.9620    24.9270     2.2160   -22.0900 
  221.5000    66.2690   133.4260   119.0880   111.6910    24.9680     2.2210   -22.2290 
  221.6250    63.0390   146.8500   130.8560   125.2980    24.8180     2.2250   -22.4530 
  221.7500    62.6280   159.5660   142.2630   137.8960    24.5100     2.2260   -22.7260 
  221.8750    64.2940   168.6730   150.9090   155.3700    24.2780     2.2260   -22.8070 
  222.0000    64.5200   171.5500   154.5190   168.1630    24.1820     2.2290   -22.8640 
  222.1250    62.7010   166.2710   151.1640   158.6500    24.1600     2.2340   -23.0450 
  222.2500    61.7270   156.1760   143.2660   132.8550    24.1140     2.2390   -23.0650 
  222.3750    62.5370   144.6170   133.4530   105.5500    23.9980     2.2380   -23.0670 
  222.5000    63.9820   134.5280   124.2950    85.5670    23.7950     2.2310   -23.1990 
  222.6250    66.0430   128.0990   117.9440    76.4340    23.4650     2.2200   -23.1900 
  222.7500    68.1920   124.9400   114.4070    72.1990    23.2790     2.2060   -23.2300 
  222.8750    68.9350   124.3500   113.2030    70.7460    23.3370     2.1940   -23.3380 
  223.0000    68.6400   125.2600   113.4570    68.5580    23.4430     2.1850   -23.3830 
  223.1250    68.4400   126.2640   113.9900    66.9420    23.4580     2.1820   -23.4080 
  223.2500    67.2910   126.1240   113.6760    67.5910    23.4070     2.1840   -23.4040 
  223.3750    65.0970   124.4180   112.0700    69.9170    23.3810     2.1930   -23.3900 
  223.5000    64.0840   121.5420   109.3930    71.0040    23.3840     2.2060   -23.4130 
  223.6250    66.0960   118.6940   106.5310    71.5510    23.4060     2.2200   -23.3950 
  223.7500    67.9470   117.1380   104.5800    71.3080    23.4660     2.2300   -23.2730 
  223.8750    66.8130   117.5250   104.1840    70.7690    23.6110     2.2300   -23.2100 
  224.0000    64.1040   119.8850   105.4920    72.6600    23.8970     2.2220   -23.1440 
  224.1250    64.3460   123.7410   108.2310    86.7840    24.2690     2.2130   -23.0030 
  224.2500    68.2240   127.8150   111.3030   106.6680    24.5490     2.2060   -22.9430 
  224.3750    72.2570   131.2140   113.9000   121.2660    24.7010     2.2060   -22.7740 
  224.5000    73.1270   133.3020   115.4270   125.0740    24.7540     2.2090   -22.4670 
  224.6250    70.5650   133.4210   115.3270   129.3690    24.7890     2.2110   -22.2550 
  224.7500    66.1870   131.6680   113.7190   131.5850    24.8630     2.2100   -21.9020 
  224.8750    62.4580   127.9250   110.5380   122.7660    24.9280     2.2150   -21.4680 
  225.0000    61.4670   122.1660   105.7480   101.4390    24.8520     2.2360   -21.2460 
  225.1250    64.2170   114.5120    99.3560    77.7180    24.7200     2.2780   -20.9960 
  225.2500    67.0970   106.2410    92.3190    62.3650    24.7480     2.3360   -20.6850 
  225.3750    67.4120    98.5760    85.6190    57.5870    24.8750     2.3830   -20.6070 
  225.5000    66.6290    92.6690    80.2530    59.8010    24.9650     2.3980   -20.5870 
  225.6250    67.2040    89.8530    77.4040    63.1140    24.8350     2.3770   -20.5110 
  225.7500    68.6450    90.0420    77.0830    68.5580    24.6670     2.3350   -20.6790 
  225.8750    71.0370    93.0840    79.1980    76.7490    24.5960     2.2950   -20.8330 
  226.0000    73.5970    98.4760    83.3340    89.2280    24.8190     2.2660   -20.8010 
  226.1250    75.4220   105.5130    88.9220   103.6750    24.9800     2.2460   -20.8560 
  226.2500    75.6430   112.7530    94.7930   114.8940    25.0240     2.2310   -20.8740 
  226.3750    75.1210   119.0360   100.0630   115.5680    25.0260     2.2190   -20.7320 
  226.5000    73.9560   123.3380   103.9650   114.2940    25.0320     2.2130   -20.6120 
  226.6250    70.7430   124.6090   105.7160   115.6820    25.0360     2.2130   -20.3980 
  226.7500    67.7300   123.4670   105.6920   116.5080    25.0360     2.2160   -20.0680 
  226.8750    67.6020   120.8370   104.4730   118.3420    25.0360     2.2210   -19.7570 
  227.0000    70.7380   118.2220   103.0540   115.3120    25.0360     2.2250   -19.3540 
  227.1250    72.4490   117.7760   102.9090   108.6400    25.0220     2.2290   -18.8800 
  227.2500    71.0430   120.0140   104.4650   104.2510    24.9870     2.2310   -18.4570 
  227.3750    69.6900   123.8550   106.9580   106.2840    24.9470     2.2270   -17.9430 
  227.5000    69.9350   126.2360   108.1550   112.2030    24.9080     2.2190   -17.3770 
  227.6250    69.6350   120.8530   103.2700   117.2430    24.8300     2.2180   -16.9390 
  227.7500    68.6380   104.8540    90.0020   117.1020    24.7060     2.2390   -16.4180 
  227.8750    69.3970    79.7030    69.2600   105.2570    24.6210     2.3020   -15.9210 
  228.0000    72.9810    52.2820    46.3120    84.2340    24.5590     2.3990   -15.6070 
  228.1250    79.9320    31.7050    28.5980    68.6000    24.4040     2.5060   -15.2330 
  228.2500    89.5660    19.2340    17.5260    35.5280    24.1760     2.5850   -14.9230 
  228.3750   100.9180    12.9710    11.6770    13.2130    24.1190     2.5970   -14.8740 
  228.5000   110.2120    10.5340     9.1150     7.5300    24.3730     2.5570   -14.8680 
  228.6250   112.7890    10.3050     8.5570     7.7630    24.7070     2.4970   -14.9310 
