~V
VERS. 2.00: Ver 2.00
~W
STRT.M 60.0000:
STOP.M 250.0000:
STEP.M 0.1250:
NULL. -999.2500:
UWI. DF3018:
~C
DEPT.M :
DEN.GM/CC :
GR.API :
RML.OHMM :
RI. :
RXO.OHMM :
CALI.CM :
SP.MV :
~A
# ...
   71.2500  -999.2500    95.3300     8.2540     6.7980     7.5260    23.4270   -17.7670 
   71.3750  -999.2500    97.1790     8.4360     7.0870     8.0480    23.2630   -18.1840 
   71.5000  -999.2500    94.5580     8.4680     7.2420     8.2940    23.2160   -18.5610 
   71.6250  -999.2500    90.0630     8.3830     7.2400     8.3210    23.2190   -18.8110 
   71.7500  -999.2500    88.6420     8.2620     7.1380     8.2460    23.2420   -18.9730 
   71.8750  -999.2500    91.7560     8.1310     6.9790     7.9970    23.3050   -19.0290 
   72.0000  -999.2500    96.2850     7.9920     6.7910     7.6000    23.4030   -19.0190 
   72.1250  -999.2500    97.7250     7.8290     6.5850     7.4470    23.5730   -18.9770 
   72.2500  -999.2500    96.1480     7.6520     6.3750     7.4770    23.8110   -18.9790 
   72.3750  -999.2500    95.1140     7.4940     6.1830     7.3000    24.0630   -19.0860 
   72.5000  -999.2500    97.7740     7.4010     6.0470     6.9340    24.2790   -19.2990 
   72.6250  -999.2500   101.9900     7.4360     6.0230     6.3510    24.3250   -19.6580 
   72.7500  -999.2500   102.6260     7.5900     6.1130     6.3050    24.1430   -20.0380 
   72.8750  -999.2500    98.0460     7.8400     6.3090     6.7500    23.8180   -20.3860 
   73.0000  -999.2500    90.5520     8.1440     6.5780     7.5790    23.5820   -20.6420 
   73.1250  -999.2500    86.9980     8.4540     6.8800     8.2830    23.5420   -20.7440 
   73.2500  -999.2500    86.6280     8.7250     7.1630     8.8960    23.5590   -20.6630 
   73.3750  -999.2500    86.9400     8.9190     7.3840     9.0460    23.5530   -20.3540 
   73.5000  -999.2500    87.7840     8.9900     7.4950     8.9250    23.5210   -19.8240 
   73.6250  -999.2500    88.1630     8.8580     7.4230     8.9990    23.5490   -19.0320 
   73.7500  -999.2500    89.3220     8.5450     7.1810     9.0340    23.6870   -18.1520 
   73.8750  -999.2500    93.4310     8.1110     6.8030     8.7190    23.9550   -17.2670 
   74.0000  -999.2500   101.6480     7.6640     6.3600     7.8180    24.3150   -16.4730 
   74.1250  -999.2500   108.6360     7.3310     5.9490     6.2470    24.5690   -15.7810 
   74.2500  -999.2500   111.6420     7.1310     5.6220     5.4830    24.6340   -15.2400 
   74.3750  -999.2500   111.9230     7.0080     5.3730     5.2350    24.5590   -14.8600 
   74.5000  -999.2500   109.8580     6.8610     5.1600     5.1710    24.4290   -14.6300 
   74.6250  -999.2500   106.3680     6.5640     4.9200     5.1200    24.3430   -14.6040 
   74.7500  -999.2500   104.2360     6.1450     4.6490     5.1370    24.3160   -14.6970 
   74.8750  -999.2500   103.5650     5.7660     4.4390     5.1960    24.3180   -14.9050 
   75.0000  -999.2500   103.8000     5.7000     4.4740     5.2770    24.3370   -15.1920 
   75.1250  -999.2500   105.3170     6.3860     5.1000     5.7380    24.3490   -15.6110 
   75.2500  -999.2500   107.2790     7.8870     6.4130     7.1280    24.3080   -16.1160 
   75.3750  -999.2500   103.7990    10.0760     8.3620    10.0570    24.2260   -16.6990 
   75.5000  -999.2500    91.1480    12.5200    10.6270    14.8620    24.1380   -17.3710 
   75.6250  -999.2500    75.6810    14.3580    12.4920    23.2780    24.0550   -18.0880 
   75.7500  -999.2500    65.9820    14.9660    13.3630    26.9920    23.9690   -18.8230 
   75.8750  -999.2500    61.8040    14.2610    13.0940    21.4870    23.9920   -19.5400 
   76.0000  -999.2500    61.5380    12.8470    12.0760    14.2700    24.2020   -20.1900 
   76.1250  -999.2500    65.1370    11.6660    10.9800    11.5560    24.4470   -20.7850 
   76.2500  -999.2500    68.3460    11.0540    10.2180    10.7310    24.6160   -21.3070 
   76.3750  -999.2500    68.2220    10.9250     9.8410    10.7390    24.6930   -21.7700 
   76.5000  -999.2500    67.1870    11.0880     9.7650    10.8690    24.6480   -22.1430 
   76.6250  -999.2500    67.9750    11.3590     9.8780    10.8400    24.3930   -22.4670 
   76.7500  -999.2500    68.7920    11.5960    10.0340    10.8260    24.0530   -22.7450 
   76.8750  -999.2500    69.3570    11.7660    10.1770    10.9070    23.8230   -23.0000 
   77.0000  -999.2500    70.4290    11.8920    10.2920    11.0960    23.7130   -23.2420 
   77.1250  -999.2500    70.0910    12.0030    10.3890    11.0730    23.6050   -23.4080 
   77.2500  -999.2500    67.1340    12.1100    10.4770    11.2080    23.4850   -23.5410 
   77.3750  -999.2500    64.1180    12.1950    10.5430    11.3100    23.4070   -23.6050 
   77.5000  -999.2500    62.6540    12.2350    10.5630    11.4280    23.3740   -23.6210 
   77.6250  -999.2500    62.1600    12.1980    10.5010    11.6080    23.3360   -23.5840 
   77.7500  -999.2500    63.5270    12.0910    10.3620    11.8690    23.2770   -23.5410 
   77.8750  -999.2500    67.0780    11.9320    10.1670    12.0710    23.2500   -23.4980 
   78.0000  -999.2500    70.8290    11.7440     9.9460    12.0930    23.2710   -23.4980 
   78.1250  -999.2500    71.9340    11.5500     9.7350    11.8470    23.2770   -23.5550 
   78.2500  -999.2500    71.7280    11.3690     9.5540    11.6860    23.2550   -23.6300 
   78.3750  -999.2500    72.1330    11.2150     9.4110    11.5970    23.2280   -23.7180 
   78.5000  -999.2500    72.2970    11.1100     9.3110    11.3860    23.2160   -23.8220 
   78.6250  -999.2500    70.5160    11.0890     9.2660    11.1400    23.2410   -23.9120 
   78.7500  -999.2500    66.7180    11.1460     9.2680    10.9220    23.2990   -23.9930 
   78.8750  -999.2500    63.0850    11.2600     9.3070    10.8930    23.3580   -24.0420 
   79.0000  -999.2500    62.7340    11.3890     9.3620    11.3740    23.3820   -24.0420 
   79.1250  -999.2500    65.4540    11.4790     9.4050    11.5810    23.3820   -24.0400 
   79.2500  -999.2500    69.7970    11.5130     9.4200    11.4110    23.3780   -24.0480 
   79.3750  -999.2500    74.3950    11.5060     9.4130    11.0280    23.3550   -24.0970 
   79.5000  -999.2500    75.1520    11.4950     9.4030    10.6670    23.2970   -24.2000 
   79.6250  -999.2500    71.3620    11.5290     9.4230    10.5140    23.2540   -24.3770 
   79.7500  -999.2500    67.8090    11.6170     9.4850    10.6350    23.2590   -24.5640 
   79.8750  -999.2500    65.6430    11.7400     9.5830    11.1480    23.2700   -24.7630 
   80.0000  -999.2500    62.9470    11.8590     9.6900    11.7290    23.2450   -24.9570 
   80.1250  -999.2500    60.4740    11.9180     9.7640    12.0360    23.1720   -25.0730 
   80.2500  -999.2500    59.8510    11.9080     9.7840    12.2630    23.1580   -25.1370 
   80.3750  -999.2500    59.3750    11.8450     9.7510    12.3870    23.2010   -25.1330 
   80.5000  -999.2500    58.1040    11.7710     9.6880    12.4520    23.2540   -25.0430 
   80.6250  -999.2500    59.3300    11.7400     9.6320    12.3360    23.2570   -24.8760 
   80.7500  -999.2500    60.4780    11.7620     9.6040    12.3830    23.2320   -24.6760 
   80.8750  -999.2500    60.3320    11.8200     9.5980    12.4940    23.2240   -24.4540 
   81.0000  -999.2500    61.7630    11.8840     9.5970    12.5910    23.2490   -24.2250 
   81.1250  -999.2500    67.4530    11.9180     9.5770    12.5470    23.3210   -24.0390 
   81.2500  -999.2500    72.0540    11.9120     9.5300    12.3140    23.3990   -23.8830 
   81.3750  -999.2500    70.9870    11.8650     9.4550    11.9440    23.4420   -23.7500 
   81.5000  -999.2500    67.6330    11.7740     9.3560    11.7910    23.4290   -23.6450 
   81.6250  -999.2500    67.1800    11.6170     9.2230    11.8660    23.3660   -23.5320 
   81.7500  -999.2500    69.2630    11.4000     9.0630    11.9100    23.3000   -23.4280 
   81.8750  -999.2500    71.2250    11.1490     8.8900    11.9240    23.2500   -23.3290 
   82.0000  -999.2500    72.5490    10.9290     8.7380    11.9160    23.2150   -23.2480 
   82.1250  -999.2500    72.1940    10.8560     8.6810    11.9560    23.1810   -23.1780 
   82.2500  -999.2500    70.9180    10.9820     8.7610    12.0330    23.1460   -23.1170 
   82.3750  -999.2500    69.3060    11.3050     8.9920    12.2140    23.1430   -23.0650 
