~V
VERS. 2.00: Ver 2.00
~W
STRT.M 60.0000:
STOP.M 280.0000:
STEP.M 0.1250:
NULL. -999.2500:
UWI. DF3041:
~C
DEPT.M :
SP.MV :
GR.API :
RML.OHMM :
RI. :
RXO.OHMM :
CALI.CM :
DEN.GM/CC :
~A
# ...
  273.7500    -9.7720    74.8960    21.4820    19.8560    13.1680    17.0190     2.4890 
  273.8750    -9.8820    74.8960    21.4820    19.8560    12.7500    16.5540     2.4960 
  274.0000    -9.9490    74.8960    21.4830    19.8570    12.5050    16.2160     2.5010 
  274.1250   -10.0710    74.8960    21.4870    19.8610    12.4210    16.0690     2.5020 
  274.2500   -10.2290    74.8960    21.4930    19.8670    12.7550    16.0280     2.4990 
  274.3750   -10.3470    74.8960    21.4950    19.8690    13.4600    16.0430     2.4920 
  274.5000   -10.4060    74.8960    21.4820    19.8560    14.2580    16.1000     2.4820 
  274.6250   -10.4810    74.8960    21.4360    19.8110    14.8940    16.2030     2.4710 
  274.7500   -10.5500    74.8960    21.3520    19.7300    14.6400    16.2960     2.4600 
  274.8750   -10.6600    74.8960    21.2350    19.6160    14.1780    16.3210     2.4490 
  275.0000   -10.7360    74.8960    21.1020    19.4880    14.0170    16.2830     2.4360 
  275.1250   -10.6930    74.8960    20.9850    19.3740    13.7960    16.1630     2.4170 
  275.2500   -10.6630    74.8960    20.9010    19.2920    13.5300    15.9470     2.3910 
  275.3750   -10.7150    74.8960    20.8550    19.2470    13.4150    15.6710     2.3620 
  275.5000   -10.7420    74.8960    20.8380    19.2310    13.3710    15.4160     2.3340 
  275.6250   -10.7570    74.8960    20.8380    19.2310    13.0590    15.1550     2.3120 
  275.7500   -10.7450    74.8960    20.8380    19.2310    12.5200    14.9000     2.2970 
  275.8750   -10.6920    74.8960    20.8380    19.2310    11.9940    14.6890     2.2850 
  276.0000   -10.6930    74.8960    20.8380    19.2310    11.8220    14.5070     2.2680 
  276.1250   -10.6810    74.8960    20.8380    19.2310    11.9040    14.3250     2.2450 
  276.2500   -10.7540    74.8960    20.8380    19.2310    12.3060    14.1800     2.2200 
  276.3750   -10.8960    74.8960    20.8380    19.2310    12.6910    14.1030     2.1950 
  276.5000   -11.0350    74.8960    20.8380    19.2310    13.0860    14.0850     2.1700 
  276.6250   -11.2550    74.8960    20.8380    19.2310    13.3650    14.1260     2.1400 
  276.7500   -11.4870    74.8960    20.8380    19.2310    13.4110    14.2590     2.1010 
  276.8750   -11.6640    74.8960    20.8380    19.2310    13.2050    14.4720     2.0530 
  277.0000   -11.8840    74.8960    20.8380    19.2310    13.0490    14.6910     2.0040 
  277.1250   -12.1870    74.8960    20.8380    19.2310    12.8050    14.7220     1.9660 
  277.2500   -12.3110    74.8960    20.8380    19.2310    12.5410    14.5980     1.9410 
  277.3750   -12.3110    74.8960    20.8380    19.2310    12.2280    14.4110     1.9310 
  277.5000   -12.3110    74.8960    20.8380    19.2310    12.0610    14.2910     1.9310 
  277.6250  -999.2500    74.8960    20.8380    19.2310    12.0350    14.2620     1.9320 
  277.7500  -999.2500    74.8960    20.8380    19.2310    12.0360    14.2580     1.9330 
  277.8750  -999.2500    74.8960    20.8380    19.2310    12.0360    14.2580     1.9310 
  278.0000  -999.2500    74.8960    20.8380    19.2310    12.0350    14.2580     1.9280 
  278.1250  -999.2500    74.8960    20.8380    19.2310    12.0360    14.2580     1.9240 
  278.2500  -999.2500    74.8960    20.8380    19.2310    12.0370    14.2580     1.9200 
  278.3750  -999.2500    74.8960    20.8380    19.2310    12.0350    14.2580     1.9160 
  278.5000  -999.2500    74.8960    20.8380    19.2310    12.0330    14.2580     1.9140 
  278.6250  -999.2500    74.8960    20.8380    19.2310    12.0310    14.2580     1.9150 
  278.7500  -999.2500    74.8960    20.8380    19.2310    12.0310    14.2580     1.9180 
  278.8750  -999.2500    74.8960    20.8380    19.2310    12.0310    14.2580     1.9230 
  279.0000  -999.2500    74.8960    20.8380    19.2310    12.0310    14.2580     1.9280 
  279.1250  -999.2500    74.8960    20.8380    19.2310    12.0310    14.2580     1.9320 
  279.2500  -999.2500    74.8960    20.8380    19.2310    12.0310    14.2580     1.9330 
  279.3750  -999.2500    74.8960    20.8340    19.2310    12.0320    14.2580     1.9340 
  279.5000  -999.2500    74.8960    20.8390    19.2310    12.0320    14.2580     1.9340 
  279.6250  -999.2500    74.8960    20.8560    19.2310    12.0320    14.2580  -999.2500 
  279.7500  -999.2500    74.8960    20.8650    19.2310    12.0310    14.2580  -999.2500 
  279.8750  -999.2500    74.8960    20.8510    19.2310    12.0310    14.2580  -999.2500 
  280.0000  -999.2500    74.8960    20.7470    19.2310    12.0310    14.2580  -999.2500 
