~V
VERS. 2.00: Ver 2.00
~W
STRT.M 105.0000:
STOP.M 279.0000:
STEP.M 0.1250:
NULL. -999.2500:
UWI. DF3027:
~C
DEPT.M :
DEN.GM/CC :
AC.US/MT :
GR.API :
CALI.CM :
RXO.OHMM :
RI. :
RML.OHMM :
SP.MV :
~A
# ...
  205.0000     2.2950   392.2220    72.6950    27.6510    68.4350    72.9800    77.8840   -25.8690 
  205.1250     2.3020   383.0730    71.4050    27.5070    61.9090    68.6240    73.5960   -25.6700 
  205.2500     2.3040   369.0260    69.9680    27.4000    56.6320    66.6660    72.1970   -25.4940 
  205.3750     2.3100   352.2090    71.0030    27.3270    56.4830    67.7300    74.3070   -25.3530 
  205.5000     2.3160   337.0360    72.4680    27.2760    63.2580    72.3260    80.4290   -25.2690 
  205.6250     2.3080   330.4380    71.9350    27.2350    76.6230    81.4120    91.5800   -25.2580 
  205.7500     2.2800   334.4530    67.7230    27.1990    93.2800    94.0890   106.7300   -25.2870 
  205.8750     2.2450   347.9210    61.6080    27.1670   110.5730   109.2270   124.6040   -25.3440 
  206.0000     2.2210   366.3600    57.5800    27.1360   122.7290   124.7610   142.7460   -25.4080 
  206.1250     2.2220   383.0050    58.7230    27.1070   123.5580   137.3660   156.9900   -25.4540 
  206.2500     2.2320   393.6630    63.4280    27.0710   121.2370   145.2590   165.1920   -25.4740 
  206.3750     2.2370   397.9440    66.7470    27.0230   123.3950   147.9720   167.0110   -25.4570 
  206.5000     2.2320   397.9910    67.3750    26.9730   126.9880   146.4110   163.9050   -25.4000 
  206.6250     2.2230   396.6430    66.9240    26.9850   124.0760   142.2190   158.1520   -25.3060 
  206.7500     2.2170   395.6130    66.2530    27.0850   119.4040   137.7240   152.3860   -25.2190 
  206.8750     2.2150   394.7150    64.8680    27.2250   119.2710   133.9760   147.6290   -25.1600 
  207.0000     2.2160   393.3250    62.8810    27.3250   122.5290   131.3280   144.0720   -25.0490 
  207.1250     2.2180   391.1040    62.4320    27.3420   123.7310   129.4930   141.1620   -24.9230 
  207.2500     2.2150   388.7150    64.5980    27.3180   121.1390   127.3000   137.5180   -24.7800 
  207.3750     2.2090   386.8150    65.7980    27.2700   113.6930   123.4600   131.7170   -24.6320 
  207.5000     2.2040   385.5990    64.1310    27.1600   100.7820   116.7940   122.6440   -24.4820 
  207.6250     2.2060   384.5910    62.1850    26.9100    86.3550   106.5300   109.9400   -24.3450 
  207.7500     2.2130   383.1990    62.3650    26.5900    75.2400    94.5530    96.0460   -24.2110 
  207.8750     2.2260   381.4920    64.6540    26.3260    66.7000    82.9440    83.3000   -24.0760 
  208.0000     2.2440   379.9000    67.5000    26.1660    58.9310    73.6210    73.5920   -23.9470 
  208.1250     2.2640   378.0420    68.9800    26.0210    54.0110    68.5310    68.7680   -23.8210 
  208.2500     2.2740   373.4970    68.7830    25.8410    54.0740    67.6050    68.4260   -23.7080 
  208.3750     2.2690   362.7630    68.5980    25.6680    59.8920    70.7710    72.2610   -23.6020 
  208.5000     2.2550   343.6270    69.1580    25.5250    74.3950    77.4180    79.4110   -23.4970 
  208.6250     2.2460   317.7050    67.3910    25.4010   116.2430    86.0950    88.1060   -23.3710 
  208.7500     2.2480   293.6730    63.5240    25.3090   214.1180    93.6930    95.2010   -23.2320 
  208.8750     2.2490   279.1260    62.5410    25.3100   355.9770    97.7170    98.3330   -23.0900 
  209.0000     2.2390   278.1610    65.2410    25.4350   402.3950    97.1760    96.8740   -22.9520 
  209.1250     2.2250   290.6800    69.9940    25.5360   282.7120    93.0360    92.3370   -22.8390 
  209.2500     2.2200   308.3250    73.8750    25.4150   149.0160    88.5260    88.0680   -22.7670 
  209.3750     2.2250   325.4960    75.2310    25.1130    91.5670    85.5630    85.8660   -22.7360 
  209.5000     2.2310   338.9580    73.3310    24.8280    76.9970    85.0300    86.4140   -22.7400 
  209.6250     2.2340   347.3980    69.1890    24.7690    80.9160    87.1950    89.8320   -22.7790 
  209.7500     2.2360   352.8520    66.1770    24.9140    89.2670    90.9900    94.9330   -22.8620 
  209.8750     2.2380   357.1570    65.4090    25.1440    97.4550    95.8420   101.0950   -22.9730 
  210.0000     2.2380   361.9000    66.8080    25.2230   102.3700   101.4000   107.9390   -23.0910 
  210.1250     2.2340   367.5600    68.3900    24.9750   105.1130   107.4560   115.2560   -23.1900 
  210.2500     2.2290   372.5150    68.5450    24.6490   114.4320   113.6810   122.6950   -23.2460 
  210.3750     2.2270   374.8960    69.9890    24.4450   133.0410   119.8070   129.8870   -23.2570 
  210.5000     2.2340   374.0700    72.7590    24.3500   148.0620   125.4920   136.3730   -23.2340 
  210.6250     2.2430   371.7210    73.1200    24.2540   145.6030   130.2530   141.6040   -23.2110 
  210.7500     2.2430   371.0960    70.4350    24.1490   141.4140   134.2500   145.9140   -23.1860 
  210.8750     2.2300   373.5240    69.2940    24.0770   150.7700   137.8960   149.8540   -23.1670 
  211.0000     2.2140   378.1780    68.8630    24.0320   167.0710   141.6630   153.9830   -23.1570 
  211.1250     2.2060   382.6260    65.9210    23.9880   172.6640   145.8280   158.5890   -23.1480 
  211.2500     2.2130   385.1700    64.9050    23.9370   171.6380   149.7790   162.9170   -23.1440 
  211.3750     2.2290   385.8090    68.1680    23.8960   171.9310   152.1230   165.3430   -23.1570 
  211.5000     2.2410   385.3800    70.8160    23.8630   171.3860   151.1550   163.9090   -23.1750 
  211.6250     2.2400   384.4970    69.5730    23.8110   164.9790   145.1520   156.7160   -23.1920 
  211.7500     2.2320   383.1810    68.7980    23.7540   154.0140   135.6270   145.7350   -23.1920 
  211.8750     2.2270   381.3520    70.3540    23.7240   136.8660   124.6120   133.5470   -23.1610 
  212.0000     2.2310   379.3580    72.4910    23.7210   114.9760   114.6290   123.1070   -23.1060 
  212.1250     2.2430   377.6010    73.9330    23.7240    97.7620   108.6200   117.5810   -23.0440 
  212.2500     2.2540   375.5220    74.6940    23.7230    91.7910   107.1220   117.2030   -23.0010 
  212.3750     2.2610   372.1740    75.1700    23.7230    98.1380   109.8690   121.5170   -22.9860 
  212.5000     2.2670   367.4550    74.7550    23.7230   114.2580   115.5700   129.0120   -23.0250 
  212.6250     2.2750   363.3670    73.5890    23.7240   131.3700   121.7840   136.8250   -23.1360 
  212.7500     2.2820   362.4180    72.5370    23.7220   137.8250   125.9530   142.0190   -23.3140 
  212.8750     2.2850   365.4320    72.5350    23.7100   131.7750   127.2910   143.8340   -23.5780 
  213.0000     2.2840   371.5930    72.7680    23.6880   121.0440   126.6940   143.6040   -23.9140 
  213.1250     2.2750   379.4740    72.0340    23.6700   117.1280   126.1640   143.8980   -24.3100 
  213.2500     2.2600   387.3640    69.9350    23.6640   124.3020   127.2430   146.3220   -24.7000 
  213.3750     2.2460   394.1940    68.5560    23.6660   140.9240   130.3000   151.0600   -25.0480 
  213.5000     2.2400   399.0350    69.0490    23.6660   155.8840   134.8770   157.3710   -25.3350 
  213.6250     2.2330   400.8600    69.0600    23.6570   153.7570   140.0360   163.9760   -25.5130 
  213.7500     2.2160   400.2770    67.8870    23.6330   143.2500   144.7800   169.7460   -25.6070 
  213.8750     2.1890   398.1210    67.7340    23.5910   140.3310   148.5760   174.0600   -25.5970 
  214.0000     2.1660   395.1000    69.1490    23.5570   150.0410   150.9850   176.3480   -25.4810 
  214.1250     2.1610   390.3630    69.4270    23.7550   161.7930   151.1830   175.4930   -25.2730 
  214.2500     2.1710   382.7480    66.3570    24.2910   162.5150   149.0710   171.5060   -25.0030 
  214.3750     2.1930   372.2860    62.9680    24.9340   150.0000   144.5800   164.5710   -24.6810 
  214.5000     2.2200   361.1140    62.7750    25.2690   131.1750   138.1290   155.5580   -24.3130 
  214.6250     2.2430   353.0780    66.4000    25.0530   117.2220   130.4650   145.6400   -23.9020 
  214.7500     2.2580   349.3420    69.9430    24.6370   110.9860   122.5420   135.7910   -23.4330 
  214.8750     2.2670   349.0330    69.0330    24.2760   106.6140   114.6680   126.2070   -22.9150 
