~V
VERS. 2.00: Ver 2.00
~W
STRT.M 55.0000:
STOP.M 252.0000:
STEP.M 0.1250:
NULL. -999.2500:
UWI. DF3024:
~C
DEPT.M :
GR.API :
RML.OHMM :
RI. :
RXO.OHMM :
CALI.CM :
DEN.GM/CC :
SP.MV :
~A
# ...
  122.5000    70.8550     9.6820     8.1420     8.2710    23.6900     2.2400   -30.8110 
  122.6250    69.3870     9.8830     8.3190     8.3780    23.6990     2.2430   -30.8580 
  122.7500    68.5190     9.9720     8.4150     8.5150    23.7010     2.2420   -30.7440 
  122.8750    69.9010     9.9160     8.3970     8.6500    23.7030     2.2370   -30.5060 
  123.0000    72.4430     9.7180     8.2550     8.6990    23.7020     2.2310   -30.3410 
  123.1250    74.1600     9.4250     8.0160     8.7450    23.7050     2.2310   -30.0240 
  123.2500    74.1730     9.1520     7.7710     8.6780    23.7190     2.2400   -29.4870 
  123.3750    73.8320     8.9990     7.5990     8.5860    23.7460     2.2590   -28.9770 
  123.5000    74.2650     9.0390     7.5690     8.4710    23.7700     2.2850   -28.4490 
  123.6250    76.1090     9.3290     7.7480     8.7550    23.7810     2.3110   -27.6940 
  123.7500    78.2620     9.7920     8.1020     9.6690    23.7850     2.3310   -26.9570 
  123.8750    76.7370    10.3850     8.6100    11.3790    23.7910     2.3420   -26.2660 
  124.0000    71.1360    11.1380     9.2840    14.0690    23.8280     2.3470   -25.4460 
  124.1250    67.0190    12.2570    10.2630    17.1100    23.9260     2.3520   -24.7570 
  124.2500    65.4240    13.8770    11.6390    16.5010    24.0380     2.3680   -24.2990 
  124.3750    64.2970    16.0030    13.4400    14.3040    24.1020     2.4020   -23.8550 
  124.5000    62.3080    18.3050    15.4760    14.4750    24.1570     2.4570   -23.4750 
  124.6250    61.4310    19.9310    17.1220    17.5300    24.2010     2.5280   -23.4440 
  124.7500    62.8220    20.1510    17.7210    20.4740    24.2150     2.5880   -23.5820 
  124.8750    65.7750    18.7040    16.8990    22.9710    24.1890     2.6140   -23.7880 
  125.0000    70.7280    15.9570    14.8450    25.6020    24.1280     2.5880   -24.1280 
  125.1250    74.6330    13.0410    12.3380    20.6580    24.0170     2.5130   -24.5510 
  125.2500    75.6470    10.8840    10.3000    12.8890    23.9070     2.4220   -24.9270 
  125.3750    75.5800     9.6640     9.0670     8.9710    23.8550     2.3400   -25.2220 
  125.5000    77.7100     9.2780     8.6130     8.0580    23.8350     2.2870   -25.4520 
  125.6250    80.4390     9.4360     8.7200     8.5870    23.8690     2.2800   -25.4840 
  125.7500    80.0610     9.5430     8.9040     9.5390    23.9460     2.3100   -25.2420 
  125.8750    78.6590     9.2870     8.8470    10.6670    24.0760     2.3580   -24.9210 
  126.0000    78.2560     8.6050     8.3900    12.0540    24.1890     2.4010   -24.6410 
  126.1250    79.1800     7.7060     7.6040    11.6570    24.2310     2.4110   -24.1890 
  126.2500    82.4530     6.9700     6.8310     8.5900    24.2380     2.3930   -23.6910 
  126.3750    86.9960     6.5760     6.2780     6.0520    24.2520     2.3580   -23.3770 
  126.5000    89.5060     6.5140     6.0050     5.4630    24.2880     2.3240   -23.1090 
  126.6250    87.9190     6.6400     5.9730     5.8590    24.3620     2.3010   -22.7970 
  126.7500    87.0840     6.7300     6.0100     6.1140    24.3940     2.2880   -22.6900 
  126.8750    89.5270     6.6830     6.0110     6.3410    24.4020     2.2820   -22.6480 
  127.0000    91.4540     6.5260     5.9430     6.4620    24.4020     2.2790   -22.4620 
  127.1250    89.3160     6.4880     5.9090     6.3730    24.3650     2.2780   -22.3610 
  127.2500    85.8540     6.8850     6.1320     6.3850    24.2680     2.2830   -22.2910 
  127.3750    83.0470     8.0030     6.8580     7.1660    24.1570     2.3060   -22.0370 
  127.5000    78.9870     9.9790     8.2650     8.9530    24.1190     2.3570   -21.7660 
  127.6250    71.1550    12.7010    10.3900    11.8740    24.1610     2.4390   -21.6060 
  127.7500    63.0450    15.3790    12.6770    16.1540    24.1870     2.5240   -21.3360 
  127.8750    57.8350    17.1620    14.4330    21.2840    24.1820     2.5860   -21.0470 
  128.0000    57.5610    17.3500    14.9700    24.0840    24.1700     2.5990   -20.9540 
  128.1250    63.8970    15.6010    13.8010    22.8130    24.1630     2.5560   -20.9190 
  128.2500    73.5900    12.9800    11.7260    17.8270    24.1620     2.4890   -20.7980 
  128.3750    82.8210    10.4170     9.5350    12.4180    24.1590     2.4220   -20.7330 
  128.5000    90.4010     8.5030     7.7630     7.7580    24.1580     2.3730   -20.7830 
  128.6250    94.4480     7.4710     6.6590     6.3560    24.1580     2.3550   -20.8410 
  128.7500    95.5080     6.9830     6.0230     5.8420    24.1540     2.3570   -20.9140 
  128.8750    96.3190     6.7900     5.7010     5.6610    24.1360     2.3690   -21.0750 
  129.0000    99.3570     6.7000     5.5550     5.5590    24.0970     2.3800   -21.2350 
  129.1250   100.8100     6.6220     5.5040     5.6000    24.0750     2.3840   -21.2930 
  129.2500    98.3360     6.6160     5.5450     5.6390    24.0490     2.3790   -21.4450 
  129.3750    94.5740     6.8360     5.7670     5.6700    23.9940     2.3660   -21.7490 
  129.5000    90.9400     7.4250     6.2710     5.8730    23.9140     2.3470   -21.9310 
  129.6250    84.2600     8.4430     7.1290     6.4890    23.8990     2.3370   -22.0300 
  129.7500    77.0460     9.5870     8.1260     7.7380    23.9330     2.3460   -22.1530 
  129.8750    74.4930    10.4940     8.9780     9.4950    24.0260     2.3750   -22.0800 
  130.0000    76.9820    10.8230     9.3720    11.7670    24.1630     2.4150   -21.8390 
  130.1250    81.5280    10.3220     9.0310    13.5910    24.2430     2.4380   -21.6910 
  130.2500    86.1220     9.3500     8.2210    11.9070    24.2900     2.4320   -21.4880 
  130.3750    90.5680     8.3140     7.2920     8.0800    24.2950     2.3990   -21.1480 
  130.5000    93.5920     7.5600     6.5540     6.1740    24.2470     2.3580   -20.9300 
  130.6250    92.6960     7.2940     6.2060     5.9180    24.1740     2.3270   -20.7540 
  130.7500    91.1170     7.3650     6.1580     6.0670    24.1060     2.3120   -20.5050 
  130.8750    93.5650     7.6020     6.2980     6.3230    24.0870     2.3110   -20.3990 
  131.0000    99.6170     7.8260     6.4900     6.3720    24.0540     2.3170   -20.4350 
  131.1250   103.0340     7.8840     6.5990     6.3980    23.9960     2.3280   -20.3620 
  131.2500   104.2130     7.7800     6.5910     6.4260    23.9910     2.3360   -20.2340 
  131.3750   104.5790     7.5820     6.4960     6.4000    24.0890     2.3400   -20.1930 
  131.5000   101.5840     7.3900     6.3790     6.1220    24.1930     2.3380   -20.1850 
  131.6250    96.1760     7.3210     6.3310     5.9280    24.2180     2.3310   -20.1450 
  131.7500    94.7420     7.4080     6.3930     5.8990    24.1750     2.3230   -20.1610 
  131.8750    96.9320     7.6380     6.5630     6.0550    24.0580     2.3150   -20.2260 
  132.0000    97.9860     7.9400     6.7940     6.2720    23.8750     2.3070   -20.2030 
  132.1250    96.5550     8.1770     6.9790     6.5910    23.7250     2.2950   -20.0660 
  132.2500    94.1980     8.2350     7.0230     6.8990    23.7400     2.2780   -19.9840 
  132.3750    91.8500     8.0690     6.8860     7.1300    23.8710     2.2580   -19.8780 
  132.5000    92.6220     7.7290     6.5950     7.1870    24.0720     2.2410   -19.5810 
  132.6250    97.0500     7.3710     6.2620     6.4050    24.1460     2.2360   -19.2950 
  132.7500    98.3400     7.1930     6.0420     5.8800    24.1780     2.2480   -19.0920 
  132.8750    96.7250     7.3140     6.0350     5.7030    24.2110     2.2740   -18.7520 
  133.0000    95.3380     7.7480     6.2700     5.9890    24.2480     2.3090   -18.3910 
  133.1250    93.9250     8.3830     6.7050     6.6630    24.2730     2.3400   -18.2620 
  133.2500    91.4810     8.9520     7.1550     7.6400    24.2550     2.3600   -18.1130 
  133.3750    88.9200     9.2710     7.4800     8.8390    24.2330     2.3660   -17.8900 
  133.5000    87.4300     9.2890     7.6110    10.0800    24.2310     2.3610   -17.8170 
  133.6250    86.3010     9.1650     7.6100    10.5580    24.2340     2.3570   -17.6870 
