~V
VERS. 2.00: Ver 2.00
~W
STRT.M 110.0000:
STOP.M 277.0000:
STEP.M 0.1250:
NULL. -999.2500:
UWI. DF3015:
~C
DEPT.M :
DEN.GM/CC :
SP.MV :
AC.US/MT :
GR.API :
CALI.CM :
RXO.OHMM :
RI. :
RML.OHMM :
~A
# ...
  240.0000     2.3570    -8.8480   339.2500    68.6450    25.3340    30.2400    28.4430    31.2330 
  240.1250     2.3400    -9.0130   330.1750    64.0590    25.2850    37.5260    31.3840    34.5320 
  240.2500     2.3390    -9.1370   315.1590    58.8910    25.1940    42.9690    34.5820    38.0390 
  240.3750     2.3660    -9.1910   298.1560    54.0290    25.0560    46.0430    37.5300    41.2010 
  240.5000     2.4020    -9.1970   284.8040    52.4930    24.8240    49.2270    39.7070    43.4080 
  240.6250     2.4300    -9.1490   278.4510    58.2770    24.5410    50.8300    40.0740    43.3330 
  240.7500     2.4550    -9.0660   275.5840    71.3540    24.3590    50.2710    38.0120    40.2990 
  240.8750     2.4850    -8.9740   273.6140    85.2490    24.2710    45.2320    33.3700    34.4520 
  241.0000     2.5130    -8.9090   273.2910    91.4340    24.2470    33.8830    27.0520    27.1970 
  241.1250     2.5150    -8.8750   279.6290    87.8050    24.2970    20.9390    20.8100    20.5990 
  241.2500     2.4890    -8.8280   294.0440    80.6420    24.4600    13.1860    15.8870    15.6470 
  241.3750     2.4500    -8.7460   312.6930    78.0100    24.7110     9.7940    12.5400    12.4250 
  241.5000     2.4230    -8.6670   327.9110    79.4830    24.8830     8.5720    10.5480    10.6470 
  241.6250     2.4220    -8.5800   332.3750    80.4430    24.9330     8.7480     9.7030    10.0880 
  241.7500     2.4350    -8.4890   327.8620    79.9690    24.9390     9.5990     9.5450    10.2180 
  241.8750     2.4470    -8.4340   318.2400    80.5700    24.9420    10.5550     9.8460    10.7300 
  242.0000     2.4510    -8.3790   308.1840    81.6780    24.9410    11.3060    10.3550    11.3160 
  242.1250     2.4540    -8.2800   301.7920    82.0370    24.9320    11.5430    10.7980    11.6930 
  242.2500     2.4560    -8.2140   299.0810    81.0670    24.8970    11.5540    11.0390    11.8150 
  242.3750     2.4530    -8.2190   298.6170    78.0850    24.8230    11.1870    11.0760    11.7410 
  242.5000     2.4460    -8.2910   299.3390    75.2140    24.7760    10.7120    10.9720    11.5710 
  242.6250     2.4410    -8.4140   300.8960    74.2460    24.7980    10.7830    10.8190    11.4210 
  242.7500     2.4390    -8.4990   302.4640    75.4220    24.9030    11.2290    10.6990    11.3610 
  242.8750     2.4380    -8.5100   303.3590    78.5340    25.1060    11.8540    10.6290    11.3990 
  243.0000     2.4340    -8.5130   303.2020    82.2340    25.4450    12.3900    10.5970    11.5010 
  243.1250     2.4280    -8.5880   301.9610    83.3880    25.6070    12.4060    10.5700    11.6090 
  243.2500     2.4270    -8.6300   300.2400    80.5280    25.6570    12.2230    10.5250    11.6730 
  243.3750     2.4330    -8.5720   298.4300    76.7940    25.6570    11.9690    10.4580    11.6860 
  243.5000     2.4430    -8.4320   296.7830    76.1570    25.6570    11.6780    10.3860    11.6710 
  243.6250     2.4550    -8.2810   295.5300    77.8490    25.6570    11.2800    10.3370    11.6710 
  243.7500     2.4610    -8.1740   294.8750    80.5170    25.6570    11.0490    10.3270    11.7110 
  243.8750     2.4750    -8.0920   295.1370    82.0200    25.6570    10.9490    10.3600    11.7990 
  244.0000     2.4790    -7.9760   296.3020    82.5780    25.6570    10.9740    10.4280    11.9280 
  244.1250     2.4800    -7.7900   297.6820    83.5380    25.6570    11.1870    10.5150    12.0810 
  244.2500     2.4820    -7.6710   298.2110    84.5300    25.6570    11.8060    10.5890    12.2210 
  244.3750     2.4840    -7.6620   297.5270    83.8380    25.6570    12.3300    10.6260    12.3140 
  244.5000     2.4790    -7.7480   296.1930    82.3940    25.6570    12.1370    10.6050    12.3310 
  244.6250     2.4630    -7.8790   295.5860    81.3130    25.6570    11.6170    10.5060    12.2420 
  244.7500     2.4420    -8.0030   296.3220    80.8230    25.6570    11.1190    10.3510    12.0780 
  244.8750     2.4240    -8.1320   297.9890    82.2100    25.6570    10.9300    10.1720    11.8840 
  245.0000     2.4120    -8.2380   299.7280    84.2890    25.6570    11.0150    10.0110    11.7130 
  245.1250     2.4070    -8.3250   300.9660    84.9210    25.6570    11.0330     9.9170    11.6380 
  245.2500     2.4130    -8.3750   301.5250    83.5650    25.6570    11.1390     9.9050    11.6760 
  245.3750     2.4310    -8.3650   301.3340    81.1560    25.6570    11.5040     9.9730    11.8190 
  245.5000     2.4490    -8.2510   300.5120    78.3910    25.6570    11.9820    10.0900    12.0140 
  245.6250     2.4470    -8.0520   299.7300    75.8160    25.6560    13.2480    10.2000    12.1680 
  245.7500     2.4200    -7.8520   299.9710    74.3060    25.6540    14.2740    10.2580    12.2270 
  245.8750     2.3840    -7.6270   301.6730    73.0940    25.6640    13.7830    10.2550    12.1900 
  246.0000     2.3720    -7.4060   304.4740    72.3910    25.7030    11.8430    10.2090    12.0970 
  246.1250     2.3810    -7.2110   307.1550    71.7840    25.7850    10.2550    10.1630    12.0140 
  246.2500     2.3970    -7.0130   308.8840    70.5600    25.7710     9.8360    10.1580    11.9930 
  246.3750     2.4050    -6.8350   309.9500    70.4350    25.5430     9.7070    10.2160    12.0540 
  246.5000     2.4060    -6.6810   311.0370    71.8110    25.1240     9.5400    10.3400    12.1980 
  246.6250     2.4080    -6.5280   312.4410    73.2130    24.9260     9.3030    10.5310    12.4240 
  246.7500     2.4230    -6.3220   313.1190    74.1770    24.8680     9.1830    10.7530    12.6870 
  246.8750     2.4500    -6.1260   311.8700    75.4900    24.8680     9.2180    10.9800    12.9560 
  247.0000     2.4730    -6.0230   308.3450    75.1560    24.8680     9.5510    11.1860    13.1950 
  247.1250     2.4740    -6.0390   303.6310    72.3390    24.8680     9.9670    11.3420    13.3680 
  247.2500     2.4520    -6.1110   299.7190    70.2060    24.8680    10.2860    11.4470    13.4760 
  247.3750     2.4270    -6.1780   297.0940    69.5740    24.8930    10.7450    11.5040    13.5250 
  247.5000     2.4190    -6.2990   294.7560    66.8340    24.9910    11.1070    11.5210    13.5310 
  247.6250     2.4210    -6.4860   290.4100    64.1100    25.2420    10.7410    11.5060    13.5090 
  247.7500     2.4190    -6.7310   283.6570    65.4930    25.4780     9.7220    11.4760    13.4860 
  247.8750     2.4160    -6.9710   275.9650    70.2510    25.5960     8.6120    11.4440    13.4780 
  248.0000     2.4240    -7.1310   269.6050    74.0160    25.5860     7.6460    11.4260    13.4970 
  248.1250     2.4430    -7.1370   266.8350    75.2590    25.4840     6.8830    11.4450    13.5700 
  248.2500     2.4590    -7.0740   267.0580    73.3250    25.4190     6.3760    11.5040    13.6900 
  248.3750     2.4630    -7.0250   269.1470    71.0150    25.3890     6.2050    11.5860    13.8270 
  248.5000     2.4650    -6.9630   271.6440    70.9480    25.3830     6.4520    11.6610    13.9430 
  248.6250     2.4750    -6.8610   272.9500    71.2860    25.3810     7.0610    11.7120    14.0130 
  248.7500     2.4940    -6.7150   272.6910    70.9660    25.3780     7.9530    11.7570    14.0700 
  248.8750     2.5090    -6.5840   271.1280    72.1860    25.3780     9.1290    11.8290    14.1660 
  249.0000     2.5110    -6.5130   269.0020    73.5780    25.3840    10.5570    11.9680    14.3470 
  249.1250     2.5060    -6.5220   267.1520    72.0580    25.3960    11.3540    12.2120    14.6490 
  249.2500     2.5010    -6.5030   265.8010    70.1700    25.3970    11.9350    12.5400    15.0240 
  249.3750     2.5030    -6.4190   264.7480    72.2350    25.3860    12.5220    12.9230    15.4230 
  249.5000     2.5110    -6.3190   263.8530    75.9060    25.3680    13.3340    13.3180    15.7990 
  249.6250     2.5180    -6.2200   263.9700    77.9950    25.3600    14.2480    13.6590    16.0900 
  249.7500     2.5220    -6.1410   266.1940    78.2810    25.3580    14.7390    13.8950    16.2580 
  249.8750     2.5210    -6.0920   270.8640    76.7500    25.3580    14.5820    13.9790    16.2570 
