~V
VERS. 2.00: Ver 2.00
~W
STRT.M 56.0000:
STOP.M 270.0000:
STEP.M 0.1250:
NULL. -999.2500:
UWI. DF3053:
~C
DEPT.M :
GR.API :
CALI.CM :
RXO.OHMM :
RI. :
RML.OHMM :
DEN.GM/CC :
SP.MV :
~A
# ...
  168.3750    56.9840    24.6550   105.8720   117.2540   135.5600     2.3000   -19.0160 
  168.5000    56.0480    24.6430   100.8920   117.9710   136.4940     2.2880   -19.3530 
  168.6250    58.9450    24.6170   105.4840   118.6800   137.1450     2.2750   -19.7180 
  168.7500    59.8750    24.5870   102.3460   119.2930   137.5790     2.2630   -20.0710 
  168.8750    58.2230    24.5540   100.3540   119.3600   137.5130     2.2520   -20.4150 
  169.0000    57.3940    24.5230   103.2070   118.5600   136.6660     2.2460   -20.7490 
  169.1250    58.0930    24.5040   105.7630   116.8210   134.6810     2.2470   -21.0440 
  169.2500    58.8340    24.4990   105.8990   114.7380   131.8180     2.2500   -21.2630 
  169.3750    59.5000    24.5000   107.5520   112.8410   128.7100     2.2470   -21.3910 
  169.5000    59.9510    24.5040   106.5440   111.5720   126.3290     2.2380   -21.4460 
  169.6250    60.7610    24.5000    95.3640   111.5560   125.8250     2.2300   -21.4530 
  169.7500    63.0360    24.4400    90.9530   112.9570   127.2320     2.2290   -21.4350 
  169.8750    64.3500    24.3220    89.4070   115.7700   130.2740     2.2340   -21.4100 
  170.0000    61.6250    24.1830    82.7220   119.5900   134.4120     2.2360   -21.3920 
  170.1250    56.4940    24.0240    71.2590   123.6450   139.0780     2.2360   -21.4190 
  170.2500    53.4210    23.8000    62.9930   127.3040   143.6360     2.2370   -21.4770 
  170.3750    53.9670    23.5110    60.1800   130.4410   147.6500     2.2410   -21.5380 
  170.5000    58.1570    23.1990    60.1500   132.8760   150.2810     2.2470   -21.5650 
  170.6250    62.9810    22.8950    60.2910   133.5560   149.5640     2.2510   -21.5550 
  170.7500    64.1590    22.6490    59.5990   131.8180   145.0130     2.2520   -21.5350 
  170.8750    61.6700    22.5130    57.3370   127.6430   137.4750     2.2540   -21.4980 
  171.0000    59.5660    22.4820    54.8800   122.0180   128.9480     2.2580   -21.4210 
  171.1250    59.5970    22.4900    53.6140   116.7110   122.0170     2.2640   -21.3020 
  171.2500    60.0390    22.4900    52.4620   113.1010   117.9680     2.2730   -21.1990 
  171.3750    59.4990    22.4890    52.1590   111.5220   116.9360     2.2820   -21.1630 
  171.5000    58.4960    22.4920    51.6310   111.4560   117.8940     2.2840   -21.2150 
  171.6250    58.8990    22.4990    51.0370   111.8740   118.8920     2.2760   -21.3370 
  171.7500    59.8790    22.5200    51.4180   111.7480   118.3470     2.2660   -21.4830 
  171.8750    59.2400    22.5790    53.7950   110.7460   115.9990     2.2600   -21.6320 
  172.0000    57.4030    22.6830    55.9720   109.0660   112.6180     2.2580   -21.7820 
  172.1250    58.1200    22.7940    57.8460   107.1720   109.6520     2.2570   -21.9040 
  172.2500    60.7640    22.8760    56.5760   105.3620   107.7380     2.2540   -21.9770 
  172.3750    62.0580    22.9280    54.2670   103.6200   106.5830     2.2550   -21.9870 
  172.5000    62.3530    22.9790    52.4340   102.0100   105.7230     2.2610   -21.9590 
  172.6250    62.9060    23.0430    52.0740   100.9530   105.1020     2.2670   -21.9160 
  172.7500    62.2460    23.1020    54.3820   100.8620   105.1690     2.2710   -21.8760 
  172.8750    59.4540    23.1460    60.2110   102.0890   106.5330     2.2740   -21.8140 
  173.0000    58.0890    23.1840    66.8080   104.7630   109.5990     2.2770   -21.6970 
  173.1250    60.3520    23.2270    67.7120   109.0860   114.7060     2.2720   -21.5040 
  173.2500    61.2120    23.2630    66.5630   114.6460   121.2000     2.2540   -21.2920 
  173.3750    60.0780    23.2430    63.1640   121.0890   128.4690     2.2280   -21.1250 
  173.5000    59.4040    23.1340    62.1700   127.7900   135.7350     2.2020   -21.0490 
  173.6250    60.9590    22.9890    67.2410   133.4420   141.6450     2.1880   -21.0580 
  173.7500    61.5160    22.8930    73.2750   136.6270   144.9660     2.1830   -21.0810 
  173.8750    60.0460    22.8150    74.2520   136.0990   144.4430     2.1830   -21.0850 
  174.0000    58.8860    22.7450    74.7460   131.6420   139.6940     2.1860   -21.0810 
  174.1250    59.3250    22.8070    77.1440   124.4780   131.7560     2.1910   -21.1200 
  174.2500    61.2720    23.0330    83.0020   117.5110   123.7380     2.1940   -21.2110 
  174.3750    62.8650    23.3100    87.8710   112.6930   117.9580     2.1920   -21.3320 
  174.5000    63.3680    23.5090    91.2790   111.2370   115.9960     2.1830   -21.4590 
  174.6250    62.5800    23.5920    99.3780   113.9930   118.8940     2.1720   -21.6070 
  174.7500    60.7900    23.6130   102.9140   119.1480   124.3940     2.1660   -21.7820 
  174.8750    59.5380    23.6090   105.4550   124.0550   129.1440     2.1680   -21.9510 
  175.0000    59.9930    23.6070   109.8550   125.1290   128.8230     2.1770   -22.0540 
  175.1250    60.2950    23.6100   109.3650   118.4570   119.4800     2.1910   -22.0530 
  175.2500    58.2680    23.6300   101.1790   106.2940   105.0030     2.2130   -22.0240 
  175.3750    55.9830    23.6820    87.8130    92.6500    90.4800     2.2400   -22.0540 
  175.5000    57.7990    23.7660    69.4170    81.5160    79.8530     2.2590   -22.1950 
  175.6250    63.9640    23.8160    57.1450    76.2780    75.9540     2.2590   -22.4380 
  175.7500    67.1570    23.7880    56.7530    76.9370    78.1320     2.2490   -22.7100 
  175.8750    65.3280    23.6910    66.6950    83.4790    86.2050     2.2430   -22.9810 
  176.0000    59.9670    23.5570    77.6070    95.3940    99.7650     2.2440   -23.2560 
  176.1250    53.8590    23.4170    79.8590   111.6680   118.2450     2.2440   -23.5280 
  176.2500    50.5690    23.3030    77.9060   128.7670   138.4040     2.2360   -23.7730 
  176.3750    51.3530    23.2410    74.3550   143.7420   157.1060     2.2300   -23.9650 
  176.5000    54.5720    23.2180    74.7610   154.6710   171.5100     2.2350   -24.1050 
  176.6250    56.2280    23.2140    77.9410   160.9280   179.8890     2.2500   -24.1960 
  176.7500    56.7180    23.2340    79.4940   164.6780   184.7630     2.2600   -24.2610 
  176.8750    57.4850    23.2780    79.9280   167.4060   188.3620     2.2550   -24.2890 
  177.0000    57.4600    23.3160    80.6070   170.1230   192.3070     2.2340   -24.2980 
  177.1250    55.8830    23.3270    79.2080   172.8680   196.4690     2.2040   -24.3280 
  177.2500    54.5960    23.3520    76.5080   174.4580   198.6410     2.1770   -24.4220 
  177.3750    54.2500    23.4480    81.3480   173.3150   196.2820     2.1610   -24.5630 
  177.5000    54.7700    23.6430    90.3640   168.0880   187.9600     2.1600   -24.7090 
  177.6250    56.7220    23.9370    97.6000   157.7210   173.2700     2.1730   -24.8230 
  177.7500    59.3890    24.2300    99.5210   144.1290   155.2710     2.1950   -24.9130 
  177.8750    60.4610    24.4260    96.6320   129.3280   136.7550     2.2200   -24.9940 
  178.0000    58.6440    24.4810    89.4820   115.5880   120.4880     2.2440   -25.0690 
  178.1250    56.7320    24.4380    80.9650   105.4860   109.2040     2.2580   -25.1130 
  178.2500    57.2220    24.3960    71.1460    99.5710   102.8500     2.2620   -25.1400 
  178.3750    58.4310    24.3570    63.5540    97.9140   101.1060     2.2590   -25.1790 
  178.5000    59.3260    24.2890    67.5930    99.9760   103.1570     2.2620   -25.2630 
  178.6250    59.4570    24.2380    79.0960   105.0010   108.1890     2.2760   -25.3900 
  178.7500    58.6660    24.2830    82.5510   111.1410   114.6600     2.2940   -25.5150 
  178.8750    57.6940    24.3950    78.9960   117.5580   122.0810     2.3070   -25.6410 
  179.0000    57.8380    24.4730    78.3700   124.3380   130.6700     2.3100   -25.7910 
  179.1250    57.5680    24.4430    82.4970   133.0420   142.0560     2.3010   -25.9940 
  179.2500    54.2700    24.3530    89.5180   145.2670   157.7120     2.2810   -26.2320 
  179.3750    50.0730    24.2260    93.6190   162.4840   179.2150     2.2560   -26.4560 
  179.5000    48.2830    24.0800    93.4840   185.2630   207.1290     2.2330   -26.6320 
