~V
VERS. 2.00: Ver 2.00
~W
STRT.M 60.0000:
STOP.M 283.0000:
STEP.M 0.1250:
NULL. -999.2500:
UWI. DF3045:
~C
DEPT.M :
DEN.GM/CC :
SP.MV :
AC.US/MT :
GR.API :
CALI.CM :
RXO.OHMM :
RI. :
RML.OHMM :
~A
# ...
  160.0000     2.5340   -17.3540   286.5470    57.7320    23.2100    14.8920    14.9930    18.0340 
  160.1250     2.4690   -17.3960   294.0920    53.7060    22.8300    15.1040    15.0910    18.2750 
  160.2500     2.4420   -17.4220   302.2060    55.0990    22.6510    15.8120    15.2850    18.6460 
  160.3750     2.4470   -17.4480   309.3140    58.9070    22.5900    15.4780    15.5550    19.0860 
  160.5000     2.4510   -17.4640   314.3610    59.3690    22.8120    14.6180    15.8320    19.5060 
  160.6250     2.4380   -17.4870   315.3070    55.9110    23.2460    14.6570    16.0200    19.7750 
  160.7500     2.4430   -17.5100   310.0280    54.5270    23.6460    16.0410    16.0890    19.8650 
  160.8750     2.4810   -17.5420   298.1160    56.5240    23.8000    17.7590    16.0190    19.7830 
  161.0000     2.5390   -17.5680   284.1250    61.2170    23.8160    18.9870    15.8490    19.5960 
  161.1250     2.5900   -17.6060   277.7080    64.3260    23.5850    18.4880    15.6860    19.4620 
  161.2500     2.6250   -17.6840   278.9460    63.3450    23.8720    16.6670    15.6180    19.4770 
  161.3750     2.6360   -17.7800   281.7140    59.6980    24.0630    15.6520    15.6930    19.6930 
  161.5000     2.6190   -17.8610   281.2280    57.4840    24.0350    15.8580    15.9260    20.0980 
  161.6250     2.5780   -17.9130   278.4290    55.9190    24.0200    16.4220    16.2510    20.5790 
  161.7500     2.5440   -17.9520   277.6750    52.7970    24.0680    17.8050    16.5340    20.9560 
  161.8750     2.5300   -17.9600   279.0550    51.1550    24.2730    18.4900    16.6840    21.1210 
  162.0000     2.5360   -17.9520   280.6680    52.7820    24.3300    17.9640    16.6580    21.0420 
  162.1250     2.5570   -17.9630   281.3000    53.0810    24.3460    17.1190    16.4490    20.7540 
  162.2500     2.5870   -17.9400   282.0680    50.7210    24.3550    16.4090    16.1880    20.4190 
  162.3750     2.6170   -17.8900   282.9060    49.7830    24.3270    15.4540    15.9680    20.1840 
  162.5000     2.6360   -17.8420   281.9280    51.3600    24.3110    14.7840    15.8530    20.1190 
  162.6250     2.6500   -17.7950   277.7210    53.1760    24.2840    15.3960    15.8900    20.2750 
  162.7500     2.6700   -17.7540   273.4130    55.4210    24.2970    16.4660    16.0220    20.5230 
  162.8750     2.6960   -17.7220   271.9670    58.3020    24.3150    17.2240    16.1910    20.7640 
  163.0000     2.7110   -17.6720   273.2140    60.4010    24.3320    17.7250    16.3350    20.9270 
  163.1250     2.7010   -17.6700   274.2640    60.9080    24.3130    18.2460    16.4000    20.9500 
  163.2500     2.6750   -17.7020   273.4020    61.3870    24.1740    18.9670    16.3770    20.8550 
  163.3750     2.6560   -17.7530   272.1540    63.2110    24.0270    19.7410    16.3150    20.6960 
  163.5000     2.6560   -17.8120   273.1490    65.6570    23.9500    19.9320    16.2710    20.5820 
  163.6250     2.6660   -17.8580   276.6180    65.9310    24.1990    18.7810    16.2580    20.5210 
  163.7500     2.6660   -17.9030   278.6300    64.4530    24.2960    18.2200    16.2700    20.5010 
  163.8750     2.6570   -17.9580   276.7130    64.6420    24.3180    18.3190    16.2680    20.4610 
  164.0000     2.6460   -18.0320   271.8210    67.0440    24.3430    18.7060    16.2100    20.3160 
  164.1250     2.6350   -18.0970   267.9300    67.3150    24.3310    19.4460    16.0340    20.0050 
  164.2500     2.6230   -18.1410   267.7380    66.2340    24.3300    19.2410    15.7720    19.5690 
  164.3750     2.6200   -18.1720   271.1400    66.3260    24.3540    17.8810    15.4370    19.0430 
  164.5000     2.6260   -18.2080   276.1130    65.8490    24.3380    16.5520    15.0690    18.4860 
  164.6250     2.6350   -18.2910   279.7550    62.6850    24.3310    15.7530    14.7710    18.0290 
  164.7500     2.6400   -18.4010   280.8080    60.6950    24.3210    15.1130    14.5690    17.6960 
  164.8750     2.6410   -18.5290   279.8990    62.0680    24.2530    14.7060    14.4650    17.4740 
  165.0000     2.6440   -18.6840   278.3350    62.5850    24.0060    14.5880    14.4720    17.3640 
  165.1250     2.6520   -18.8460   277.2580    58.2910    23.7660    14.4960    14.5700    17.2790 
  165.2500     2.6630   -19.0230   277.2300    53.3140    23.7600    14.3910    14.6670    17.1420 
  165.3750     2.6710   -19.2270   277.9510    52.0340    23.7930    14.6730    14.7570    16.9800 
  165.5000     2.6680   -19.4530   278.6590    55.7510    23.8060    14.7660    14.8710    16.8280 
  165.6250     2.6430   -19.6920   279.2250    59.9440    24.0880    14.1610    14.9740    16.7000 
  165.7500     2.6040   -19.9500   281.6890    63.0940    24.3180    13.9580    15.0360    16.5680 
  165.8750     2.5620   -20.2310   287.1290    65.4750    24.3390    13.8790    15.0350    16.4170 
  166.0000     2.5320   -20.5510   293.5520    66.8170    24.2960    13.0770    14.8960    16.1660 
  166.1250     2.5220   -20.9150   298.0050    66.3070    24.0760    12.7220    14.5190    15.7450 
  166.2500     2.5200   -21.3190   303.0840    64.5970    23.9440    12.9260    13.9630    15.1590 
  166.3750     2.5150   -21.7560   312.8770    64.6280    23.7430    12.6020    13.2070    14.3530 
  166.5000     2.5000   -22.2100   327.5730    65.5380    23.7310    11.3790    12.2680    13.3570 
  166.6250     2.4840   -22.6780   341.4900    64.3020    23.8280    10.6050    11.4070    12.4700 
  166.7500     2.4770   -23.1710   350.3770    61.4960    23.9740     9.8320    10.8680    11.9950 
  166.8750     2.4770   -23.7180   354.8310    58.0660    24.2020     9.6100    10.8090    12.2030 
  167.0000     2.4760   -24.3150   356.9830    55.9230    24.1860     9.7820    11.4490    13.4980 
  167.1250     2.4610   -24.9150   360.0170    57.7070    24.1350    10.1350    13.4140    16.6400 
  167.2500     2.4340   -25.5590   366.5360    64.1220    23.8910    11.7250    16.9660    21.6680 
  167.3750     2.4020   -26.2670   377.2590    70.8870    23.7400    23.5330    22.5170    28.8180 
  167.5000     2.3690   -27.0230   389.3010    71.5410    23.7860    47.3930    30.5220    38.2780 
  167.6250     2.3400   -27.8100   396.6640    65.6370    23.7610    72.9970    41.6120    50.3030 
  167.7500     2.3210   -28.5940   398.6540    60.2530    23.7170    85.4580    54.4430    63.6870 
  167.8750     2.3160   -29.3270   398.8100    58.6810    23.7590    91.8120    67.3020    76.9110 
  168.0000     2.3180   -29.9940   400.4160    60.0840    23.7730    97.1400    78.3200    88.2680 
  168.1250     2.3140   -30.6250   403.0160    62.7340    23.7110   103.6180    85.5130    95.8380 
  168.2500     2.3020   -31.1920   404.5410    65.2820    23.7130   114.0380    90.1840   100.7770 
  168.3750     2.2940   -31.6730   405.1520    66.6690    23.7420   122.8650    93.9240   105.0170 
  168.5000     2.2960   -32.0800   405.4730    67.6880    23.6910   118.1920    97.5640   109.3700 
  168.6250     2.3000   -32.4290   405.2930    67.8620    23.5440   103.0050   101.8140   114.4900 
  168.7500     2.2890   -32.7330   404.6720    67.3290    23.4240    92.0540   107.0010   120.3810 
  168.8750     2.2590   -32.9990   404.0580    66.9000    23.5140    96.1690   113.1740   127.1130 
  169.0000     2.2280   -33.2270   403.9210    67.3760    23.6310   114.0280   119.6290   133.9460 
  169.1250     2.2170   -33.4420   403.8240    66.6590    23.8080   128.2070   125.1520   139.1990 
  169.2500     2.2230   -33.6170   402.7540    64.4890    24.1260   129.2320   128.4180   141.2920 
  169.3750     2.2350   -33.7510   400.4460    63.9310    23.9610   122.9740   128.3600   139.1720 
  169.5000     2.2470   -33.8610   397.7650    64.8480    23.5830   114.1490   125.0260   133.4680 
  169.6250     2.2610   -33.9430   396.7490    64.4530    23.0500    97.7040   118.8780   125.2370 
  169.7500     2.2740   -34.0260   397.8460    63.4610    22.8310    86.3760   111.6620   116.5010 
  169.8750     2.2770   -34.1260   399.9510    63.6870    22.7180    85.8060   104.5140   108.1730 
