~V
VERS. 2.00: Ver 2.00
~W
STRT.M 60.0000:
STOP.M 266.0000:
STEP.M 0.1250:
NULL. -999.2500:
UWI. DF3052:
~C
DEPT.M :
GR.API :
CALI.CM :
RXO.OHMM :
RI. :
RML.OHMM :
DEN.GM/CC :
SP.MV :
~A
# ...
  195.0000    62.9440    22.7460    72.1420   167.9820   178.6840     2.2280   -30.5520 
  195.1250    63.1130    22.8660    79.1320   156.5710   165.1430     2.2320   -30.5160 
  195.2500    63.5210    23.0020    85.1270   142.2010   148.9930     2.2350   -30.4890 
  195.3750    65.0570    23.1230    86.9950   125.9880   131.4860     2.2390   -30.4240 
  195.5000    67.2520    23.2390    80.7580   109.7380   114.4820     2.2490   -30.2860 
  195.6250    68.0680    23.3380    69.0060    95.7230   100.1640     2.2670   -30.1070 
  195.7500    66.7070    23.3730    59.5920    85.0650    89.5270     2.2840   -29.9120 
  195.8750    64.1670    23.3670    54.6550    78.6630    83.4060     2.2940   -29.7640 
  196.0000    62.1250    23.3840    52.8730    77.0110    82.2480     2.2920   -29.6960 
  196.1250    62.2880    23.4270    55.0850    81.4430    87.2200     2.2820   -29.6260 
  196.2500    63.9800    23.4820    61.7700    92.1070    98.1270     2.2750   -29.5180 
  196.3750    65.2880    23.5780    74.2780   110.2460   116.0310     2.2780   -29.3820 
  196.5000    64.0090    23.7110    94.6100   136.8930   141.8020     2.2830   -29.2450 
  196.6250    60.1200    23.8520   124.5980   173.4800   178.4080     2.2780   -29.0980 
  196.7500    56.6120    24.0430   158.8800   217.2780   225.1810     2.2590   -28.9190 
  196.8750    54.6220    24.3100   195.4110   264.7110   281.2390     2.2310   -28.6590 
  197.0000    52.8480    24.5570   230.9580   310.5170   342.2450     2.2010   -28.3000 
  197.1250    49.6210    24.6710   256.2690   345.1000   396.0770     2.1750   -27.8640 
  197.2500    46.8280    24.7130   265.5990   363.8250   430.7740     2.1570   -27.3520 
  197.3750    46.8330    24.7500   263.8480   364.7070   439.3670     2.1480   -26.8060 
  197.5000    49.4060    24.7880   259.9960   349.1830   423.1110     2.1470   -26.2320 
  197.6250    51.6720    24.7970   259.5580   321.3050   389.2910     2.1570   -25.6670 
  197.7500    52.5230    24.7760   252.6160   290.4530   351.5530     2.1700   -25.1380 
  197.8750    53.5120    24.7440   230.4060   261.5430   316.9010     2.1820   -24.6410 
  198.0000    55.7600    24.7320   199.5860   238.5380   290.5970     2.1900   -24.1570 
  198.1250    58.4700    24.7230   177.0380   228.3740   279.8920     2.1970   -23.6560 
  198.2500    59.8330    24.6870   173.9820   231.6510   283.1440     2.2020   -23.1810 
  198.3750    58.9970    24.6580   194.1880   246.4190   296.9960     2.2010   -22.7050 
  198.5000    56.1870    24.6850   232.6220   269.8970   317.6700     2.1940   -22.2290 
  198.6250    52.8760    24.7230   273.8840   297.5920   338.5130     2.1930   -21.7550 
  198.7500    50.8420    24.6920   302.8590   321.2990   350.4310     2.2000   -21.2710 
  198.8750    50.4110    24.6120   311.2170   333.7910   348.5260     2.2070   -20.7440 
  199.0000    51.1790    24.5400   295.6660   330.8180   330.5850     2.2070   -20.1670 
  199.1250    53.1900    24.4780   264.1190   302.8320   291.5330     2.1990   -19.5690 
  199.2500    55.8670    24.3660   235.5440   256.4210   241.0130     2.1950   -18.9520 
  199.3750    58.2030    24.1950   213.1940   202.5470   188.6250     2.1930   -18.3210 
  199.5000    59.5330    24.0180   181.0900   150.0340   140.2200     2.1920   -17.6800 
  199.6250    60.7690    23.8750   129.0760   106.5620   100.9030     2.1950   -17.0010 
  199.7500    63.4610    23.7350    77.7090    73.6820    71.0480     2.2060   -16.2690 
  199.8750    67.5620    23.5840    44.1220    51.1770    50.3110     2.2260   -15.5500 
  200.0000    71.6660    23.4470    28.0860    37.3330    37.8250     2.2570   -14.8890 
  200.1250    73.1670    23.3360    22.8960    33.0250    34.9070     2.2940   -14.2960 
  200.2500    70.8730    23.2580    25.1370    36.5320    39.1810     2.3160   -13.7600 
  200.3750    65.0830    23.2620    42.1960    47.5050    50.1900     2.3030   -13.2760 
  200.5000    58.4130    23.3980    82.9300    65.5600    67.4600     2.2610   -12.8330 
  200.6250    55.0260    23.6250   137.7500    89.7900    89.6240     2.2180   -12.4070 
  200.7500    54.5990    23.7940   172.1330   113.9070   110.5920     2.1980   -11.9930 
  200.8750    54.2250    23.8380   167.4560   129.8440   123.2490     2.2000   -11.5840 
  201.0000    52.3950    23.7740   134.9160   131.5530   122.7490     2.2160   -11.1590 
  201.1250    51.0830    23.6610   106.7560   117.5940   108.7140     2.2460   -10.7100 
  201.2500    51.6250    23.5290    85.4540    97.9130    90.4110     2.2870   -10.2320 
  201.3750    52.8990    23.3970    67.3640    78.4990    73.1300     2.3380    -9.7260 
  201.5000    53.8740    23.3590    56.0320    61.8640    58.0250     2.4010    -9.2050 
  201.6250    56.0240    23.5050    55.4230    48.3540    45.0030     2.4810    -8.6940 
  201.7500    60.4380    23.6980    53.1800    36.6500    33.4690     2.5590    -8.2150 
  201.8750    65.2830    23.7840    41.8540    26.5930    23.6800     2.6070    -7.7790 
  202.0000    67.2530    23.7310    25.4370    18.3470    16.0150     2.6050    -7.4030 
  202.1250    63.8490    23.6350    13.1120    12.4680    10.9430     2.5530    -7.1220 
  202.2500    57.6770    23.5670     6.9770     8.4810     7.7030     2.4910    -6.9180 
  202.3750    51.7920    23.5330     4.9620     6.1480     5.9650     2.4490    -6.7940 
  202.5000    48.5640    23.5260     4.6330     5.0880     5.2770     2.4460    -6.7500 
  202.6250    48.5270    23.5290     4.7410     4.9630     5.3330     2.4730    -6.7730 
  202.7500    48.7810    23.5300     4.8950     5.2600     5.7780     2.5010    -6.8450 
  202.8750    47.6770    23.5350     5.0290     5.7820     6.4670     2.5150    -6.9730 
  203.0000    46.0810    23.5480     5.1190     6.3640     7.2260     2.5130    -7.1620 
  203.1250    47.0520    23.5400     5.1770     6.8730     7.8930     2.5020    -7.4200 
  203.2500    51.0350    23.5070     5.2610     7.2630     8.4120     2.4850    -7.7390 
  203.3750    56.3960    23.4850     5.3980     7.5470     8.8000     2.4610    -8.0820 
  203.5000    61.1840    23.5060     5.5530     7.7380     9.0930     2.4360    -8.4500 
  203.6250    64.8420    23.5860     5.7000     7.8850     9.3670     2.4260    -8.8370 
  203.7500    68.4940    23.7240     5.8830     8.0360     9.6660     2.4280    -9.2080 
  203.8750    72.7380    23.9420     6.1310     8.2230    10.0120     2.4360    -9.5460 
  204.0000    77.1130    24.2260     6.4430     8.4550    10.4080     2.4440    -9.8390 
  204.1250    80.2950    24.4740     6.8050     8.7290    10.8620     2.4480   -10.0370 
  204.2500    82.3270    24.5970     7.1780     9.0330    11.3380     2.4470   -10.1630 
  204.3750    83.1040    24.6140     7.5660     9.3630    11.8180     2.4430   -10.2590 
  204.5000    82.8230    24.6110     8.0050     9.7040    12.2530     2.4440   -10.3280 
  204.6250    83.5810    24.6190     8.4800    10.0400    12.6400     2.4530   -10.4040 
  204.7500    86.8740    24.6020     8.9920    10.3620    12.9880     2.4590   -10.5080 
  204.8750    91.0690    24.5770     9.6350    10.6750    13.3170     2.4580   -10.6420 
  205.0000    93.4960    24.5890    10.3080    10.9800    13.6290     2.4540   -10.8160 
  205.1250    93.7840    24.6170    10.7590    11.1860    13.8110     2.4530   -11.0400 
  205.2500    93.3060    24.6160    11.0510    11.2520    13.8320     2.4560   -11.2630 
  205.3750    92.3970    24.6130    11.2080    11.1800    13.7190     2.4600   -11.4630 
  205.5000    91.7190    24.6360    11.2640    10.9930    13.4820     2.4600   -11.6280 
  205.6250    91.2840    24.6480    11.1780    10.7090    13.1390     2.4580   -11.7660 
  205.7500    89.4930    24.6250    10.8880    10.4560    12.8550     2.4600   -11.8760 
  205.8750    86.8360    24.6090    10.4710    10.3420    12.7510     2.4680   -11.9610 
  206.0000    86.0900    24.6180    10.2600    10.3880    12.8330     2.4760   -12.0020 
  206.1250    88.9230    24.6080    10.4530    10.6430    13.1480     2.4770   -12.0010 
