~V
VERS. 2.00: Ver 2.00
~W
STRT.M 120.0000:
STOP.M 233.0000:
STEP.M 0.1250:
NULL. -999.2500:
UWI. DF3066:
~C
DEPT.M :
GR.API :
RML.OHMM :
RI. :
RXO.OHMM :
CALI.CM :
DEN.GM/CC :
SP.MV :
~A
  120.0000    83.2410     6.6110     5.5700     6.2180    24.3160     2.2770   -15.5460 
  120.1250    87.4650     6.4590     5.4270     5.9500    24.3350     2.2860   -15.1780 
  120.2500    88.4730     6.3470     5.3070     5.6910    24.3130     2.2910   -14.8130 
  120.3750    86.6000     6.2770     5.2190     5.4510    24.2560     2.2950   -14.5630 
  120.5000    86.4270     6.2360     5.1600     5.4080    24.2300     2.2960   -14.2460 
  120.6250    92.1010     6.2040     5.1220     5.5400    24.2200     2.2990   -14.0350 
  120.7500    96.7540     6.1580     5.0890     5.5660    24.2930     2.3040   -13.9280 
  120.8750    95.5870     6.0880     5.0530     5.4940    24.3240     2.3090   -13.8260 
  121.0000    92.3530     6.0020     5.0150     5.5630    24.3110     2.3120   -13.7450 
  121.1250    93.0960     5.9330     4.9880     5.4160    24.3460     2.3110   -13.7630 
  121.2500    94.7520     5.9250     4.9940     5.2920    24.2780     2.3060   -13.8730 
  121.3750    93.5080     6.0100     5.0560     5.2280    24.0820     2.2980   -13.9600 
  121.5000    90.9110     6.2000     5.1870     5.2290    24.0150     2.2860   -14.1540 
  121.6250    92.7840     6.4720     5.3840     5.4480    23.9930     2.2720   -14.3420 
  121.7500    96.1280     6.7380     5.5920     5.8250    24.0390     2.2610   -14.4200 
  121.8750    95.5240     6.9140     5.7520     6.0940    24.1160     2.2540   -14.4790 
  122.0000    90.6790     6.9290     5.8070     6.3470    24.2090     2.2550   -14.4590 
  122.1250    88.0770     6.7370     5.7050     6.2980    24.3100     2.2630   -14.3540 
  122.2500    93.1140     6.4260     5.4890     5.9770    24.3940     2.2750   -14.2150 
  122.3750   102.2400     6.0900     5.2220     5.6540    24.4650     2.2890   -14.0440 
  122.5000   107.5670     5.8170     4.9700     5.4450    24.4930     2.3050   -13.8550 
  122.6250   105.2360     5.6810     4.7970     5.2850    24.4300     2.3210   -13.7160 
  122.7500   102.6190     5.6520     4.7050     5.1640    24.3880     2.3380   -13.6500 
  122.8750   102.3360     5.6830     4.6710     5.0510    24.3890     2.3530   -13.6440 
  123.0000   101.0050     5.7150     4.6590     5.1560    24.3350     2.3660   -13.7630 
  123.1250    97.1510     5.6940     4.6330     5.3580    24.2690     2.3760   -13.9750 
  123.2500    95.9160     5.6260     4.5900     5.4460    24.1910     2.3840   -14.2330 
  123.3750    98.5090     5.5540     4.5540     5.3680    24.2930     2.3900   -14.6610 
  123.5000   100.9930     5.5460     4.5710     5.1890    24.4080     2.3920   -15.0940 
  123.6250   101.4490     5.7130     4.7220     5.1400    24.3150     2.3820   -15.5350 
  123.7500   101.9810     6.0810     5.0320     5.4420    24.1800     2.3600   -16.1960 
  123.8750   100.2070     6.6270     5.4990     6.0580    24.1410     2.3260   -16.8290 
  124.0000    92.7660     7.2670     6.0690     6.8520    24.1650     2.2840   -17.3460 
  124.1250    83.3890     7.8460     6.6320     7.9520    23.9850     2.2440   -17.8790 
  124.2500    80.4650     8.2430     7.0670     9.1900    23.7830     2.2130   -18.1790 
  124.3750    83.8100     8.4130     7.3120     9.5150    23.7880     2.1950   -18.2600 
  124.5000    86.8180     8.3900     7.3600     8.6970    23.9880     2.1900   -18.2010 
  124.6250    85.5360     8.2260     7.2280     7.6120    24.1230     2.2010   -17.9230 
  124.7500    84.3980     7.9780     6.9820     7.1030    24.1640     2.2210   -17.4960 
  124.8750    87.2840     7.6400     6.6390     6.8560    24.2010     2.2450   -16.9680 
  125.0000    92.3050     7.2080     6.2120     6.7470    24.2910     2.2700   -16.4180 
  125.1250    96.1270     6.7010     5.7250     6.5070    24.3420     2.2910   -15.8490 
  125.2500    99.7510     6.1960     5.2370     5.7480    24.3400     2.3060   -15.3930 
  125.3750   103.0790     5.7540     4.7990     4.9110    24.3000     2.3140   -15.1110 
  125.5000   102.6020     5.4180     4.4550     4.6920    24.2680     2.3160   -14.9660 
  125.6250    99.4960     5.2470     4.2700     4.8730    24.1820     2.3090   -14.9900 
  125.7500    99.6950     5.2840     4.2790     5.0330    24.1830     2.2930   -15.1150 
  125.8750   101.3990     5.6450     4.5720     5.2860    24.1810     2.2710   -15.3050 
  126.0000    99.5230     6.4850     5.2720     5.9560    24.0040     2.2530   -15.4600 
  126.1250    91.3990     7.9930     6.5570     7.4250    23.8090     2.2610   -15.6970 
  126.2500    80.2590     9.9150     8.2560     9.7180    23.8340     2.3060   -15.9700 
  126.3750    71.8520    11.8130    10.0420    12.9170    24.0210     2.3840   -16.1010 
  126.5000    70.4040    13.0620    11.4000    17.3550    24.1200     2.4770   -16.3270 
  126.6250    74.9310    12.8760    11.6190    20.9610    24.2160     2.5430   -16.6310 
  126.7500    77.6560    11.5100    10.7610    21.3700    24.2020     2.5580   -16.7970 
  126.8750    78.5520     9.6580     9.2810    17.9830    24.1060     2.5250   -17.0870 
  127.0000    82.4000     8.1010     7.8130    12.3050    24.0880     2.4620   -17.5230 
  127.1250    88.7070     7.3650     6.8860     8.1230    24.1570     2.3890   -17.8730 
  127.2500    90.5010     7.2860     6.5060     6.7430    24.2090     2.3180   -18.2620 
  127.3750    86.6900     7.6310     6.5520     6.9740    24.1670     2.2540   -18.5730 
  127.5000    80.9690     8.1100     6.8250     7.7340    23.9590     2.2020   -18.6520 
  127.6250    78.8390     8.3890     7.0770     8.1570    23.8880     2.1700   -18.5350 
  127.7500    80.3910     8.3330     7.1360     8.1170    23.9680     2.1620   -18.2490 
  127.8750    84.5080     7.9890     6.9720     7.8360    24.1790     2.1780   -17.7900 
  128.0000    90.7090     7.5280     6.6630     7.3330    24.2230     2.2110   -17.2360 
  128.1250    96.0530     7.1500     6.3380     6.5760    24.0120     2.2480   -16.6140 
  128.2500    98.1920     6.9190     6.0790     5.9980    23.8610     2.2750   -16.0160 
  128.3750    98.3600     6.8070     5.8950     5.8220    23.8930     2.2860   -15.5690 
  128.5000    99.2610     6.7520     5.7590     5.8690    24.0440     2.2850   -15.2770 
  128.6250   100.2520     6.6750     5.6350     5.9460    24.1440     2.2800   -15.1750 
  128.7500   100.1690     6.5480     5.4980     5.9830    24.2280     2.2780   -15.2430 
  128.8750    98.5120     6.3990     5.3640     5.9280    24.2820     2.2790   -15.4820 
  129.0000    96.0640     6.3170     5.2900     5.8800    24.3240     2.2800   -15.8320 
  129.1250    94.8570     6.4970     5.4190     6.0790    24.3080     2.2780   -16.2900 
  129.2500    95.6770     7.0580     5.8430     6.4750    24.2620     2.2780   -16.8240 
  129.3750    94.4750     8.0550     6.6240     7.4700    24.1400     2.2860   -17.3900 
  129.5000    88.2350     9.4170     7.7290     9.3880    24.0900     2.3110   -17.9440 
  129.6250    82.6070    10.8750     8.9830    12.9130    24.0660     2.3530   -18.5730 
  129.7500    79.8200    12.0030    10.0470    17.9090    23.9910     2.3950   -19.3360 
  129.8750    78.5210    12.4850    10.6460    21.5070    23.9030     2.4200   -19.9750 
  130.0000    78.7860    12.2340    10.6540    19.5610    23.7540     2.4120   -20.5140 
  130.1250    80.5230    11.4410    10.1400    15.7100    23.5970     2.3680   -21.0970 
  130.2500    81.1290    10.6300     9.5020    12.5390    23.5620     2.3070   -21.4690 
  130.3750    79.3970    10.0860     8.9950    10.3700    23.6210     2.2470   -21.7730 
  130.5000    77.5170     9.8980     8.7390     9.4000    23.6560     2.1970   -22.0340 
  130.6250    76.4150    10.0040     8.7410     9.0340    23.6030     2.1640   -21.9560 
  130.7500    75.6680    10.1480     8.8250     8.8710    23.5620     2.1440   -21.7130 
  130.8750    75.7590    10.1280     8.8330     8.8630    23.5640     2.1400   -21.3150 
  131.0000    76.9800     9.8080     8.6390     8.8040    23.4360     2.1500   -20.7150 
  131.1250    79.7890     9.1390     8.1570     8.5870    23.2940     2.1750   -19.9140 
