~V
VERS. 2.00: Ver 2.00
~W
STRT.M 64.0000:
STOP.M 268.0000:
STEP.M 0.1250:
NULL. -999.2500:
UWI. DF3002:
~C
DEPT.M :
GR.API :
RML.OHMM :
RI. :
RXO.OHMM :
DEN.GM/CC :
SP.MV :
~A
# ...
  179.8750    84.0150    76.9870    61.9860    59.8750     2.2810   -30.6980 
  180.0000    83.8880    78.5210    62.9660    61.6860     2.2790   -30.6580 
  180.1250    82.5550    79.8980    63.9440    63.0440     2.2780   -30.6720 
  180.2500    77.9840    81.0540    64.8270    64.6560     2.2790   -30.7280 
  180.3750    74.6720    82.0480    65.6470    65.4270     2.2820   -30.7110 
  180.5000    76.5210    82.9820    66.4880    65.3550     2.2840   -30.7620 
  180.6250    80.5770    83.8690    67.3890    65.3440     2.2820   -30.8040 
  180.7500    81.1550    84.5900    68.2480    66.5780     2.2770   -30.8530 
  180.8750    79.5190    84.9970    68.9250    67.9460     2.2700   -30.9390 
  181.0000    78.7930    85.0320    69.3270    69.1890     2.2640   -31.0550 
  181.1250    78.9310    84.7800    69.4430    69.8580     2.2610   -31.0940 
  181.2500    79.6230    84.5500    69.4730    67.7640     2.2610   -31.1250 
  181.3750    81.1780    84.5480    69.5740    65.0920     2.2630   -31.2330 
  181.5000    82.7910    84.8130    69.8070    64.8890     2.2660   -31.2740 
  181.6250    84.4270    85.0940    70.0390    66.9120     2.2700   -31.3160 
  181.7500    85.9130    84.9460    69.9770    68.4460     2.2740   -31.3570 
  181.8750    86.9450    84.0730    69.3930    68.4020     2.2790   -31.3610 
  182.0000    87.2350    82.6080    68.3430    67.5630     2.2850   -31.3230 
  182.1250    86.2260    81.6150    67.5580    66.8060     2.2930   -31.4090 
  182.2500    84.0800    82.7080    68.2870    66.8240     2.3000   -31.5060 
  182.3750    80.3300    87.4170    71.7990    65.5340     2.3020   -31.5580 
  182.5000    75.3330    96.5820    78.9390    66.7690     2.2970   -31.7200 
  182.6250    71.7360   109.9610    89.8610    78.3050     2.2840   -31.7840 
  182.7500    70.5920   123.9290   101.8230   106.1200     2.2690   -31.9550 
  182.8750    71.3400   134.5680   111.6620   137.0620     2.2560   -32.0850 
  183.0000    72.7840   138.3700   116.3030   144.6020     2.2500   -32.2200 
  183.1250    74.2820   133.0580   113.3650   128.1050     2.2510   -32.3620 
  183.2500    75.0020   122.9590   105.8620   115.3550     2.2570   -32.3670 
  183.3750    75.0990   112.4630    97.2210    98.6690     2.2660   -32.4770 
  183.5000    74.6980   104.9750    90.4670    80.0540     2.2760   -32.4950 
  183.6250    73.1400   102.7400    87.8700    71.1000     2.2830   -32.4710 
  183.7500    71.3260   104.8590    89.0230    75.1610     2.2870   -32.5040 
  183.8750    70.8910   110.5510    93.4040    81.5760     2.2890   -32.5330 
  184.0000    71.5990   118.8120   100.2290    79.9800     2.2900   -32.5070 
  184.1250    71.9710   128.6420   108.7070    76.3900     2.2880   -32.5290 
  184.2500    72.2310   138.7720   117.6610    80.9290     2.2840   -32.5650 
  184.3750    72.2720   148.7820   126.6140    92.2850     2.2740   -32.5330 
  184.5000    70.2620   158.8630   135.5700    95.6510     2.2600   -32.6050 
  184.6250    66.1870   169.6150   144.9240    93.0950     2.2430   -32.7240 
  184.7500    62.8760   180.5780   154.4390   101.2020     2.2280   -32.8120 
  184.8750    61.6120   189.8190   162.7770   118.7230     2.2190   -32.9100 
  185.0000    62.2100   194.0950   167.4970   136.0770     2.2190   -33.1540 
  185.1250    64.0360   188.5060   164.5890   157.7830     2.2280   -33.3340 
  185.2500    66.2110   174.1450   154.3500   168.7980     2.2380   -33.5420 
  185.3750    68.5010   155.1510   139.4800   153.1420     2.2450   -33.8270 
  185.5000    69.8270   138.1440   125.1260   106.2410     2.2430   -33.9600 
  185.6250    71.3170   131.1050   118.4260    75.2110     2.2290   -34.1510 
  185.7500    73.3890   136.2750   122.3570    61.7320     2.2120   -34.2740 
  185.8750    75.4790   154.5110   138.1550    59.0520     2.1970   -34.4210 
  186.0000    76.3230   184.4560   164.5810    70.6270     2.1910   -34.5760 
  186.1250    75.3200   222.1490   197.6330    79.2540     2.1940   -34.6720 
  186.2500    74.7180   258.3710   228.8690    78.7780     2.2000   -34.8630 
  186.3750    74.4080   285.7460   252.0330    78.6290     2.2030   -34.9580 
  186.5000    72.8910   300.2570   264.1790    87.9980     2.2030   -35.1130 
  186.6250    69.5540   302.6890   266.3390   106.7280     2.1980   -35.2540 
  186.7500    66.6860   301.1840   265.2720   131.3800     2.1930   -35.2810 
  186.8750    65.4040   299.3320   263.9950   159.9360     2.1880   -35.3220 
  187.0000    64.2700   296.9840   262.5220   185.7260     2.1840   -35.1990 
  187.1250    63.2030   290.6530   258.0640   200.0130     2.1840   -34.9390 
  187.2500    63.5480   277.8130   248.3620   205.4370     2.1890   -34.6160 
  187.3750    64.4430   257.3810   232.2310   210.4680     2.1990   -34.2650 
  187.5000    65.9140   230.7660   210.4300   213.0560     2.2090   -33.7400 
  187.6250    68.8520   201.9430   185.7530   198.6430     2.2170   -33.1210 
  187.7500    71.0320   176.0820   162.6940   173.3330     2.2220   -32.4400 
  187.8750    71.0000   156.2730   144.2460   140.3990     2.2240   -31.5900 
  188.0000    72.4490   144.2870   132.4330   110.5600     2.2270   -30.8100 
  188.1250    75.9690   142.9380   130.2740   100.1520     2.2300   -30.1060 
  188.2500    75.6020   152.4270   138.1450   101.8780     2.2320   -29.4620 
  188.3750    70.7490   174.6080   157.5800   111.7840     2.2320   -28.8770 
  188.5000    67.0080   210.0700   188.8050   131.3490     2.2280   -28.5220 
  188.6250    65.5350   256.3810   229.2700   175.6590     2.2210   -28.3460 
  188.7500    62.4090   301.6860   268.4690   232.6820     2.2130   -28.3570 
  188.8750    59.8980   333.2520   295.4770   293.7510     2.2060   -28.5600 
  189.0000    61.5220   340.4810   301.4890   343.5510     2.2010   -28.6800 
  189.1250    63.6260   319.9960   283.3240   355.1980     2.2000   -28.9610 
  189.2500    64.0250   291.2840   256.7260   333.6140     2.2040   -29.1200 
  189.3750    66.1690   271.2030   236.1280   291.6700     2.2140   -29.1870 
  189.5000    69.6180   270.5610   231.8590   220.8160     2.2290   -29.1930 
  189.6250    68.4400   296.5480   250.8740   199.3940     2.2440   -28.9530 
  189.7500    63.7790   340.4810   285.4530   248.9480     2.2540   -28.7440 
  189.8750    60.8250   390.3540   325.2380   365.2060     2.2530   -28.4260 
  190.0000    59.5260   428.5460   355.9910   525.7540     2.2480   -28.0880 
  190.1250    57.7580   430.3570   358.9590   557.3700     2.2520   -27.7360 
  190.2500    58.2030   394.8470   333.4720   497.8580     2.2780   -27.3040 
  190.3750    59.8060   334.1400   287.6050   396.9740     2.3260   -26.8360 
  190.5000    59.4350   267.3580   234.7370   283.4800     2.3780   -26.4040 
  190.6250    58.1880   211.2940   187.4470   207.8870     2.4060   -25.9830 
  190.7500    59.4480   169.3080   149.7770   172.7930     2.4010   -25.4520 
  190.8750    62.7580   139.0460   121.1800   142.2580     2.3820   -24.9160 
  191.0000    66.2390   115.5800    98.6600   105.5560     2.3790   -24.3530 
  191.1250    68.9020    93.3490    78.8150    79.8600     2.4180   -23.7330 
  191.2500    68.4930    70.5950    59.5840    72.6770     2.4840   -23.1570 
  191.3750    65.1180    48.6710    41.9900    80.5640     2.5460   -22.7080 
  191.5000    61.5880    30.1450    27.9700    69.4800     2.5720   -22.2110 
  191.6250    59.8010    20.0260    19.2470    32.5570     2.5500   -21.8320 
  191.7500    56.6010    14.3450    14.3020    14.9630     2.5090   -21.5610 
  191.8750    53.8230    12.1910    11.9270    10.0620     2.4750   -21.3440 
  192.0000    54.2520    11.6360    11.1290     9.4780     2.4620   -21.3320 
  192.1250    55.7610    11.9610    11.2880    10.4920     2.4690   -21.2950 
  192.2500    56.0220    12.4220    11.7230    11.7360     2.4810   -21.3840 
  192.3750    57.0210    12.6780    12.0740    12.3670     2.4870   -21.4220 
  192.5000    59.7850    12.5980    12.1430    11.5170     2.4810   -21.4970 
  192.6250    60.2240    12.2260    11.8950     9.8200     2.4650   -21.6030 
