~V
VERS. 2.00: Ver 2.00
~W
STRT.M 60.0000:
STOP.M 275.0000:
STEP.M 0.1250:
NULL. -999.2500:
UWI. DF3003:
~C
DEPT.M :
DEN.GM/CC :
SP.MV :
AC.US/MT :
GR.API :
RML.OHMM :
RI. :
RXO.OHMM :
CALI.CM :
~A
# ...
  100.0000     2.1510   -10.8220   424.2840    66.3600     8.1600     7.3460     8.0090    23.2230 
  100.1250     2.1730    -9.9780   423.9310    73.2600     7.4890     6.8150     7.3750    23.2990 
  100.2500     2.2000    -9.2410   425.5070    79.2890     6.7340     6.1700     6.4370    23.3150 
  100.3750     2.2270    -8.5960   429.2870    83.0940     6.0270     5.5130     5.3290    23.3340 
  100.5000     2.2470    -8.0570   433.5580    86.7980     5.4630     4.9320     4.4280    23.3920 
  100.6250     2.2590    -7.7250   435.9280    91.9920     5.1000     4.4970     4.1550    23.4410 
  100.7500     2.2670    -7.5110   435.7540    96.1770     4.8740     4.1830     4.0410    23.4980 
  100.8750     2.2750    -7.4990   433.0480    98.4850     4.7310     3.9630     3.8640    23.5920 
  101.0000     2.2820    -7.6550   428.6130   100.3880     4.6280     3.8120     3.6790    23.7400 
  101.1250     2.2910    -8.0960   422.3370    99.5380     4.5610     3.7250     3.6050    23.9270 
  101.2500     2.2990    -8.6590   414.3670    94.6460     4.5530     3.7040     3.6540    24.0470 
  101.3750     2.3050    -9.3600   407.9800    90.5490     4.6500     3.7770     3.8740    24.0800 
  101.5000     2.3050   -10.1820   408.1570    89.6620     4.8910     3.9710     4.2630    24.0560 
  101.6250     2.2960   -11.0400   414.7090    89.5770     5.3130     4.3280     4.7760    23.9870 
  101.7500     2.2790   -11.9860   418.4610    86.9630     5.8600     4.8110     5.3930    23.8470 
  101.8750     2.2560   -12.9140   414.7820    81.2820     6.4690     5.3760     6.2440    23.6410 
  102.0000     2.2340   -13.8510   406.4070    74.2550     7.0510     5.9530     7.2760    23.4820 
  102.1250     2.2190   -14.6770   397.4970    69.6500     7.4860     6.4410     7.9400    23.4290 
  102.2500     2.2140   -15.3560   390.4100    66.9800     7.7570     6.8000     8.3480    23.4220 
  102.3750     2.2180   -15.8650   387.1920    64.8940     7.9000     7.0360     8.6170    23.4220 
  102.5000     2.2250   -16.1890   386.8070    65.8050     8.0030     7.2030     8.9240    23.4180 
  102.6250     2.2260   -16.4470   383.1720    70.8310     8.1620     7.3710     9.5150    23.4000 
  102.7500     2.2160   -16.6350   374.2720    72.0410     8.3980     7.5780    10.2270    23.3590 
  102.8750     2.1960   -16.8130   364.6870    66.1350     8.6720     7.8130    11.0000    23.2810 
  103.0000     2.1710   -16.9400   361.8690    59.5370     8.9200     8.0400    11.4800    23.1470 
  103.1250     2.1490   -16.9630   370.1040    61.3970     9.0710     8.2080    10.6040    23.0220 
  103.2500     2.1350   -16.9890   381.7510    66.9730     9.1270     8.3060     9.7210    23.0190 
  103.3750     2.1300   -16.9880   390.0570    70.3270     9.1150     8.3440     9.4970    23.1140 
  103.5000     2.1320   -17.0570   394.0600    70.8540     9.0700     8.3390     9.5830    23.2370 
  103.6250     2.1350   -17.1070   397.2790    71.2700     9.0170     8.3150     9.6860    23.3500 
  103.7500     2.1380   -17.1210   400.4830    70.4510     8.9630     8.2880     9.6470    23.4050 
  103.8750     2.1400   -17.0250   401.8550    67.8290     8.9060     8.2640     9.4870    23.3840 
  104.0000     2.1410   -16.8070   402.1510    66.1730     8.8520     8.2460     9.1750    23.3250 
  104.1250     2.1430   -16.6120   402.6990    68.0840     8.8140     8.2330     8.8750    23.1830 
  104.2500     2.1460   -16.3280   404.1850    69.6820     8.7830     8.2150     8.6230    23.0340 
  104.3750     2.1520   -16.0300   406.7390    68.4460     8.7360     8.1740     8.3810    22.8970 
  104.5000     2.1610   -15.6720   410.1170    64.6780     8.6460     8.0940     8.1460    22.8050 
  104.6250     2.1710   -15.2140   412.8690    62.2660     8.4940     7.9630     7.9630    22.6770 
  104.7500     2.1820   -14.7200   413.5580    64.0730     8.3100     7.8030     7.7190    22.5870 
  104.8750     2.1920   -14.2210   411.2900    68.8700     8.1280     7.6350     7.4250    22.5050 
  105.0000     2.1990   -13.8110   405.3610    73.2410     7.9750     7.4800     7.2550    22.5300 
  105.1250     2.2020   -13.4580   396.9540    75.4070     7.8620     7.3520     7.3020    22.7160 
  105.2500     2.2020   -13.2250   392.1910    75.3200     7.7680     7.2420     7.3960    22.8410 
  105.3750     2.2000   -13.0970   394.1040    72.3080     7.6740     7.1420     7.4300    22.9100 
  105.5000     2.1980   -13.0360   400.0900    70.7550     7.5740     7.0450     7.4130    22.9520 
  105.6250     2.1970   -13.0670   404.4200    75.1160     7.4780     6.9540     7.3680    23.0320 
  105.7500     2.1980   -13.0970   405.9430    79.2200     7.3980     6.8740     7.3960    23.2020 
  105.8750     2.1980   -13.2200   407.1690    77.9250     7.3390     6.8140     7.4850    23.3810 
  106.0000     2.1970   -13.3290   409.6520    73.8420     7.2990     6.7790     7.5700    23.5020 
  106.1250     2.1940   -13.3890   414.0750    71.9100     7.2850     6.7830     7.5820    23.5570 
  106.2500     2.1870   -13.4030   419.7230    71.2650     7.3080     6.8290     7.5390    23.5880 
  106.3750     2.1780   -13.2660   424.0560    71.3710     7.3880     6.9230     7.4950    23.6200 
  106.5000     2.1680   -13.0370   423.5780    73.0170     7.5210     7.0560     7.4670    23.6610 
  106.6250     2.1580   -12.7010   418.3380    74.6230     7.6500     7.1760     7.4340    23.7110 
  106.7500     2.1540   -12.3870   414.4650    73.9060     7.6740     7.1980     7.4000    23.7850 
  106.8750     2.1580   -12.0090   414.1730    73.6410     7.4970     7.0430     7.2670    23.8880 
  107.0000     2.1760   -11.5660   415.2910    79.3100     7.0690     6.6650     6.8830    24.0110 
  107.1250     2.2070   -11.1130   416.1190    92.5630     6.4040     6.0650     6.0760    24.1540 
  107.2500     2.2420   -10.6390   418.4720   104.7760     5.6710     5.3820     5.0330    24.3000 
  107.3750     2.2700   -10.3160   422.5450   112.4670     5.0140     4.7400     4.1350    24.4450 
  107.5000     2.2830   -10.1080   425.2720   116.3860     4.5530     4.2480     3.7320    24.5190 
  107.6250     2.2790   -10.1310   418.3700   114.7700     4.4240     4.0270     3.7000    24.5040 
  107.7500     2.2700   -10.2940   396.3400   109.7430     4.6120     4.0800     3.8580    24.4290 
  107.8750     2.2660   -10.6460   356.0910   104.0800     5.0960     4.4000     4.2080    24.2940 
  108.0000     2.2730   -11.1710   306.5780    97.5100     5.7970     4.9430     4.7730    24.0590 
  108.1250     2.2820   -11.8190   274.1300    88.8310     6.5740     5.6290     5.5980    23.7500 
  108.2500     2.2820   -12.6170   273.0270    81.2430     7.2380     6.3050     6.5160    23.4670 
  108.3750     2.2680   -13.4290   300.7700    76.3690     7.6780     6.8640     7.2970    23.2990 
  108.5000     2.2420   -14.2900   344.8690    72.5160     7.8730     7.2420     7.8550    23.2260 
  108.6250     2.2120   -15.0240   387.0310    69.0040     7.8710     7.4140     8.2350    23.2090 
  108.7500     2.1840   -15.5780   413.1490    67.3750     7.8000     7.4640     8.6270    23.2060 
  108.8750     2.1590   -15.9490   422.6020    67.6130     7.7160     7.4500     8.9630    23.2040 
  109.0000     2.1400   -16.1520   424.6850    69.4300     7.6420     7.4140     9.1870    23.1990 
  109.1250     2.1270   -16.3230   426.4590    69.2030     7.5840     7.3800     9.3060    23.1880 
  109.2500     2.1210   -16.3690   427.7160    66.2830     7.5440     7.3600     9.3700    23.1820 
  109.3750     2.1200   -16.2730   428.0540    63.5490     7.5290     7.3640     9.4150    23.1800 
  109.5000     2.1220   -15.9940   427.2680    64.3500     7.5460     7.3940     9.4300    23.1820 
  109.6250     2.1240   -15.5050   424.8030    67.9870     7.5980     7.4460     9.3690    23.1840 
  109.7500     2.1280   -14.9040   421.6220    70.2220     7.6610     7.4960     9.2300    23.1940 
  109.8750     2.1320   -14.1570   418.9950    71.5350     7.6950     7.5110     9.0070    23.2170 
