~V
VERS. 2.00: Ver 2.00
~W
STRT.M 100.0000:
STOP.M 264.0000:
STEP.M 0.1250:
NULL. -999.2500:
UWI. DF3023:
~C
DEPT.M :
GR.API :
CALI.CM :
RXO.OHMM :
RI. :
RML.OHMM :
SP.MV :
DEN.GM/CC :
AC.US/MT :
~A
# ...
  200.0000    64.5640    24.1640    79.7330   132.4370   134.5310   -30.2720     2.2380   410.6330 
  200.1250    65.2350    24.2390    74.7530   134.8660   135.7990   -30.2490     2.2130   403.7630 
  200.2500    64.8890    24.2300    66.6820   138.9670   138.2710   -30.2210     2.2040   382.2200 
  200.3750    63.7860    24.1830    72.3750   140.7550   141.5900   -30.1830     2.2500   357.6550 
  200.5000    62.8300    24.1120    92.9480   137.5600   141.2130   -30.1690     2.3090   352.9400 
  200.6250    63.0850    24.0490   105.0910   125.5850   133.0120   -30.1880     2.3180   378.3490 
  200.7500    63.6270    24.0750    97.3550   108.5950   118.8040   -30.2190     2.2770   406.6910 
  200.8750    64.0940    24.1660    75.9760    91.3880   102.3150   -30.2640     2.2490   420.6150 
  201.0000    64.1520    24.2500    55.4810    77.5320    87.5020   -30.2960     2.2290   420.5750 
  201.1250    62.4020    24.3600    51.7910    69.0100    77.4690   -30.2650     2.2150   418.4040 
  201.2500    60.5470    24.5200    56.6490    64.4960    71.7830   -30.2160     2.2190   417.9690 
  201.3750    61.5990    24.6550    56.2490    62.8910    69.6050   -30.1960     2.2200   424.2640 
  201.5000    65.4780    24.6840    50.8840    62.8550    69.6320   -30.2130     2.2210   437.1570 
  201.6250    68.6920    24.5820    48.0010    62.6550    69.9980   -30.2730     2.2210   442.2350 
  201.7500    68.9250    24.4270    49.7440    61.0160    68.9820   -30.3740     2.2130   433.2320 
  201.8750    66.7880    24.2600    50.8140    57.7930    66.1060   -30.4750     2.2000   420.1550 
  202.0000    64.0620    24.1320    49.1450    53.7790    61.9640   -30.5460     2.1980   413.3930 
  202.1250    64.0640    24.1180    44.0330    50.4600    57.9790   -30.6300     2.2160   409.8100 
  202.2500    66.4360    24.1670    37.5190    48.9320    55.5250   -30.7630     2.2400   405.0800 
  202.3750    68.5650    24.2000    35.9350    49.8340    55.4880   -30.9200     2.2560   401.6240 
  202.5000    69.0280    24.1680    39.2020    53.4280    58.3540   -31.0730     2.2580   400.3160 
  202.6250    69.1720    24.1290    43.7340    59.9800    64.6100   -31.2020     2.2500   402.6600 
  202.7500    69.2090    24.1590    48.0970    68.3450    73.0850   -31.3070     2.2360   406.0640 
  202.8750    68.1930    24.2340    52.8480    77.2050    82.3590   -31.4350     2.2230   406.5330 
  203.0000    66.9370    24.2930    59.9850    84.7670    90.4810   -31.6200     2.2140   402.5460 
  203.1250    66.9030    24.2900    63.3580    88.9610    95.1870   -31.8230     2.2020   398.1950 
  203.2500    67.7320    24.2190    60.3990    90.2020    96.6710   -32.0050     2.1970   399.0350 
  203.3750    67.5410    24.1000    57.1170    89.6440    95.9170   -32.1730     2.2030   404.5740 
  203.5000    66.1790    23.9790    61.1660    88.7130    94.3260   -32.3340     2.2060   410.0540 
  203.6250    67.7880    23.9150    63.0270    88.8020    93.3800   -32.4800     2.1980   411.4290 
  203.7500    72.2520    23.8830    59.3080    90.4380    93.8640   -32.5970     2.1940   410.5570 
  203.8750    75.0580    23.8430    55.8380    93.7650    96.1080   -32.6490     2.2020   410.0540 
  204.0000    73.1500    23.7940    56.1000    98.6320   100.1280   -32.6320     2.2160   411.0750 
  204.1250    70.2680    23.7580    59.5050   104.6680   105.7810   -32.6210     2.2240   413.5100 
  204.2500    70.5250    23.7250    63.2210   110.7860   112.0200   -32.6500     2.2220   416.2050 
  204.3750    71.0970    23.6530    64.4720   115.9620   117.8230   -32.6820     2.2110   417.6890 
  204.5000    68.7250    23.5870    65.1500   119.2680   122.1700   -32.6890     2.1990   417.1720 
  204.6250    65.6840    23.6600    67.8890   119.8340   123.9950   -32.6490     2.1900   416.2100 
  204.7500    66.2160    23.8340    68.4540   118.3340   123.6640   -32.5640     2.1840   416.8590 
  204.8750    69.7050    23.9710    65.5300   115.5080   121.7440   -32.4880     2.1860   418.7360 
  205.0000    72.4990    23.9980    60.1500   112.2000   119.0450   -32.4760     2.1970   419.5960 
  205.1250    72.1320    23.9780    59.8680   108.8210   116.0360   -32.4950     2.2050   417.6090 
  205.2500    71.0620    23.9660    62.3300   104.9170   112.3110   -32.4740     2.2060   414.2700 
  205.3750    71.0270    23.9470    64.4390    99.8150   107.1050   -32.4140     2.2160   410.6980 
  205.5000    70.3420    23.9230    63.1470    93.5790   100.3770   -32.3210     2.2340   407.5210 
  205.6250    67.6010    23.8940    61.7660    87.6650    93.4890   -32.2000     2.2450   404.4260 
  205.7500    65.2460    23.8470    55.1660    83.9500    88.5490   -32.1120     2.2420   401.7290 
  205.8750    65.5880    23.7910    46.3710    83.5980    86.9680   -32.0720     2.2280   400.8850 
  206.0000    67.9840    23.7830    48.4760    86.7990    89.0740   -32.0280     2.2180   403.3150 
  206.1250    69.4460    23.8950    65.1980    92.8570    94.1430   -31.9510     2.2160   409.0540 
  206.2500    69.0770    24.1170    93.2320    99.4010    99.8080   -31.8700     2.2150   413.1680 
  206.3750    67.1600    24.4440   120.4250   104.9640   104.7350   -31.7790     2.2140   411.3960 
  206.5000    65.6160    24.8160   119.9950   109.3720   108.7300   -31.6490     2.2270   404.3270 
  206.6250    66.4500    25.0480    89.3920   114.5670   113.5850   -31.4790     2.2570   396.7360 
  206.7500    67.9870    25.0650    85.6100   123.1600   121.8420   -31.2700     2.2710   392.0010 
  206.8750    67.2260    24.9630   128.1000   136.7740   135.0360   -30.9850     2.2560   390.2560 
  207.0000    65.0240    24.8860   176.3230   155.1680   152.6900   -30.6400     2.2380   392.5220 
  207.1250    65.9660    24.8400   162.1780   174.8290   171.2820   -30.3000     2.2320   401.3030 
  207.2500    69.1470    24.7480   124.8830   189.0960   185.1300   -29.9810     2.2260   413.3540 
  207.3750    70.7690    24.6620   113.2630   193.6080   190.7070   -29.6620     2.2110   425.1140 
  207.5000    68.7540    24.7050   135.4400   188.4330   187.8780   -29.3460     2.2030   427.6260 
  207.6250    65.9710    24.9050   165.2940   173.7840   177.0140   -29.0310     2.2280   412.3250 
  207.7500    65.4830    25.1010   160.5950   150.4060   158.9110   -28.6950     2.2640   395.2080 
  207.8750    66.0410    25.1970   127.8040   120.8760   133.9980   -28.3510     2.2840   388.4420 
  208.0000    66.1340    25.1710   104.8740    92.2080   106.3450   -28.0380     2.2870   389.9570 
  208.1250    66.4740    24.9790    96.5120    71.6720    82.9070   -27.7500     2.2870   388.5470 
  208.2500    67.7430    24.7460    67.7310    58.9180    66.5090   -27.4520     2.2880   385.4170 
  208.3750    69.3620    24.6500    42.1370    52.1760    56.8990   -27.1590     2.2870   385.3870 
  208.5000    69.9880    24.7220    38.9810    49.3430    52.2920   -26.8950     2.2870   385.0040 
  208.6250    69.2500    24.8040    64.4060    48.4030    50.5170   -26.6690     2.2760   380.5040 
  208.7500    66.6640    24.7940    79.9400    46.9540    48.7970   -26.5020     2.2550   374.2190 
  208.8750    64.0850    24.6910    69.6610    43.8470    45.8420   -26.4090     2.2510   370.1130 
  209.0000    65.3960    24.5050    42.8700    39.2980    41.5400   -26.3630     2.2640   370.2700 
  209.1250    72.7050    24.2790    31.1050    34.9300    37.0650   -26.3230     2.2790   373.5470 
  209.2500    79.5390    24.1060    31.2700    32.2420    33.9070   -26.2860     2.2960   375.7270 
  209.3750    81.2760    23.9880    28.8080    31.9460    32.9880   -26.2490     2.3150   374.4880 
  209.5000    78.8390    23.9100    27.6440    34.4050    34.9770   -26.2030     2.3230   366.4590 
  209.6250    74.9430    23.9480    36.7450    40.3190    40.9580   -26.1590     2.3410   341.9410 
  209.7500    71.0210    24.1140    51.0300    49.1010    50.3560   -26.1140     2.4060   304.2840 
  209.8750    66.6710    24.3490    75.5170    59.8810    62.1380   -26.0540     2.4980   266.6520 
