~V
VERS. 2.00: Ver 2.00
~W
STRT.M 60.0000:
STOP.M 251.0000:
STEP.M 0.1250:
NULL. -999.2500:
UWI. DF3020:
~C
DEPT.M :
GR.API :
RML.OHMM :
RI. :
RXO.OHMM :
CALI.CM :
DEN.GM/CC :
SP.MV :
~A
# ...
  116.2500    95.1350     6.7530     5.6640     6.0250    24.9590     2.2570   -27.1000 
  116.3750    94.2040     6.8560     5.7590     6.1910    24.8780     2.2600   -27.1980 
  116.5000    97.6890     6.9420     5.8400     6.2220    24.7320     2.2740   -27.3110 
  116.6250    99.9370     6.9810     5.8780     6.2000    24.5590     2.2940   -27.4240 
  116.7500    99.4360     6.9570     5.8580     6.2340    24.4670     2.3110   -27.4510 
  116.8750    98.5320     6.8630     5.7730     6.2390    24.5170     2.3180   -27.4370 
  117.0000    99.1000     6.7090     5.6300     6.0580    24.6860     2.3150   -27.4210 
  117.1250   102.0960     6.5140     5.4400     5.8800    24.8800     2.3070   -27.3690 
  117.2500   106.6580     6.3090     5.2330     5.6540    24.8910     2.3050   -27.3720 
  117.3750   110.6980     6.1080     5.0250     5.2200    24.6990     2.3130   -27.3980 
  117.5000   113.0940     5.9220     4.8290     4.6720    24.3840     2.3300   -27.5120 
  117.6250   113.2730     5.7670     4.6630     4.3370    24.2000     2.3510   -27.7320 
  117.7500   111.7500     5.6630     4.5440     4.2640    24.1420     2.3650   -28.1440 
  117.8750   107.8600     5.6370     4.4930     4.3100    24.1360     2.3660   -28.7300 
  118.0000   101.9540     5.7210     4.5360     4.3670    24.1180     2.3500   -29.4900 
  118.1250    97.1530     5.9690     4.7170     4.5870    24.0300     2.3260   -30.4720 
  118.2500    93.2550     6.3720     5.0290     4.9980    23.8470     2.3040   -31.5430 
  118.3750    88.1610     6.9110     5.4630     5.4780    23.6270     2.2900   -32.6510 
  118.5000    80.2950     7.5280     5.9820     5.8600    23.4420     2.2820   -33.7800 
  118.6250    75.6850     8.1070     6.5040     6.4270    23.3670     2.2710   -34.8320 
  118.7500    76.2220     8.5290     6.9270     7.2370    23.3940     2.2520   -35.7760 
  118.8750    75.8990     8.7130     7.1730     7.9070    23.4940     2.2290   -36.5380 
  119.0000    71.2680     8.6350     7.2050     8.4110    23.6220     2.2090   -37.1250 
  119.1250    67.1050     8.3200     7.0230     8.6200    23.7860     2.2040   -37.4180 
  119.2500    69.6750     7.9240     6.7470     8.4760    23.9300     2.2110   -37.5620 
  119.3750    75.1230     7.5600     6.4720     7.8890    24.0140     2.2220   -37.5580 
  119.5000    76.8700     7.3280     6.2850     7.1710    24.0620     2.2300   -37.4490 
  119.6250    73.4070     7.3550     6.2960     7.0010    24.0650     2.2220   -37.1880 
  119.7500    68.4080     7.6860     6.5550     7.3310    24.0430     2.2020   -36.8440 
  119.8750    65.9350     8.3570     7.1050     8.0280    24.0190     2.1780   -36.4090 
  120.0000    65.8090     9.3010     7.9100     8.6550    24.0170     2.1670   -35.8130 
  120.1250    67.0660    10.2430     8.7720     9.3040    24.0450     2.1890   -35.1060 
  120.2500    68.7380    10.7640     9.3390    10.4750    24.1250     2.2430   -34.2170 
  120.3750    72.0610    10.5490     9.3190    12.3650    24.3320     2.3160   -33.2400 
  120.5000    77.5970     9.5340     8.6020    15.1190    24.7350     2.3860   -32.2000 
  120.6250    81.4310     7.9990     7.3360    17.0770    25.2680     2.4210   -31.2430 
  120.7500    83.2810     6.5750     6.0400    12.4660    25.6830     2.4180   -30.4270 
  120.8750    85.7990     5.5910     5.0240     7.1610    25.9680     2.3870   -29.8210 
  121.0000    88.6460     5.1310     4.4140     5.1070    26.1040     2.3450   -29.5020 
  121.1250    87.5680     5.1710     4.2600     4.8670    25.8760     2.3030   -29.4910 
  121.2500    83.6910     5.5080     4.4290     5.2320    25.4010     2.2670   -29.7980 
  121.3750    80.3180     6.0550     4.8600     5.9450    24.9960     2.2400   -30.3200 
  121.5000    77.8980     6.7720     5.5120     6.8840    24.8600     2.2280   -30.9970 
  121.6250    76.6410     7.6600     6.3700     7.6760    24.8810     2.2440   -31.7370 
  121.7500    78.2150     8.6420     7.3340     8.6490    24.7910     2.2830   -32.5570 
  121.8750    80.9680     9.6010     8.2900    10.5980    24.6090     2.3320   -33.3900 
  122.0000    80.9190    10.3750     9.0900    14.1880    24.4650     2.3710   -34.2560 
  122.1250    78.4960    10.7550     9.5290    17.6890    24.3160     2.3730   -35.0610 
  122.2500    77.6530    10.7720     9.6110    18.3010    24.1170     2.3430   -35.8430 
  122.3750    77.1590    10.5380     9.4200    17.9130    23.9780     2.2960   -36.5990 
  122.5000    74.8670    10.2270     9.1080    17.3080    23.9180     2.2490   -37.3570 
  122.6250    71.6360    10.0150     8.8510    14.6280    23.8820     2.2190   -38.0620 
  122.7500    69.8040     9.9500     8.7210    11.8910    23.8670     2.2060   -38.7030 
  122.8750    69.3410     9.9980     8.7050    11.5740    23.8630     2.2050   -39.2290 
  123.0000    71.3020    10.0870     8.7450    13.0520    23.8630     2.2110   -39.6890 
  123.1250    73.9100    10.1300     8.7690    16.5610    23.8610     2.2200   -40.0360 
  123.2500    73.5880    10.0850     8.7360    19.0630    23.8450     2.2260   -40.3170 
  123.3750    71.4480     9.9530     8.6420    15.1030    23.8100     2.2270   -40.5290 
  123.5000    71.1120     9.7710     8.5110    10.9480    23.7840     2.2240   -40.6710 
  123.6250    72.0630     9.6010     8.3820     9.6680    23.7750     2.2190   -40.8070 
  123.7500    71.5090     9.4840     8.2840     9.6010    23.7750     2.2150   -40.8600 
  123.8750    71.5460     9.4290     8.2270     9.5690    23.7750     2.2110   -40.8910 
  124.0000    73.5570     9.4220     8.2020     9.5350    23.7750     2.2100   -40.8300 
  124.1250    73.5130     9.4330     8.1910     9.5410    23.7750     2.2090   -40.7730 
  124.2500    70.1460     9.4380     8.1770     9.6900    23.7750     2.2090   -40.6830 
  124.3750    67.7110     9.4320     8.1540     9.9280    23.7750     2.2080   -40.5890 
  124.5000    68.4080     9.4170     8.1250    10.0750    23.7750     2.2080   -40.4940 
  124.6250    70.3780     9.3920     8.0900    10.0570    23.8130     2.2090   -40.3620 
  124.7500    71.9790     9.3500     8.0450     9.8640    23.9320     2.2120   -40.2440 
  124.8750    73.3580     9.2690     7.9780     9.4890    24.1130     2.2140   -40.1170 
  125.0000    74.2740     9.1370     7.8810     9.1460    24.2260     2.2140   -40.0120 
  125.1250    74.2690     8.9630     7.7590     8.9820    24.2540     2.2140   -39.9210 
  125.2500    76.3570     8.8030     7.6450     8.8780    24.2540     2.2140   -39.8440 
  125.3750    78.4820     8.7120     7.5740     8.7820    24.2540     2.2130   -39.7770 
  125.5000    77.2840     8.7250     7.5720     8.5600    24.2540     2.2120   -39.6950 
  125.6250    72.6970     8.8370     7.6460     8.4410    24.2560     2.2090   -39.6440 
  125.7500    69.7950     8.9580     7.7380     8.6350    24.2640     2.2060   -39.5760 
  125.8750    70.9930     9.0010     7.7810     8.8910    24.2800     2.2040   -39.5300 
  126.0000    74.0490     8.8990     7.7140     8.9710    24.2900     2.2040   -39.4440 
  126.1250    75.1460     8.6190     7.4890     8.8440    24.2930     2.2110   -39.3440 
  126.2500    75.0140     8.2530     7.1680     8.6130    24.2930     2.2210   -39.2340 
  126.3750    74.9410     7.8940     6.8280     8.2410    24.2940     2.2350   -39.1420 
  126.5000    75.9710     7.6310     6.5520     7.6730    24.2770     2.2480   -39.1090 
  126.6250    76.1210     7.5380     6.4260     7.3940    24.2080     2.2570   -39.0510 
  126.7500    74.7700     7.5900     6.4440     7.3650    24.0950     2.2610   -39.0510 
  126.8750    73.7200     7.7590     6.5870     7.5030    24.0280     2.2570   -39.0600 
  127.0000    74.4780     8.0030     6.8150     7.7590    24.0090     2.2490   -39.1390 
  127.1250    76.3800     8.2900     7.0810     7.9380    24.0090     2.2380   -39.2230 
  127.2500    77.0200     8.5830     7.3420     8.1570    24.0100     2.2260   -39.3070 
  127.3750    75.4880     8.8620     7.5790     8.3140    24.0220     2.2160   -39.3590 
