~V
VERS. 2.00: Ver 2.00
~W
STRT.M 60.0000:
STOP.M 254.0000:
STEP.M 0.1250:
NULL. -999.2500:
UWI. DF3029:
~C
DEPT.M :
SP.MV :
GR.API :
RML.OHMM :
RI. :
RXO.OHMM :
CALI.CM :
DEN.GM/CC :
~A
# ...
  172.5000   -29.5470    75.5390    58.8160    56.9160    73.5810    23.4340     2.2650 
  172.6250   -29.2710    82.6240    40.6780    38.7300    55.8540    23.3760     2.3020 
  172.7500   -29.0710    89.5420    29.7720    27.8010    31.1490    23.3040     2.3430 
  172.8750   -28.8710    94.2850    23.5300    22.3140    17.1950    23.2240     2.3780 
  173.0000   -28.8150    94.1380    21.3790    20.3660    13.2110    23.1530     2.3980 
  173.1250   -28.6710    88.6950    21.7630    20.7070    13.1330    23.1260     2.4000 
  173.2500   -28.5520    85.9320    22.8880    21.8320    13.9930    23.0950     2.3920 
  173.3750   -28.3740    86.5030    23.7440    22.8250    15.3450    23.0190     2.3800 
  173.5000   -28.1920    88.3020    23.6210    22.9340    15.7980    22.9030     2.3670 
  173.6250   -27.9480    90.1160    22.1370    21.6660    14.5000    22.7530     2.3610 
  173.7500   -27.6980    95.4170    19.9470    19.6160    13.1360    22.5630     2.3670 
  173.8750   -27.4980   102.3460    17.8750    17.4940    11.9990    22.3220     2.3850 
  174.0000   -27.2770   103.3710    16.7180    15.9960    10.2810    22.1970     2.4100 
  174.1250   -27.1800    98.1910    17.6870    15.9640     9.9360    22.2490     2.4270 
  174.2500   -27.0780    92.5400    20.8780    17.7900    10.7690    22.3650     2.4260 
  174.3750   -27.0490    89.3600    26.6150    22.0140    12.6050    22.4200     2.4060 
  174.5000   -27.0870    87.2130    33.9980    28.9860    15.4680    22.3620     2.3740 
  174.6250   -27.1390    82.5780    43.0470    38.7540    19.9430    22.2000     2.3430 
  174.7500   -27.1760    77.8190    51.6210    49.5050    24.3290    22.0870     2.3210 
  174.8750   -27.1800    74.7880    59.2040    59.3470    26.9760    22.0500     2.3070 
  175.0000   -27.1610    75.6540    65.8010    66.6210    28.1170    22.0700     2.3010 
  175.1250   -27.1620    78.2410    69.8680    70.3740    29.0510    22.1350     2.2980 
  175.2500   -27.1700    80.2720    72.6790    72.2900    31.0970    22.2030     2.2960 
  175.3750   -27.1870    81.0260    75.8580    74.0030    33.6160    22.3000     2.2910 
  175.5000   -27.1970    80.6600    80.5940    76.7870    37.7080    22.5080     2.2850 
  175.6250   -27.2020    79.9910    87.5200    81.4320    45.4330    22.9530     2.2760 
  175.7500   -27.2120    78.2870    95.7170    87.3430    58.1930    23.4960     2.2670 
  175.8750   -27.3010    76.0890   104.1590    93.7560    72.4910    24.0120     2.2590 
  176.0000   -27.3500    73.6480   111.7580    99.7950    87.4220    24.4780     2.2530 
  176.1250   -27.3970    72.4690   117.4040   104.5370   102.8300    24.7860     2.2510 
  176.2500   -27.4320    71.1000   121.2630   107.9610   115.3410    24.9090     2.2510 
  176.3750   -27.4540    68.9820   123.7800   110.3280   121.1160    24.9650     2.2530 
  176.5000   -27.5150    68.0780   125.5120   112.0280   123.7270    24.9960     2.2540 
  176.6250   -27.5340    69.0960   126.7610   113.2900   123.7060    25.0060     2.2560 
  176.7500   -27.6180    69.3540   127.6660   114.2440   122.9930    24.9930     2.2560 
  176.8750   -27.6150    68.6590   128.1970   114.8710   123.5740    24.9620     2.2550 
  177.0000   -27.6920    67.9070   128.3720   115.1840   126.1580    24.9320     2.2530 
  177.1250   -27.6720    69.0880   128.3000   115.2830   127.3360    24.9200     2.2510 
  177.2500   -27.7220    73.0280   128.2450   115.4200   125.2800    24.9140     2.2520 
  177.3750   -27.7680    77.6000   128.4000   115.7900   120.2700    24.8970     2.2550 
  177.5000   -27.8320    78.5490   128.8460   116.4750   117.4920    24.8680     2.2590 
  177.6250   -27.8750    72.8710   129.4400   117.3460   118.8300    24.8110     2.2620 
  177.7500   -27.8750    66.9400   129.7530   117.9840   120.6740    24.7540     2.2620 
  177.8750   -27.8560    64.4310   129.3790   118.0010   121.5730    24.7000     2.2610 
  178.0000   -27.8200    66.0520   128.1380   117.2070   121.3530    24.6280     2.2610 
  178.1250   -27.7600    72.5310   126.2440   115.7430   121.5170    24.5440     2.2620 
  178.2500   -27.6700    79.3560   124.4640   114.2850   119.2340    24.5220     2.2600 
  178.3750   -27.5620    81.8290   123.3410   113.3310   110.0570    24.5580     2.2560 
  178.5000   -27.4540    79.3680   123.0830   113.1120    98.5350    24.6200     2.2480 
  178.6250   -27.3740    76.2960   123.5430   113.5640    95.2280    24.6230     2.2430 
  178.7500   -27.3350    76.0160   124.1040   114.1810   108.2360    24.5470     2.2440 
  178.8750   -27.3360    77.8170   124.3930   114.6230   122.4050    24.4650     2.2510 
  179.0000   -27.4170    78.1390   124.3100   114.7450   125.6620    24.4210     2.2550 
  179.1250   -27.5980    74.6940   124.0910   114.6570   115.3010    24.4530     2.2440 
  179.2500   -27.7650    70.9200   124.1820   114.7040   107.4060    24.5290     2.2180 
  179.3750   -28.0360    70.0770   124.8620   115.1360   105.2660    24.6090     2.1830 
  179.5000   -28.2410    71.8000   126.1770   116.0270   107.0050    24.6770     2.1510 
  179.6250   -28.5600    71.4660   127.9480   117.2510   110.4940    24.6880     2.1350 
  179.7500   -28.7750    70.5090   129.7350   118.4330   112.2480    24.6470     2.1380 
  179.8750   -28.9900    70.5620   131.2600   119.3100   112.3940    24.5820     2.1550 
  180.0000   -29.1080    72.2060   132.3740   119.7490   111.4590    24.5340     2.1780 
  180.1250   -29.2140    73.5380   133.0730   119.8010   110.1680    24.4950     2.1980 
  180.2500   -29.3520    73.5370   133.7450   119.9210   106.8470    24.4480     2.2090 
  180.3750   -29.3930    72.5760   134.9060   120.6990   101.2120    24.3680     2.2120 
  180.5000   -29.4070    70.4460   137.1900   122.8270    94.5610    24.2300     2.2120 
  180.6250   -29.2750    69.1190   141.5810   127.3790    85.6830    24.0630     2.2150 
  180.7500   -29.1630    69.8840   148.2850   134.5220    79.2780    23.8810     2.2210 
  180.8750   -29.0130    70.8580   157.5610   144.4720    77.2420    23.7520     2.2290 
  181.0000   -28.8510    70.9350   169.5100   157.1690    78.7970    23.7350     2.2350 
  181.1250   -28.6570    70.4860   183.3130   172.1030    86.5610    23.9030     2.2380 
  181.2500   -28.4550    69.2280   195.8190   186.7470   101.8890    24.1440     2.2380 
  181.3750   -28.2700    65.9530   203.9310   197.6160   121.4600    24.3120     2.2350 
  181.5000   -28.1190    63.6410   202.7530   200.2800   138.5960    24.3700     2.2320 
  181.6250   -28.0380    66.5540   189.6060   188.7020   145.2800    24.3390     2.2310 
  181.7500   -28.0240    70.1460   165.8900   165.0710   139.9900    24.2400     2.2340 
  181.8750   -28.0840    71.7950   138.7850   134.3970   126.1920    24.0970     2.2440 
  182.0000   -28.1740    72.6140   115.0720   103.9960   103.7010    23.9510     2.2620 
  182.1250   -28.2960    74.6450    89.8320    81.3950    69.3100    23.6940     2.2830 
  182.2500   -28.4360    78.1590    75.8320    67.9240    43.2420    23.3170     2.2980 
  182.3750   -28.5450    81.4710    72.4300    63.6790    30.9650    22.9960     2.2990 
  182.5000   -28.7050    82.7480    79.4240    68.7430    27.6410    22.8760     2.2840 
  182.6250   -28.8010    80.4350    98.9550    85.2030    37.2740    23.0130     2.2560 
  182.7500   -28.9580    76.0320   128.5220   110.8790    56.3190    23.3750     2.2270 
  182.8750   -29.0830    71.7060   164.8850   142.8210    91.8790    23.8410     2.2050 
  183.0000   -29.2110    67.9500   201.9210   175.4370   137.1100    24.2570     2.1930 
  183.1250   -29.3380    65.5000   229.6840   199.8520   184.2580    24.5310     2.1930 
  183.2500   -29.3730    64.3790   243.9410   212.4200   198.0250    24.6220     2.1980 
  183.3750   -29.4400    63.3550   246.3500   214.4670   200.5750    24.6110     2.2050 
  183.5000   -29.4680    62.7400   243.4670   211.3840   183.0210    24.5640     2.2110 
  183.6250   -29.5590    63.3050   242.3280   209.3110   160.0660    24.5430     2.2140 
