~V
VERS. 2.00: Ver 2.00
~W
STRT.M 125.0000:
STOP.M 275.0000:
STEP.M 0.1250:
NULL. -999.2500:
UWI. DF3046:
~C
DEPT.M :
GR.API :
CALI.CM :
RXO.OHMM :
RI. :
RML.OHMM :
DEN.GM/CC :
SP.MV :
~A
# ...
  170.0000    71.6590    24.4810   139.8360   129.0800   136.6780     2.2330   -22.9100 
  170.1250    72.7720    24.6090   160.7660   135.7710   143.7360     2.2500   -22.9480 
  170.2500    72.3780    24.7900   177.7430   143.8360   152.2790     2.2670   -23.0140 
  170.3750    70.8720    24.9130   200.1550   151.8720   160.9060     2.2690   -23.0750 
  170.5000    69.8120    24.9600   232.1560   158.7730   168.4440     2.2520   -23.0920 
  170.6250    71.1390    24.9650   240.9040   163.8130   173.9890     2.2270   -23.1110 
  170.7500    72.6890    24.9570   223.2660   167.3720   177.7730     2.2080   -23.1170 
  170.8750    73.4590    24.9440   206.6770   169.5090   179.8450     2.1990   -23.1570 
  171.0000    73.4200    24.9520   205.3920   170.0890   180.1910     2.2010   -23.2120 
  171.1250    71.1010    24.9580   202.3800   168.8880   178.6730     2.2120   -23.3360 
  171.2500    67.0510    24.9590   189.0810   166.5820   175.9950     2.2270   -23.4910 
  171.3750    63.0760    24.9590   174.1610   163.6530   172.7420     2.2460   -23.6750 
  171.5000    62.3380    24.9610   163.5120   160.6050   169.5230     2.2630   -23.8710 
  171.6250    65.0000    24.9500   154.6780   158.0720   166.9610     2.2620   -24.0760 
  171.7500    66.7750    24.9280   142.8830   156.2580   165.1600     2.2460   -24.3110 
  171.8750    67.4760    24.9040   127.7250   155.0410   163.9840     2.2310   -24.5370 
  172.0000    67.8440    24.8940   114.8310   154.1320   163.1670     2.2300   -24.7510 
  172.1250    67.1020    24.8940   112.1900   153.3260   162.5780     2.2350   -24.8850 
  172.2500    65.4810    24.8910   116.5520   152.7710   162.4330     2.2340   -24.9520 
  172.3750    64.2990    24.8770   122.7200   153.1180   163.4100     2.2320   -25.0290 
  172.5000    63.9850    24.8460   127.4870   155.4260   166.5270     2.2270   -25.0840 
  172.6250    67.5030    24.8200   129.6320   161.5440   173.6690     2.2170   -25.1170 
  172.7500    73.3150    24.7650   133.7620   171.9330   185.2700     2.2060   -25.1280 
  172.8750    77.2080    24.6600   147.1950   186.6920   201.2270     2.2060   -25.1630 
  173.0000    74.9960    24.5430   172.0090   204.3410   219.4430     2.2160   -25.1910 
  173.1250    67.9170    24.5940   197.1130   219.5230   233.4020     2.2220   -25.1890 
  173.2500    63.2270    24.7440   208.1140   225.1420   236.2060     2.2230   -25.1660 
  173.3750    61.9890    24.8230   199.2360   216.5010   224.1550     2.2310   -25.0760 
  173.5000    63.1590    24.7610   172.3270   194.4330   199.0990     2.2550   -24.9830 
  173.6250    63.8650    24.6670   134.9030   164.9380   167.6010     2.2940   -24.8660 
  173.7500    63.3940    24.6360   106.6200   136.8260   138.2850     2.3250   -24.7320 
  173.8750    63.2190    24.6550    88.1660   114.0210   114.9050     2.3330   -24.5330 
  174.0000    63.4950    24.6930    72.3170    97.7760    98.5060     2.3150   -24.3170 
  174.1250    64.9980    24.7220    59.2670    88.7100    89.5180     2.2900   -24.1180 
  174.2500    67.6240    24.7590    53.3790    84.7520    85.6000     2.2810   -23.9810 
  174.3750    69.9890    24.7920    56.8700    84.6820    85.4000     2.2880   -23.8730 
  174.5000    71.5020    24.8230    65.1820    87.0260    87.4540     2.2980   -23.7710 
  174.6250    72.1430    24.7820    74.5040    90.2880    90.4000     2.2970   -23.6830 
  174.7500    72.0540    24.7220    76.2540    93.3970    93.3100     2.2850   -23.5920 
  174.8750    71.2800    24.7040    70.1680    96.4870    96.4150     2.2710   -23.5200 
  175.0000    71.2800    24.6850    66.8070   100.5100   100.7380     2.2550   -23.4500 
  175.1250    72.5900    24.5250    79.9020   107.6100   108.3680     2.2350   -23.4050 
  175.2500    72.4040    24.3000    97.3920   118.6540   119.7190     2.2180   -23.3400 
  175.3750    68.6000    24.2050   105.9200   132.7990   133.3760     2.2130   -23.3140 
  175.5000    62.8130    24.2790   104.5650   146.0170   145.0510     2.2250   -23.2870 
  175.6250    59.1360    24.2690   104.6310   149.5420   146.9060     2.2510   -23.2560 
  175.7500    58.4180    24.1640   106.5870   140.3380   137.3260     2.2840   -23.2150 
  175.8750    59.3120    24.0830   100.2600   121.4680   119.2990     2.3150   -23.1740 
  176.0000    60.6810    24.0640    81.4290    99.9090    98.8710     2.3360   -23.1490 
  176.1250    61.5920    24.0670    59.5240    82.5220    82.2490     2.3380   -23.0860 
  176.2500    62.5510    24.0790    46.0910    70.8330    71.0310     2.3290   -23.0170 
  176.3750    65.0970    24.1130    41.7300    64.4510    65.0220     2.3130   -22.9290 
  176.5000    70.2560    24.1760    41.7180    62.6690    63.6300     2.2910   -22.8660 
  176.6250    74.9790    24.2580    41.8790    65.8280    67.1300     2.2700   -22.8650 
  176.7500    74.9370    24.3550    45.5140    73.1270    74.6520     2.2560   -22.9070 
  176.8750    69.3570    24.4600    58.3680    84.3650    85.9870     2.2480   -22.9920 
  177.0000    61.5740    24.5570    80.6870    98.8550   100.4420     2.2390   -23.1110 
  177.1250    57.6970    24.6220   101.1680   114.6960   116.1280     2.2290   -23.3040 
  177.2500    58.6500    24.6470   110.8870   128.1460   129.6090     2.2260   -23.5200 
  177.3750    60.9850    24.6400   112.3130   136.1860   138.2940     2.2310   -23.7390 
  177.5000    61.0240    24.6310   110.2740   137.9820   141.4760     2.2320   -23.9780 
  177.6250    58.9730    24.6270   102.4980   135.4420   140.7930     2.2210   -24.2080 
  177.7500    57.3790    24.6140    90.7350   133.1420   140.4630     2.2080   -24.4430 
  177.8750    56.9370    24.5740    81.7880   133.7900   143.1150     2.2000   -24.6650 
  178.0000    57.0510    24.5220    83.1240   138.5910   149.8410     2.1990   -24.8830 
  178.1250    57.3310    24.5100    99.9810   147.3320   160.0910     2.2050   -25.1040 
  178.2500    58.9650    24.5260   124.2630   156.6330   170.3190     2.2110   -25.3450 
  178.3750    61.2330    24.5410   143.0670   163.1350   177.2910     2.2100   -25.6230 
  178.5000    62.5810    24.5480   146.2980   164.5130   178.9590     2.2000   -25.8880 
  178.6250    63.6360    24.6270   135.1760   160.4330   175.1210     2.1920   -26.1410 
  178.7500    65.9480    24.7800   119.3890   154.4990   169.4130     2.1900   -26.3560 
  178.8750    68.1500    25.0060   102.9480   149.4250   164.5630     2.1860   -26.5570 
  179.0000    67.4500    25.2630    96.8060   146.9000   162.2730     2.1770   -26.7430 
  179.1250    63.7340    25.4350   103.1380   147.8040   163.5450     2.1710   -26.8720 
  179.2500    59.8270    25.4320   103.1860   151.2260   167.6170     2.1740   -26.9630 
  179.3750    57.5530    25.3230    94.6180   156.8580   174.2150     2.1820   -26.9880 
  179.5000    57.4960    25.2200    91.7840   164.5620   183.0820     2.1820   -26.9690 
  179.6250    58.0380    25.2440   103.1630   173.9760   193.5310     2.1760   -26.8920 
  179.7500    58.2880    25.3080   113.7470   183.0010   203.1370     2.1780   -26.8210 
  179.8750    59.0430    25.2500   119.9590   188.9070   209.0890     2.1930   -26.7220 
  180.0000    59.4180    25.0730   122.7610   189.1640   209.0930     2.2110   -26.5860 
  180.1250    58.3680    24.8970   122.6990   182.4170   202.0410     2.2190   -26.4360 
  180.2500    58.4100    24.8310   116.8390   172.2430   191.5030     2.2180   -26.2900 
  180.3750    60.7370    24.8660   104.4360   161.6670   180.4970     2.2170   -26.1630 
  180.5000    63.7340    24.9050    99.7420   152.7330   171.1590     2.2190   -26.0770 
  180.6250    65.5640    24.8810   110.2960   146.4290   164.6210     2.2190   -26.0410 
  180.7500    65.5380    24.8760   122.9490   141.9430   160.1020     2.2160   -26.0200 
  180.8750    62.6460    24.9500   124.4820   138.7710   157.0540     2.2140   -26.0040 
  181.0000    58.3750    25.0520   117.0470   136.6580   155.2090     2.2170   -25.9760 
  181.1250    58.6670    25.0580   103.9120   135.9650   155.0630     2.2210   -25.9340 
