~V
VERS. 2.00: Ver 2.00
~W
STRT.M 65.0000:
STOP.M 252.0000:
STEP.M 0.1250:
NULL. -999.2500:
UWI. DF3012:
~C
DEPT.M :
GR.API :
RML.OHMM :
RI. :
RXO.OHMM :
CALI.CM :
DEN.GM/CC :
SP.MV :
~A
# ...
  188.7500    54.6180   395.8460   352.3610   303.9210    24.9850     2.1950   -40.9730 
  188.8750    55.1960   390.6530   347.1970   305.2290    24.9850     2.2010   -40.5560 
  189.0000    54.4950   388.5300   344.5450   308.7070    24.9830     2.2070   -40.2280 
  189.1250    54.4010   387.7780   343.0660   314.1270    24.9850     2.2100   -39.8890 
  189.2500    57.1440   386.3800   341.0200   317.7930    24.9850     2.2110   -39.5570 
  189.3750    60.0820   383.3900   337.5010   312.2120    24.9870     2.2100   -39.2150 
  189.5000    61.3650   378.8260   332.3960   301.9070    25.0000     2.2080   -38.9100 
  189.6250    62.5070   374.1340   326.6890   301.5250    24.9540     2.2030   -38.4340 
  189.7500    63.9330   371.6720   322.3000   309.2840    24.9100     2.1940   -37.8910 
  189.8750    62.9650   372.6190   320.3620   316.3720    24.9080     2.1800   -37.2970 
  190.0000    58.8680   375.4860   320.1890   318.7330    24.9490     2.1640   -36.6030 
  190.1250    57.8650   373.0940   317.1060   321.5710    24.9610     2.1660   -35.9220 
  190.2500    61.5260   356.5420   304.5610   327.5960    24.9280     2.2040   -35.2170 
  190.3750    64.8400   318.9660   277.0210   333.8390    24.8500     2.2880   -34.4710 
  190.5000    64.1400   260.8060   233.4700   333.0300    24.7270     2.4090   -33.7220 
  190.6250    61.5410   194.3340   180.1930   312.7560    24.5740     2.5210   -33.0520 
  190.7500    61.1400   138.2600   131.2170   260.4740    24.4320     2.5730   -32.3700 
  190.8750    61.9930    99.7690    94.4690   159.5610    24.3260     2.5490   -31.6790 
  191.0000    63.7330    77.7650    71.7390    82.5720    24.3300     2.4680   -31.0300 
  191.1250    65.4400    69.0760    61.7410    58.9730    24.5140     2.3830   -30.2540 
  191.2500    67.1250    66.4740    57.9110    57.6770    24.7420     2.3430   -29.4950 
  191.3750    70.1680    65.5400    56.2110    67.6870    24.8030     2.3660   -28.8600 
  191.5000    72.6730    62.7190    53.3520    80.6340    24.7130     2.4450   -28.0880 
  191.6250    70.0310    54.7520    46.8720    86.5910    24.6250     2.5520   -27.4000 
  191.7500    66.2250    43.4750    37.8350    79.6270    24.5970     2.6340   -26.9230 
  191.8750    68.3330    31.4630    28.4080    56.1870    24.5830     2.6630   -26.4040 
  192.0000    77.2030    21.3470    20.6310    28.5750    24.5630     2.6400   -26.0380 
  192.1250    85.6570    16.3380    15.6730    14.9060    24.5640     2.5860   -25.9120 
  192.2500    91.1360    13.4950    12.7310    10.1100    24.5840     2.5320   -25.7510 
  192.3750    96.4600    12.1980    11.2240     9.4930    24.6050     2.4890   -25.6940 
  192.5000   102.9670    11.9430    10.7070    10.2670    24.6370     2.4610   -25.7140 
  192.6250   106.1520    12.4430    10.9560    10.6790    24.6540     2.4490   -25.6270 
  192.7500   105.8570    13.3000    11.6010    10.8540    24.6350     2.4480   -25.5280 
  192.8750   104.7910    14.2700    12.4130    11.4460    24.6060     2.4560   -25.4240 
  193.0000   102.9190    15.0910    13.1420    12.4940    24.5920     2.4720   -25.2870 
  193.1250    98.8080    15.4160    13.4600    13.5030    24.6080     2.4900   -25.0470 
  193.2500    95.4760    15.1500    13.2530    13.9060    24.6410     2.5040   -24.7950 
  193.3750    96.7260    14.3240    12.5330    13.5200    24.6830     2.5140   -24.4930 
  193.5000   101.6460    13.1460    11.4700    12.5450    24.7250     2.5180   -24.1580 
  193.6250   104.8540    11.9950    10.3800    11.3000    24.7500     2.5160   -23.8980 
  193.7500   105.7260    11.2510     9.5830    10.1030    24.6910     2.5070   -23.5900 
  193.8750   105.2780    11.1360     9.2630     9.1340    24.5150     2.4910   -23.2500 
  194.0000   103.6030    11.7140     9.4990     8.7790    24.2150     2.4730   -22.9190 
  194.1250   101.7870    12.9050    10.2980     9.7390    23.9550     2.4610   -22.6930 
  194.2500    99.1410    14.2260    11.3270    11.5230    23.7630     2.4640   -22.3940 
  194.3750    95.1150    15.2230    12.2370    13.2060    23.7200     2.4830   -22.0530 
  194.5000    91.0580    15.5030    12.6610    14.0110    23.8720     2.5150   -21.8320 
  194.6250    89.2100    14.7700    12.2540    13.5960    24.0570     2.5530   -21.4890 
  194.7500    87.2090    13.3950    11.2400    12.2680    24.0210     2.5830   -21.1000 
  194.8750    81.1270    11.7850     9.9430    10.1810    23.8660     2.5960   -20.7980 
  195.0000    72.7620    10.3250     8.6950     8.0070    23.7360     2.5890   -20.3730 
  195.1250    67.1800     9.3220     7.7670     6.5110    23.6290     2.5620   -19.9490 
  195.2500    64.1020     8.7560     7.1750     5.7350    23.5730     2.5280   -19.6690 
  195.3750    62.5690     8.5590     6.8840     5.5100    23.6470     2.4970   -19.3830 
  195.5000    61.4670     8.6150     6.8120     5.4830    23.8500     2.4730   -19.1160 
  195.6250    59.4320     8.7950     6.8640     5.4200    24.0540     2.4580   -18.9040 
  195.7500    59.5560     8.9550     6.9240     5.5280    24.2220     2.4450   -18.7770 
  195.8750    64.5870     9.0250     6.9460     6.0230    24.3910     2.4330   -18.6690 
  196.0000    73.2060     8.9910     6.9280     6.7770    24.5570     2.4210   -18.5670 
  196.1250    78.6540     8.8820     6.9100     6.9660    24.6500     2.4120   -18.4750 
  196.2500    79.8500     8.7770     6.9390     6.3860    24.6370     2.4050   -18.3500 
  196.3750    79.9580     8.7340     7.0340     5.7870    24.5010     2.4000   -18.2480 
  196.5000    81.0280     8.7840     7.1960     5.6370    24.4090     2.3980   -18.1760 
  196.6250    84.2800     8.9410     7.4040     5.8700    24.4170     2.3990   -18.1170 
  196.7500    89.6480     9.1450     7.6060     6.2320    24.4560     2.4030   -18.0790 
  196.8750    95.0570     9.3390     7.7620     6.6480    24.5350     2.4080   -18.0950 
  197.0000    97.5440     9.4810     7.8500     6.9890    24.6650     2.4140   -18.1820 
  197.1250    96.7700     9.5680     7.8730     7.2100    24.7530     2.4210   -18.3210 
  197.2500    95.8420     9.6690     7.8910     7.3530    24.7660     2.4300   -18.5090 
  197.3750    96.7880     9.8560     7.9590     7.3440    24.7250     2.4400   -18.7060 
  197.5000    99.1960    10.1690     8.1100     7.2560    24.6800     2.4470   -18.9390 
  197.6250    99.2670    10.5820     8.3350     7.3720    24.6400     2.4450   -19.2630 
  197.7500    95.4980    10.9550     8.5400     7.8800    24.6040     2.4360   -19.4920 
  197.8750    92.1070    11.1620     8.6350     8.7280    24.5890     2.4220   -19.7160 
  198.0000    92.3450    11.1340     8.5650     9.4000    24.5870     2.4060   -20.0620 
  198.1250    94.0350    10.8770     8.3230     9.1750    24.5900     2.3930   -20.2960 
  198.2500    95.0380    10.5640     8.0290     8.4770    24.6100     2.3860   -20.5780 
  198.3750    94.8470    10.3560     7.7990     8.0060    24.6640     2.3830   -20.9240 
  198.5000    91.4630    10.4220     7.7520     8.2870    24.7450     2.3840   -21.1910 
  198.6250    86.8540    11.0460     8.0830     9.5260    24.7820     2.3870   -21.5770 
  198.7500    86.6740    12.4040     8.9230    11.3140    24.7920     2.3880   -22.0580 
  198.8750    88.9190    14.7790    10.5080    13.8200    24.7920     2.3830   -22.5800 
  199.0000    87.9740    18.4510    13.1300    18.1260    24.7920     2.3720   -23.0710 
  199.1250    85.3720    23.8190    17.2860    25.9390    24.7920     2.3550   -23.5820 
  199.2500    85.6980    30.4290    22.7750    36.1850    24.7950     2.3390   -24.1240 
  199.3750    85.1490    37.7020    29.2330    46.5940    24.8110     2.3250   -24.6250 
  199.5000    80.2650    44.8300    35.9710    56.3740    24.8490     2.3120   -25.1950 
  199.6250    74.5260    50.8610    42.0280    64.9310    24.8770     2.2950   -25.6290 
  199.7500    73.3140    55.6810    46.9930    68.8410    24.8880     2.2760   -26.0190 
  199.8750    75.9140    59.5190    50.8790    67.4360    24.8870     2.2580   -26.4050 
