~V
VERS. 2.00: Ver 2.00
~W
STRT.M 130.0000:
STOP.M 279.0000:
STEP.M 0.1250:
NULL. -999.2500:
UWI. DF307:
~C
DEPT.M :
DEN.GM/CC :
AC.US/MT :
GR.API :
CALI.CM :
RXO.OHMM :
RI. :
RML.OHMM :
SP.MV :
~A
# ...
  270.0000     2.3950   350.3220    76.5020    24.5150     5.4080     4.3520     4.0460   -12.7450 
  270.1250     2.4400   343.3920    76.5020    24.5780     8.1230     4.1270     3.9270   -12.7270 
  270.2500     2.5080   344.8460    76.5020    24.6510    10.5280     4.0560     4.0120   -12.7190 
  270.3750     2.5460   355.4170    76.5020    24.7090    10.0280     4.0800     4.1820   -12.7120 
  270.5000     2.5410   370.7850    76.5020    24.7410     7.1830     4.1130     4.2970   -12.7150 
  270.6250     2.5110   385.9910    76.5020    24.7470     5.1360     4.0920     4.2750   -12.7400 
  270.7500     2.4820   400.8070    76.5020    24.7430     4.4960     4.0390     4.2040   -12.7790 
  270.8750     2.4630   416.1430    76.5020    24.7400     4.6700     3.9940     4.1730   -12.8250 
  271.0000     2.4490   430.3010    76.5020    24.7420     5.2290     3.9830     4.2170   -12.8770 
  271.1250     2.4330   439.2900    76.5020    24.7460     5.5600     3.9990     4.3060   -12.9320 
  271.2500     2.4160   440.4570    76.5020    24.7350     5.2850     4.0050     4.3600   -12.9860 
  271.3750     2.4060   434.6120    76.5020    24.7070     4.6930     3.9770     4.3410   -13.0210 
  271.5000     2.4040   425.8420    76.5020    24.6720     4.3330     3.9180     4.2580   -13.0310 
  271.6250     2.4070   419.0690    76.5020    24.6470     4.3980     3.8490     4.1590   -12.9870 
  271.7500     2.4110   415.6320    76.5020    24.6310     4.4910     3.7970     4.0850   -12.9070 
  271.8750     2.4120   414.4630    76.5020    24.6210     4.3990     3.7680     4.0480   -12.7950 
  272.0000     2.4080   413.7380    76.5020    24.6220     4.2000     3.7570     4.0370   -12.6720 
  272.1250     2.4010   412.7640    76.5020    24.6420     4.1310     3.7540     4.0390   -12.5510 
  272.2500     2.4020   411.8610    76.5020    24.6570     4.2500     3.7520     4.0450   -12.4440 
  272.3750     2.4100   411.1310    76.5020    24.6530     4.4820     3.7510     4.0530   -12.3630 
  272.5000     2.4190   410.1140    76.5020    24.6380     4.7230     3.7520     4.0600   -12.3010 
  272.6250     2.4220   408.5900    76.5020    24.6310     4.9080     3.7530     4.0670   -12.2720 
  272.7500     2.4180   406.8560    76.5020    24.6360     5.0500     3.7560     4.0730   -12.2620 
  272.8750     2.4110   405.4420    76.5020    24.6470     5.1650     3.7570     4.0740   -12.2750 
  273.0000     2.4040   404.7230    76.5020    24.6490     5.2430     3.7580     4.0690   -12.3050 
  273.1250     2.4020   404.3730    76.5020    24.5840     5.2390     3.7590     4.0590   -12.3480 
  273.2500     2.4100   404.3560    76.5020    24.4610     5.1500     3.7580     4.0480   -12.3880 
  273.3750     2.4280   405.2890    76.5020    24.3280     4.9980     3.7580     4.0430   -12.4390 
  273.5000     2.4460   408.3340    76.5020    24.2290     4.8370     3.7570     4.0420   -12.5100 
  273.6250     2.4480   412.9510    76.5020    24.1760     4.7310     3.7570     4.0420   -12.5970 
  273.7500     2.4300   417.7790    76.5020    24.1540     4.6830     3.7570     4.0420   -12.6920 
  273.8750     2.4110   421.3470    76.5020    24.1510     4.6610     3.7570     4.0420   -12.7930 
  274.0000     2.4020   422.7420    76.5020    24.1530     4.6310     3.7570     4.0420   -12.8820 
  274.1250     2.4030   422.8440    76.5020    24.1520     4.5820     3.7570     4.0420   -12.9600 
  274.2500     2.4070   422.4760    76.5020    24.1520     4.5350     3.7570     4.0420   -13.0200 
  274.3750     2.4110   422.1340    76.5020    24.1520     4.4960     3.7570     4.0420   -13.0520 
  274.5000     2.4070   421.9150    76.5020    24.1520     4.4570     3.7570     4.0420   -13.0610 
  274.6250     2.3900   421.6380    76.5020    24.1530     4.4560     3.7570     4.0420   -13.0490 
  274.7500     2.3680   421.0250    76.5020    24.1510     4.5650     3.7570     4.0420   -13.0230 
  274.8750     2.3620   419.6690    76.5020    24.1330     4.7510     3.7570     4.0420   -12.9640 
  275.0000     2.3770   417.2440    76.5020    24.0990     4.8340     3.7570     4.0420   -12.9030 
  275.1250     2.3980   414.8290    76.5020    24.0720     4.6790     3.7570     4.0420   -12.8340 
  275.2500     2.4120   414.2480    76.5020    24.0510     4.4730     3.7570     4.0420   -12.7730 
  275.3750     2.4260   417.1380    76.5020    24.0120     4.3750     3.7570     4.0420   -12.7250 
  275.5000     2.4480   423.8190    76.5020    23.9510     4.3850     3.7570     4.0420   -12.6810 
  275.6250     2.4710   431.2160    76.5020    23.9070     4.4100     3.7570     4.0420   -12.6500 
  275.7500     2.4720   436.7920    76.5020    23.8930     4.4090     3.7570     4.0420   -12.6320 
  275.8750     2.4480   439.5120    76.5020    23.9020     4.4430     3.7570     4.0420   -12.6390 
  276.0000     2.4070   440.0360    76.5020    23.9430     4.5940     3.7570     4.0420   -12.6550 
  276.1250     2.3640   440.0330    76.5020    23.9840     4.8160     3.7570     4.0420   -12.6720 
  276.2500     2.3320   439.4860    76.5020    23.8590     4.9140     3.7570     4.0420   -12.6720 
  276.3750     2.3090   437.4490    76.5020    23.3400     4.8510     3.7570     4.0420   -12.6720 
  276.5000     2.2900   433.0770    76.5020    22.3920     4.7500     3.7570     4.0420  -999.2500 
  276.6250     2.2720   427.8680    76.5020    21.4050     4.7260     3.7570     4.0420  -999.2500 
  276.7500     2.2590   423.5460    76.5020    20.8190     4.7350     3.7570     4.0420  -999.2500 
  276.8750     2.2560   420.9270    76.5020    20.6490     4.7400     3.7570     4.0420  -999.2500 
  277.0000     2.2630   419.4600    76.5020    20.6530     4.7390     3.7570     4.0420  -999.2500 
  277.1250     2.2720   418.0920    76.5020    20.6570     4.7380     3.7570     4.0420  -999.2500 
  277.2500     2.2700   417.2000    76.5020    20.6560     4.7380     3.7570     4.0420  -999.2500 
  277.3750     2.2550   417.9580    76.5020    20.6560     4.7380     3.7570     4.0420  -999.2500 
  277.5000     2.2380   420.7020    76.5020    20.6560     4.7380     3.7570     4.0420  -999.2500 
  277.6250     2.2310   423.6290    76.5020    20.6560     4.7380     3.7570     4.0420  -999.2500 
  277.7500     2.2400   426.0980    76.5020    20.6560     4.7380     3.7570     4.0420  -999.2500 
  277.8750     2.2490   428.3470    76.5020    20.6540     4.7380     3.7570     4.0420  -999.2500 
  278.0000     2.2500   429.8120    76.5020    20.6500     4.7370     3.7570     4.0420  -999.2500 
  278.1250     2.2440  -999.2500    76.5020    20.6470     4.7370     3.7570     4.0420  -999.2500 
  278.2500     2.2430  -999.2500    76.5020    20.6460     4.7380     3.7570     4.0420  -999.2500 
  278.3750     2.2500  -999.2500    76.5020    20.6460     4.7380     3.7570     4.0420  -999.2500 
  278.5000     2.2550  -999.2500    76.5020    20.6460     4.7380     3.7570     4.0420  -999.2500 
  278.6250     2.2550  -999.2500  -999.2500  -999.2500  -999.2500  -999.2500  -999.2500  -999.2500 
  278.7500     2.2450  -999.2500  -999.2500  -999.2500  -999.2500  -999.2500  -999.2500  -999.2500 
  278.8750     2.2180  -999.2500  -999.2500  -999.2500  -999.2500  -999.2500  -999.2500  -999.2500 
  279.0000     2.1770  -999.2500  -999.2500  -999.2500  -999.2500  -999.2500  -999.2500  -999.2500 
