~V
VERS. 2.00: Ver 2.00
~W
STRT.M 105.0000:
STOP.M 279.0000:
STEP.M 0.1250:
NULL. -999.2500:
UWI. DF3027:
~C
DEPT.M :
DEN.GM/CC :
AC.US/MT :
GR.API :
CALI.CM :
RXO.OHMM :
RI. :
RML.OHMM :
SP.MV :
~A
# ...
  145.0000     2.5180   266.1550    57.0940    30.2430    16.0110    15.3510    19.1730   -11.4560 
  145.1250     2.5020   270.7160    57.3240    30.3460    17.1280    15.9430    20.0360   -11.5010 
  145.2500     2.4920   274.0980    57.6510    30.3950    17.8020    16.6040    20.9220   -11.5690 
  145.3750     2.5050   275.7020    58.7600    30.4090    18.1970    17.2110    21.6740   -11.6540 
  145.5000     2.5360   275.5250    60.9770    30.4280    18.7380    17.6450    22.1580   -11.7340 
  145.6250     2.5590   273.6530    63.0950    30.4920    19.3390    17.7610    22.2070   -11.7940 
  145.7500     2.5560   270.6130    63.3120    30.5800    19.2960    17.5740    21.8720   -11.8310 
  145.8750     2.5360   266.6630    61.4580    30.6520    18.3540    17.1410    21.2400   -11.8400 
  146.0000     2.5200   262.4470    60.0040    30.6810    17.0210    16.5680    20.4620   -11.8290 
  146.1250     2.5260   259.8790    60.7910    30.6750    16.1420    15.9770    19.7150   -11.7890 
  146.2500     2.5440   260.7530    65.3530    30.6910    15.8010    15.4540    19.0950   -11.7030 
  146.3750     2.5590   265.5140    67.5920    30.7590    15.6780    15.0230    18.6150   -11.5950 
  146.5000     2.5700   272.2730    64.6590    30.8680    15.3430    14.6910    18.2540   -11.4810 
  146.6250     2.5800   276.7110    61.5460    30.9500    14.4990    14.4840    18.0300   -11.3570 
  146.7500     2.5850   276.2200    63.7360    30.9830    13.5580    14.4060    17.9600   -11.2360 
  146.8750     2.5780   270.9510    67.6570    31.0130    13.1030    14.4770    18.0870   -11.1320 
  147.0000     2.5690   263.3580    69.3580    31.0840    13.4460    14.6930    18.4170   -11.0280 
  147.1250     2.5720   257.3250    69.0970    31.1740    14.3690    15.0230    18.8950   -10.9470 
  147.2500     2.5790   254.8740    68.3280    31.2310    15.2060    15.3620    19.3570   -10.8990 
  147.3750     2.5750   255.9140    65.8830    31.2470    15.6790    15.6150    19.6700   -10.8710 
  147.5000     2.5560   259.0970    64.1490    31.2560    15.9120    15.7160    19.7590   -10.8630 
  147.6250     2.5340   262.6320    65.4380    31.2860    16.2060    15.6190    19.5860   -10.8800 
  147.7500     2.5280   265.1000    67.0840    31.3240    16.4650    15.3810    19.2440   -10.9090 
  147.8750     2.5410   265.9630    67.1390    31.3540    16.3320    15.0510    18.8050   -10.9370 
  148.0000     2.5610   265.3320    66.5550    31.3680    15.7340    14.6850    18.3490   -10.9870 
  148.1250     2.5740   263.9100    65.4130    31.3700    14.9980    14.3510    17.9770   -11.0420 
  148.2500     2.5760   262.9770    61.2160    31.3710    14.4930    14.1150    17.7660   -11.0970 
  148.3750     2.5740   263.3720    55.7620    31.3830    14.4460    14.0330    17.7810   -11.1520 
  148.5000     2.5700   265.2230    52.4830    31.4090    15.0180    14.1350    18.0420   -11.2070 
  148.6250     2.5660   267.5530    53.7320    31.4350    16.1470    14.4440    18.5560   -11.2530 
  148.7500     2.5620   268.7480    59.4340    31.4460    17.2060    14.8850    19.2250   -11.2750 
  148.8750     2.5590   268.1070    62.1590    31.4530    17.7730    15.3950    19.9580   -11.2830 
  149.0000     2.5610   266.0220    60.8830    31.4740    17.9030    15.8880    20.6340   -11.2690 
  149.1250     2.5650   263.7450    60.0220    31.5050    17.9750    16.2480    21.0830   -11.2170 
  149.2500     2.5630   262.3570    61.9840    31.5240    18.0090    16.4280    21.2510   -11.1370 
  149.3750     2.5540   262.0050    62.5730    31.5270    17.6020    16.4100    21.1310   -11.0470 
  149.5000     2.5460   262.2130    61.6860    31.5270    16.6880    16.2190    20.7840   -10.9290 
  149.6250     2.5430   262.2190    61.8700    31.5290    15.7980    15.9130    20.3200   -10.8050 
  149.7500     2.5390   261.7610    61.0150    31.4990    15.3340    15.5880    19.8810   -10.7130 
  149.8750     2.5270   261.2220    58.9440    31.4030    15.1590    15.2950    19.5350   -10.6450 
  150.0000     2.5170   261.3400    57.1160    31.2550    15.0870    15.0700    19.3190   -10.5920 
  150.1250     2.5190   262.8760    54.1580    31.1260    15.0510    14.9460    19.2640   -10.5920 
  150.2500     2.5260   265.2700    50.7650    31.0500    15.0350    14.9040    19.3250   -10.6360 
  150.3750     2.5280   267.4700    50.4060    31.0110    15.1350    14.9250    19.4680   -10.7070 
  150.5000     2.5220   268.3770    53.3040    30.9730    15.4400    14.9870    19.6600   -10.8230 
  150.6250     2.5120   267.2430    55.8750    30.9120    15.7910    15.0540    19.8400   -10.9640 
  150.7500     2.5070   265.1060    56.3090    30.8250    15.9590    15.0770    19.9330   -11.0990 
  150.8750     2.5110   263.3780    55.4380    30.7380    16.0270    15.0230    19.8940   -11.2140 
  151.0000     2.5200   263.2570    54.3120    30.6830    16.1400    14.8950    19.7370   -11.3170 
  151.1250     2.5240   264.9030    55.2590    30.6680    16.1900    14.7480    19.5680   -11.3960 
  151.2500     2.5160   266.5150    57.6790    30.6690    16.1120    14.6870    19.5570   -11.4590 
  151.3750     2.4990   266.6510    60.0080    30.6690    16.3080    14.8010    19.8350   -11.4980 
  151.5000     2.4860   265.0110    61.5200    30.6690    17.2570    15.1390    20.4500   -11.5030 
  151.6250     2.4890   262.8100    61.0190    30.6700    18.8940    15.6950    21.3440   -11.4890 
  151.7500     2.5070   261.7230    58.5760    30.6680    20.2260    16.3180    22.2540   -11.4700 
  151.8750     2.5250   261.9310    56.4980    30.6480    20.6180    16.8740    22.9750   -11.4580 
  152.0000     2.5300   262.2620    57.6550    30.6060    19.9680    17.2570    23.3680   -11.4560 
  152.1250     2.5160   261.0720    58.6730    30.5420    18.7150    17.3670    23.3420   -11.4420 
  152.2500     2.4970   258.8160    55.4600    30.4570    17.8140    17.2580    23.0350   -11.4060 
  152.3750     2.4860   257.2280    52.2000    30.3580    17.6450    16.9820    22.5410   -11.3600 
  152.5000     2.4870   258.1770    53.4410    30.2690    17.6190    16.5730    21.8990   -11.2910 
  152.6250     2.5020   262.8700    57.2000    30.2040    16.8530    16.0210    21.0720   -11.1950 
  152.7500     2.5200   269.4100    55.6230    30.1400    15.7120    15.3830    20.1320   -11.0790 
  152.8750     2.5280   275.4430    50.3850    30.0610    14.7270    14.7370    19.1940   -10.9540 
  153.0000     2.5200   278.8200    47.0970    29.9810    13.9460    14.1630    18.3830   -10.8150 
  153.1250     2.5100   278.1520    47.5280    29.9110    13.4620    13.7440    17.8170   -10.6870 
  153.2500     2.5120   274.9490    50.3380    29.8490    13.4830    13.4680    17.4490   -10.5870 
  153.3750     2.5230   270.7020    51.9920    29.7930    13.6760    13.2950    17.2040   -10.5160 
  153.5000     2.5350   266.6800    52.7180    29.7550    13.3480    13.1680    16.9910   -10.4860 
  153.6250     2.5430   263.7690    53.9700    29.7450    12.4790    13.0370    16.7490   -10.4960 
  153.7500     2.5480   261.9590    56.3550    29.7430    12.0200    12.8850    16.4740   -10.5320 
  153.8750     2.5480   261.1510    57.2350    29.7430    12.1990    12.7120    16.1710   -10.5780 
  154.0000     2.5420   261.1050    54.6480    29.7410    12.4990    12.5220    15.8490   -10.6430 
  154.1250     2.5370   261.2850    50.6100    29.7420    12.3870    12.3290    15.5170   -10.7150 
  154.2500     2.5400   260.9920    49.4760    29.7550    12.0960    12.1460    15.1850   -10.7680 
  154.3750     2.5540   260.0050    51.3490    29.7820    11.8390    11.9770    14.8580   -10.7930 
  154.5000     2.5720   258.6500    53.3980    29.8180    11.5860    11.8290    14.5430   -10.8010 
  154.6250     2.5870   257.6140    53.9380    29.8580    11.2650    11.7170    14.2690   -10.7780 
  154.7500     2.5940   257.0900    54.5960    29.9010    11.0050    11.6400    14.0390   -10.7270 
  154.8750     2.5950   256.6990    55.2830    29.9420    10.8390    11.5900    13.8480   -10.6580 
