~V
VERS. 2.00: Ver 2.00
~W
STRT.M 130.0000:
STOP.M 268.0000:
STEP.M 0.1250:
NULL. -999.2500:
UWI. DF3061:
~C
DEPT.M :
GR.API :
CALI.CM :
RXO.OHMM :
RI. :
RML.OHMM :
DEN.GM/CC :
SP.MV :
~A
# ...
  197.5000    67.6210    25.2250    62.0090    86.6230   109.1450     2.1940   -30.2130 
  197.6250    64.3480    25.0020    69.5080    93.7690   118.1490     2.2050   -30.3190 
  197.7500    63.2890    24.6850    85.7200   101.4350   127.8080     2.2050   -30.4180 
  197.8750    64.0620    24.4160   103.6270   108.7030   136.9660     2.2000   -30.5210 
  198.0000    65.2850    24.2860   109.8010   114.5260   144.3030     2.2040   -30.6160 
  198.1250    66.3050    24.0860   106.2650   117.2890   147.7840     2.2120   -30.6950 
  198.2500    66.8770    23.9800   107.3100   117.0030   147.4240     2.2140   -30.7930 
  198.3750    66.2480    24.1130   109.5120   114.4420   144.1970     2.2120   -30.9130 
  198.5000    65.1080    24.4610   107.9580   110.8990   139.7330     2.2200   -31.0370 
  198.6250    64.5640    24.9520   103.5750   108.0440   136.1360     2.2290   -31.1180 
  198.7500    64.3540    25.4050    95.7940   107.3350   135.2420     2.2200   -31.1740 
  198.8750    63.8370    25.4530    89.3940   109.1610   137.5430     2.1950   -31.1890 
  199.0000    63.3890    25.2530    91.2810   113.8000   143.3880     2.1740   -31.1590 
  199.1250    63.3770    24.7390    97.9520   122.9460   154.9120     2.1680   -31.0800 
  199.2500    61.7360    24.0910   104.1930   137.0490   172.6820     2.1630   -30.9880 
  199.3750    60.3210    24.0730   110.4180   156.8330   197.6100     2.1550   -30.9010 
  199.5000    60.4550    24.2780   124.7310   180.9230   227.9630     2.1530   -30.8600 
  199.6250    58.9690    24.7540   146.3880   207.4380   261.3720     2.1660   -30.8840 
  199.7500    56.0890    25.0240   162.7000   231.1080   291.1960     2.1860   -30.9090 
  199.8750    53.9970    25.0160   187.7660   246.2650   310.2940     2.2040   -30.9150 
  200.0000    53.3120    24.9300   236.3960   248.8560   313.5590     2.2140   -30.9150 
  200.1250    52.7240    24.7020   259.1760   235.7560   297.0520     2.2130   -30.8950 
  200.2500    53.1120    24.5320   248.2270   213.2460   268.6900     2.2010   -30.8660 
  200.3750    54.9910    24.8250   208.1490   188.0560   236.9500     2.1860   -30.8550 
  200.5000    55.6640    24.8480   168.6180   166.4150   209.6820     2.1760   -30.8480 
  200.6250    55.6560    24.7990   145.1600   152.3560   191.9680     2.1810   -30.8520 
  200.7500    56.2130    24.7970   133.9110   146.5660   184.6740     2.1940   -30.8390 
  200.8750    57.8450    24.9760   123.5410   148.5930   187.2270     2.2050   -30.8070 
  201.0000    60.5480    25.0550   120.9790   154.0330   194.0810     2.2010   -30.7380 
  201.1250    62.3670    25.0640   131.7310   158.5870   199.8200     2.1840   -30.6310 
  201.2500    62.0750    25.0170   144.3480   160.9970   202.8560     2.1700   -30.4600 
  201.3750    60.0120    24.9640   149.4200   159.7790   201.3220     2.1640   -30.2070 
  201.5000    57.5130    24.9560   145.5860   152.4240   192.0540     2.1670   -29.8900 
  201.6250    55.6580    24.9840   130.3370   138.1770   174.1030     2.1780   -29.5270 
  201.7500    56.9250    24.9910   121.4730   122.5940   154.4690     2.1920   -29.1980 
  201.8750    60.3300    25.1020   119.5520   108.2880   136.4430     2.2030   -28.9230 
  202.0000    62.9200    24.9820   112.6120    97.6880   123.0870     2.2120   -28.6940 
  202.1250    64.5220    24.9420    93.1660    91.0420   114.7120     2.2250   -28.5370 
  202.2500    64.9490    24.8280    71.5530    86.6000   109.1160     2.2360   -28.4410 
  202.3750    63.3240    24.6950    61.3390    84.6010   106.5970     2.2320   -28.3960 
  202.5000    60.4470    24.5360    65.2660    85.8350   108.1520     2.2140   -28.3710 
  202.6250    59.3760    24.5150    72.4770    89.5530   112.8360     2.2000   -28.3250 
  202.7500    58.9370    24.6420    79.0690    93.1780   117.4040     2.2020   -28.2130 
  202.8750    56.7520    24.6160    87.5750    95.9480   120.8940     2.2130   -28.0130 
  203.0000    55.1290    24.4440    95.3330    97.6240   123.0060     2.2230   -27.7610 
  203.1250    56.7360    24.7140    97.0020    96.8750   122.0630     2.2250   -27.4550 
  203.2500    60.5130    24.9280    91.5800    94.2490   118.7540     2.2240   -27.1540 
  203.3750    64.7020    24.9250    81.4850    90.6810   114.2580     2.2250   -26.8900 
  203.5000    66.8660    24.6490    70.2910    86.8710   109.4570     2.2230   -26.6810 
  203.6250    65.2420    24.3850    63.8830    83.6480   105.3970     2.2150   -26.5240 
  203.7500    61.3780    24.3400    59.6180    81.5330   102.7320     2.2080   -26.3980 
  203.8750    59.7410    24.3300    59.0160    80.9380   101.9820     2.2110   -26.3120 
  204.0000    63.0380    24.2490    59.6150    82.1670   103.5300     2.2210   -26.2420 
  204.1250    68.7880    24.2120    57.8000    85.8690   108.1950     2.2210   -26.1660 
  204.2500    69.6250    24.1960    55.8300    91.1610   114.8630     2.2110   -26.0260 
  204.3750    64.1970    24.3270    63.0260    96.7440   121.8970     2.2050   -25.7660 
  204.5000    58.3390    24.4290    83.2450   100.3070   126.3870     2.2210   -25.3820 
  204.6250    57.9070    24.8370   106.6750    98.1780   123.7040     2.2740   -24.9200 
  204.7500    59.7870    25.1220   116.9550    89.4860   112.7520     2.3580   -24.4400 
  204.8750    58.7510    25.1370   126.0300    75.4910    95.1180     2.4620   -23.9550 
  205.0000    55.7540    25.1650   140.3550    59.0040    74.3450     2.5600   -23.5030 
  205.1250    57.0060    24.8890   125.0060    44.1830    55.6700     2.6030   -23.0690 
  205.2500    63.1290    24.1810    77.4990    32.8350    41.3720     2.5830   -22.6770 
  205.3750    70.2570    23.5750    35.0550    24.8150    31.2670     2.5320   -22.4180 
  205.5000    73.1760    23.4430    18.2590    19.4650    21.8690     2.4890   -22.2770 
  205.6250    72.7990    23.7070    15.6680    16.3380    18.3560     2.4660   -22.2070 
  205.7500    75.5300    24.0220    13.0860    14.5140    16.3070     2.4410   -22.1580 
  205.8750    80.9660    24.2410    11.2730    13.6390    15.3230     2.4070   -22.0960 
  206.0000    84.0470    24.4690    10.7970    13.4220    15.0800     2.3760   -21.9840 
  206.1250    83.3060    24.5340    10.9150    13.6390    15.3240     2.3640   -21.8560 
  206.2500    85.5650    24.6340    11.1530    13.9290    15.6490     2.3710   -21.7040 
  206.3750    91.0350    24.5580    11.4350    14.1800    15.9310     2.3900   -21.4780 
  206.5000    94.7610    24.5430    11.7960    14.2960    16.0620     2.4110   -21.2220 
  206.6250    92.9960    24.5550    11.3760    14.1290    15.8740     2.4290   -20.9810 
  206.7500    88.8750    24.3220    10.2420    13.7430    15.4400     2.4470   -20.7770 
  206.8750    82.9920    23.9150     8.9290    13.2230    14.8560     2.4660   -20.6640 
  207.0000    77.2110    23.4850     8.3120    12.6380    14.1990     2.4810   -20.6300 
  207.1250    73.9120    23.1700     8.5500    12.0880    13.5810     2.4780   -20.6710 
  207.2500    75.0630    22.8820     8.4970    11.6280    13.0640     2.4560   -20.7700 
  207.3750    83.2820    22.8580     8.1380    11.3130    12.7100     2.4280   -20.9020 
  207.5000    94.3380    23.0400     7.9050    11.2160    12.6010     2.4110   -21.0390 
  207.6250    97.8240    23.1990     7.8460    11.3960    12.8040     2.4150   -21.1590 
  207.7500    93.7070    23.4850     7.9560    11.7910    13.2470     2.4300   -21.2650 
  207.8750    89.7780    23.9240     8.3320    12.3940    13.9250     2.4500   -21.3290 
  208.0000    88.9260    24.4800     9.3880    13.1520    14.7760     2.4710   -21.3740 
  208.1250    86.3770    24.3890    12.3990    13.8860    15.6010     2.4770   -21.4580 
  208.2500    84.4710    24.4080    15.2350    14.4540    16.2390     2.4610   -21.5970 
  208.3750    85.1240    24.3880    15.4690    14.8410    16.6740     2.4350   -21.8180 
  208.5000    86.6600    24.3620    13.8140    15.0260    16.8810     2.4180   -22.1310 
  208.6250    85.3450    24.3490    12.8080    15.0010    16.8530     2.4190   -22.5150 
