~V
VERS. 2.00: Ver 2.00
~W
STRT.M 130.0000:
STOP.M 279.0000:
STEP.M 0.1250:
NULL. -999.2500:
UWI. DF307:
~C
DEPT.M :
DEN.GM/CC :
AC.US/MT :
GR.API :
CALI.CM :
RXO.OHMM :
RI. :
RML.OHMM :
SP.MV :
~A
# ...
  250.0000     2.4060   291.3670    75.9180    24.8840    18.5730    25.9610    31.3760   -18.2870 
  250.1250     2.4250   269.5950    77.5750    25.0050    22.1470    29.0710    35.9650   -18.2950 
  250.2500     2.4870   248.1250    76.3160    25.0670    28.1430    35.8100    44.7050   -18.4010 
  250.3750     2.5620   230.9150    72.0850    25.0980    36.4810    46.5910    58.0780   -18.5830 
  250.5000     2.6230   220.1460    66.8090    25.1140    45.4090    60.5380    75.3220   -18.8340 
  250.6250     2.6530   212.9880    64.2990    25.1090    51.3640    74.0780    92.0280   -19.0940 
  250.7500     2.6550   207.0980    67.3390    25.1090    53.5480    82.7780   101.7290   -19.3080 
  250.8750     2.6570   202.0140    74.5240    25.1200    51.1990    84.2240   100.7680   -19.4540 
  251.0000     2.6700   201.5690    79.7280    25.1260    44.2240    77.7800    88.8920   -19.5130 
  251.1250     2.6870   210.1760    78.9120    25.1190    36.9770    63.6710    68.7320   -19.3990 
  251.2500     2.6990   230.6400    75.2270    25.1090    34.2500    46.8750    48.0320   -19.1180 
  251.3750     2.7090   261.8370    70.9400    25.0960    32.1180    31.5820    31.2090   -18.6960 
  251.5000     2.7080   298.2930    67.9290    25.0550    25.0290    20.2330    19.5810   -18.1680 
  251.6250     2.6790   331.3660    68.1840    24.9710    15.0040    13.5590    12.9600   -17.5700 
  251.7500     2.6110   356.3630    69.3400    24.8850     8.7830     9.7110     9.1990   -16.9530 
  251.8750     2.5340   372.4230    69.6130    24.8320     6.4240     7.6510     7.2950   -16.3680 
  252.0000     2.4760   381.2930    68.6260    24.8250     5.9240     6.6770     6.5620   -15.8540 
  252.1250     2.4450   387.4380    67.7900    24.8580     6.0450     6.4250     6.5680   -15.4310 
  252.2500     2.4390   392.5550    65.8500    24.8950     6.1570     6.4530     6.7750   -15.1020 
  252.3750     2.4430   397.4040    61.9470    24.9190     6.1290     6.5100     6.8770   -14.8560 
  252.5000     2.4480   402.9320    58.1010    24.9230     5.9520     6.4280     6.7170   -14.6620 
  252.6250     2.4420   409.7110    57.7390    24.9190     5.6830     6.1400     6.2870   -14.5470 
  252.7500     2.4180   417.1500    61.6750    24.9150     5.3800     5.7440     5.7620   -14.5000 
  252.8750     2.3850   423.4400    66.7850    24.9130     5.1060     5.3230     5.2520   -14.4910 
  253.0000     2.3540   425.9620    69.5980    24.9140     4.9340     4.9370     4.8250   -14.5210 
  253.1250     2.3330   424.8780    69.7500    24.9120     4.8650     4.6420     4.5440   -14.6110 
  253.2500     2.3260   421.4820    72.4980    24.9090     4.8050     4.4520     4.4220   -14.7220 
  253.3750     2.3270   417.2560    81.6620    24.9050     4.7390     4.3900     4.4890   -14.8490 
  253.5000     2.3320   412.7010    95.4140    24.9170     4.7590     4.4720     4.7630   -14.9780 
  253.6250     2.3400   407.5680   108.5200    25.0120     5.0650     4.7220     5.2680   -15.0910 
  253.7500     2.3570   401.8680   116.2260    25.1930     5.6470     5.0910     5.9200   -15.1770 
  253.8750     2.3820   396.1460   117.3530    25.3820     6.2760     5.5240     6.6210   -15.2400 
  254.0000     2.4130   391.2350   114.7060    25.4900     6.6580     5.9390     7.2410   -15.2770 
  254.1250     2.4420   387.4620   111.5540    25.5090     6.7480     6.2270     7.6210   -15.2820 
  254.2500     2.4590   385.0230   107.1720    25.5240     6.8470     6.3690     7.7690   -15.2830 
  254.3750     2.4650   383.8700   103.8620    25.5550     7.0250     6.3870     7.7500   -15.2780 
  254.5000     2.4580   383.4670   106.6260    25.5900     7.1540     6.3320     7.6600   -15.2900 
  254.6250     2.4360   382.6730   114.6870    25.6210     7.1280     6.2630     7.5990   -15.2800 
  254.7500     2.4080   380.8500   119.8420    25.6420     7.0470     6.2230     7.6180   -15.2580 
  254.8750     2.3880   377.9650   120.4210    25.6490     7.0310     6.2300     7.7310   -15.2320 
  255.0000     2.3800   374.3320   118.8010    25.6360     7.1380     6.2880     7.9280   -15.1830 
  255.1250     2.3770   370.3310   115.6430    25.6010     7.3240     6.3900     8.1830   -15.1230 
  255.2500     2.3790   365.7980   113.0740    25.5160     7.4630     6.5070     8.4410   -15.0660 
  255.3750     2.3890   360.5090   113.7950    25.3600     7.5040     6.6240     8.6750   -15.0180 
  255.5000     2.4040   355.0040   115.5470    25.1580     7.5100     6.7350     8.8850   -14.9610 
  255.6250     2.4180   351.0940   115.6160    24.9700     7.5870     6.8460     9.0890   -14.9470 
  255.7500     2.4350   350.5030   116.4640    24.8380     7.6910     6.9560     9.2900   -14.9630 
  255.8750     2.4550   353.6170   118.4820    24.7670     7.7350     7.0490     9.4560   -14.9890 
  256.0000     2.4680   358.5520   119.0090    24.7440     7.7080     7.1080     9.5510   -15.0420 
  256.1250     2.4610   361.5690   116.4920    24.7470     7.6320     7.1190     9.5530   -15.1070 
  256.2500     2.4350   360.5870   113.3330    24.7480     7.4970     7.1020     9.5050   -15.1720 
  256.3750     2.4120   355.7850   110.3030    24.7480     7.3700     7.0790     9.4580   -15.2310 
  256.5000     2.4060   349.6740   107.5520    24.7480     7.4470     7.0690     9.4520   -15.2980 
  256.6250     2.4140   345.5320   107.2290    24.7480     7.7950     7.0810     9.4930   -15.3150 
  256.7500     2.4290   344.6080   110.7940    24.7480     8.0340     7.0900     9.5220   -15.2900 
  256.8750     2.4470   346.5810   114.0870    24.7480     7.9670     7.0650     9.4810   -15.2390 
  257.0000     2.4670   350.6060   114.4370    24.7480     7.7680     6.9740     9.3140   -15.1360 
  257.1250     2.4760   355.5940   114.7720    24.7440     7.6730     6.7690     8.9510   -14.9950 
  257.2500     2.4660   361.3350   117.8670    24.7350     7.5210     6.4600     8.4220   -14.8050 
  257.3750     2.4470   367.7160   121.9710    24.7260     7.1270     6.0680     7.7820   -14.5700 
  257.5000     2.4260   374.1140   124.3400    24.7260     6.5460     5.6370     7.1060   -14.3080 
  257.6250     2.4020   379.0650   122.3320    24.7360     6.0050     5.2260     6.4910   -14.0470 
  257.7500     2.3770   381.0420   115.0330    24.7220     5.6040     4.8800     5.9990   -13.8210 
  257.8750     2.3590   379.3400   106.0610    24.6670     5.3230     4.6300     5.6640   -13.6200 
  258.0000     2.3490   374.5370   104.0660    24.6020     5.1380     4.4860     5.4980   -13.4620 
  258.1250     2.3450   369.2370   110.5800    24.5880     5.0930     4.4700     5.5330   -13.3630 
  258.2500     2.3380   365.0230   115.3850    24.5870     5.1740     4.5610     5.7340   -13.3060 
  258.3750     2.3280   362.4650   115.9540    24.5310     5.3250     4.7460     6.0760   -13.2820 
  258.5000     2.3160   361.4000   115.0120    24.4250     5.4950     4.9910     6.4910   -13.2790 
  258.6250     2.3080   361.0360   113.6660    24.3470     5.6930     5.2250     6.8410   -13.2880 
  258.7500     2.3140   361.1690   112.0210    24.3080     5.8700     5.3690     6.9950   -13.2850 
  258.8750     2.3340   361.7880   111.1320    24.2730     5.8940     5.3760     6.8890   -13.2660 
  259.0000     2.3590   362.8740   110.7590    24.2730     5.7030     5.2490     6.5620   -13.2450 
  259.1250     2.3790   364.2630   107.8140    24.4690     5.4230     5.0430     6.1620   -13.1970 
  259.2500     2.3890   366.0210   103.0160    24.8480     5.2390     4.8790     5.9030   -13.1590 
  259.3750     2.3950   368.1870    99.4760    25.2410     5.1740     4.8370     5.9030   -13.1440 
  259.5000     2.3980   370.3660    97.4290    25.4710     5.2040     4.9510     6.1840   -13.1380 
  259.6250     2.3920   371.8940    96.3130    25.5100     5.5850     5.2050     6.6730   -13.1370 
  259.7500     2.3690   372.4850    97.9080    25.5020     6.4940     5.4780     7.1280   -13.1380 
  259.8750     2.3420   372.3770   102.3350    25.5010     7.4630     5.6490     7.3300   -13.1480 
