~V
VERS. 2.00: Ver 2.00
~W
STRT.M 125.0000:
STOP.M 265.0000:
STEP.M 0.1250:
NULL. -999.2500:
UWI. DF3008:
~C
DEPT.M :
DEN.GM/CC :
GR.API :
CALI.CM :
RXO.OHMM :
RI. :
RML.OHMM :
SP.MV :
~A
# ...
  181.2500     2.2780    68.8870    24.5770    43.4410    51.9750    54.0490   -26.6430 
  181.3750     2.2860    70.8870    24.5770    38.5400    50.2770    51.9670   -26.8670 
  181.5000     2.2940    68.2180    24.5770    34.2860    49.7480    51.2750   -27.0700 
  181.6250     2.2950    64.4080    24.5980    31.1930    51.1600    52.8330   -27.2340 
  181.7500     2.2900    62.9880    24.6690    32.8480    54.3340    56.3880   -27.3960 
  181.8750     2.2830    64.2480    24.7800    41.5530    58.9050    61.5060   -27.5940 
  182.0000     2.2780    67.3270    24.8510    53.5690    64.0240    67.2320   -27.8260 
  182.1250     2.2740    68.5740    24.8690    59.7260    68.2690    71.9370   -28.0720 
  182.2500     2.2670    67.6010    24.8710    59.1730    70.8280    74.6720   -28.3200 
  182.3750     2.2610    64.7190    24.8750    57.6500    71.7090    75.4720   -28.5780 
  182.5000     2.2590    63.4940    24.8780    57.6220    71.5730    75.1800   -28.8630 
  182.6250     2.2640    66.4440    24.8730    56.7300    71.4280    75.0220   -29.1800 
  182.7500     2.2700    68.6480    24.8450    56.8870    72.0190    75.7870   -29.5030 
  182.8750     2.2740    66.6870    24.7890    59.6320    73.6040    77.6810   -29.7990 
  183.0000     2.2780    63.5260    24.7490    63.4220    76.2080    80.6430   -30.0890 
  183.1250     2.2810    62.9060    24.7390    64.8630    80.0260    84.7620   -30.3800 
  183.2500     2.2810    63.5640    24.7600    64.6220    84.9680    89.8860   -30.6780 
  183.3750     2.2750    63.1910    24.8190    67.9350    91.0330    95.9820   -30.9660 
  183.5000     2.2670    62.1580    24.9100    77.2260    98.0230   102.8590   -31.2300 
  183.6250     2.2610    61.1990    25.0110    90.0460   105.3360   109.9590   -31.4480 
  183.7500     2.2550    64.9070    25.0910   100.5260   111.5670   115.9320   -31.6600 
  183.8750     2.2490    74.9040    25.1290   106.0300   114.7920   118.7130   -31.8810 
  184.0000     2.2450    81.8780    25.1070   107.1810   113.1000   116.1190   -32.0960 
  184.1250     2.2510    80.0950    24.9740   103.4490   105.2950   106.9410   -32.3200 
  184.2500     2.2650    72.5890    24.7400    95.8410    94.4460    94.8850   -32.5660 
  184.3750     2.2790    64.8500    24.5080    82.1820    83.4090    83.1700   -32.8340 
  184.5000     2.2840    60.2480    24.3710    65.1580    74.4570    74.0260   -33.1210 
  184.6250     2.2830    58.8000    24.3360    55.8730    69.5650    69.2300   -33.4260 
  184.7500     2.2800    59.7020    24.3320    55.8840    68.7120    68.5470   -33.7340 
  184.8750     2.2730    60.2230    24.3320    59.5720    72.1630    72.1260   -34.0600 
  185.0000     2.2600    60.8550    24.3320    62.4240    80.3420    80.2490   -34.3830 
  185.1250     2.2430    60.7220    24.3320    73.5560    93.9640    94.7050   -34.6690 
  185.2500     2.2330    58.2710    24.3320    98.5220   110.7100   115.1610   -34.9200 
  185.3750     2.2370    54.2780    24.3320   124.8370   131.2240   136.3200   -35.1490 
  185.5000     2.2530    52.7610    24.3330   137.8370   150.1500   155.1940   -35.3960 
  185.6250     2.2660    54.6770    24.3660   140.3420   161.3420   166.1280   -35.7180 
  185.7500     2.2630    57.1190    24.4460   145.5310   164.7540   169.6130   -36.1370 
  185.8750     2.2470    58.5340    24.5320   146.7280   164.3060   169.3860   -36.6480 
  186.0000     2.2290    57.3770    24.5770   144.6700   165.5460   170.7830   -37.2440 
  186.1250     2.2180    56.6710    24.6320   158.5940   174.0540   179.6490   -37.9310 
  186.2500     2.2110    57.8220    24.7560   192.9900   191.1210   197.4460   -38.6500 
  186.3750     2.2070    59.3670    24.9010   250.5940   217.6980   224.8290   -39.3700 
  186.5000     2.2050    59.1450    24.9780   325.1370   253.6950   260.9230   -40.0500 
  186.6250     2.2030    57.4260    24.9920   388.3950   297.2050   302.8260   -40.6050 
  186.7500     2.2000    55.6050    24.9930   427.7060   340.7480   343.8010   -41.0020 
  186.8750     2.1940    53.3830    25.0160   461.5440   378.0690   378.9580   -41.2020 
  187.0000     2.1880    51.8330    25.0790   481.4020   405.6410   405.8150   -41.2090 
  187.1250     2.1860    53.0860    25.1870   475.8790   422.2760   423.7650   -41.0080 
  187.2500     2.1880    55.7620    25.2350   466.8870   432.2430   436.7640   -40.6670 
  187.3750     2.1930    56.8530    25.2460   463.5280   438.6400   447.7770   -40.2330 
  187.5000     2.1950    54.7400    25.2460   457.4560   444.0960   459.1170   -39.7580 
  187.6250     2.1910    52.1840    25.2450   456.1520   448.8330   470.6530   -39.3060 
  187.7500     2.1820    50.3170    25.2430   471.7930   449.2910   478.2300   -38.8270 
  187.8750     2.1740    49.2150    25.2410   487.3830   439.7210   475.6740   -38.3070 
  188.0000     2.1700    49.1810    25.2390   464.9830   414.1310   456.6210   -37.7690 
  188.1250     2.1700    49.9840    25.2410   398.0560   365.8030   413.6290   -37.2440 
  188.2500     2.1740    51.0880    25.2420   334.5830   302.6060   353.0130   -36.7170 
  188.3750     2.1830    51.4520    25.2400   294.9270   236.3930   284.4380   -36.1660 
  188.5000     2.1970    52.1590    25.2380   248.5340   178.9920   219.7600   -35.6100 
  188.6250     2.2150    54.1730    25.2370   175.7060   139.0880   170.6970   -35.1000 
  188.7500     2.2300    55.8670    25.2370   109.7060   114.0340   138.3480   -34.6550 
  188.8750     2.2390    55.1860    25.2370    77.7120   101.6970   122.1500   -34.3060 
  189.0000     2.2370    52.5590    25.2380    70.9550   100.4480   121.2130   -34.0600 
  189.1250     2.2230    51.3470    25.2390    85.0600   112.2500   139.1890   -33.9290 
  189.2500     2.2030    54.6890    25.2390   143.6230   137.9010   176.2610   -33.8770 
  189.3750     2.1840    62.9510    25.2340   271.8790   181.7670   233.9890   -33.8940 
  189.5000     2.1720    67.7180    25.2180   413.9120   246.9400   307.4230   -33.9570 
  189.6250     2.1710    64.3960    25.1870   437.5480   323.7280   374.2230   -33.9930 
  189.7500     2.1790    57.7360    25.1680   383.1740   377.2300   407.9420   -34.0450 
  189.8750     2.1890    54.2090    25.1490   328.8500   388.2530   403.6670   -34.1380 
  190.0000     2.1900    53.0870    25.1020   279.8440   370.7630   378.4230   -34.2190 
  190.1250     2.1820    51.0970    25.0090   228.5000   350.8750   354.7910   -34.2370 
  190.2500     2.1780    51.5060    25.0000   219.8490   341.5240   343.3290   -34.2010 
  190.3750     2.1800    52.7000    25.1100   264.6200   344.2520   345.3230   -34.1500 
  190.5000     2.1850    51.3010    25.2060   331.7070   357.3680   358.6580   -34.0480 
  190.6250     2.1870    48.8830    25.2370   394.5000   376.4360   378.3560   -33.8530 
  190.7500     2.1870    48.4290    25.2370   469.1250   390.9810   393.8910   -33.5780 
  190.8750     2.1880    49.0070    25.2370   532.1010   389.6870   395.0010   -33.2170 
  191.0000     2.1930    47.1130    25.2370   531.0790   362.2500   373.0840   -32.7850 
  191.1250     2.2000    45.9940    25.2370   456.0880   301.1820   321.2770   -32.2930 
  191.2500     2.2100    48.8450    25.2370   365.6430   225.1640   252.0970   -31.7670 
  191.3750     2.2260    54.4990    25.2370   282.8060   154.5450   180.3550   -31.1860 
  191.5000     2.2520    59.7070    25.2370   208.0610   101.3510   119.6160   -30.5590 
  191.6250     2.2880    63.4420    25.2350   135.0720    68.4930    78.9410   -29.9370 
  191.7500     2.3190    65.4810    25.2180    74.5030    47.9620    53.5330   -29.3330 
  191.8750     2.3360    65.3120    25.1670    40.1890    35.6920    38.9490   -28.7560 
  192.0000     2.3440    64.5480    25.0830    27.3700    28.8550    31.1810   -28.2230 
  192.1250     2.3480    63.8390    24.9630    24.5230    26.0920    27.9980   -27.7510 
  192.2500     2.3520    63.1520    24.8520    23.6880    25.6950    27.2600   -27.3380 
  192.3750     2.3600    63.2520    24.8160    25.8980    27.0010    28.2430   -26.9700 
