~V
VERS. 2.00: Ver 2.00
~W
STRT.M 125.0000:
STOP.M 275.0000:
STEP.M 0.1250:
NULL. -999.2500:
UWI. DF3046:
~C
DEPT.M :
GR.API :
CALI.CM :
RXO.OHMM :
RI. :
RML.OHMM :
DEN.GM/CC :
SP.MV :
~A
# ...
  147.5000    97.3360    24.6760     6.8800     5.2250     6.2030     2.3250   -11.6820 
  147.6250    97.6050    24.7120     6.9800     5.1750     6.1400     2.3430   -11.6200 
  147.7500    93.7720    24.7390     6.9950     5.0810     6.0390     2.3500   -11.5600 
  147.8750    88.4420    24.7660     6.8080     4.9610     5.9240     2.3380   -11.5000 
  148.0000    87.1510    24.7910     6.4660     4.8590     5.8400     2.3110   -11.4120 
  148.1250    90.7760    24.7990     6.2040     4.8420     5.8520     2.2810   -11.3340 
  148.2500    95.0660    24.7550     6.2220     4.9230     5.9660     2.2580   -11.3150 
  148.3750    99.4230    24.6840     6.5620     5.0860     6.1630     2.2480   -11.4040 
  148.5000   102.4690    24.6020     7.1390     5.2940     6.3990     2.2510   -11.6070 
  148.6250    98.6240    24.4430     7.5950     5.5080     6.6360     2.2590   -11.9450 
  148.7500    92.7930    24.2080     7.7850     5.7230     6.8770     2.2630   -12.3640 
  148.8750    91.5470    23.9920     7.8930     5.9770     7.1700     2.2630   -12.8590 
  149.0000    93.7000    23.7170     8.1190     6.3230     7.5690     2.2610   -13.4540 
  149.1250    92.9180    23.3720     8.7840     6.7920     8.0940     2.2570   -14.1220 
  149.2500    88.9490    23.1020     9.3400     7.2900     8.6100     2.2540   -14.7610 
  149.3750    85.8140    23.1090     9.6470     7.6560     8.9200     2.2610   -15.2640 
  149.5000    85.7160    23.3280     9.4570     7.6980     8.8350     2.2830   -15.5720 
  149.6250    86.6830    23.4890     8.7110     7.2550     8.2220     2.3210   -15.6170 
  149.7500    88.5230    23.5970     7.9150     6.5200     7.3070     2.3500   -15.4240 
  149.8750    92.6570    23.7720     7.2450     5.6920     6.3200     2.3550   -14.9670 
  150.0000    99.3910    24.1510     6.6690     4.9480     5.4700     2.3480   -14.1890 
  150.1250   106.0400    24.5990     6.2930     4.4630     4.9650     2.3580   -13.1930 
  150.2500   109.6280    24.7670     6.1230     4.2740     4.8280     2.3860   -12.1880 
  150.3750   109.8860    24.7360     6.2050     4.3900     5.0600     2.4040   -11.2680 
  150.5000   107.4510    24.7030     6.8140     4.7840     5.6090     2.3870   -10.4820 
  150.6250   101.4120    24.7070     8.2800     5.4250     6.3820     2.3460    -9.8700 
  150.7500    92.1070    24.6650     9.4780     6.1690     7.1840     2.3140    -9.4460 
  150.8750    83.5760    24.6140     9.4740     6.9050     7.8980     2.3000    -9.2290 
  151.0000    80.9590    24.6040     9.0040     7.5570     8.4850     2.2920    -9.2570 
  151.1250    84.4460    24.5800     9.9050     8.0990     8.9700     2.2810    -9.4470 
  151.2500    86.8840    24.5640    11.5980     8.5590     9.4050     2.2700    -9.6910 
  151.3750    85.4760    24.5530    12.7050     8.9010     9.7440     2.2650    -9.9670 
  151.5000    83.2960    24.5310    12.5360     9.0350     9.8710     2.2680   -10.2310 
  151.6250    83.6050    24.4150    12.1310     8.8130     9.6290     2.2900   -10.4820 
  151.7500    85.5490    24.3090    11.5630     8.3220     9.1180     2.3340   -10.7210 
  151.8750    88.1770    24.2630    10.4390     7.7420     8.5340     2.3950   -10.9130 
  152.0000    89.7920    24.2750     8.9280     7.2980     8.1410     2.4600   -11.0420 
  152.1250    89.9140    24.3180     8.5400     7.2560     8.2490     2.5200   -11.0960 
  152.2500    88.3670    24.3420     9.7590     7.7130     9.0960     2.5690   -11.0450 
  152.3750    84.9150    24.3350    12.0470     8.7980    11.0020     2.6000   -10.8800 
  152.5000    80.0980    24.3270    15.3830    10.6380    14.0250     2.6120   -10.6710 
  152.6250    74.6420    24.3150    20.1500    13.3880    17.8740     2.6190   -10.4490 
  152.7500    68.9550    24.2760    25.8530    16.6140    21.7770     2.6330   -10.2280 
  152.8750    62.0260    24.2490    29.9540    19.6980    25.1310     2.6460   -10.0350 
  153.0000    54.0640    24.2380    31.8840    21.9580    27.3710     2.6450    -9.8980 
  153.1250    48.7420    24.2350    31.0530    22.8610    28.0220     2.6270    -9.8100 
  153.2500    47.7550    24.2360    28.6200    22.8940    27.7630     2.6100    -9.7690 
  153.3750    49.7500    24.2640    26.1030    22.6100    27.2870     2.6040    -9.7750 
  153.5000    52.3140    24.3350    24.3120    22.4830    27.1660     2.6120    -9.8040 
  153.6250    52.4350    24.4300    24.0100    22.8250    27.7160     2.6220    -9.8450 
  153.7500    49.6220    24.4820    26.3260    23.4950    28.6280     2.6230    -9.8980 
  153.8750    45.4310    24.4780    30.3910    24.2290    29.4970     2.6180    -9.9660 
  154.0000    42.6100    24.4350    32.6380    24.7260    29.9590     2.6180   -10.0360 
  154.1250    43.8660    24.3790    31.5280    24.7600    29.8340     2.6310   -10.1010 
  154.2500    46.8500    24.3420    28.8070    24.5180    29.4590     2.6430   -10.1680 
  154.3750    48.8320    24.2810    26.7040    24.2510    29.1830     2.6430   -10.2220 
  154.5000    49.0190    24.2410    26.0670    24.1840    29.2460     2.6310   -10.2560 
  154.6250    48.4440    24.2650    27.3080    24.4410    29.7010     2.6190   -10.2480 
  154.7500    49.2420    24.3340    28.6860    24.8580    30.2450     2.6120   -10.2030 
  154.8750    50.4330    24.4010    29.4890    25.2300    30.5870     2.6020   -10.1430 
  155.0000    49.9180    24.4130    29.2750    25.3650    30.5160     2.5830   -10.0610 
  155.1250    46.8750    24.4350    28.4540    25.1330    29.9450     2.5610    -9.9580 
  155.2500    44.0240    24.4780    27.3520    24.7000    29.1430     2.5460    -9.8510 
  155.3750    44.0430    24.4980    26.0550    24.2460    28.3500     2.5370    -9.7580 
  155.5000    46.2850    24.5020    25.0510    23.9010    27.7350     2.5280    -9.6910 
  155.6250    49.9290    24.5030    24.6640    23.7150    27.3590     2.5140    -9.6560 
  155.7500    53.6460    24.5060    25.0850    23.5940    27.0960     2.4960    -9.6440 
  155.8750    55.8710    24.5130    25.4670    23.4670    26.8620     2.4750    -9.6360 
  156.0000    55.6230    24.5350    24.8680    23.3290    26.6510     2.4650    -9.6400 
  156.1250    54.4600    24.5760    23.1880    23.2680    26.5570     2.4850    -9.6880 
  156.2500    56.3250    24.5870    22.3780    23.3250    26.6120     2.5200    -9.7190 
  156.3750    59.8910    24.5510    23.0880    23.4430    26.7470     2.5480    -9.7170 
  156.5000    61.4440    24.4880    24.2130    23.4810    26.7960     2.5550    -9.6720 
  156.6250    60.1970    24.4550    24.8350    23.2330    26.5310     2.5430    -9.5950 
  156.7500    59.4600    24.4420    24.0970    22.6980    25.9670     2.5250    -9.5270 
  156.8750    60.9650    24.4560    22.9100    21.9920    25.2450     2.5090    -9.4790 
  157.0000    64.1740    24.5000    22.3170    21.3150    24.5900     2.4970    -9.4460 
  157.1250    67.4260    24.4850    22.9460    20.9090    24.2640     2.4860    -9.4330 
  157.2500    68.9820    24.3760    23.4920    20.8210    24.2900     2.4790    -9.4460 
  157.3750    68.8150    24.2610    23.5880    21.0050    24.6010     2.4820    -9.5010 
  157.5000    68.0080    24.1860    23.1460    21.3560    25.0740     2.4930    -9.6030 
  157.6250    66.9410    24.3370    22.0400    21.7620    25.5790     2.5010    -9.7300 
  157.7500    65.7740    24.4880    21.4670    22.1470    26.0270     2.5000    -9.8260 
  157.8750    64.6960    24.6020    21.2890    22.4870    26.3900     2.5000    -9.8980 
  158.0000    64.1120    24.6240    21.0460    22.7830    26.6720     2.5050    -9.9110 
  158.1250    63.5480    24.6270    21.1240    23.0390    26.8750     2.5140    -9.8780 
  158.2500    62.8350    24.6120    21.4220    23.2280    26.9920     2.5200    -9.8380 
  158.3750    61.6280    24.6140    21.2550    23.2750    26.9530     2.5210    -9.8130 
  158.5000    60.3750    24.5750    20.8450    23.0770    26.6430     2.5150    -9.8040 
  158.6250    60.7740    24.5390    20.5270    22.4650    25.8570     2.5000    -9.7970 
