~V
VERS. 2.00: Ver 2.00
~W
STRT.M 125.0000:
STOP.M 269.0000:
STEP.M 0.1250:
NULL. -999.2500:
UWI. DF3004:
~C
DEPT.M :
GR.API :
RML.OHMM :
RI. :
RXO.OHMM :
CALI.CM :
DEN.GM/CC :
SP.MV :
~A
# ...
  147.5000    50.9650    26.3970    25.4800    31.3740    24.4280     2.6160   -22.3210 
  147.6250    49.5800    26.6190    25.8250    32.2600    24.4290     2.6160   -22.2870 
  147.7500    51.0240    26.5000    25.9030    33.3430    24.4280     2.6170   -22.2470 
  147.8750    52.9100    26.1740    25.7820    33.0620    24.4210     2.6170   -22.1890 
  148.0000    51.9470    25.8420    25.5920    32.0590    24.4030     2.6120   -22.1680 
  148.1250    48.2450    25.7410    25.4970    30.2100    24.3930     2.6020   -22.1680 
  148.2500    46.3290    25.9200    25.5740    29.3490    24.3740     2.5920   -22.0760 
  148.3750    47.4870    26.3200    25.8190    29.4760    24.3600     2.5860   -21.9020 
  148.5000    49.1780    26.7890    26.1550    29.3300    24.3520     2.5840   -21.8630 
  148.6250    49.1780    27.0790    26.4130    29.2460    24.3600     2.5860   -21.7530 
  148.7500    49.4780    27.0250    26.4240    29.5220    24.3880     2.5910   -21.5550 
  148.8750    50.7010    26.5360    26.0710    30.2130    24.4150     2.5970   -21.4890 
  149.0000    51.7160    25.6100    25.3110    31.3440    24.4270     2.6050   -21.3440 
  149.1250    52.3750    24.2950    24.1520    31.4180    24.4300     2.6110   -21.1900 
  149.2500    54.7300    22.8390    22.8240    29.4590    24.4410     2.6110   -21.1940 
  149.3750    59.0400    21.4770    21.5440    26.8510    24.4560     2.6020   -21.1760 
  149.5000    64.2930    20.4580    20.5400    24.5120    24.4430     2.5850   -21.1490 
  149.6250    67.5220    20.0920    20.0910    22.4190    24.4330     2.5680   -21.1560 
  149.7500    67.5870    20.3310    20.1860    21.3370    24.4270     2.5560   -21.1700 
  149.8750    65.5400    21.0250    20.7320    21.5570    24.4210     2.5530   -21.1790 
  150.0000    62.3690    21.8890    21.5110    23.0070    24.3950     2.5590   -21.1730 
  150.1250    59.0960    22.5270    22.1900    25.0240    24.3210     2.5710   -21.1780 
  150.2500    56.5000    22.7320    22.5290    26.8230    24.2300     2.5840   -21.1270 
  150.3750    54.9470    22.4890    22.4420    26.6010    24.1600     2.5950   -21.0770 
  150.5000    54.6120    21.9120    21.9740    23.9340    24.1710     2.5990   -21.0450 
  150.6250    56.0800    21.0950    21.1850    21.4730    24.2120     2.5940   -21.0200 
  150.7500    58.7230    20.1190    20.1930    20.5880    24.2550     2.5840   -21.0200 
  150.8750    60.7550    18.9980    19.0500    20.7590    24.2570     2.5710   -20.9930 
  151.0000    60.1690    17.8050    17.8420    21.4830    24.2290     2.5580   -20.9470 
  151.1250    58.1300    16.7430    16.7570    20.6740    24.1830     2.5440   -20.9290 
  151.2500    56.9570    16.0060    15.9640    17.9100    24.1770     2.5300   -20.9290 
  151.3750    56.5280    15.7000    15.5680    15.7200    24.1940     2.5180   -20.9060 
  151.5000    56.0470    15.8180    15.5910    16.1080    24.2360     2.5110   -20.8620 
  151.6250    55.5380    16.2900    16.0060    17.6220    24.3090     2.5130   -20.8750 
  151.7500    54.9740    16.9000    16.6120    19.2800    24.3410     2.5230   -20.8370 
  151.8750    53.7340    17.5090    17.2620    19.8940    24.3430     2.5360   -20.7760 
  152.0000    51.6300    18.0160    17.8280    19.6450    24.3280     2.5460   -20.8500 
  152.1250    50.2230    18.3370    18.2020    19.5370    24.3100     2.5470   -20.7780 
  152.2500    49.6580    18.5010    18.4020    20.2350    24.3350     2.5400   -20.7000 
  152.3750    51.2380    18.5440    18.4620    21.2150    24.3810     2.5290   -20.7500 
  152.5000    55.4090    18.4900    18.4090    21.5990    24.3950     2.5210   -20.6910 
  152.6250    60.2590    18.3100    18.2170    20.6170    24.3400     2.5250   -20.6210 
  152.7500    62.7740    17.9760    17.8730    18.9780    24.2620     2.5430   -20.6210 
  152.8750    62.5820    17.4570    17.3520    18.1940    24.2240     2.5710   -20.5610 
  153.0000    61.8870    16.7600    16.6630    18.4060    24.2470     2.5940   -20.5020 
  153.1250    64.3280    15.9550    15.8660    17.8450    24.2700     2.5960   -20.4740 
  153.2500    68.2030    15.2070    15.1110    15.8530    24.2790     2.5780   -20.4500 
  153.3750    69.1940    14.6500    14.5230    14.5680    24.2700     2.5500   -20.3610 
  153.5000    66.6610    14.3770    14.1960    13.7510    24.2420     2.5240   -20.2450 
  153.6250    63.3020    14.4670    14.2180    13.3770    24.1940     2.5090   -20.1490 
  153.7500    60.7920    14.8160    14.5010    13.5230    24.1710     2.5020   -20.0130 
  153.8750    59.7130    15.3230    14.9590    14.3570    24.1910     2.5010   -19.9420 
  154.0000    59.4710    15.8700    15.4780    15.6050    24.2520     2.5000   -19.8490 
  154.1250    59.6150    16.3230    15.9240    16.5210    24.2950     2.4970   -19.7400 
  154.2500    60.5040    16.6190    16.2230    17.0460    24.3330     2.4880   -19.6810 
  154.3750    63.3090    16.7530    16.3540    17.6690    24.3410     2.4750   -19.5980 
  154.5000    65.2170    16.7810    16.3540    18.1260    24.3250     2.4620   -19.5310 
  154.6250    63.1740    16.8300    16.3290    18.0810    24.2930     2.4560   -19.5130 
  154.7500    62.1610    17.0310    16.4080    17.4810    24.2930     2.4570   -19.4980 
  154.8750    64.7710    17.4460    16.6680    17.0750    24.3150     2.4640   -19.4090 
  155.0000    68.0900    18.0650    17.1220    16.9100    24.3280     2.4720   -19.3480 
  155.1250    68.1840    18.7820    17.7080    17.5730    24.3080     2.4770   -19.3470 
  155.2500    67.8800    19.4070    18.2620    18.6310    24.2860     2.4810   -19.2470 
  155.3750    68.8270    19.8050    18.6520    19.5930    24.2590     2.4860   -19.2440 
  155.5000    69.6430    19.9300    18.8060    20.0850    24.2170     2.4930   -19.2810 
  155.6250    68.2320    19.8340    18.7300    19.4970    24.1410     2.5010   -19.1910 
  155.7500    66.2200    19.7210    18.5910    18.4360    24.0310     2.5030   -19.2080 
  155.8750    64.8570    19.7250    18.5130    17.7620    23.9450     2.4970   -19.2430 
  156.0000    63.9140    19.9040    18.5710    17.7050    23.8860     2.4860   -19.2320 
  156.1250    64.5240    20.2180    18.7660    18.3460    23.9380     2.4780   -19.2690 
  156.2500    67.5330    20.5040    18.9720    19.9270    24.0380     2.4800   -19.2840 
  156.3750    70.9400    20.6360    19.0760    21.3130    24.1410     2.4920   -19.2860 
  156.5000    71.4200    20.5540    19.0040    21.8540    24.2560     2.5080   -19.3110 
  156.6250    68.9690    20.2760    18.7420    22.2640    24.3490     2.5180   -19.3310 
  156.7500    66.9890    19.9570    18.4130    22.2370    24.4070     2.5160   -19.3330 
  156.8750    66.4580    19.7140    18.1260    21.6420    24.4250     2.5040   -19.3300 
  157.0000    67.1870    19.6260    17.9640    21.4200    24.4200     2.4880   -19.3420 
  157.1250    67.7580    19.7280    17.9840    21.4040    24.4100     2.4740   -19.3360 
  157.2500    67.9990    19.9470    18.1350    20.9460    24.4060     2.4640   -19.3540 
  157.3750    68.0980    20.2230    18.3670    20.6340    24.4180     2.4590   -19.3730 
  157.5000    69.3290    20.4930    18.6190    20.7130    24.4190     2.4610   -19.3360 
  157.6250    71.0870    20.6810    18.8150    20.9840    24.3950     2.4700   -19.3450 
  157.7500    70.0190    20.7620    18.9150    21.1510    24.3550     2.4830   -19.3540 
  157.8750    66.9910    20.7250    18.9030    21.2200    24.3310     2.4980   -19.3450 
  158.0000    65.6290    20.5850    18.7840    21.0070    24.3420     2.5140   -19.3050 
  158.1250    69.3350    20.3540    18.5690    20.4570    24.3390     2.5260   -19.3530 
  158.2500    70.8980    20.0680    18.2950    19.5890    24.2980     2.5340   -19.3850 
  158.3750    65.6420    19.7340    17.9710    18.9730    24.2810     2.5390   -19.3340 
  158.5000    59.4790    19.3480    17.6020    18.6540    24.2840     2.5450   -19.4210 
  158.6250    59.5760    18.9080    17.1890    18.7820    24.2660     2.5520   -19.4810 
