~V
VERS. 2.00: Ver 2.00
~W
STRT.M 60.0000:
STOP.M 251.0000:
STEP.M 0.1250:
NULL. -999.2500:
UWI. DF3020:
~C
DEPT.M :
GR.API :
RML.OHMM :
RI. :
RXO.OHMM :
CALI.CM :
DEN.GM/CC :
SP.MV :
~A
# ...
  240.0000    82.1910    11.7450    11.1120    12.3260    23.3840     2.4630   -12.3450 
  240.1250    81.8320    11.4490    10.7940    12.1300    23.3840     2.4510   -12.1980 
  240.2500    83.1650    11.3650    10.6530    12.1960    23.3840     2.4390   -12.0210 
  240.3750    86.0490    11.4300    10.6440    12.3300    23.3840     2.4320   -11.9540 
  240.5000    86.6390    11.5530    10.6930    12.5140    23.3840     2.4290   -11.7960 
  240.6250    86.6390    11.6180    10.7050    12.3080    23.3840     2.4290   -11.7320 
  240.7500    86.6390    11.5670    10.6220    12.0930    23.3840     2.4300   -11.6280 
  240.8750    86.6390    11.3980    10.4340    11.6270    23.3840     2.4280   -11.4920 
  241.0000    86.6390    11.1600    10.1760    10.9320    23.3840     2.4240   -11.4110 
  241.1250    86.6390    10.9520     9.9240    10.1900    23.3840     2.4200   -11.2840 
  241.2500    86.6390    10.8530     9.7500     9.4700    23.3840     2.4180   -11.2250 
  241.3750    86.6390    10.9010     9.6910     8.5860    23.3730     2.4200   -11.0560 
  241.5000    86.6390    11.0820     9.7450     7.7360    23.3310     2.4270   -10.9720 
  241.6250    86.6390    11.3330     9.8730     7.3540    23.2360     2.4340   -10.8280 
  241.7500    86.6390    11.5470     9.9900     7.5010    23.1360     2.4380   -10.6970 
  241.8750    86.6390    11.6650    10.0430     8.1520    23.0020     2.4380   -10.6250 
  242.0000    86.6390    11.6740    10.0100     8.9980    22.8140     2.4350   -10.5140 
  242.1250    86.6390    11.6040     9.9060    10.0150    22.8140     2.4340   -10.4710 
  242.2500    86.6390    11.5300     9.7890    11.1470    23.0410     2.4360   -10.3800 
  242.3750    86.6390    11.4940     9.6980    12.0050    23.3850     2.4400   -10.3200 
  242.5000    86.6390    11.4990     9.6440    12.0990    23.5830     2.4420   -10.2330 
  242.6250    86.6390    11.5140     9.6120    12.1870    23.6260     2.4370   -10.1480 
  242.7500    86.6390    11.4970     9.5710    12.6830    23.6260     2.4260   -10.0680 
  242.8750    86.6390    11.4360     9.5090    12.9400    23.6230     2.4150    -9.9750 
  243.0000    86.6390    11.3530     9.4330    12.7070    23.6200     2.4090    -9.8670 
  243.1250    86.6390    11.3210     9.3900    12.9040    23.6200     2.4130    -9.7800 
  243.2500    86.6390    11.4110     9.4260    13.4500    23.6220     2.4280    -9.6620 
  243.3750    86.6390    11.6630     9.5710    13.8680    23.6230     2.4490    -9.5450 
  243.5000    86.6390    12.0680     9.8290    14.6180    23.6180     2.4720    -9.4580 
  243.6250    86.6390    12.5740    10.1730    12.6470    23.5710     2.4850    -9.3970 
  243.7500    86.6390    13.0680    10.5260    11.2220    23.4840     2.4870    -9.3540 
  243.8750    86.6390    13.4770    10.8320     9.9630    23.4120     2.4840    -9.2790 
  244.0000    86.6390    13.7640    11.0560     9.2850    23.3840     2.4820    -9.1960 
  244.1250    86.6390    13.9180    11.1820     9.0440    23.3840     2.4880    -9.0870 
  244.2500    86.6390    13.9980    11.2480     9.0640    23.3840     2.4980    -8.9610 
  244.3750    86.6390    14.0350    11.2780     9.3190    23.3840     2.5050    -8.8110 
  244.5000    86.6390    14.0490    11.2910     9.7740    23.3840     2.5030    -8.6400 
  244.6250    86.6390    14.0500    11.2960    10.4650    23.3840     2.4910    -8.4250 
  244.7500    86.6390    14.0460    11.2980    11.3310    23.3840     2.4790    -8.2040 
  244.8750    86.6390    14.0390    11.2990    12.2260    23.3840     2.4720    -7.9550 
  245.0000    86.6390    14.0320    11.2980    12.8100    23.3810     2.4750    -7.7430 
  245.1250    86.6390    14.0280    11.2980    13.7680    23.3750     2.4880    -7.3980 
  245.2500    86.6390    14.0260    11.3000    14.3950    23.3700     2.5010    -7.1020 
  245.3750    86.6390    14.0240    11.3070    14.5680    23.3690     2.5120    -6.9110 
  245.5000    86.6390    14.0190    11.3160    13.8060    23.3590     2.5170    -6.7910 
  245.6250    86.6390    14.0130    11.3250    12.4960    23.3340     2.5170    -6.7980 
  245.7500    86.6390    14.0100    11.3300    10.8720    23.3160     2.5120    -6.7570 
  245.8750    86.6390    14.0180    11.3310     9.7310    23.2960     2.5030    -6.7210 
  246.0000    86.6390    14.0390    11.3320     9.1940    23.2610     2.4870    -6.6690 
  246.1250    86.6390    14.0650    11.3350     9.2550    23.2300     2.4610    -6.7250 
  246.2500    86.6390    14.0850    11.3400     9.0860    23.1940     2.4250    -6.7880 
  246.3750    86.6390    14.0960    11.3430     8.3930    23.1450     2.3770    -6.7860 
  246.5000    86.6390    14.0970    11.3440     7.8210    23.0710     2.3210    -6.7050 
  246.6250    86.6390    14.0970    11.3440     7.6310    22.6740     2.2650    -6.5440 
  246.7500    86.6390    14.0970    11.3440     7.5410    21.6980     2.2190    -6.4060 
  246.8750    86.6390    14.0970    11.3440     7.2860    20.0620     2.1890    -6.3010 
  247.0000    86.6390    14.0970    11.3440     7.0170    18.1690     2.1730    -6.1930 
  247.1250    86.6390    14.0970    11.3440     6.7850    16.2570     2.1670    -6.1070 
  247.2500    86.6390    14.0970    11.3440     6.7240    14.6380     2.1600    -6.0250 
  247.3750    86.6390    14.0970    11.3440     6.6940    13.7180     2.1490    -5.9560 
  247.5000    86.6390    14.0970    11.3440     6.6790    13.3980     2.1320    -5.8690 
  247.6250    86.6390    14.0970    11.3440     6.6980    13.3310     2.1120    -5.8290 
  247.7500    86.6390    14.0970    11.3440     6.8650    13.3150     2.0940    -5.7440 
  247.8750    86.6390    14.0970    11.3440     7.1330    13.3100     2.0770    -5.6910 
  248.0000    86.6390    14.0970    11.3440     7.1830    13.2860     2.0630    -5.6980 
  248.1250    86.6390    14.0970    11.3440     7.0730    13.2300     2.0490    -5.7120 
  248.2500    86.6390    14.0970    11.3440     6.9770    13.1230     2.0350    -5.6590 
  248.3750    86.6390    14.0970    11.3440     6.9410    13.0370     2.0220    -5.6780 
  248.5000    86.6390    14.0970    11.3440     6.9440    12.9900     2.0120    -5.7470 
  248.6250    86.6390    14.0970    11.3440     6.8820    12.9330     2.0090    -5.7090 
  248.7500    86.6390    14.0970    11.3440     6.8550    12.7990     2.0120    -5.6280 
  248.8750    86.6390    14.0970    11.3440     6.8630    12.5140     2.0170    -5.4690 
  249.0000    86.6390    14.0970    11.3440     6.9500    12.2610     2.0220    -5.3260 
  249.1250    86.6390    14.0970    11.3440     6.9680    12.1490     2.0240    -5.1120 
  249.2500    86.6390    14.0970    11.3440     6.9480    12.1290     2.0260    -4.9960 
  249.3750    86.6390    14.0970    11.3440     6.9330    12.1290     2.0250    -4.7980 
  249.5000    86.6390    14.0970    11.3440     6.9320    12.1290     2.0240    -4.5450 
  249.6250    86.6390    14.0970    11.3440     6.9310    12.1290     2.0210    -4.4230 
  249.7500    86.6390    14.0970    11.3440     6.9280    12.1290     2.0180    -4.4230 
  249.8750    86.6390    14.0970    11.3440     6.9310    12.1290     2.0160    -4.4230 
  250.0000    86.6390    14.0970    11.3440     6.9320    12.1290     2.0150  -999.2500 
  250.1250    86.6390    14.0970    11.3440     6.9320    12.1290     2.0180  -999.2500 
  250.2500    86.6390    14.0970    11.3440     6.9310    12.1290     2.0200  -999.2500 
  250.3750    86.6390    14.0970    11.3440     6.9290    12.1290     2.0110  -999.2500 
  250.5000    86.6390    14.0970    11.3440     6.9270    12.1270     1.9870  -999.2500 
  250.6250    86.6390    14.0970    11.3440     6.9290    12.1250     1.9320  -999.2500 
  250.7500    86.6390    14.0970    11.3440     6.9310    12.1240     1.8750  -999.2500 
  250.8750    86.6390    14.0970    11.3440     6.9350    12.1210     1.8340  -999.2500 
  251.0000    86.6390    14.0970    11.3440     6.9350    12.1200     1.8360  -999.2500 
