~V
VERS. 2.00: Ver 2.00
~W
STRT.M 100.0000:
STOP.M 264.0000:
STEP.M 0.1250:
NULL. -999.2500:
UWI. DF3023:
~C
DEPT.M :
GR.API :
CALI.CM :
RXO.OHMM :
RI. :
RML.OHMM :
SP.MV :
DEN.GM/CC :
AC.US/MT :
~A
# ...
  130.0000   101.7510    24.1110     5.4930     4.9440     5.6030   -19.4840     2.3140   433.0400 
  130.1250   102.3420    24.1570     5.7340     4.9240     5.7370   -19.6200     2.3220   423.1560 
  130.2500   100.8590    24.2130     5.9350     5.0660     6.0800   -19.7670     2.3120   415.7690 
  130.3750    98.4500    24.2600     6.0950     5.3290     6.5310   -19.9420     2.2970   414.4190 
  130.5000    93.8450    24.2710     6.4090     5.5910     6.8970   -20.1430     2.2760   417.8970 
  130.6250    88.4440    24.2000     8.0540     5.6610     6.9330   -20.3490     2.2500   421.9600 
  130.7500    86.6700    24.1080     9.1600     5.5230     6.6850   -20.5270     2.2460   424.2060 
  130.8750    90.0260    24.1710     8.0950     5.2820     6.3580   -20.6730     2.2740   425.2390 
  131.0000    95.5960    24.4910     6.0320     5.1140     6.2220   -20.7960     2.3130   426.9220 
  131.1250    98.9710    24.8590     6.3280     5.2300     6.5500   -20.9100     2.3240   430.4790 
  131.2500    98.8440    24.9430     9.9980     5.6600     7.2890   -21.0550     2.2890   433.9370 
  131.3750    93.2840    24.7490    15.5970     6.3660     8.2980   -21.2800     2.2540   435.1840 
  131.5000    84.8720    24.5140    19.0360     7.2060     9.3050   -21.6190     2.2430   433.1940 
  131.6250    79.9910    24.4230    17.9160     7.8970     9.8810   -22.0140     2.2450   429.1290 
  131.7500    78.4070    24.3710    15.2580     8.2570     9.9390   -22.3340     2.2380   425.1710 
  131.8750    76.7300    24.2390    12.9220     8.3220     9.6720   -22.5100     2.2120   423.3280 
  132.0000    74.4290    24.0370    11.5650     8.2730     9.4020   -22.4980     2.1750   426.2760 
  132.1250    72.9310    23.8940    12.1770     8.3160     9.4020   -22.2710     2.1460   432.8000 
  132.2500    71.5370    23.8510    13.2690     8.5370     9.6830   -21.9290     2.1510   437.6690 
  132.3750    69.4750    23.8540    14.1390     8.9380    10.1670   -21.5040     2.1730   438.7440 
  132.5000    68.6580    23.8570    13.7430     9.4300    10.6770   -20.9700     2.1880   436.8400 
  132.6250    70.3590    23.8560    12.4610     9.7670    10.8820   -20.3000     2.1940   434.1880 
  132.7500    71.8640    23.8520    11.9340     9.7180    10.5830   -19.5330     2.1950   431.7860 
  132.8750    72.6300    23.8340    11.7600     9.1880     9.7520   -18.6610     2.1980   429.7780 
  133.0000    73.6660    23.8150    11.0470     8.2740     8.5700   -17.6850     2.2100   427.0150 
  133.1250    78.1330    23.8450     8.6100     7.2200     7.3790   -16.6390     2.2450   422.9990 
  133.2500    85.3420    23.9550     6.3250     6.3100     6.4620   -15.5670     2.2880   420.5050 
  133.3750    92.5150    24.1200     5.2510     5.6690     5.9240   -14.5140     2.3050   420.8810 
  133.5000    96.8140    24.2640     4.9280     5.3300     5.7550   -13.5810     2.2970   422.2370 
  133.6250    96.1820    24.2930     4.9840     5.2970     5.8890   -12.8920     2.2890   420.1850 
  133.7500    93.3190    24.2270     5.5670     5.4330     6.1300   -12.4120     2.2920   414.4390 
  133.8750    90.8660    24.1390     6.2430     5.6450     6.3680   -12.1060     2.2970   408.8070 
  134.0000    90.9740    24.1160     6.8580     5.8810     6.5810   -11.9110     2.3000   407.1390 
  134.1250    91.8350    24.1820     6.7750     6.1790     6.8820   -11.7450     2.2980   408.9200 
  134.2500    90.4010    24.2500     7.1630     6.6330     7.4230   -11.5750     2.2860   408.4340 
  134.3750    88.9090    24.3070     8.1390     7.3460     8.3300   -11.4240     2.2680   403.8290 
  134.5000    89.0200    24.4600    10.5350     8.4010     9.6560   -11.2890     2.2590   398.4490 
  134.6250    86.8420    24.7920    13.7380     9.8540    11.3850   -11.1390     2.2510   396.1290 
  134.7500    80.2430    25.1290    15.6760    11.5040    13.2360   -10.9450     2.2290   391.5390 
  134.8750    73.1850    25.3150    17.4110    13.1030    14.9230   -10.6940     2.2180   374.9370 
  135.0000    70.2820    25.3330    19.1530    14.4030    16.2200   -10.4070     2.2480   342.3870 
  135.1250    70.7670    25.2470    19.3240    15.2410    17.0230   -10.1390     2.3200   303.4150 
  135.2500    70.5540    25.1390    19.4580    15.7460    17.4990    -9.9170     2.4170   274.7300 
  135.3750    67.9810    25.0480    20.1310    15.9600    17.6570    -9.7370     2.5260   261.7210 
  135.5000    62.9520    24.9900    20.6260    15.8630    17.4230    -9.5920     2.6140   261.2110 
  135.6250    57.8940    24.9530    20.5510    15.4150    16.7530    -9.4850     2.6370   269.9660 
  135.7500    55.6350    24.9240    17.5100    14.8120    15.9470    -9.4300     2.5870   282.4320 
  135.8750    54.8990    24.8810    13.9020    14.2780    15.3350    -9.4430     2.5360   291.5430 
  136.0000    53.4100    24.7530    11.9860    14.0380    15.2020    -9.5120     2.5190   290.5860 
  136.1250    51.3930    24.4780    12.5230    14.3070    15.7430    -9.5980     2.5280   280.7000 
  136.2500    51.9320    24.1820    14.7120    14.9550    16.6870    -9.6820     2.5530   273.2590 
  136.3750    54.7380    24.0220    17.1290    15.7640    17.6780    -9.7790     2.5610   273.0120 
  136.5000    57.4450    24.0720    17.5620    16.4310    18.2990    -9.8900     2.5600   277.5610 
  136.6250    59.3940    24.2450    16.2980    16.6330    18.2060    -9.9980     2.5700   280.9630 
  136.7500    61.3140    24.3460    14.9810    16.4630    17.6890   -10.1030     2.5620   281.5670 
  136.8750    62.3350    24.2880    13.9770    16.1470    17.1250   -10.1890     2.5190   282.0590 
  137.0000    63.4060    24.1100    13.1520    15.8940    16.7840   -10.2430     2.4750   285.0850 
  137.1250    65.6730    23.9840    13.3160    15.8110    16.7670   -10.2650     2.4780   290.3200 
  137.2500    67.6060    24.0310    14.7330    15.8190    16.8850   -10.2780     2.5100   294.3810 
  137.3750    67.7120    24.2190    15.8560    15.7990    16.9240   -10.2750     2.5200   295.7410 
  137.5000    67.5440    24.4110    15.4810    15.6250    16.7020   -10.2460     2.5120   294.6200 
  137.6250    67.5540    24.4520    13.4720    15.2190    16.1450   -10.2260     2.5100   291.8780 
  137.7500    65.8930    24.3500    12.8000    14.7090    15.4710   -10.2310     2.5240   289.4050 
  137.8750    63.9350    24.1790    12.5910    14.2330    14.8790   -10.2240     2.5270   288.6540 
  138.0000    63.5080    24.0320    12.3180    13.9110    14.5120   -10.2000     2.5100   289.1150 
  138.1250    62.4410    23.9850    12.3640    13.8450    14.4690   -10.1800     2.5070   288.7690 
  138.2500    59.8790    24.0340    13.5530    13.9880    14.6520   -10.1390     2.5370   287.7150 
  138.3750    59.1830    24.1510    15.1250    14.2720    14.9600   -10.0630     2.5600   287.7870 
  138.5000    60.8410    24.2710    15.5740    14.6040    15.2850    -9.9700     2.5520   290.3360 
  138.6250    60.2060    24.3430    14.3060    14.8890    15.5410    -9.8600     2.5290   294.9650 
  138.7500    57.9510    24.4080    14.2830    15.0940    15.7330    -9.7260     2.5170   300.5680 
  138.8750    57.4440    24.5210    14.5490    15.2310    15.8810    -9.6040     2.5110   305.5960 
  139.0000    58.5740    24.6540    14.3800    15.3010    15.9560    -9.5300     2.4990   306.4350 
  139.1250    58.4180    24.7260    14.8370    15.2230    15.8290    -9.4900     2.4900   300.0660 
  139.2500    57.2590    24.7350    15.1020    14.9460    15.4580    -9.4680     2.5060   292.1730 
  139.3750    56.5520    24.6910    14.8280    14.4790    14.9000    -9.4830     2.5370   289.9970 
  139.5000    56.1660    24.5660    13.3560    13.9260    14.3100    -9.5310     2.5620   294.8620 
  139.6250    56.1250    24.3290    11.5860    13.4920    13.9280    -9.6090     2.5680   299.7460 
  139.7500    56.4050    24.0790    11.3620    13.3010    13.8340    -9.7150     2.5620   299.2910 
  139.8750    55.6550    23.9090    12.4140    13.3750    14.0010    -9.8180     2.5430   295.6100 
