~V
VERS. 2.00: Ver 2.00
~W
STRT.M 125.0000:
STOP.M 273.0000:
STEP.M 0.1250:
NULL. -999.2500:
UWI. DF3072:
~C
DEPT.M :
DEN.GM/CC :
GR.API :
CALI.CM :
RXO.OHMM :
RI. :
RML.OHMM :
SP.MV :
~A
# ...
  158.7500     2.5640    62.9670    25.4510    33.4890    22.1200    28.4690   -16.4150 
  158.8750     2.5810    61.3890    25.4440    32.5910    22.3970    28.6540   -16.4870 
  159.0000     2.5920    61.0250    25.4560    29.7370    22.1340    27.9740   -16.5540 
  159.1250     2.5930    60.0680    25.4850    26.3540    21.3750    26.6490   -16.5740 
  159.2500     2.5920    60.0370    25.5160    23.8350    20.4490    25.2510   -16.5860 
  159.3750     2.5900    62.3280    25.5230    22.8010    19.5640    24.0770   -16.5590 
  159.5000     2.5910    65.6750    25.4820    22.9000    18.8240    23.2120   -16.4810 
  159.6250     2.5900    68.6820    25.4080    22.7600    18.2180    22.5380   -16.3720 
  159.7500     2.5900    69.3210    25.3560    21.7880    17.6030    21.7790   -16.2440 
  159.8750     2.5920    65.6390    25.3510    20.5400    16.8730    20.7800   -16.0780 
  160.0000     2.5950    60.2820    25.4090    19.5180    16.0040    19.5410   -15.9000 
  160.1250     2.5930    60.2030    25.5260    18.3220    15.0850    18.2360   -15.7500 
  160.2500     2.5900    63.9730    25.6390    16.7800    14.2800    17.1270   -15.5970 
  160.3750     2.5920    66.7290    25.7010    15.5810    13.7130    16.4020   -15.4770 
  160.5000     2.6000    66.5950    25.7050    15.5410    13.4650    16.1690   -15.4090 
  160.6250     2.6040    64.1070    25.6890    16.9680    13.6250    16.5140   -15.3700 
  160.7500     2.6010    59.9250    25.6840    18.8330    14.0830    17.2130   -15.3580 
  160.8750     2.5910    56.1110    25.6920    20.0630    14.7020    18.0210   -15.3850 
  161.0000     2.5810    55.2200    25.7040    19.9600    15.2840    18.6490   -15.4270 
  161.1250     2.5720    55.9580    25.7050    18.5450    15.5770    18.8010   -15.4840 
  161.2500     2.5640    56.2790    25.6900    16.8310    15.5250    18.5060   -15.5590 
  161.3750     2.5620    58.0630    25.6670    15.4380    15.1560    17.8580   -15.6240 
  161.5000     2.5710    63.0960    25.6470    14.6490    14.5590    16.9780   -15.6700 
  161.6250     2.5880    68.9150    25.6440    14.3830    13.8190    15.9680   -15.7120 
  161.7500     2.5970    73.8610    25.6550    14.0240    13.0560    14.9520   -15.7360 
  161.8750     2.5900    78.6950    25.6750    13.1680    12.3420    14.0180   -15.7290 
  162.0000     2.5690    80.8050    25.6970    11.9380    11.7390    13.2490   -15.7080 
  162.1250     2.5490    77.3250    25.7220    10.9630    11.3250    12.7510   -15.6660 
  162.2500     2.5350    71.6310    25.7340    10.6600    11.0960    12.5090   -15.6020 
  162.3750     2.5260    68.3030    25.7120    10.9440    11.0520    12.5030   -15.5440 
  162.5000     2.5200    67.7050    25.6610    11.3760    11.1710    12.6760   -15.4910 
  162.6250     2.5260    67.6800    25.6300    11.5200    11.4190    12.9570   -15.4300 
  162.7500     2.5440    67.3170    25.6300    11.5990    11.7240    13.2550   -15.3650 
  162.8750     2.5620    66.9300    25.6440    11.9680    12.0510    13.5450   -15.3190 
  163.0000     2.5640    67.9610    25.6540    12.6010    12.3940    13.8490   -15.2770 
  163.1250     2.5480    70.0160    25.6580    13.1830    12.7740    14.2270   -15.2340 
  163.2500     2.5270    72.7250    25.6540    13.7470    13.1900    14.6920   -15.2190 
  163.3750     2.5030    76.5220    25.6470    14.5470    13.6170    15.2170   -15.2170 
  163.5000     2.4790    80.1500    25.6430    15.5380    14.0040    15.7250   -15.2430 
  163.6250     2.4530    80.8890    25.6500    16.0510    14.2270    16.0440   -15.3190 
  163.7500     2.4280    79.2690    25.6700    15.7710    14.2170    16.0600   -15.4350 
  163.8750     2.4120    79.1200    25.6950    15.0830    13.9690    15.7630   -15.6030 
  164.0000     2.4110    81.2300    25.7200    14.5450    13.5870    15.3010   -15.8410 
  164.1250     2.4230    81.5430    25.7430    14.2140    13.3230    15.0400   -16.1660 
  164.2500     2.4350    80.9410    25.7730    14.1380    13.4380    15.3640   -16.5580 
  164.3750     2.4420    80.0430    25.8130    15.0900    14.1810    16.6300   -17.0110 
  164.5000     2.4420    78.3240    25.8670    18.1310    15.8160    19.1670   -17.4930 
  164.6250     2.4340    74.9950    25.9320    24.2370    18.8410    23.4970   -17.9980 
  164.7500     2.4170    71.0130    25.9940    32.3740    23.1910    29.3290   -18.5090 
  164.8750     2.3930    68.9930    26.0420    41.6870    28.5710    36.0810   -18.9920 
  165.0000     2.3660    69.5590    26.0470    51.3490    34.1000    42.4630   -19.4320 
  165.1250     2.3410    72.6390    25.9730    57.0970    38.0680    46.1970   -19.8000 
  165.2500     2.3230    76.3140    25.8620    55.7670    39.6680    46.7030   -20.1060 
  165.3750     2.3170    78.4020    25.7720    50.2710    39.0550    44.6820   -20.3650 
  165.5000     2.3240    79.5700    25.7330    46.2790    37.1100    41.5670   -20.5930 
  165.6250     2.3350    81.0150    25.7250    44.4480    34.9160    38.7650   -20.8020 
  165.7500     2.3410    83.1470    25.7100    41.6670    33.3130    36.9960   -21.0220 
  165.8750     2.3400    84.0430    25.6890    38.5230    32.6910    36.5400   -21.2580 
  166.0000     2.3350    81.1780    25.6790    37.4130    33.2000    37.4430   -21.5110 
  166.1250     2.3240    77.2600    25.7000    39.6010    34.9990    39.7840   -21.7910 
  166.2500     2.3110    75.1460    25.7160    43.4040    37.7570    43.1050   -22.0790 
  166.3750     2.2970    74.7230    25.6660    47.6330    41.2110    47.0300   -22.3640 
  166.5000     2.2770    74.9330    25.5360    51.4630    44.9550    51.0420   -22.6390 
  166.6250     2.2510    76.1280    25.4000    54.2750    48.4550    54.5360   -22.8840 
  166.7500     2.2330    78.0370    25.3360    56.2560    51.4600    57.3890   -23.0980 
  166.8750     2.2360    79.4990    25.3080    57.8770    53.9550    59.7170   -23.2790 
  167.0000     2.2560    80.4200    25.2130    59.8270    56.0400    61.7190   -23.4460 
  167.1250     2.2750    80.9870    25.0140    62.2800    57.8090    63.5550   -23.6280 
  167.2500     2.2790    78.7830    24.8310    64.1330    59.4120    65.3550   -23.8190 
  167.3750     2.2720    76.0150    24.7450    64.9570    60.9380    67.1900   -24.0390 
  167.5000     2.2680    75.8130    24.7320    65.5030    62.4740    69.1200   -24.3080 
  167.6250     2.2770    78.6010    24.7310    67.1780    64.0550    71.1430   -24.6230 
  167.7500     2.2910    80.7650    24.7320    70.2820    65.6690    73.2100   -24.9760 
  167.8750     2.2980    81.5540    24.7380    74.8530    67.4280    75.4520   -25.3750 
  168.0000     2.2950    82.8070    24.7390    80.9490    69.7100    78.3310   -25.7900 
  168.1250     2.2870    81.3320    24.7410    88.2210    73.6180    83.1390   -26.2160 
  168.2500     2.2770    77.3800    24.7990    96.4870    80.1620    90.9830   -26.6590 
  168.3750     2.2670    75.1670    24.9650   108.7390    90.5850   103.2020   -27.0890 
  168.5000     2.2570    74.9210    25.2380   130.6050   105.9310   121.0020   -27.4980 
  168.6250     2.2450    72.6090    25.5400   167.6360   127.1170   145.8540   -27.8800 
  168.7500     2.2350    67.8790    25.7500   210.9050   151.3160   174.8830   -28.2190 
  168.8750     2.2330    65.4200    25.8270   248.0460   174.6520   203.2500   -28.5330 
  169.0000     2.2410    66.5820    25.8220   268.3160   192.4560   224.3680   -28.8220 
  169.1250     2.2500    69.4830    25.8360   263.5900   200.0460   231.8640   -29.0620 
  169.2500     2.2570    70.7640    25.9020   245.6610   199.6350   229.4900   -29.2700 
  169.3750     2.2620    68.7700    25.9820   227.7460   194.2760   221.8820   -29.4330 
  169.5000     2.2660    65.1100    26.0410   215.4870   187.0890   212.9730   -29.5430 
  169.6250     2.2710    63.0060    26.0640   205.4670   180.3660   205.1190   -29.6170 
  169.7500     2.2750    63.7750    26.0680   193.1590   174.6880   198.3190   -29.6800 
  169.8750     2.2710    66.8520    26.0670   182.4700   169.1670   191.0830   -29.7200 
