~V
VERS. 2.00: Ver 2.00
~W
STRT.M 60.0000:
STOP.M 280.0000:
STEP.M 0.1250:
NULL. -999.2500:
UWI. DF3041:
~C
DEPT.M :
SP.MV :
GR.API :
RML.OHMM :
RI. :
RXO.OHMM :
CALI.CM :
DEN.GM/CC :
~A
# ...
   71.2500   -12.9360   107.1050     8.3980     7.4750     7.4030    23.8360  -999.2500 
   71.3750   -13.1840   103.5250     8.3400     7.4170     7.6310    23.8100  -999.2500 
   71.5000   -13.4700   102.7470     8.3640     7.4600     7.9130    24.0230  -999.2500 
   71.6250   -13.7600   103.3950     8.4840     7.6230     8.0860    24.4420  -999.2500 
   71.7500   -14.0960   101.1460     8.6500     7.8450     8.7620    24.8670  -999.2500 
   71.8750   -14.4780    97.2130     8.8240     8.0670     9.6910    24.8800  -999.2500 
   72.0000   -14.8990    94.7820     9.0060     8.2570    11.3890    24.5310  -999.2500 
   72.1250   -15.3440    93.1380     9.2850     8.4550    13.6600    23.7790  -999.2500 
   72.2500   -15.7740    90.7080     9.7830     8.7870    14.1760    23.4800  -999.2500 
   72.3750   -16.2410    88.8770    10.6000     9.3890    12.2910    23.4330  -999.2500 
   72.5000   -16.6990    87.9220    11.7360    10.3400    12.2610    23.4920  -999.2500 
   72.6250   -17.1980    85.4410    13.0050    11.5890    14.8780    23.4760  -999.2500 
   72.7500   -17.6270    80.7680    14.0180    12.7910    18.3580    23.3940  -999.2500 
   72.8750   -18.0100    76.7290    14.4460    13.5850    19.4780    23.5100  -999.2500 
   73.0000   -18.3590    76.1200    14.1330    13.6850    17.9760    23.5790  -999.2500 
   73.1250   -18.6360    77.4430    13.1630    12.9580    14.8900    23.4490  -999.2500 
   73.2500   -18.8720    77.8410    12.0490    11.8380    12.7310    23.1060  -999.2500 
   73.3750   -18.9990    78.9830    11.1050    10.6840    11.6040    22.9360  -999.2500 
   73.5000   -19.0190    81.5270    10.4470     9.7310    11.1910    22.9230  -999.2500 
   73.6250   -18.8980    83.9470    10.0580     9.0890    11.1530    22.9480  -999.2500 
   73.7500   -18.7410    85.2100     9.7790     8.6580    11.0450    22.9850  -999.2500 
   73.8750   -18.5520    86.3260     9.5200     8.3490    10.8030    23.0680  -999.2500 
   74.0000   -18.3720    89.8470     9.2370     8.0880    10.2370    23.1790  -999.2500 
   74.1250   -18.2600    96.1630     8.9510     7.8420     9.3620    23.3030  -999.2500 
   74.2500   -18.2100   101.7050     8.7180     7.6240     8.8980    23.2810  -999.2500 
   74.3750   -18.2370   105.3830     8.5910     7.4720     8.9200    23.3540  -999.2500 
   74.5000   -18.4080   106.8300     8.6170     7.4380     8.9080    23.4480  -999.2500 
   74.6250   -18.7270   104.6560     8.8760     7.6060     8.9570    23.4170  -999.2500 
   74.7500   -19.1340    97.4760     9.3370     7.9730    10.0460    23.2230  -999.2500 
   74.8750   -19.6200    87.2150     9.9450     8.5050    12.0220    22.9950  -999.2500 
   75.0000   -20.1290    80.6230    10.5900     9.1170    14.8410    22.8960  -999.2500 
   75.1250   -20.6280    79.9600    11.0790     9.6520    20.6590    22.9460  -999.2500 
   75.2500   -21.1000    79.1940    11.2930     9.9810    26.6130    23.0150  -999.2500 
   75.3750   -21.5350    76.7690    11.2120    10.0490    22.2210    23.0210  -999.2500 
   75.5000   -21.9240    75.3810    10.9310     9.8990    14.9140    22.8000  -999.2500 
   75.6250   -22.1920    74.9800    10.6260     9.6410    12.6910    22.6510  -999.2500 
   75.7500   -22.4400    71.8580    10.4500     9.4290    12.4030    22.5780  -999.2500 
   75.8750   -22.6180    68.1020    10.4370     9.3270    12.3950    22.5270  -999.2500 
   76.0000   -22.7420    67.5690    10.5350     9.3330    12.3570    22.4380  -999.2500 
   76.1250   -22.7650    68.9530    10.6310     9.3780    12.2910    22.3730  -999.2500 
   76.2500   -22.7480    69.9220    10.6260     9.3630    12.2480    22.3500  -999.2500 
   76.3750   -22.7130    71.7080    10.4940     9.2390    12.0500    22.3490  -999.2500 
   76.5000   -22.6260    74.6850    10.2640     9.0060    11.7280    22.3600  -999.2500 
   76.6250   -22.5920    75.3500    10.0240     8.7120    11.0880    22.3650  -999.2500 
   76.7500   -22.5550    74.7660     9.8690     8.4530    10.3170    22.3420  -999.2500 
   76.8750   -22.5420    77.5980     9.8470     8.2920     9.8130    22.2830  -999.2500 
   77.0000   -22.5460    82.8760     9.9580     8.2660     9.8390    22.2220  -999.2500 
   77.1250   -22.6270    83.5570    10.1720     8.3850    10.6370    22.2770  -999.2500 
   77.2500   -22.7230    78.5720    10.4000     8.5850    11.2440    22.4440  -999.2500 
   77.3750   -22.8150    72.3390    10.5820     8.8090    11.6010    22.6970  -999.2500 
   77.5000   -22.8760    69.1150    10.6790     9.0040    11.7640    22.9370  -999.2500 
   77.6250   -22.8360    72.5020    10.6760     9.1170    11.9130    22.9530  -999.2500 
   77.7500   -22.7540    80.3040    10.6170     9.1440    12.1990    22.7660  -999.2500 
   77.8750   -22.6490    85.9610    10.5390     9.0970    12.3180    22.5060  -999.2500 
   78.0000   -22.5160    85.3280    10.4760     9.0000    11.8770    22.3560  -999.2500 
   78.1250   -22.3560    81.4220    10.4460     8.8940    11.6410    22.3440  -999.2500 
   78.2500   -22.2260    79.5980    10.4390     8.8240    11.6470    22.3510  -999.2500 
   78.3750   -22.0960    78.6410    10.4370     8.8090    11.7760    22.3870  -999.2500 
   78.5000   -22.0030    76.7860    10.4200     8.8430    11.8650    22.4230  -999.2500 
   78.6250   -21.9920    75.0080    10.3730     8.8880    11.8440    22.4370  -999.2500 
   78.7500   -21.9660    75.2120    10.3050     8.8940    11.7340    22.4660  -999.2500 
   78.8750   -21.9500    75.2440    10.2340     8.8390    11.6010    22.5620  -999.2500 
   79.0000   -21.9120    72.5200    10.1860     8.7320    11.4750    22.8890  -999.2500 
   79.1250   -21.9180    69.1520    10.1900     8.6220    11.4490    23.6160  -999.2500 
   79.2500   -21.8600    71.2760    10.2530     8.5710    11.5080    24.3160  -999.2500 
   79.3750   -21.7970    80.2640    10.3710     8.6130    11.6030    24.2230  -999.2500 
   79.5000   -21.7220    89.8990    10.5280     8.7430    11.6880    23.5410  -999.2500 
   79.6250   -21.6260    90.7060    10.6870     8.9210    11.7730    22.8170  -999.2500 
   79.7500   -21.5450    84.9080    10.8040     9.0820    12.0030    22.5810  -999.2500 
   79.8750   -21.4640    78.3350    10.8510     9.1950    12.2810    22.6200  -999.2500 
   80.0000   -21.4050    74.1820    10.8240     9.2500    12.3400    22.8550  -999.2500 
   80.1250   -21.2680    69.5910    10.7460     9.2520    12.2610    23.0830  -999.2500 
   80.2500   -21.1210    65.8120    10.6720     9.2190    12.0790    23.2970  -999.2500 
   80.3750   -20.9520    65.4260    10.6350     9.1550    11.8890    23.4230  -999.2500 
   80.5000   -20.7460    67.7710    10.6390     9.0690    11.6450    23.5360  -999.2500 
   80.6250   -20.5170    69.7280    10.6550     8.9860    11.3160    23.5000  -999.2500 
   80.7500   -20.2790    70.1980    10.6510     8.9340    11.1680    23.2620  -999.2500 
   80.8750   -20.0040    70.3080    10.6240     8.9370    11.1120    22.8670  -999.2500 
   81.0000   -19.6900    71.3010    10.5960     9.0010    11.0390    22.6360  -999.2500 
   81.1250   -19.3630    72.9440    10.6050     9.1170    11.0500    22.6040  -999.2500 
   81.2500   -19.0340    74.3370    10.6420     9.2340    11.0220    22.5350  -999.2500 
   81.3750   -18.7040    73.9710    10.6630     9.2970    10.9300    22.3720  -999.2500 
   81.5000   -18.3720    73.1940    10.6070     9.2580    11.1140    22.3220  -999.2500 
   81.6250   -17.9980    74.0380    10.4150     9.0760    11.2160    22.7120  -999.2500 
   81.7500   -17.5660    75.1190    10.1330     8.8030    10.9320    23.5470  -999.2500 
   81.8750   -17.1290    77.2490     9.8380     8.5080    10.1970    24.3900  -999.2500 
   82.0000   -16.7170    82.5520     9.6130     8.2710     9.3090    24.5630  -999.2500 
   82.1250   -16.3530    89.7810     9.5290     8.1720     8.9080    24.4860  -999.2500 
   82.2500   -16.0460    93.2060     9.5470     8.1890     8.8960    24.2180  -999.2500 
   82.3750   -15.7940    93.0560     9.6090     8.2700     9.0820    23.9440  -999.2500 
