~V
VERS. 2.00: Ver 2.00
~W
STRT.M 60.0000:
STOP.M 266.0000:
STEP.M 0.1250:
NULL. -999.2500:
UWI. DF3052:
~C
DEPT.M :
GR.API :
CALI.CM :
RXO.OHMM :
RI. :
RML.OHMM :
DEN.GM/CC :
SP.MV :
~A
# ...
   82.5000   106.1400    23.8810     5.0290     4.9850     5.3060  -999.2500    -9.5160 
   82.6250    99.3940    23.7150     5.4040     5.5840     6.0650  -999.2500    -9.8950 
   82.7500    95.5850    23.4760     5.9970     6.3520     6.9840  -999.2500   -10.2610 
   82.8750    94.6360    23.2770     6.5590     7.0610     7.8150  -999.2500   -10.6130 
   83.0000    94.5550    23.2190     6.8320     7.5480     8.3590  -999.2500   -10.9240 
   83.1250    93.9090    23.2870     6.7610     7.7090     8.5120  -999.2500   -11.1840 
   83.2500    92.4410    23.3180     6.5950     7.6340     8.3840  -999.2500   -11.4980 
   83.3750    90.9890    23.2380     6.5780     7.4330     8.1270  -999.2500   -11.8600 
   83.5000    91.1440    23.0860     6.7990     7.2780     7.9530  -999.2500   -12.1930 
   83.6250    92.0960    22.9500     7.0330     7.3860     8.0930  -999.2500   -12.5590 
   83.7500    90.8860    22.8590     7.0440     7.8280     8.6250  -999.2500   -12.9730 
   83.8750    86.8960    22.8200     6.9470     8.6410     9.5670  -999.2500   -13.4300 
   84.0000    81.9190    22.8570     7.5420     9.7780    10.8330  -999.2500   -13.9440 
   84.1250    77.9930    22.9800    10.4850    11.0140    12.1210  -999.2500   -14.4750 
   84.2500    75.8070    23.0870    15.1810    11.9410    13.0160  -999.2500   -14.9650 
   84.3750    75.3130    23.0820    18.4430    12.2940    13.2440  -999.2500   -15.4550 
   84.5000    75.4960    22.9610    17.7840    11.9930    12.7170  -999.2500   -15.9550 
   84.6250    75.2550    22.8400    14.9860    11.0770    11.5790  -999.2500   -16.3780 
   84.7500    75.1070    22.8120    13.4190     9.9240    10.2720  -999.2500   -16.7410 
   84.8750    75.6050    22.8590    12.4590     8.7880     9.0760  -999.2500   -17.0570 
   85.0000    76.1320    22.9210    10.9150     7.8720     8.1780  -999.2500   -17.2930 
   85.1250    74.8110    22.9620     9.3660     7.3500     7.7360  -999.2500   -17.4580 
   85.2500    71.9950    22.9470     8.6880     7.1780     7.6520  -999.2500   -17.5600 
   85.3750    69.9150    22.8360     8.5380     7.2390     7.7860  -999.2500   -17.6090 
   85.5000    70.3910    22.6760     8.4500     7.3890     7.9920  -999.2500   -17.6800 
   85.6250    73.1940    22.5570     8.1730     7.5190     8.1660  -999.2500   -17.8210 
   85.7500    75.9210    22.4880     7.8120     7.6070     8.2890  -999.2500   -17.9940 
   85.8750    76.9750    22.4370     7.4990     7.6640     8.3630  -999.2500   -18.1810 
   86.0000    75.9570    22.3960     7.3090     7.7040     8.4290  -999.2500   -18.3720 
   86.1250    74.2670    22.3930     7.2830     7.7490     8.4910  -999.2500   -18.5350 
   86.2500    73.7900    22.4070     7.3530     7.7980     8.5410  -999.2500   -18.6860 
   86.3750    74.3950    22.4160     7.4720     7.8490     8.6050  -999.2500   -18.8080 
   86.5000    74.3560    22.4110     7.5970     7.8990     8.6970  -999.2500   -18.8480 
   86.6250    72.2110    22.3910     7.6740     7.9250     8.7550  -999.2500   -18.8320 
   86.7500    69.1970    22.3670     7.6320     7.9080     8.7600  -999.2500   -18.8130 
   86.8750    66.9310    22.3510     7.4590     7.8490     8.7230  -999.2500   -18.8030 
   87.0000    66.5720    22.3590     7.2630     7.7690     8.6380  -999.2500   -18.8410 
   87.1250    68.1930    22.4110     7.2010     7.6880     8.5290  -999.2500   -18.9360 
   87.2500    70.3990    22.4680     7.2920     7.6240     8.4480  -999.2500   -19.0890 
   87.3750    72.4270    22.4760     7.4350     7.5840     8.3760  -999.2500   -19.3220 
   87.5000    74.4880    22.4080     7.5070     7.5680     8.3260  -999.2500   -19.6150 
   87.6250    77.0650    22.2870     7.4870     7.5870     8.3390  -999.2500   -19.9390 
   87.7500    79.4340    22.1760     7.4300     7.6350     8.3940  -999.2500   -20.2840 
   87.8750    80.2580    22.0750     7.3610     7.6850     8.4500  -999.2500   -20.5830 
   88.0000    79.4180    21.9920     7.2770     7.7110     8.4810  -999.2500   -20.8020 
   88.1250    77.9510    21.9730     7.2290     7.7020     8.4870  -999.2500   -20.9160 
   88.2500    76.4170    22.0010     7.2810     7.6740     8.4660  -999.2500   -20.9540 
   88.3750    74.9700    22.0010     7.4000     7.6350     8.4320  -999.2500   -20.9390 
   88.5000    74.3300    21.9330     7.4780     7.5970     8.3930  -999.2500   -20.9350 
   88.6250    74.7030    21.8400     7.4540     7.5790     8.3400  -999.2500   -20.9550 
   88.7500    74.6050    21.7900     7.4300     7.5820     8.3200  -999.2500   -20.9600 
   88.8750    73.8150    21.8190     7.4670     7.6070     8.3280  -999.2500   -20.9740 
   89.0000    73.8270    21.9490     7.5250     7.6430     8.3490  -999.2500   -20.9600 
   89.1250    75.2810    22.1500     7.5120     7.6590     8.3380  -999.2500   -20.8620 
   89.2500    76.5490    22.3270     7.4160     7.6270     8.2760  -999.2500   -20.6810 
   89.3750    77.2890    22.4540     7.2970     7.5370     8.1610  -999.2500   -20.3380 
   89.5000    77.9250    22.5490     7.2540     7.3980     8.0020  -999.2500   -19.7670 
   89.6250    78.4050    22.6550     7.3310     7.2300     7.8320  -999.2500   -18.9190 
   89.7500    78.8030    22.8300     7.4380     7.0660     7.6730  -999.2500   -17.9180 
   89.8750    79.9140    23.0730     7.3700     6.9320     7.5540  -999.2500   -16.8700 
   90.0000    81.6940    23.2870     7.1230     6.8490     7.5000  -999.2500   -15.8530 
   90.1250    81.8450    23.3520     7.0060     6.8090     7.4730  -999.2500   -14.9380 
   90.2500    80.6170    23.3560     7.2160     6.7810     7.4510  -999.2500   -14.1050 
   90.3750    80.5790    23.4230     7.6060     6.7290     7.3860  -999.2500   -13.4010 
   90.5000    83.0130    23.5520     7.9700     6.6210     7.2410  -999.2500   -12.8840 
   90.6250    85.3000    23.5970     8.1390     6.4290     6.9970  -999.2500   -12.6190 
   90.7500    85.2800    23.5320     7.7580     6.1880     6.7080  -999.2500   -12.4940 
   90.8750    84.6580    23.4630     7.0000     5.9550     6.4500  -999.2500   -12.4210 
   91.0000    85.4820    23.4540     6.3970     5.7580     6.2440  -999.2500   -12.3580 
   91.1250    87.6340    23.4420     6.2020     5.6210     6.1000  -999.2500   -12.2910 
   91.2500    89.9650    23.4060     6.2180     5.5190     5.9850  -999.2500   -12.2050 
   91.3750    93.2260    23.4290     6.1720     5.4210     5.8670  -999.2500   -12.1100 
   91.5000    97.9870    23.5720     5.9720     5.3040     5.7310  -999.2500   -12.0150 
   91.6250   102.8810    23.8120     5.6040     5.1490     5.5660  -999.2500   -11.9200 
   91.7500   106.3750    24.0440     5.2260     4.9670     5.3870  -999.2500   -11.8250 
   91.8750   108.4640    24.2080     4.9250     4.7810     5.2290  -999.2500   -11.7250 
   92.0000   108.8370    24.2870     4.7950     4.6350     5.1350  -999.2500   -11.6150 
   92.1250   106.0350    24.2360     4.8630     4.5930     5.1750  -999.2500   -11.5680 
   92.2500   101.7090    24.0420     5.0640     4.6470     5.3130  -999.2500   -11.6720 
   92.3750    98.2230    23.7490     5.3090     4.7830     5.5250  -999.2500   -11.9340 
   92.5000    95.9610    23.4890     5.4660     4.9760     5.7870  -999.2500   -12.3200 
   92.6250    93.4170    23.3750     5.4560     5.2160     6.0990  -999.2500   -12.7920 
   92.7500    89.6570    23.3460     5.3670     5.4790     6.4200  -999.2500   -13.2870 
   92.8750    84.9050    23.3440     5.4260     5.7310     6.7090  -999.2500   -13.7770 
   93.0000    80.5630    23.3470     5.7780     5.9430     6.9260  -999.2500   -14.2350 
   93.1250    79.6320    23.3510     6.3540     6.0800     7.0350  -999.2500   -14.5760 
   93.2500    82.3640    23.3480     6.7650     6.1300     7.0330  -999.2500   -14.7300 
   93.3750    86.2090    23.3580     6.7690     6.0840     6.9310  -999.2500   -14.7220 
   93.5000    88.8250    23.3930     6.3330     5.9700     6.7600  -999.2500   -14.5970 
   93.6250    90.7490    23.4120     5.8340     5.8230     6.5630  -999.2500   -14.4450 
