~V
VERS. 2.00: Ver 2.00
~W
STRT.M 56.0000:
STOP.M 260.0000:
STEP.M 0.1250:
NULL. -999.2500:
UWI. DF3033:
~C
DEPT.M :
GR.API :
RML.OHMM :
RI. :
RXO.OHMM :
CALI.CM :
DEN.GM/CC :
SP.MV :
~A
# ...
  224.7500    64.5620   139.9650   128.0380   141.8300    25.0280     2.2070   -35.2170 
  224.8750    67.6710   145.5110   132.4240   152.0860    25.0180     2.2100   -35.7600 
  225.0000    70.7380   144.3960   131.0300   149.6940    24.9460     2.2120   -36.3400 
  225.1250    68.8930   138.1290   125.0990   145.3690    24.8920     2.2130   -37.0380 
  225.2500    64.6510   131.1030   118.3390   135.8110    24.8470     2.2110   -37.7620 
  225.3750    62.8460   125.8230   112.9380   123.1330    24.8120     2.2060   -38.4830 
  225.5000    64.4160   123.3980   109.9560   114.0150    24.7960     2.1990   -39.1720 
  225.6250    64.4720   124.0280   109.6960   111.2890    24.7970     2.1930   -39.7750 
  225.7500    63.3680   126.0540   110.8370   120.0800    24.8050     2.1880   -40.2400 
  225.8750    63.6770   127.9720   112.1670   134.2080    24.8240     2.1860   -40.5410 
  226.0000    64.6070   128.3300   112.4610   142.5660    24.8480     2.1850   -40.6430 
  226.1250    65.1880   125.6920   110.4090   135.8560    24.8570     2.1850   -40.4310 
  226.2500    66.7680   120.4790   106.1410   125.5220    24.8420     2.1860   -40.0330 
  226.3750    70.9480   113.5200   100.2230   115.6090    24.8010     2.1910   -39.2590 
  226.5000    73.9860   106.0640    93.6780   105.2970    24.7520     2.2020   -38.3420 
  226.6250    73.5350    99.6450    87.8640    96.0120    24.7150     2.2190   -37.1350 
  226.7500    73.0520    95.0580    83.5680    88.7510    24.6690     2.2350   -35.8210 
  226.8750    73.6310    92.6180    81.0870    82.4300    24.6300     2.2430   -34.3840 
  227.0000    74.3440    92.2220    80.3250    78.7930    24.6170     2.2410   -32.9650 
  227.1250    73.8650    93.6060    81.0550    81.4910    24.6290     2.2300   -31.5980 
  227.2500    71.7880    95.8350    82.5020    85.0690    24.6580     2.2190   -30.3340 
  227.3750    69.0310    98.3500    84.2190    88.7470    24.6940     2.2120   -29.3500 
  227.5000    67.9540   100.7000    85.8450    89.6090    24.7110     2.2100   -28.5520 
  227.6250    70.4810   102.4090    86.9970    88.5580    24.7200     2.2100   -27.9680 
  227.7500    72.6280   103.2890    87.4980    88.6310    24.7050     2.2070   -27.5150 
  227.8750    71.8700   103.2250    87.2420    89.0890    24.6620     2.2020   -27.2080 
  228.0000    68.7350   102.3300    86.3120    88.4510    24.6190     2.1940   -26.9650 
  228.1250    66.9180   101.1850    85.1770    85.3140    24.5580     2.1880   -26.8050 
  228.2500    68.6150   100.9100    84.7630    79.4940    24.4430     2.1870   -26.6080 
  228.3750    71.9720   102.4740    85.9050    74.6500    24.2740     2.2000   -26.3790 
  228.5000    73.6920   106.3150    89.0340    78.2170    24.1270     2.2370   -26.0130 
  228.6250    70.0770   112.2130    94.0220    88.9030    24.0140     2.3110   -25.6190 
  228.7500    65.6530   118.5250    99.4560   101.9860    23.9540     2.4160   -25.1430 
  228.8750    65.7310   123.7130   104.0060   122.8690    23.9330     2.5350   -24.6760 
  229.0000    70.9580   126.2080   106.3240   149.7850    24.0170     2.6380   -24.1700 
  229.1250    76.6110   123.8620   104.5540   142.7370    24.1710     2.6850   -23.6830 
  229.2500    78.7810   116.3730    98.4610   123.2880    24.2840     2.6800   -23.2360 
  229.3750    80.0070   103.2260    87.8070   116.0410    24.3190     2.6420   -22.7480 
  229.5000    82.5080    85.0440    73.0560   101.4670    24.3150     2.5970   -22.3750 
  229.6250    83.5750    63.8170    55.8990    70.6640    24.3760     2.5680   -21.9700 
  229.7500    81.8370    44.2850    39.8340    47.0430    24.4110     2.5560   -21.7500 
  229.8750    78.0930    28.8510    27.0910    26.9830    24.4510     2.5520   -21.5620 
  230.0000    76.9930    18.2380    18.3840    17.7610    24.4300     2.5440   -21.4780 
  230.1250    81.0840    13.8040    13.5850    13.6070    24.4660     2.5190   -21.3910 
  230.2500    84.9210    11.6150    11.0140    11.5870    24.5630     2.4850   -21.3470 
  230.3750    85.4950    10.8010     9.8620    10.7660    24.6660     2.4530   -21.3580 
  230.5000    84.5220    10.7290     9.5740    11.0820    24.7170     2.4320   -21.4110 
  230.6250    87.0390    10.9560     9.7990    10.6240    24.7270     2.4270   -21.5900 
  230.7500    91.2140    11.1450    10.1460    10.1460    24.7190     2.4290   -21.7280 
  230.8750    94.0240    11.1970    10.4290     9.8090    24.7020     2.4320   -21.8860 
  231.0000    96.4060    11.1250    10.5640     9.6860    24.6860     2.4290   -22.0520 
  231.1250   104.2250    10.9880    10.5420     9.7760    24.6780     2.4190   -22.2960 
  231.2500   115.5680    10.8480    10.4440     9.8080    24.6700     2.4070   -22.6170 
  231.3750   122.1820    10.7300    10.3220     9.7800    24.6500     2.3980   -23.0510 
  231.5000   121.0510    10.6630    10.2170     9.6440    24.6300     2.3950   -23.5410 
  231.6250   117.7000    10.6990    10.1630     9.5280    24.6200     2.4000   -24.1160 
  231.7500   116.9130    10.8420    10.1630     9.6120    24.6150     2.4060   -24.7190 
  231.8750   116.0160    11.0760    10.2090     9.8600    24.5980     2.4090   -25.3590 
  232.0000   112.7690    11.3600    10.2820    10.1730    24.5570     2.4080   -25.9520 
  232.1250   110.6490    11.6400    10.3560    10.4900    24.4950     2.4020   -26.5730 
  232.2500   111.3850    11.8770    10.4110    10.7720    24.5220     2.3950   -27.1000 
  232.3750   111.7300    12.0480    10.4440    10.9440    24.6490     2.3890   -27.6310 
  232.5000   110.1600    12.1370    10.4650    11.0940    24.8050     2.3840   -28.1550 
  232.6250   108.8970    12.1500    10.5020    11.1090    24.8740     2.3790   -28.5610 
  232.7500   111.1590    12.1590    10.5870    11.1120    24.9090     2.3720   -28.9920 
  232.8750   113.4780    12.2450    10.7440    11.0070    24.9400     2.3670   -29.3350 
  233.0000   112.8800    12.4710    10.9880    10.9550    24.9280     2.3650   -29.6940 
  233.1250   110.4780    12.8760    11.3240    11.3970    24.8600     2.3710   -29.9060 
  233.2500   108.0430    13.3880    11.7150    12.1980    24.7800     2.3800   -30.1330 
  233.3750   105.0860    13.9400    12.1220    12.9970    24.7380     2.3880   -30.2320 
  233.5000   101.2890    14.4690    12.4990    13.3560    24.7280     2.3910   -30.2490 
  233.6250    97.0300    14.8780    12.7610    13.4790    24.7270     2.3900   -30.1790 
  233.7500    94.0590    15.0890    12.8420    13.4790    24.7180     2.3850   -30.0020 
  233.8750    92.7270    15.0150    12.6840    13.5370    24.6920     2.3760   -29.7790 
  234.0000    94.4560    14.6150    12.2720    13.7550    24.6770     2.3650   -29.5230 
  234.1250    99.4240    13.9290    11.6520    13.6040    24.7360     2.3540   -29.2590 
  234.2500   105.2380    13.2720    11.0510    13.1080    24.8130     2.3480   -28.9980 
  234.3750   112.0520    13.0270    10.7240    12.9710    24.8080     2.3500   -28.8010 
  234.5000   118.9540    13.6280    10.9750    13.7320    24.7570     2.3570   -28.7110 
  234.6250   118.3480    15.6840    12.2980    15.3770    24.7260     2.3640   -28.8040 
  234.7500   109.6810    19.0890    14.7540    18.9480    24.6910     2.3670   -29.0010 
  234.8750   100.3870    23.4950    18.2420    25.7990    24.6170     2.3640   -29.3030 
  235.0000    95.0580    28.1110    22.2740    32.6680    24.5280     2.3550   -29.6940 
  235.1250    89.1940    31.5570    25.7810    36.9320    24.4910     2.3370   -30.1820 
  235.2500    83.2930    33.0470    27.8240    37.0830    24.5450     2.3140   -30.7190 
  235.3750    82.0170    32.3910    28.0570    35.1730    24.5950     2.2880   -31.2470 
  235.5000    83.6150    30.4210    26.9460    31.0870    24.6140     2.2640   -31.6100 
  235.6250    86.6360    28.9330    25.7540    29.9250    24.6100     2.2470   -31.9400 
  235.7500    92.4960    29.6980    25.8710    31.2120    24.5900     2.2370   -32.1930 
  235.8750    96.8720    33.9580    28.2810    34.8740    24.5600     2.2350   -32.4600 
