~V
VERS. 2.00: Ver 2.00
~W
STRT.M 60.0000:
STOP.M 254.0000:
STEP.M 0.1250:
NULL. -999.2500:
UWI. DF3029:
~C
DEPT.M :
SP.MV :
GR.API :
RML.OHMM :
RI. :
RXO.OHMM :
CALI.CM :
DEN.GM/CC :
~A
# ...
  138.7500   -19.6110    67.0860    19.3170    16.6260    14.5190    22.0700     2.5180 
  138.8750   -19.2350    62.0160    21.4420    18.5530    16.2750    22.2710     2.5510 
  139.0000   -18.7990    58.4070    23.4430    20.3350    18.4970    22.6080     2.5900 
  139.1250   -18.5580    58.3570    25.0210    21.7360    20.6110    22.7860     2.6280 
  139.2500   -18.3230    59.7480    25.9550    22.5900    22.2180    22.8390     2.6520 
  139.3750   -18.1700    59.0140    26.1200    22.7880    22.7410    22.8390     2.6580 
  139.5000   -18.0360    56.2650    25.6300    22.4110    22.7910    22.8510     2.6490 
  139.6250   -17.9850    55.2850    24.8290    21.7220    21.8760    22.9060     2.6350 
  139.7500   -17.9870    55.5000    24.1860    21.1160    20.3610    23.0080     2.6250 
  139.8750   -17.9290    54.6810    23.9280    20.7930    19.4450    23.1170     2.6220 
  140.0000   -17.9560    52.4050    24.0830    20.8110    19.7950    23.2210     2.6240 
  140.1250   -17.8700    51.1930    24.5210    21.1130    20.9170    23.3230     2.6240 
  140.2500   -17.8710    51.1570    24.9230    21.4680    21.7740    23.4020     2.6220 
  140.3750   -17.8770    51.8340    25.0450    21.6790    21.5900    23.4610     2.6190 
  140.5000   -17.9080    53.5940    24.7130    21.5880    21.7590    23.5140     2.6180 
  140.6250   -17.9580    57.0410    23.8070    21.0630    22.0070    23.5910     2.6190 
  140.7500   -17.9050    60.3660    22.5580    20.2400    21.6210    23.6570     2.6170 
  140.8750   -17.8880    63.2690    21.2140    19.2840    20.5950    23.7290     2.6120 
  141.0000   -17.9200    66.5950    20.0610    18.4050    18.8130    23.8380     2.6040 
  141.1250   -17.9640    68.9370    19.4410    17.8670    16.8590    23.9050     2.5960 
  141.2500   -18.0110    67.8570    19.3830    17.7420    15.6040    23.9360     2.5910 
  141.3750   -18.0630    65.4800    19.7980    18.0120    15.1160    23.9600     2.5900 
  141.5000   -18.0600    65.2320    20.4580    18.5380    15.2600    24.0150     2.5920 
  141.6250   -18.0020    64.5980    21.0040    19.0600    16.5610    24.0600     2.5950 
  141.7500   -18.0050    60.7320    21.1670    19.3160    18.0740    24.0950     2.5970 
  141.8750   -18.0820    57.6760    20.8560    19.1790    18.6350    24.1070     2.5950 
  142.0000   -18.0480    59.4460    20.1530    18.6700    18.6210    24.1090     2.5880 
  142.1250   -18.0860    62.4440    19.2790    17.9410    18.4250    24.1040     2.5750 
  142.2500   -18.0850    60.9490    18.5330    17.2660    17.9580    24.0890     2.5600 
  142.3750   -18.1060    57.9100    18.0900    16.8150    17.3250    24.0540     2.5470 
  142.5000   -18.1640    57.5100    18.0210    16.6770    16.7390    24.0060     2.5380 
  142.6250   -18.1820    58.9020    18.3350    16.8890    16.1990    23.9420     2.5380 
  142.7500   -18.2770    58.3600    18.8130    17.2830    16.2770    23.9100     2.5440 
  142.8750   -18.2980    57.4010    19.2630    17.7020    17.3370    23.8890     2.5500 
  143.0000   -18.4140    58.0920    19.5290    18.0000    18.5080    23.8570     2.5520 
  143.1250   -18.4780    60.5060    19.5210    18.0800    18.9500    23.8400     2.5470 
  143.2500   -18.6000    64.2920    19.3740    18.0230    19.6280    23.8330     2.5400 
  143.3750   -18.7220    66.9880    19.2400    17.9420    18.6200    23.8230     2.5350 
  143.5000   -18.8480    65.8470    19.2520    17.9470    17.3280    23.7910     2.5360 
  143.6250   -19.0690    62.4930    19.4870    18.1150    16.8550    23.7570     2.5400 
  143.7500   -19.2050    61.5890    19.8630    18.4010    17.3520    23.7560     2.5450 
  143.8750   -19.3950    61.9400    20.3110    18.7590    18.3860    23.8240     2.5480 
  144.0000   -19.5430    60.6190    20.7900    19.1510    19.3360    23.9560     2.5480 
  144.1250   -19.6410    58.5480    21.2910    19.5650    19.9600    24.0340     2.5460 
  144.2500   -19.7480    57.3410    21.8000    19.9890    20.5870    24.0250     2.5430 
  144.3750   -19.8130    57.2020    22.2600    20.3880    21.0510    23.9720     2.5400 
  144.5000   -19.8910    57.8290    22.5690    20.6860    21.3780    23.9380     2.5380 
  144.6250   -19.9610    57.6020    22.5820    20.7560    21.6960    23.9330     2.5390 
  144.7500   -20.0130    55.0840    22.3330    20.6010    21.8160    23.9380     2.5420 
  144.8750   -20.0100    52.6480    21.9240    20.2830    20.8030    23.9380     2.5460 
  145.0000   -19.9040    54.7260    21.5090    19.9230    19.8990    23.9350     2.5480 
  145.1250   -19.9480    60.5330    21.2630    19.6740    18.6890    23.9490     2.5470 
  145.2500   -19.9370    64.0240    21.2170    19.5910    18.7600    23.9900     2.5430 
  145.3750   -19.9130    63.2140    21.3360    19.6650    19.4440    24.0410     2.5370 
  145.5000   -19.8670    60.9740    21.5420    19.8430    19.8960    24.0810     2.5320 
  145.6250   -19.7330    62.8470    21.7370    20.0470    20.5510    24.0770     2.5300 
  145.7500   -19.6750    67.8780    21.8510    20.1980    20.6930    24.0620     2.5310 
  145.8750   -19.5750    73.0330    21.8560    20.2620    20.2570    24.0810     2.5340 
  146.0000   -19.5920    75.9330    21.7640    20.2340    19.6240    24.1430     2.5380 
  146.1250   -19.4880    75.9390    21.6000    20.1250    19.2850    24.2000     2.5420 
  146.2500   -19.4210    74.2190    21.4110    19.9790    19.3870    24.2220     2.5450 
  146.3750   -19.3910    71.8610    21.2180    19.8200    19.3590    24.2260     2.5460 
  146.5000   -19.3910    70.7750    21.0390    19.6680    18.9520    24.2230     2.5480 
  146.6250   -19.4240    70.5360    20.8990    19.5450    18.6950    24.2010     2.5510 
  146.7500   -19.3880    69.0200    20.8100    19.4600    18.5810    24.1610     2.5530 
  146.8750   -19.4520    67.6150    20.7800    19.4180    18.4390    24.1400     2.5510 
  147.0000   -19.4700    68.8480    20.7930    19.4060    18.6670    24.1630     2.5440 
  147.1250   -19.5360    72.2270    20.8010    19.3890    18.3610    24.2180     2.5300 
  147.2500   -19.6320    74.2000    20.7510    19.3270    18.3790    24.2660     2.5140 
  147.3750   -19.6960    73.9090    20.6160    19.1920    18.3790    24.3010     2.5020 
  147.5000   -19.7690    72.4540    20.4020    18.9840    18.6130    24.3050     2.4970 
  147.6250   -19.8560    72.7460    20.1560    18.7330    18.6640    24.2760     2.5010 
  147.7500   -19.9250    74.9480    19.9780    18.5210    18.5530    24.2300     2.5090 
  147.8750   -20.0120    75.7730    19.9540    18.4290    18.5070    24.2140     2.5170 
  148.0000   -20.0680    73.0510    20.1460    18.5180    18.3640    24.2840     2.5220 
  148.1250   -20.0840    70.7780    20.5930    18.8400    18.2210    24.3480     2.5220 
  148.2500   -20.0190    72.0230    21.1860    19.3150    18.4380    24.3650     2.5180 
  148.3750   -20.0060    74.3980    21.8160    19.8550    18.9820    24.3410     2.5100 
  148.5000   -20.0010    74.8990    22.3550    20.3520    20.1100    24.3210     2.4970 
  148.6250   -19.9770    73.7350    22.6420    20.6580    21.0960    24.3110     2.4850 
  148.7500   -20.0230    73.2320    22.6470    20.7230    20.9450    24.2890     2.4790 
  148.8750   -19.9400    72.5050    22.3930    20.5460    20.3280    24.2280     2.4840 
  149.0000   -19.9580    71.1250    21.9750    20.1960    20.5350    24.1440     2.4990 
  149.1250   -19.9870    68.8320    21.5470    19.7950    21.0260    24.0720     2.5170 
  149.2500   -20.0380    66.4790    21.2490    19.4750    20.1290    23.9950     2.5290 
  149.3750   -20.0650    66.3670    21.1310    19.2930    18.9090    23.9430     2.5320 
  149.5000   -20.1110    67.6030    21.1700    19.2470    18.4140    23.9250     2.5260 
  149.6250   -20.1860    68.4090    21.2920    19.2960    18.7010    23.9110     2.5130 
  149.7500   -20.2640    68.5160    21.3950    19.3600    18.8660    23.8670     2.4970 
  149.8750   -20.4650    69.3770    21.4330    19.3960    18.5360    23.8130     2.4830 
