~V
VERS. 2.00: Ver 2.00
~W
STRT.M 61.0000:
STOP.M 318.0000:
STEP.M 0.1250:
NULL. -999.2500:
UWI. DF302:
~C
DEPT.M :
DEN.GM/CC :
SP.MV :
AC.US/MT :
GR.API :
CALI.CM :
RXO.OHMM :
RI. :
RML.OHMM :
~A
# ...
  181.0000     2.2960   -16.4600   414.0890    93.3400    24.4920     5.0150     5.0730     5.4810 
  181.1250     2.2980   -16.3370   401.8750    93.9300    24.8070     5.1670     5.0880     5.5320 
  181.2500     2.2930   -16.2460   389.0130    90.9200    24.9030     5.4560     5.0850     5.5190 
  181.3750     2.2880   -16.2000   381.8930    88.4470    24.7620     5.6190     5.0380     5.3920 
  181.5000     2.2920   -16.2080   384.8160    90.6470    24.5690     5.4780     4.9500     5.1780 
  181.6250     2.3050   -16.2970   394.5340    93.7040    24.5910     5.1830     4.8660     5.0010 
  181.7500     2.3150   -16.4620   404.2570    93.5360    24.7570     5.1290     4.8470     4.9780 
  181.8750     2.3140   -16.6790   406.6440    91.9080    24.8650     5.4570     4.9280     5.1460 
  182.0000     2.2970   -16.9040   404.8470    92.3160    24.7820     6.0720     5.1110     5.4670 
  182.1250     2.2700   -17.0750   401.9260    92.7260    24.5400     6.6710     5.3560     5.8190 
  182.2500     2.2430   -17.1770   399.4200    89.0470    24.3210     6.9070     5.5670     6.0430 
  182.3750     2.2300   -17.1870   397.2710    83.1860    24.2580     6.6640     5.6730     6.0640 
  182.5000     2.2370   -17.1130   395.1600    80.9380    24.3750     6.1190     5.6440     5.8980 
  182.6250     2.2580   -16.9700   393.4200    87.2350    24.5580     5.5950     5.4820     5.6020 
  182.7500     2.2850   -16.7740   393.9180    94.8860    24.6980     5.2270     5.2450     5.2580 
  182.8750     2.3120   -16.5320   398.4330    97.9910    24.7480     4.9260     4.9730     4.9040 
  183.0000     2.3390   -16.2680   406.9420    98.7060    24.6630     4.5810     4.7070     4.5790 
  183.1250     2.3600   -16.0090   416.6000   101.5760    24.4730     4.2500     4.4900     4.3500 
  183.2500     2.3770   -15.7770   422.5420   103.5200    24.3000     4.1080     4.3420     4.2390 
  183.3750     2.3890   -15.5860   422.3710   101.7870    24.1690     4.2290     4.2570     4.2260 
  183.5000     2.3930   -15.4220   417.6250   100.3820    24.0270     4.5660     4.2040     4.2350 
  183.6250     2.3920   -15.2550   412.7160   102.5600    23.8810     4.9800     4.1420     4.1620 
  183.7500     2.3930   -15.0790   409.9360   100.8370    23.8940     5.2470     4.0790     4.0360 
  183.8750     2.4010   -14.9220   406.2400    93.2590    24.1580     5.3510     4.0930     4.0120 
  184.0000     2.4160   -14.8200   394.9670    85.5360    24.5790     5.7510     4.3200     4.3370 
  184.1250     2.4450   -14.8190   367.1540    81.2180    24.8910     8.0650     5.0690     5.4580 
  184.2500     2.4850   -14.9480   326.1980    74.9640    24.9850    14.2950     6.5950     7.6360 
  184.3750     2.5270   -15.2280   281.4700    66.9490    24.9570    26.7480     9.2130    11.1860 
  184.5000     2.5630   -15.6660   246.4200    62.3510    24.9080    43.2480    12.9590    16.0350 
  184.6250     2.5800   -16.2840   236.9690    63.2040    24.8630    49.0780    16.5670    20.2130 
  184.7500     2.5630   -17.0170   252.2260    63.7460    24.7520    39.6590    17.7710    20.7690 
  184.8750     2.4950   -17.8270   285.2030    62.5010    24.4620    24.6280    16.1860    17.8390 
  185.0000     2.3860   -18.6460   324.2860    62.1910    24.0010    14.4510    13.4250    14.0700 
  185.1250     2.2820   -19.4350   357.0410    65.1060    23.5950    10.7270    11.1140    11.4660 
  185.2500     2.2190   -20.1430   378.6650    67.4270    23.4200     9.6740     9.6060    10.0510 
  185.3750     2.1970   -20.7450   389.7570    65.8280    23.4150     9.5440     8.8030     9.5390 
  185.5000     2.2010   -21.2210   393.8580    63.6520    23.4270     9.5360     8.5320     9.6250 
  185.6250     2.2060   -21.5690   394.7140    64.5960    23.3830     9.4930     8.6320    10.0180 
  185.7500     2.2020   -21.8290   394.4790    66.6950    23.3310     9.4760     8.8400    10.4020 
  185.8750     2.1960   -22.0190   393.1080    65.5190    23.3300     9.5070     9.0300    10.6610 
  186.0000     2.2000   -22.1600   390.7040    61.4020    23.4050     9.6180     9.1540    10.7860 
  186.1250     2.2160   -22.2630   388.2670    61.5930    23.4880     9.8090     9.2130    10.8100 
  186.2500     2.2260   -22.3380   387.1950    65.4260    23.5220    10.0070     9.2470    10.8050 
  186.3750     2.2200   -22.3800   387.7380    66.2280    23.5480    10.1610     9.2790    10.8140 
  186.5000     2.2040   -22.3990   388.7080    61.7200    23.6170    10.2520     9.3180    10.8530 
  186.6250     2.1930   -22.3870   388.3420    58.8430    23.6640    10.3170     9.3500    10.9060 
  186.7500     2.1930   -22.3700   386.4810    60.9640    23.5700    10.4380     9.3610    10.9460 
  186.8750     2.1960   -22.3680   384.4180    64.1780    23.3550    10.5790     9.3430    10.9560 
  187.0000     2.1960   -22.4080   383.2470    65.0810    23.1510    10.6100     9.3060    10.9430 
  187.1250     2.1900   -22.5150   383.9000    65.1700    23.0740    10.4890     9.2700    10.9340 
  187.2500     2.1860   -22.6900   386.5760    66.1340    23.0570    10.4620     9.2550    10.9520 
  187.3750     2.1850   -22.9320   391.1860    68.1100    23.0440    10.6940     9.2630    10.9990 
  187.5000     2.1900   -23.2150   396.9680    69.0600    23.0480    11.0630     9.2850    11.0610 
  187.6250     2.1990   -23.5280   402.1030    67.5390    23.1100    11.1780     9.2930    11.0910 
  187.7500     2.2050   -23.8150   405.4550    65.4780    23.2250    10.9540     9.2540    11.0270 
  187.8750     2.2050   -24.0440   406.6030    64.3800    23.3780    10.6340     9.1450    10.8210 
  188.0000     2.1990   -24.1630   406.0040    64.9020    23.5180    10.4980     8.9640    10.4750 
  188.1250     2.1950   -24.1040   405.3670    66.7540    23.5930    10.5950     8.7610    10.1060 
  188.2500     2.2000   -23.8770   404.7770    66.6050    23.6530    10.7290     8.6720     9.9750 
  188.3750     2.2150   -23.4700   401.3800    65.0000    23.7490    10.8890     8.8570    10.3360 
  188.5000     2.2420   -22.8820   390.9760    65.2360    23.8540    11.3470     9.4560    11.3420 
  188.6250     2.2970   -22.1040   369.6590    65.8680    23.8800    13.2830    10.5440    12.9830 
  188.7500     2.3790   -21.2150   342.9000    65.4840    23.8620    17.8040    11.7540    14.6130 
  188.8750     2.4690   -20.2610   319.7690    66.3890    23.8990    23.0390    12.4900    15.3040 
  189.0000     2.5270   -19.3040   310.3340    70.4600    24.0440    23.0570    12.1460    14.2910 
  189.1250     2.5130   -18.4030   321.2890    75.6470    24.2370    15.8460    10.6040    11.7530 
  189.2500     2.4510   -17.5790   343.3060    81.3180    24.2960     9.0750     8.7800     9.1340 
  189.3750     2.3790   -16.8630   366.7250    86.6000    24.2390     6.2190     7.2300     7.1300 
  189.5000     2.3330   -16.2850   384.3550    88.0040    24.2580     5.6480     6.1570     5.9020 
  189.6250     2.3310   -15.7990   392.9770    85.6450    24.4890     5.6590     5.6140     5.4190 
  189.7500     2.3530   -15.3450   396.3300    85.0330    24.7660     5.6820     5.4120     5.3520 
  189.8750     2.3770   -15.1640   397.0580    88.2560    24.9480     5.7390     5.4350     5.5110 
  190.0000     2.3830   -15.0120   396.0080    93.4620    25.0330     5.8270     5.5750     5.7510 
  190.1250     2.3640   -14.8820   393.2600    94.4610    25.0610     5.9170     5.7490     5.9760 
  190.2500     2.3410   -14.7580   390.8760    91.7670    25.0640     5.9880     5.9000     6.1360 
  190.3750     2.3350   -14.6340   390.6020    91.1150    25.0370     6.0330     5.9930     6.1990 
  190.5000     2.3500   -14.5300   392.7150    96.7080    24.9680     6.0550     6.0080     6.1440 
  190.6250     2.3690   -14.4450   395.5650   102.8150    24.9240     6.0520     5.9270     5.9620 
  190.7500     2.3710   -14.3950   396.8740   102.7880    24.9560     6.0060     5.7840     5.7260 
  190.8750     2.3560   -14.3800   395.7950    98.1430    25.0240     5.9220     5.6170     5.4930 
