~V
VERS. 2.00: Ver 2.00
~W
STRT.M 65.0000:
STOP.M 252.0000:
STEP.M 0.1250:
NULL. -999.2500:
UWI. DF3012:
~C
DEPT.M :
GR.API :
RML.OHMM :
RI. :
RXO.OHMM :
CALI.CM :
DEN.GM/CC :
SP.MV :
~A
# ...
  245.0000    70.6070    24.4480    21.2540    33.3060    24.2890     2.5270   -13.4280 
  245.1250    70.6070    24.7140    21.5300    31.6970    24.2620     2.5320   -13.3220 
  245.2500    70.6070    24.8650    21.6810    28.8490    24.2860     2.5370   -13.3120 
  245.3750    70.6070    24.9370    21.7450    26.9590    24.3110     2.5420   -13.2550 
  245.5000    70.6070    24.9650    21.7640    26.7190    24.3170     2.5440   -13.2450 
  245.6250    70.6070    24.9720    21.7660    26.9630    24.3210     2.5410   -13.2100 
  245.7500    70.6070    24.9720    21.7660    25.3520    24.3380     2.5330   -13.2080 
  245.8750    70.6070    24.9710    21.7660    22.8330    24.3340     2.5230   -13.1970 
  246.0000    70.6070    24.9730    21.7660    21.7550    24.3180     2.5160   -13.1410 
  246.1250    70.6070    24.9790    21.7660    22.6230    24.3170     2.5140   -13.1410 
  246.2500    70.6070    24.9880    21.7670    23.7590    24.3080     2.5160   -13.1290 
  246.3750    70.6070    24.9980    21.7680    24.3770    24.2770     2.5240   -13.1070 
  246.5000    70.6070    25.0070    21.7680    24.9810    24.2250     2.5370   -13.0740 
  246.6250    70.6070    25.0110    21.7680    26.4940    24.1750     2.5510   -13.0250 
  246.7500    70.6070    25.0130    21.7680    29.3660    24.1200     2.5600   -13.0160 
  246.8750    70.6070    25.0140    21.7680    31.7950    24.1130     2.5560   -13.0340 
  247.0000    70.6070    25.0140    21.7680    28.5390    24.1940     2.5420   -13.0250 
  247.1250    70.6070    25.0140    21.7680    22.0730    24.2970     2.5230   -13.0420 
  247.2500    70.6070    25.0140    21.7680    19.4810    24.3560     2.5070   -13.0250 
  247.3750    70.6070    25.0140    21.7680    19.6900    24.3680     2.5030   -13.0080 
  247.5000    70.6070    25.0140    21.7680    19.1940    24.3410     2.5080   -13.0130 
  247.6250    70.6070    25.0140    21.7680    16.5610    24.3070     2.5180   -13.0340 
  247.7500    70.6070    25.0140    21.7680    15.0590    24.2760     2.5290   -13.0190 
  247.8750    70.6070    25.0140    21.7680    15.4880    24.2570     2.5380   -12.9670 
  248.0000    70.6070    25.0140    21.7680    17.0600    24.1980     2.5430   -13.0130 
  248.1250    70.6070    25.0140    21.7680    18.4420    24.1160     2.5470   -12.9410 
  248.2500    70.6070    25.0140    21.7680    18.7080    24.0230     2.5470   -12.9120 
  248.3750    70.6070    25.0140    21.7680    17.7200    23.9180     2.5430   -12.9420 
  248.5000    70.6070    25.0140    21.7680    16.2800    23.8060     2.5360   -12.9460 
  248.6250    70.6070    25.0140    21.7680    15.5050    23.7550     2.5280   -12.9470 
  248.7500    70.6070    25.0140    21.7680    15.1930    23.7210     2.5190   -12.9610 
  248.8750    70.6070    25.0140    21.7680    14.9890    23.6470     2.5130   -12.9880 
  249.0000    70.6070    25.0140    21.7680    14.8710    23.5060     2.5070   -12.9700 
  249.1250    70.6070    25.0140    21.7680    15.0050    23.2450     2.5010   -13.0160 
  249.2500    70.6070    25.0140    21.7680    15.0260    22.9090     2.4920   -13.0160 
  249.3750    70.6070    25.0140    21.7680    14.4660    22.4220     2.4730   -12.9840 
  249.5000    70.6070    25.0140    21.7680    13.4440    21.6670     2.4440   -13.0310 
  249.6250    70.6070    25.0140    21.7680    12.4180    20.6460     2.4040   -13.0460 
  249.7500    70.6070    25.0140    21.7680    11.4990    19.3000     2.3580   -13.0190 
  249.8750    70.6070    25.0140    21.7680    10.7020    17.5740     2.3120   -13.0140 
  250.0000    70.6070    25.0140    21.7680    10.1310    15.6950     2.2740   -13.0130 
  250.1250    70.6070    25.0140    21.7680     9.9110    14.8330     2.2470   -12.9640 
  250.2500    70.6070    25.0140    21.7680     9.8480    14.4860     2.2310   -12.9390 
  250.3750    70.6070    25.0140    21.7680     9.8570    14.4360     2.2220   -12.9200 
  250.5000    70.6070    25.0140    21.7680     9.8630    14.4360     2.2150   -12.7990 
  250.6250    70.6070    25.0140    21.7680     9.8620    14.4360     2.2080   -12.8100 
  250.7500    70.6070    25.0140    21.7680     9.8620    14.4360     2.2010   -12.8660 
  250.8750    70.6070    25.0140    21.7680     9.8610    14.4360     2.1960   -12.8590 
  251.0000    70.6070    25.0140    21.7680     9.8590    14.4360     2.1940   -12.8170 
  251.1250    70.6070    25.0140    21.7680     9.8560    14.4360     2.1940   -12.8070 
  251.2500    70.6070    25.0140    21.7680     9.8540    14.4360  -999.2500   -12.8050 
  251.3750    70.6070    25.0140    21.7680     9.7310    14.4360  -999.2500   -12.7990 
  251.5000    70.6070    25.0140    21.7680     9.1160    14.4360  -999.2500   -12.8230 
  251.6250    70.6070    25.0140    21.7680     8.0690    14.4360  -999.2500   -12.8490 
  251.7500    70.6070    24.9540    21.6980     6.7330    14.4360  -999.2500   -12.8140 
  251.8750  -999.2500  -999.2500  -999.2500  -999.2500  -999.2500  -999.2500   -12.7930 
  252.0000  -999.2500  -999.2500  -999.2500  -999.2500  -999.2500  -999.2500   -12.8660 
