~V
VERS. 2.00: Ver 2.00
~W
STRT.M 120.0000:
STOP.M 268.0000:
STEP.M 0.1250:
NULL. -999.2500:
UWI. DF3028:
~C
DEPT.M :
DEN.GM/CC :
GR.API :
CALI.CM :
RXO.OHMM :
RI. :
RML.OHMM :
SP.MV :
~A
# ...
  243.7500     2.4200    76.7970    27.2150     7.6280     7.9170    10.8960   -14.0910 
  243.8750     2.4130    77.4430    27.2220     7.2640     7.9160    10.9320   -14.1700 
  244.0000     2.4070    76.5340    27.2290     6.4930     7.9510    11.0380   -14.2150 
  244.1250     2.4020    72.8680    27.2820     6.2690     8.0350    11.2280   -14.2340 
  244.2500     2.3990    70.2720    27.3780     6.8850     8.1590    11.4820   -14.2340 
  244.3750     2.4010    70.5140    27.4720     7.8780     8.3220    11.7900   -14.2120 
  244.5000     2.4060    72.8190    27.5260     8.6190     8.5230    12.1450   -14.1590 
  244.6250     2.4030    74.9450    27.5480     8.8880     8.7610    12.5410   -14.0740 
  244.7500     2.3880    74.8610    27.5590     9.3480     9.0170    12.9470   -13.9820 
  244.8750     2.3750    75.0330    27.5480    10.4820     9.2720    13.3340   -13.8780 
  245.0000     2.3820    76.3840    27.5290    11.9360     9.5100    13.6820   -13.7790 
  245.1250     2.4090    74.9110    27.5190    12.6370     9.7170    13.9820   -13.6790 
  245.2500     2.4380    70.6700    27.5170    12.5770     9.9000    14.2560   -13.5870 
  245.3750     2.4510    66.3280    27.5250    12.3690    10.0650    14.5150   -13.5050 
  245.5000     2.4540    64.4930    27.5430    12.3380    10.2180    14.7640   -13.4420 
  245.6250     2.4570    64.1980    27.5550    12.2960    10.3470    14.9830   -13.4090 
  245.7500     2.4640    65.1660    27.5580    12.1730    10.4330    15.1320   -13.3990 
  245.8750     2.4710    69.5150    27.5650    12.1170    10.4450    15.1530   -13.4020 
  246.0000     2.4710    76.1330    27.5640    12.2490    10.3520    14.9920   -13.4290 
  246.1250     2.4650    78.8120    27.5400    12.5010    10.1160    14.5910   -13.4870 
  246.2500     2.4600    76.8820    27.5110    12.5750     9.7720    14.0220   -13.5680 
  246.3750     2.4610    74.6510    27.4870    12.2710     9.3690    13.3700   -13.6620 
  246.5000     2.4600    73.5490    27.4580    11.5900     8.9680    12.7360   -13.7790 
  246.6250     2.4530    71.6650    27.4130    10.5180     8.6470    12.2450   -13.9120 
  246.7500     2.4420    68.3310    27.3500     9.1970     8.4340    11.9500   -14.0440 
  246.8750     2.4260    64.5500    27.2820     7.9400     8.3360    11.8660   -14.1830 
  247.0000     2.3970    61.0620    27.2310     7.1740     8.3340    11.9490   -14.3040 
  247.1250     2.3550    62.3250    27.2260     7.2700     8.3890    12.0950   -14.3930 
  247.2500     2.3210    68.2550    27.2630     7.8790     8.4260    12.1500   -14.4410 
  247.3750     2.3210    71.8230    27.3280     8.4600     8.3890    12.0120   -14.4640 
  247.5000     2.3470    70.5250    27.3880     8.6840     8.2450    11.6510   -14.4410 
  247.6250     2.3820    68.3080    27.3920     8.8130     7.9920    11.1180   -14.3730 
  247.7500     2.4060    67.0630    27.3620     9.0360     7.7030    10.5800   -14.2790 
  247.8750     2.4130    66.3770    27.3350     8.8710     7.4400    10.1610   -14.1690 
  248.0000     2.4130    66.2110    27.3330     7.9790     7.2520     9.9330   -14.0480 
  248.1250     2.4090    65.8520    27.3510     6.7420     7.1760     9.9230   -13.9200 
  248.2500     2.4010    65.1920    27.3610     5.8420     7.1840    10.0250   -13.7940 
  248.3750     2.3910    65.4970    27.3690     5.4370     7.2450    10.1610   -13.6750 
  248.5000     2.3840    65.6070    27.3970     5.5190     7.3280    10.2770   -13.5700 
  248.6250     2.3800    62.7080    27.4430     6.0900     7.4060    10.3550   -13.5000 
  248.7500     2.3770    60.3530    27.4730     6.9580     7.4720    10.4150   -13.4510 
  248.8750     2.3790    60.8190    27.4780     7.9500     7.5250    10.4590   -13.4140 
  249.0000     2.3840    63.3020    27.4770     8.7000     7.5620    10.4730   -13.3910 
  249.1250     2.3880    66.4520    27.4820     8.5620     7.5690    10.4250   -13.3890 
  249.2500     2.3870    68.4650    27.4850     7.7690     7.5450    10.3250   -13.3970 
  249.3750     2.3860    68.8000    27.4830     6.9780     7.4960    10.2060   -13.4060 
  249.5000     2.3920    68.6530    27.4790     6.6810     7.4450    10.1140   -13.4210 
  249.6250     2.4070    69.1340    27.4760     6.9340     7.4370    10.1150   -13.4250 
  249.7500     2.4280    68.4150    27.4740     7.4120     7.4960    10.2270   -13.4180 
  249.8750     2.4480    67.6640    27.4800     8.0620     7.6300    10.4480   -13.3860 
  250.0000     2.4620    69.1880    27.4950     9.0220     7.8220    10.7460   -13.3390 
  250.1250     2.4690    69.1640    27.5030    10.3490     8.0320    11.0560   -13.2930 
  250.2500     2.4690    67.1030    27.4880    11.4020     8.2030    11.2900   -13.2500 
  250.3750     2.4640    67.0350    27.4610    11.5230     8.2950    11.3830   -13.1940 
  250.5000     2.4630    68.9630    27.4460    10.8260     8.2850    11.3150   -13.1350 
  250.6250     2.4740    67.9110    27.4280    10.2320     8.1690    11.1070   -13.0800 
  250.7500     2.4910    64.9960    27.3780     9.9710     8.0050    10.8580   -13.0240 
  250.8750     2.4950    64.3000    27.3050     9.4200     7.8410    10.6360   -12.9700 
  251.0000     2.4800    66.2860    27.2730     8.3400     7.7230    10.5010   -12.9170 
  251.1250     2.4570    68.9850    27.3320     7.4410     7.7010    10.5110   -12.8460 
  251.2500     2.4420    70.5490    27.4170     7.2330     7.7780    10.6670   -12.7760 
  251.3750     2.4420    69.3460    27.4680     7.5290     7.9540    10.9720   -12.7150 
  251.5000     2.4500    66.1130    27.4750     7.9920     8.2260    11.4220   -12.6610 
  251.6250     2.4610    65.1010    27.4720     8.3730     8.5950    12.0070   -12.6130 
  251.7500     2.4710    67.6920    27.4720     8.5100     9.0180    12.6550   -12.5710 
  251.8750     2.4720    71.2710    27.4720     8.4190     9.4570    13.3030   -12.5520 
  252.0000     2.4670    73.6470    27.4720     8.2880     9.8790    13.8890   -12.5370 
  252.1250     2.4650    74.9310    27.4720     8.4070    10.2550    14.3680   -12.5180 
  252.2500     2.4640    75.1700    27.4720     8.9930    10.5940    14.7820   -12.4810 
  252.3750     2.4520    73.4420    27.4720    10.2080    10.9230    15.1930   -12.4390 
  252.5000     2.4350    71.1110    27.4720    11.9200    11.2730    15.6680   -12.3740 
  252.6250     2.4320    71.6080    27.4720    13.7260    11.6750    16.2620   -12.2880 
  252.7500     2.4500    73.9070    27.4720    15.4190    12.1220    16.9350   -12.1910 
  252.8750     2.4780    74.4300    27.4720    17.1460    12.5880    17.6030   -12.0810 
  253.0000     2.4960    72.9880    27.4720    19.6020    13.0230    18.1600   -11.9730 
  253.1250     2.5010    72.2710    27.4720    24.0890    13.3420    18.4710   -11.8800 
  253.2500     2.5030    71.8610    27.4720    29.0570    13.5130    18.5360   -11.8040 
  253.3750     2.5180    71.2920    27.4720    31.9310    13.5330    18.3990   -11.7450 
  253.5000     2.5390    71.1240    27.4720    32.3580    13.4530    18.1590   -11.7040 
  253.6250     2.5490    73.3410    27.4720    32.4970    13.3670    17.9640   -11.6820 
  253.7500     2.5440    75.5850    27.4730    32.6990    13.3650    17.9270   -11.6780 
  253.8750     2.5380    75.6780    27.4770    31.3640    13.4860    18.0860   -11.6720 
  254.0000     2.5390    74.5100    27.4670    28.0110    13.7150    18.4030   -11.6700 
  254.1250     2.5380    73.3060    27.4160    24.4730    13.9840    18.7470   -11.6700 
  254.2500     2.5320    74.1470    27.3590    22.7430    14.1940    18.9580   -11.6680 
  254.3750     2.5270    76.7360    27.3280    22.5680    14.2930    18.9720   -11.6560 
  254.5000     2.5200    78.3880    27.3100    21.7670    14.2800    18.8220   -11.6490 
  254.6250     2.5060    76.4650    27.2750    18.8010    14.2060    18.6310   -11.6410 
  254.7500     2.4870    73.9530    27.2420    15.6470    14.1510    18.5220   -11.6250 
  254.8750     2.4770    74.1160    27.2370    13.8280    14.1420    18.5160   -11.6090 
