~V
VERS. 2.00: Ver 2.00
~W
STRT.M 125.0000:
STOP.M 276.0000:
STEP.M 0.1250:
NULL. -999.2500:
UWI. DF3039:
~C
DEPT.M :
SP.MV :
GR.API :
CALI.CM :
RXO.OHMM :
RI. :
RML.OHMM :
DEN.GM/CC :
~A
  125.0000   -20.0870    87.9070    24.0740     6.8250     6.8310     8.2920     2.2940 
  125.1250   -20.0570    85.5380    24.0090     6.9690     6.8680     8.3300     2.2770 
  125.2500   -20.0630    85.4650    23.9640     7.1180     6.7540     8.1700     2.2680 
  125.3750   -20.1830    87.1860    23.9790     6.7810     6.4850     7.8180     2.2720 
  125.5000   -20.3560    88.4160    24.2260     6.2600     6.1460     7.3960     2.2940 
  125.6250   -20.4650    87.3860    24.4830     5.9310     5.8990     7.1520     2.3270 
  125.7500   -20.4650    85.8530    24.4840     5.9080     5.8650     7.2530     2.3500 
  125.8750   -20.4330    84.3000    24.4500     6.0520     6.0900     7.7590     2.3510 
  126.0000   -20.5020    82.3010    24.3970     6.2980     6.6110     8.6970     2.3390 
  126.1250   -20.7310    76.4920    24.4170     7.1410     7.4530     9.9620     2.3470 
  126.2500   -21.0210    69.1030    24.4020    10.0190     8.4230    11.2100     2.3930 
  126.3750   -21.2600    65.8680    24.4040    15.4190     9.2930    12.1310     2.4630 
  126.5000   -21.4050    69.3570    24.1450    18.9940     9.8250    12.5070     2.5150 
  126.6250   -21.5190    73.1830    23.5910    14.9920     9.8070    12.1850     2.5020 
  126.7500   -21.6950    70.2800    23.3150    10.2320     9.4050    11.4110     2.4400 
  126.8750   -21.9480    64.9490    23.3060     8.0340     8.7970    10.4570     2.3660 
  127.0000   -22.1980    63.3730    23.3420     8.6260     8.1840     9.5760     2.3080 
  127.1250   -22.3290    67.0410    23.4520     9.2550     7.7600     9.0750     2.2740 
  127.2500   -22.3380    71.2980    23.7110     8.9480     7.6660     9.0950     2.2530 
  127.3750   -22.2880    73.3630    23.9040     8.0180     7.9850     9.6640     2.2470 
  127.5000   -22.2890    72.9060    23.9580     7.5270     8.7250    10.7180     2.2640 
  127.6250   -22.3890    71.0030    24.1420     7.6680     9.8680    12.1430     2.3240 
  127.7500   -22.5120    71.3110    24.1030     8.2050    11.2380    13.6880     2.4280 
  127.8750   -22.5760    72.2270    24.1000    10.1130    12.6250    15.0600     2.5540 
  128.0000   -22.5460    69.8230    24.1560    16.3100    13.6760    15.9000     2.6640 
  128.1250   -22.5210    64.9180    24.1780    20.8240    13.9270    15.8400     2.7030 
  128.2500   -22.5940    63.9250    24.1380    18.5990    13.4540    15.0590     2.6650 
  128.3750   -22.7820    67.3470    23.7660    12.9370    12.4870    13.8300     2.5610 
  128.5000   -23.0030    69.4000    23.3800    10.1890    11.3640    12.5240     2.4260 
  128.6250   -23.1280    67.4160    23.3390    10.0020    10.4280    11.5120     2.3120 
  128.7500   -23.1460    65.2610    23.3320     9.9870     9.7780    10.8890     2.2550 
  128.8750   -23.1460    63.4410    23.3310     9.5620     9.4210    10.6600     2.2520 
  129.0000   -23.2350    62.1210    23.3240     8.9790     9.3340    10.7420     2.2730 
  129.1250   -23.3890    62.6340    23.2840     8.5290     9.4700    11.0030     2.2790 
  129.2500   -23.5220    64.1280    23.2850     8.5290     9.6890    11.2690     2.2610 
  129.3750   -23.5440    63.9600    23.2910     8.9000     9.9380    11.4960     2.2310 
  129.5000   -23.4670    63.0130    23.2830     9.5580    10.1850    11.6640     2.2130 
  129.6250   -23.4070    64.0030    23.3050    10.0080    10.3830    11.7580     2.2160 
  129.7500   -23.4580    65.0920    23.3280    10.1490    10.5040    11.7850     2.2220 
  129.8750   -23.5900    64.6630    23.3310    10.1390    10.5510    11.7320     2.2190 
  130.0000   -23.6980    62.8130    23.3270    10.1140    10.5350    11.6400     2.2050 
  130.1250   -23.7290    61.4980    23.2990    10.0900    10.4680    11.5490     2.1930 
  130.2500   -23.6830    61.9230    23.2950    10.0890    10.3840    11.4780     2.1900 
  130.3750   -23.6380    63.1060    23.2960    10.0780    10.2990    11.4440     2.1960 
  130.5000   -23.6500    64.5840    23.3000    10.0060    10.2180    11.4540     2.2020 
  130.6250   -23.7380    67.2750    23.3280     9.8490    10.1440    11.4730     2.1970 
  130.7500   -23.8170    69.9520    23.3310     9.7710    10.0890    11.4770     2.1850 
  130.8750   -23.7960    69.5580    23.3280     9.6880    10.0540    11.5050     2.1750 
  131.0000   -23.6920    65.0600    23.2990     9.5630    10.0550    11.5770     2.1770 
  131.1250   -23.5950    61.0910    23.2890     9.4770    10.1070    11.6780     2.1910 
  131.2500   -23.6100    62.0600    23.2790     9.6610    10.2020    11.8020     2.2050 
  131.3750   -23.7260    66.8350    23.2870     9.9740    10.3330    11.9320     2.2090 
  131.5000   -23.8750    70.9340    23.2930    10.1250    10.4870    12.0500     2.2050 
  131.6250   -23.9490    70.8710    23.2960    10.1450    10.6360    12.1560     2.2030 
  131.7500   -23.9300    69.7980    23.3260    10.1990    10.7560    12.2270     2.2140 
  131.8750   -23.9030    69.4760    23.3270    10.4450    10.8280    12.2160     2.2340 
  132.0000   -23.9490    67.5430    23.3000    10.6950    10.8350    12.1280     2.2500 
  132.1250   -24.0770    64.8840    23.2980    10.7200    10.7840    11.9960     2.2440 
  132.2500   -24.1650    64.2790    23.3150    10.5430    10.7000    11.8560     2.2220 
  132.3750   -24.1390    65.5490    23.4790    10.4060    10.5930    11.7290     2.2010 
  132.5000   -23.9970    66.5270    23.4740    10.3470    10.4840    11.6320     2.1950 
  132.6250   -23.8510    64.9080    23.4800    10.2800    10.4020    11.5750     2.2030 
  132.7500   -23.7960    61.8550    23.4820    10.2360    10.3490    11.5500     2.2110 
  132.8750   -23.8190    59.1700    23.5200    10.2370    10.3100    11.5330     2.2140 
  133.0000   -23.8080    59.1910    23.3210    10.1630    10.2590    11.4840     2.2150 
  133.1250   -23.6390    61.9980    23.2280    10.0710    10.1570    11.3520     2.2110 
  133.2500   -23.4030    64.8780    23.1760    10.1240     9.9990    11.1450     2.2030 
  133.3750   -23.2120    65.4380    23.2970    10.1900     9.8020    10.8820     2.1960 
  133.5000   -23.1250    62.1250    23.4410    10.2410     9.5840    10.5980     2.1980 
  133.6250   -23.0810    58.6620    23.4500     9.9460     9.4340    10.4270     2.2060 
  133.7500   -22.9790    59.5260    23.3840     9.6550     9.4660    10.4990     2.2110 
  133.8750   -22.7670    61.9540    23.2430     9.2500     9.7640    10.9000     2.2080 
  134.0000   -22.4850    61.5520    23.0130     9.1070    10.3170    11.5770     2.1980 
  134.1250   -22.2710    60.5720    22.9790     9.2660    11.0330    12.3530     2.1910 
  134.2500   -22.1430    61.6560    22.9940     9.2710    11.6580    12.9370     2.1990 
  134.3750   -22.0610    61.0780    23.1060     9.6110    11.9260    13.0570     2.2350 
  134.5000   -21.9480    57.0110    23.3050    11.1070    11.6510    12.5570     2.3090 
  134.6250   -21.7400    56.6330    23.5490    15.0730    10.7250    11.3870     2.4140 
  134.7500   -21.5120    65.4420    23.6910    16.4480     9.5160     9.9500     2.4940 
  134.8750   -21.3880    76.6320    23.6580    12.4650     8.3300     8.5870     2.5050 
  135.0000   -21.4230    79.9920    23.6130     6.9540     7.3720     7.5460     2.4460 
  135.1250   -21.5410    74.8430    23.6010     5.8340     6.7890     7.0140     2.3620 
  135.2500   -21.6490    72.5940    23.5690     5.6490     6.5130     6.8700     2.3000 
  135.3750   -21.6750    74.0170    23.3830     5.6420     6.4830     6.9940     2.2650 
  135.5000   -21.6370    74.4510    23.1690     5.5950     6.5950     7.2360     2.2550 
  135.6250   -21.6370    74.2570    23.0730     5.8070     6.7130     7.4130     2.2740 
  135.7500   -21.6790    76.1480    23.0260     5.7840     6.6940     7.3890     2.3070 
  135.8750   -21.8270    79.5980    22.9930     5.6800     6.4730     7.1350     2.3350 
  136.0000   -21.9720    80.9790    23.0010     5.5780     6.0940     6.7180     2.3420 
  136.1250   -22.0270    79.9340    23.0820     5.4110     5.6270     6.2230     2.3260 
