~V
VERS. 2.00: Ver 2.00
~W
STRT.M 60.0000:
STOP.M 264.0000:
STEP.M 0.1250:
NULL. -999.2500:
UWI. DF303:
~C
DEPT.M :
DEN.GM/CC :
SP.MV :
AC.US/MT :
GR.API :
CALI.CM :
RXO.OHMM :
RI. :
RML.OHMM :
~A
# ...
  110.0000     2.3610   -22.5520   432.0990    96.3850    25.1670     4.9860     4.8090     5.0600 
  110.1250     2.3560   -22.2070   432.3430    88.0060    25.1200     5.1990     4.8830     5.1880 
  110.2500     2.3360   -21.9810   430.9650    82.2850    24.9620     5.5340     5.0600     5.4530 
  110.3750     2.3150   -21.8290   428.7880    80.1520    24.8210     5.8670     5.2670     5.7550 
  110.5000     2.3010   -21.6980   427.0160    81.1470    24.8460     6.0240     5.4190     5.9790 
  110.6250     2.2920   -21.5910   426.0200    84.7150    24.8850     5.9480     5.4230     5.9960 
  110.7500     2.2880   -21.5090   424.4990    88.3390    24.8760     5.8510     5.2640     5.7950 
  110.8750     2.2950   -21.3940   420.5160    89.1890    24.8440     5.7890     4.9510     5.3950 
  111.0000     2.3230   -21.2400   413.3840    87.5740    24.8260     5.7650     4.5360     4.8770 
  111.1250     2.3690   -21.0590   407.0010    86.8290    24.7650     5.7940     4.1530     4.4340 
  111.2500     2.4060   -20.9080   406.3580    87.5300    24.5880     5.4540     3.9560     4.2580 
  111.3750     2.4240   -20.8620   408.4820    84.8890    24.3400     5.0790     4.0490     4.4760 
  111.5000     2.4380   -20.9600   401.6130    76.8390    24.1970     5.5740     4.4940     5.1570 
  111.6250     2.4800   -21.1990   373.0100    67.5910    24.1400     8.4790     5.3870     6.4090 
  111.7500     2.5410   -21.5450   335.1700    61.6010    24.0930    13.5660     6.6480     8.0910 
  111.8750     2.5810   -21.9780   307.3680    60.3630    24.0540    17.0030     8.2140    10.0510 
  112.0000     2.5800   -22.4780   299.4710    62.2580    23.9210    15.8230    10.0360    12.1370 
  112.1250     2.5660   -23.0320   301.4060    66.1180    23.7080    13.9180    12.2460    14.4820 
  112.2500     2.5820   -23.5950   293.1870    70.2700    23.5160    16.6000    14.9180    17.3670 
  112.3750     2.6230   -24.1350   271.2080    72.4800    23.5000    23.1630    17.9110    20.8220 
  112.5000     2.6610   -24.6740   246.2660    70.6790    23.6030    29.0100    20.5080    24.0670 
  112.6250     2.6570   -25.2110   237.8440    63.6160    23.6190    30.1580    20.9920    24.6210 
  112.7500     2.6050   -25.7270   252.4890    58.1720    23.5430    26.2030    19.0610    21.7710 
  112.8750     2.5170   -26.2420   286.7470    60.1180    23.3910    19.5070    15.8040    17.2880 
  113.0000     2.4160   -26.7420   330.2060    67.6350    23.2440    13.2250    12.6350    13.3090 
  113.1250     2.3290   -27.2200   368.8680    73.3850    23.0910     9.9160    10.3970    10.8230 
  113.2500     2.2670   -27.6850   395.2690    73.4680    23.0240     8.5440     8.9700     9.4300 
  113.3750     2.2350   -28.1270   409.3050    70.0170    23.0070     8.2710     8.1960     8.8330 
  113.5000     2.2270   -28.4990   415.2890    65.7790    23.0120     8.5240     7.8960     8.7580 
  113.6250     2.2360   -28.8320   418.4520    63.5610    23.0710     8.9750     7.9060     8.9530 
  113.7500     2.2450   -29.1370   421.7040    63.9320    23.1830     9.2280     8.0070     9.1500 
  113.8750     2.2450   -29.4050   424.6590    65.8970    23.2740     9.1930     8.1000     9.2520 
  114.0000     2.2330   -29.6580   426.0010    69.4850    23.3050     9.0720     8.1450     9.2530 
  114.1250     2.2200   -29.8700   424.3350    73.3610    23.2890     9.1060     8.1410     9.1980 
  114.2500     2.2160   -30.0330   420.9720    74.6200    23.2590     9.0510     8.1140     9.1410 
  114.3750     2.2200   -30.1740   418.0390    70.6490    23.2350     8.8430     8.0760     9.0930 
  114.5000     2.2270   -30.2990   417.0380    66.0250    23.2470     8.5580     8.0270     9.0430 
  114.6250     2.2320   -30.3510   417.4080    66.3400    23.4000     8.3160     7.9550     8.9710 
  114.7500     2.2330   -30.3570   417.0850    66.9200    23.6470     8.2420     7.8600     8.8740 
  114.8750     2.2280   -30.3120   415.4460    64.0390    23.9360     8.2370     7.7580     8.7690 
  115.0000     2.2150   -30.2070   412.7960    59.7530    24.1320     8.2140     7.6750     8.6880 
  115.1250     2.1980   -30.0550   409.4380    58.9720    24.2750     8.2120     7.6520     8.6800 
  115.2500     2.1900   -29.8560   406.4100    60.5320    24.4300     8.2310     7.6950     8.7550 
  115.3750     2.1990   -29.6220   405.0740    63.2930    24.6170     8.3210     7.7980     8.9060 
  115.5000     2.2230   -29.3780   405.3620    65.7940    24.7770     8.5100     7.9370     9.1020 
  115.6250     2.2430   -29.1200   404.2590    66.4200    24.9090     8.7170     8.0740     9.2860 
  115.7500     2.2470   -28.8190   399.9540    66.7220    24.9350     8.7660     8.1670     9.3980 
  115.8750     2.2390   -28.4870   394.5090    67.4990    24.8340     8.7530     8.1820     9.3900 
  116.0000     2.2270   -28.1390   391.9350    72.3560    24.7100     8.7430     8.0870     9.2260 
  116.1250     2.2210   -27.7580   395.2140    77.8780    24.7080     8.6320     7.8470     8.8780 
  116.2500     2.2300   -27.3740   401.4970    79.7380    24.7950     8.3230     7.5030     8.4160 
  116.3750     2.2530   -26.9670   407.8280    79.1890    24.9950     7.8130     7.0970     7.9020 
  116.5000     2.2790   -26.5350   412.6490    78.3930    25.1550     7.2280     6.6770     7.4030 
  116.6250     2.2930   -26.1140   416.1580    78.8700    25.2140     6.8120     6.2990     6.9910 
  116.7500     2.2920   -25.7360   419.3890    78.4340    25.2330     6.6390     5.9860     6.6790 
  116.8750     2.2860   -25.3900   422.4750    78.7000    25.2680     6.5920     5.7450     6.4640 
  117.0000     2.2870   -25.0770   424.9420    82.0450    25.2970     6.5670     5.5810     6.3350 
  117.1250     2.2950   -24.8670   426.2410    83.0700    25.2970     6.5130     5.5130     6.3040 
  117.2500     2.3040   -24.7810   426.8580    79.2050    25.2480     6.4990     5.5420     6.3800 
  117.3750     2.3080   -24.8560   427.1670    74.2100    25.1460     6.5420     5.6860     6.5950 
  117.5000     2.3020   -25.0710   427.2540    73.7480    25.0500     6.6810     5.9610     6.9870 
  117.6250     2.2770   -25.3820   426.9080    75.4120    25.0400     7.0340     6.3960     7.5910 
  117.7500     2.2410   -25.7300   423.3940    75.7880    25.1060     7.6210     6.9340     8.3310 
  117.8750     2.2190   -26.1230   409.4420    76.1060    25.1650     8.8780     7.5080     9.1040 
  118.0000     2.2330   -26.5230   378.8890    75.4140    25.1460    11.9490     8.0180     9.7610 
  118.1250     2.2860   -26.8610   338.8160    70.8710    24.9910    17.2110     8.3260    10.0870 
  118.2500     2.3320   -27.1140   314.2140    67.6810    24.8230    18.8020     8.4080    10.0580 
  118.3750     2.3370   -27.2490   320.0200    67.0880    24.7280    15.2030     8.3000     9.7560 
  118.5000     2.3000   -27.2430   350.5800    65.5280    24.7340    10.5590     8.0990     9.3500 
  118.6250     2.2530   -27.1280   383.7370    64.0780    24.6920     8.8030     7.9330     9.0400 
  118.7500     2.2310   -26.9560   404.4930    66.2190    24.6250     8.3220     7.8780     8.9190 
  118.8750     2.2350   -26.7100   414.3510    69.2460    24.6260     8.3430     7.9380     8.9750 
  119.0000     2.2450   -26.4190   419.3930    70.1770    24.6760     8.5580     8.0330     9.0850 
  119.1250     2.2410   -26.0520   422.5610    71.0720    24.7470     8.7620     7.9800     8.9840 
  119.2500     2.2270   -25.5740   425.0110    74.3440    24.7600     8.7200     7.6630     8.5110 
  119.3750     2.2230   -24.9870   428.0320    76.3580    24.7200     8.2150     7.0880     7.6910 
  119.5000     2.2400   -24.3330   432.5780    75.4620    24.7730     7.1700     6.3740     6.7180 
  119.6250     2.2730   -23.6380   437.4350    75.0120    25.0030     5.9660     5.7060     5.8720 
  119.7500     2.3010   -22.9510   440.0020    79.4790    25.1660     5.3240     5.1990     5.2820 
  119.8750     2.3130   -22.3150   439.4570    86.1750    25.1640     5.3090     4.8740     4.9550 
