~V
VERS. 2.00: Ver 2.00
~W
STRT.M 60.0000:
STOP.M 254.0000:
STEP.M 0.1250:
NULL. -999.2500:
UWI. DF3029:
~C
DEPT.M :
SP.MV :
GR.API :
RML.OHMM :
RI. :
RXO.OHMM :
CALI.CM :
DEN.GM/CC :
~A
# ...
  217.5000   -22.6990    61.6770   158.9940   136.8970   136.6440    24.9930     2.2070 
  217.6250   -22.5620    62.5760   171.7800   146.5950   146.4530    24.9820     2.1940 
  217.7500   -22.2690    62.5110   183.6190   156.0000   162.3840    24.9830     2.1780 
  217.8750   -22.0310    61.9350   195.0050   165.6730   173.5740    24.9940     2.1620 
  218.0000   -21.7160    61.7850   206.5030   175.9600   178.4510    25.0150     2.1530 
  218.1250   -21.5030    63.3410   218.6180   187.0030   181.3280    25.0020     2.1610 
  218.2500   -21.3130    64.0600   230.0310   197.5570   186.1810    24.9580     2.1850 
  218.3750   -21.1610    62.2380   236.9910   204.7480   190.8510    24.8500     2.2190 
  218.5000   -21.0510    60.2430   233.5640   204.0390   190.9710    24.6310     2.2530 
  218.6250   -20.9780    61.0580   210.6400   188.0460   185.4780    24.3560     2.2770 
  218.7500   -20.9990    62.8890   170.5640   157.5170   173.1260    24.1510     2.2870 
  218.8750   -20.9520    65.2000   121.9180   117.4410   154.1560    23.9910     2.2900 
  219.0000   -20.9470    69.3150    77.6540    77.3900   131.3210    23.9890     2.2940 
  219.1250   -20.8480    74.8170    48.2630    48.0810   102.2340    24.2770     2.3050 
  219.2500   -20.7670    78.3800    30.8760    29.9990    67.7920    24.5010     2.3230 
  219.3750   -20.7320    80.8890    22.0030    20.5060    31.0160    24.5860     2.3430 
  219.5000   -20.7700    83.9030    18.8470    16.6370    14.6120    24.5360     2.3560 
  219.6250   -20.8430    85.4040    20.3160    17.0530    12.4890    24.2970     2.3550 
  219.7500   -20.9900    84.4200    24.8900    20.4610    14.8030    24.0100     2.3400 
  219.8750   -21.1730    81.2940    31.9640    26.6130    20.7630    24.0070     2.3160 
  220.0000   -21.3680    76.9440    40.6610    34.9430    30.0890    24.3650     2.2880 
  220.1250   -21.5550    71.9430    49.7150    44.3200    41.7820    24.7130     2.2620 
  220.2500   -21.6980    67.3310    58.0290    53.1950    52.4530    24.8520     2.2400 
  220.3750   -21.7500    65.9960    65.4820    60.9580    62.2780    24.8930     2.2250 
  220.5000   -21.7100    69.4050    72.5250    67.6870    70.3990    24.8990     2.2220 
  220.6250   -21.5010    74.3440    79.0600    73.0860    75.7410    24.9240     2.2470 
  220.7500   -21.2100    74.8050    83.3030    75.8610    79.6280    24.9330     2.3050 
  220.8750   -20.8180    70.9570    82.2070    73.7130    82.7520    24.9140     2.3910 
  221.0000   -20.4100    67.5370    73.4920    64.9860    85.2500    24.8320     2.4840 
  221.1250   -20.0960    65.9950    56.9210    50.0970    80.4660    24.6950     2.5380 
  221.2500   -19.7750    65.4520    39.0230    34.4780    71.8340    24.5570     2.5370 
  221.3750   -19.5920    67.3290    24.2890    22.0100    56.3460    24.4670     2.4910 
  221.5000   -19.5010    72.6890    14.4680    14.0060    30.8070    24.3810     2.4340 
  221.6250   -19.7430    83.3770    10.5340    10.1110    12.8240    24.3610     2.4040 
  221.7500   -20.1110    95.7700     8.8860     8.3630     6.7790    24.3790     2.4050 
  221.8750   -20.7120   104.6060     8.6320     7.9400     5.1800    24.4070     2.4230 
  222.0000   -21.3680   105.4490     9.1520     8.3440     5.3390    24.4600     2.4390 
  222.1250   -22.0490    97.3770     9.9880     9.2420     6.3270    24.5140     2.4350 
  222.2500   -22.7020    86.2040    10.7360    10.2100     7.9810    24.5800     2.4160 
  222.3750   -23.2590    78.3680    11.2250    11.0030     8.8580    24.6380     2.3930 
  222.5000   -23.7240    79.0960    11.4180    11.4870     9.0510    24.6600     2.3790 
  222.6250   -24.0460    86.4830    11.3650    11.6090     9.1610    24.6320     2.3790 
  222.7500   -24.2490    91.9360    11.2220    11.5080     9.2100    24.5870     2.3870 
  222.8750   -24.3560    92.9070    11.0650    11.2730     9.2200    24.5700     2.3980 
  223.0000   -24.3960    91.9500    10.9180    10.9610     9.1910    24.5880     2.4050 
  223.1250   -24.4490    94.2770    10.7660    10.5860     9.1680    24.6320     2.4030 
  223.2500   -24.5540   101.3760    10.5920    10.1680     9.1950    24.6860     2.3970 
  223.3750   -24.7470   109.7120    10.4000     9.7290     9.2260    24.7330     2.3920 
  223.5000   -25.0060   115.4930    10.2270     9.3180     9.2850    24.7480     2.3920 
  223.6250   -25.3540   117.8460    10.2090     9.0660     9.3170    24.7240     2.3970 
  223.7500   -25.7450   121.3570    10.4950     9.0920     9.3750    24.6970     2.4000 
  223.8750   -26.1860   125.6270    11.2500     9.5200     9.6010    24.6860     2.3970 
  224.0000   -26.6840   126.3200    12.5780    10.4370    10.2530    24.6860     2.3870 
  224.1250   -27.1240   119.6930    14.5280    11.9250    11.9120    24.7010     2.3750 
  224.2500   -27.6090   109.2950    16.7850    13.7760    14.6790    24.7320     2.3660 
  224.3750   -28.0030   100.7610    19.0540    15.7780    18.5180    24.7600     2.3640 
  224.5000   -28.4180    94.4930    21.0580    17.6880    22.1240    24.7710     2.3660 
  224.6250   -28.6380    88.1500    22.5640    19.2410    23.4290    24.7720     2.3690 
  224.7500   -28.8390    82.7010    23.6570    20.4160    23.7060    24.7900     2.3690 
  224.8750   -28.9080    78.7880    24.4280    21.2460    24.4840    24.8180     2.3670 
  225.0000   -28.9610    76.9420    24.9560    21.7930    26.3140    24.8180     2.3630 
  225.1250   -28.9790    76.5490    25.2460    22.0680    27.7070    24.7570     2.3600 
  225.2500   -28.9430    77.2410    25.3660    22.1560    27.9890    24.7120     2.3590 
  225.3750   -28.9060    79.2380    25.3690    22.1180    27.2670    24.7090     2.3600 
  225.5000   -28.8210    81.1090    25.3150    22.0270    26.4860    24.7670     2.3620 
  225.6250   -28.7640    80.8280    25.2510    21.9490    26.4080    24.8310     2.3620 
  225.7500   -28.7140    78.1470    25.2200    21.9310    26.6350    24.8570     2.3610 
  225.8750   -28.7090    77.6960    25.3140    22.0470    27.8170    24.8610     2.3590 
  226.0000   -28.7350    81.6610    25.6970    22.4180    29.6340    24.8610     2.3570 
  226.1250   -28.8120    84.8190    26.7010    23.3050    29.5940    24.8610     2.3530 
  226.2500   -28.9000    83.8520    28.4110    24.7960    27.9900    24.8570     2.3490 
  226.3750   -29.0210    80.7070    30.7850    26.9050    28.8930    24.8390     2.3450 
  226.5000   -29.1500    79.3000    33.5450    29.4520    34.2140    24.7980     2.3440 
  226.6250   -29.3070    78.9060    36.1260    32.0050    39.1310    24.7760     2.3460 
  226.7500   -29.4650    76.0200    38.0170    34.0600    42.2230    24.7650     2.3500 
  226.8750   -29.6310    72.0790    39.0010    35.3470    43.0480    24.7610     2.3530 
  227.0000   -29.7180    70.2080    39.2210    35.8990    43.7220    24.7540     2.3540 
  227.1250   -29.8260    71.9260    39.1110    36.0190    45.2420    24.7310     2.3500 
  227.2500   -29.8460    73.4530    39.1680    36.1720    44.9670    24.7050     2.3430 
  227.3750   -29.8520    74.2910    39.5350    36.5290    43.3780    24.6930     2.3340 
  227.5000   -29.7850    75.6310    40.1620    37.0890    45.8470    24.7170     2.3260 
  227.6250   -29.7230    75.5730    40.9950    37.8330    48.4280    24.7760     2.3220 
  227.7500   -29.6170    74.6600    42.0860    38.8050    50.2980    24.8740     2.3230 
  227.8750   -29.4480    73.9360    43.6470    40.1890    48.6470    24.9640     2.3250 
  228.0000   -29.2600    73.4660    45.8590    42.1570    45.3860    25.0050     2.3240 
  228.1250   -28.9180    72.5590    48.6880    44.7270    45.0040    25.0080     2.3150 
  228.2500   -28.5830    71.5550    51.4800    47.3550    50.9470    25.0080     2.3010 
  228.3750   -28.1650    71.3470    53.5360    49.4370    60.3880    25.0020     2.2870 
  228.5000   -27.7280    71.8970    54.3370    50.4850    70.1640    24.9780     2.2810 
  228.6250   -27.2290    71.7110    53.7400    50.2820    73.2410    24.9040     2.2900 
