~V
VERS. 2.00: Ver 2.00
~W
STRT.M 135.0000:
STOP.M 270.0000:
STEP.M 0.1250:
NULL. -999.2500:
UWI. DF3063:
~C
DEPT.M :
SP.MV :
GR.API :
CALI.CM :
RXO.OHMM :
RI. :
RML.OHMM :
DEN.GM/CC :
~A
# ...
  202.5000   -26.5230    56.2280    24.1310     9.6570    12.8530    15.4680     2.6020 
  202.6250   -26.2560    63.6740    24.3820     8.2340    10.3060    13.0160     2.5510 
  202.7500   -25.9190    63.2070    24.3950     7.8420     9.8990    12.8130     2.5140 
  202.8750   -25.7020    59.2120    24.3820     7.8200     9.8980    12.9860     2.5080 
  203.0000   -25.6500    55.5840    24.3340     8.0400    10.1480    13.3250     2.5250 
  203.1250   -25.7220    54.6370    24.1290     8.1680    10.4700    13.6480     2.5430 
  203.2500   -25.7790    55.0360    24.1240     8.2110    10.7050    13.8310     2.5540 
  203.3750   -25.7600    54.9330    24.2800     8.1760    10.8410    13.9260     2.5720 
  203.5000   -25.7600    53.3450    24.3460     8.3370    10.9080    13.9840     2.5970 
  203.6250   -25.9070    51.9940    24.2780     8.5370    10.8810    14.0030     2.6140 
  203.7500   -26.1930    51.4930    24.1480     8.6600    10.7920    13.9980     2.6080 
  203.8750   -26.4300    51.0430    24.1570     8.9880    10.6430    13.9660     2.5800 
  204.0000   -26.5290    49.7330    24.3210     9.3050    10.4430    13.9060     2.5420 
  204.1250   -26.5460    48.4380    24.3600     9.0490    10.1880    13.8210     2.5080 
  204.2500   -26.6020    50.4040    24.4100     8.5420     9.9040    13.7120     2.4840 
  204.3750   -26.7260    54.4400    24.5550     8.4160     9.6060    13.5940     2.4660 
  204.5000   -26.8310    56.6890    24.4670     8.5280     9.3430    13.5430     2.4480 
  204.6250   -26.8170    55.2350    24.1960     8.5690     9.1910    13.6080     2.4260 
  204.7500   -26.6510    53.6250    24.0600     8.1690     9.1510    13.7860     2.4080 
  204.8750   -26.4690    54.2020    24.0640     7.8540     9.2130    14.0730     2.4030 
  205.0000   -26.3920    56.0890    24.0660     7.8670     9.3820    14.4650     2.4130 
  205.1250   -26.4100    57.4180    24.1070     8.4040     9.6430    14.8960     2.4230 
  205.2500   -26.4500    57.5290    24.3450     9.4220     9.8780    15.2160     2.4250 
  205.3750   -26.3760    57.3540    24.4810    11.2130    10.0060    15.3280     2.4300 
  205.5000   -26.2120    59.9690    24.4620    12.9430     9.9900    15.2140     2.4460 
  205.6250   -26.0840    64.8820    24.4520    11.9910     9.8170    14.8900     2.4620 
  205.7500   -26.0900    67.2720    24.5370     9.8520     9.5580    14.4820     2.4630 
  205.8750   -26.1250    66.3630    24.6350     8.8230     9.2840    14.1040     2.4520 
  206.0000   -26.0500    66.6120    24.6020     9.1550     9.0740    13.8780     2.4440 
  206.1250   -25.8840    69.7360    24.3290     9.4580     9.0080    13.9260     2.4540 
  206.2500   -25.6930    71.8520    24.3910     9.4360     9.0850    14.2020     2.4780 
  206.3750   -25.6340    74.4560    24.5010     9.9010     9.2770    14.6100     2.5090 
  206.5000   -25.6870    79.6240    24.5200    10.4530     9.5160    14.9970     2.5270 
  206.6250   -25.7040    85.5440    24.4830    10.5030     9.7010    15.1930     2.5170 
  206.7500   -25.5830    89.5790    24.5350    10.9970     9.7980    15.2270     2.5020 
  206.8750   -25.4420    91.4840    24.6440    11.3710     9.8120    15.1100     2.5020 
  207.0000   -25.4250    92.4930    24.7490    10.8880     9.7580    14.8810     2.5210 
  207.1250   -25.5360    93.6460    24.7760    10.2830     9.6920    14.6990     2.5330 
  207.2500   -25.6500    94.8070    24.7810     9.9550     9.6940    14.6790     2.5260 
  207.3750   -25.6380    93.8000    24.5390    10.1850     9.7860    14.8170     2.5160 
  207.5000   -25.5930    90.3460    24.6290    10.8180     9.9490    15.0710     2.5250 
  207.6250   -25.6470    88.4050    24.5410    11.8870    10.1470    15.3640     2.5540 
  207.7500   -25.8520    89.1060    24.5460    12.6070    10.3320    15.6160     2.5750 
  207.8750   -26.1020    91.5750    24.5890    12.2010    10.4520    15.7640     2.5720 
  208.0000   -26.2390    95.8480    24.9060    11.3230    10.4600    15.7550     2.5460 
  208.1250   -26.2800   101.3750    24.9650    11.6360    10.3620    15.5650     2.5060 
  208.2500   -26.3400   104.1940    24.9930    11.8740    10.1920    15.2610     2.4700 
  208.3750   -26.5230   103.0630    24.9850    11.6420     9.9890    14.9340     2.4430 
  208.5000   -26.7700    99.8470    24.9540    11.3240     9.7950    14.6650     2.4240 
  208.6250   -26.9710    95.7590    24.7670    11.0560     9.6950    14.5890     2.4160 
  208.7500   -27.0470    94.1110    24.7110    10.7040     9.7290    14.7470     2.4280 
  208.8750   -27.0320    94.3720    24.6760    10.3770     9.8970    15.1230     2.4590 
  209.0000   -27.0960    93.0630    24.6740    10.8910    10.1890    15.6720     2.4940 
  209.1250   -27.2650    89.0590    24.7890    11.9350    10.5640    16.2870     2.5160 
  209.2500   -27.4130    87.2840    24.9440    12.9680    10.9150    16.7420     2.5240 
  209.3750   -27.4130    89.8950    24.9390    14.1930    11.1660    16.9390     2.5200 
  209.5000   -27.3070    94.6150    24.6470    15.0890    11.3480    16.9860     2.5050 
  209.6250   -27.1910    95.2010    24.7830    13.8970    11.5600    17.0900     2.4890 
  209.7500   -27.1390    91.4060    24.7870    12.0200    11.8660    17.3790     2.4760 
  209.8750   -27.1630    84.4290    24.7440    11.7750    12.3270    17.9360     2.4710 
  210.0000   -27.1150    77.4920    24.6520    12.6510    12.9430    18.6690     2.4770 
  210.1250   -26.9100    74.0480    24.4400    14.4530    13.4680    19.1930     2.5000 
  210.2500   -26.6200    73.7260    24.4330    17.8320    13.6180    19.1610     2.5260 
  210.3750   -26.4050    75.8480    24.5900    20.8200    13.2200    18.3890     2.5430 
  210.5000   -26.2390    78.4080    24.6550    19.7310    12.2340    16.8420     2.5440 
  210.6250   -25.9950    79.9690    24.5780    14.0340    10.8360    14.7700     2.5330 
  210.7500   -25.5830    80.9140    24.4090    10.4750     9.4760    12.8070     2.5160 
  210.8750   -25.0440    78.8790    24.3070     8.3960     8.3830    11.2950     2.4920 
  211.0000   -24.5310    72.2490    24.2450     6.6750     7.6410    10.3730     2.4660 
  211.1250   -24.1100    64.0010    24.2810     5.9070     7.3270    10.1200     2.4560 
  211.2500   -23.7780    59.6510    23.9180     5.9830     7.3280    10.2380     2.4720 
  211.3750   -23.3570    60.2850    23.5730     6.3000     7.5300    10.5110     2.4980 
  211.5000   -22.8750    64.5050    23.6960     6.6040     7.8070    10.7630     2.5070 
  211.6250   -22.4800    71.0260    23.6520     6.4550     8.0390    10.8530     2.4900 
  211.7500   -22.2830    77.9690    23.5800     6.0750     8.1660    10.7670     2.4760 
  211.8750   -22.2540    82.8730    23.5720     5.9440     8.1890    10.5340     2.4830 
  212.0000   -22.2560    83.3200    23.6190     6.0400     8.1480    10.2480     2.5020 
  212.1250   -22.2070    81.5440    23.9290     6.2960     8.1070    10.0430     2.5080 
  212.2500   -22.1000    81.7000    24.4910     6.4070     8.0950     9.9570     2.5000 
  212.3750   -22.0910    85.0630    25.0170     6.2320     8.0950     9.9500     2.4920 
  212.5000   -22.2340    88.9090    25.0150     6.1920     8.0860     9.9660     2.4910 
  212.6250   -22.4050    87.8740    24.9620     6.4910     8.0220     9.9570     2.4940 
  212.7500   -22.4720    84.7550    24.6230     6.4940     7.8970     9.9060     2.4960 
  212.8750   -22.4790    83.7610    24.3700     6.3030     7.7110     9.8130     2.4960 
  213.0000   -22.5430    84.3680    24.5690     6.3100     7.4960     9.7210     2.4930 
  213.1250   -22.7300    82.8340    24.7940     6.3040     7.3440     9.6990     2.4840 
  213.2500   -23.0460    81.9320    24.5610     6.2200     7.2950     9.8120     2.4720 
  213.3750   -23.4040    85.7770    24.5640     6.2780     7.4080    10.1350     2.4590 
  213.5000   -23.6920    92.5810    24.4330     6.7280     7.7190    10.7260     2.4470 
  213.6250   -23.9070    93.9090    24.4610     7.5770     8.2710    11.5990     2.4330 
