~V
VERS. 2.00: Ver 2.00
~W
STRT.M 115.0000:
STOP.M 241.0000:
STEP.M 0.1250:
NULL. -999.2500:
UWI. DF3064:
~C
DEPT.M :
GR.API :
CALI.CM :
RXO.OHMM :
RI. :
RML.OHMM :
DEN.GM/CC :
SP.MV :
~A
# ...
  182.5000    46.6080    25.0140     7.9690     6.3990     9.6110     2.3760   -22.6070 
  182.6250    42.1000    24.8080     7.9890     6.3710     9.5000     2.3620   -22.4450 
  182.7500    41.0430    24.8230     7.8170     6.3440     9.3720     2.3450   -22.3440 
  182.8750    42.3510    25.2020     7.7000     6.3430     9.2890     2.3200   -22.2570 
  183.0000    45.3170    25.4870     7.1240     6.3980     9.3100     2.2940   -22.1860 
  183.1250    49.2370    25.4270     6.8140     6.5170     9.4440     2.2790   -22.1350 
  183.2500    51.2600    24.8900     6.7380     6.6540     9.5920     2.2770   -22.1000 
  183.3750    50.8460    24.3890     6.6750     6.7750     9.7030     2.2920   -22.0740 
  183.5000    52.0510    24.1860     6.3680     6.8500     9.7360     2.3260   -22.0520 
  183.6250    59.4570    24.0910     6.1930     6.8420     9.6550     2.3680   -22.0550 
  183.7500    68.6640    23.9990     6.6420     6.7830     9.4930     2.3980   -22.0730 
  183.8750    75.2980    24.0210     7.5930     6.6890     9.2940     2.4150   -22.1050 
  184.0000    78.1010    24.1710     8.5540     6.5990     9.1380     2.4280   -22.1550 
  184.1250    78.1250    24.1860     8.5190     6.5570     9.0830     2.4400   -22.2100 
  184.2500    75.6720    24.2520     8.5180     6.5720     9.1240     2.4440   -22.2770 
  184.3750    73.1520    24.3080     8.5470     6.6250     9.2190     2.4410   -22.3630 
  184.5000    72.0550    24.4320     8.5860     6.6950     9.3240     2.4380   -22.4660 
  184.6250    71.3800    24.6710     8.3540     6.7380     9.3720     2.4380   -22.5750 
  184.7500    71.2620    24.8110     8.3680     6.7310     9.3480     2.4400   -22.6980 
  184.8750    73.5390    24.7840     8.1960     6.6800     9.2640     2.4450   -22.8400 
  185.0000    76.2230    24.8900     7.4990     6.5980     9.1060     2.4520   -22.9850 
  185.1250    76.9320    24.9040     6.6720     6.4970     8.9070     2.4500   -23.1560 
  185.2500    76.9460    24.8880     6.8140     6.3930     8.7270     2.4330   -23.3420 
  185.3750    79.2500    24.8320     7.6880     6.2940     8.5750     2.4120   -23.5280 
  185.5000    82.8280    24.7970     8.6580     6.2110     8.4540     2.3990   -23.7170 
  185.6250    84.2350    24.7430     8.7640     6.1810     8.4110     2.3990   -23.9330 
  185.7500    82.2830    24.5920     8.3290     6.2230     8.4430     2.3990   -24.1650 
  185.8750    78.9400    24.1840     7.9560     6.3490     8.5920     2.3940   -24.4020 
  186.0000    77.4490    23.9480     8.0470     6.5980     8.9450     2.3830   -24.6380 
  186.1250    77.1180    23.8840     8.9190     7.0350     9.5210     2.3670   -24.8730 
  186.2500    77.0240    23.8420     9.9880     7.6140    10.1970     2.3520   -25.1010 
  186.3750    76.8610    23.9250    11.4440     8.2680    10.8980     2.3510   -25.3580 
  186.5000    74.6500    24.1120    11.6680     8.9060    11.5420     2.3690   -25.6440 
  186.6250    70.3390    24.5260    10.6020     9.3970    11.9670     2.3930   -25.9280 
  186.7500    69.6760    24.7510    10.3070     9.6760    12.1100     2.4040   -26.2180 
  186.8750    74.9470    24.7010    12.0310     9.7040    11.9510     2.4020   -26.5170 
  187.0000    81.4710    24.7150    12.3700     9.4900    11.5310     2.3950   -26.8400 
  187.1250    85.0350    24.7440    10.3120     9.1170    11.0300     2.3900   -27.1690 
  187.2500    86.0000    24.7820     8.7390     8.7710    10.6240     2.3890   -27.5080 
  187.3750    83.9170    24.7840     8.8010     8.5670    10.4110     2.3960   -27.8330 
  187.5000    79.9550    24.7270     9.6190     8.5870    10.4930     2.4120   -28.1210 
  187.6250    77.5800    24.6610     9.5060     9.0030    11.1860     2.4300   -28.4080 
  187.7500    78.0690    24.6430     8.5990     9.8670    12.5120     2.4390   -28.6820 
  187.8750    79.5270    24.7350     8.4610    11.2440    14.4260     2.4260   -28.9570 
  188.0000    78.4320    24.3940    10.6620    13.1000    16.7480     2.3820   -29.2010 
  188.1250    74.8910    24.4330    16.9630    15.3630    19.2760     2.3180   -29.4390 
  188.2500    72.7030    24.3240    23.8260    17.8090    21.8160     2.2690   -29.6860 
  188.3750    73.6720    24.3110    27.9080    20.2650    24.2960     2.2490   -29.9560 
  188.5000    75.4740    24.3370    28.5020    22.6320    26.7450     2.2520   -30.2560 
  188.6250    74.7210    24.4790    26.7480    25.0340    29.4310     2.2590   -30.5580 
  188.7500    71.9950    24.4820    27.0110    27.7240    32.5780     2.2540   -30.8780 
  188.8750    68.7360    24.3660    34.1250    30.8770    36.3030     2.2370   -31.2030 
  189.0000    65.5030    24.3140    50.8840    34.5650    40.5840     2.2190   -31.5670 
  189.1250    62.9840    24.3500    62.1230    38.6980    45.1690     2.2050   -31.9550 
  189.2500    61.8040    24.4830    61.6910    42.7880    49.5260     2.1970   -32.3760 
  189.3750    62.2550    24.7250    56.5050    46.4730    53.2700     2.1950   -32.7970 
  189.5000    64.3940    24.8040    51.7010    49.5180    56.2550     2.2020   -33.2210 
  189.6250    67.5340    24.8230    52.4400    51.9300    58.5270     2.2120   -33.6660 
  189.7500    69.6230    24.6750    53.8110    54.1850    60.7180     2.2140   -34.0870 
  189.8750    69.7310    24.0160    55.1830    56.7980    63.4280     2.2090   -34.4850 
  190.0000    67.6550    23.4460    55.2700    59.9700    66.7880     2.2070   -34.8430 
  190.1250    66.5980    23.7580    55.3400    63.5850    70.5500     2.2160   -35.1590 
  190.2500    66.6980    24.2060    57.9930    67.2180    74.3250     2.2260   -35.4010 
  190.3750    64.5810    24.4340    62.5670    70.5810    77.7960     2.2260   -35.5930 
  190.5000    59.6550    24.7590    70.9190    73.4870    80.7230     2.2140   -35.7280 
  190.6250    57.1760    24.7810    79.0220    75.6530    82.5600     2.2040   -35.7960 
  190.7500    58.9080    24.6380    82.1480    77.1510    83.4500     2.2020   -35.8160 
  190.8750    61.2940    24.4010    80.4330    78.1440    83.6630     2.2030   -35.7900 
  191.0000    62.1500    23.9360    70.4740    78.8540    83.4950     2.1970   -35.7220 
  191.1250    62.5870    23.3550    54.3440    79.4800    83.0880     2.1860   -35.6130 
  191.2500    62.6060    23.2530    48.3810    80.1900    82.7960     2.1750   -35.5020 
  191.3750    61.0250    23.6310    59.0540    81.0820    82.8130     2.1690   -35.4000 
  191.5000    58.9010    24.2100    75.7850    82.1120    83.2220     2.1650   -35.3430 
  191.6250    58.5120    24.5350    76.2860    83.3130    84.2600     2.1660   -35.3340 
  191.7500    60.2510    24.5140    69.5090    84.7760    85.7130     2.1690   -35.3620 
  191.8750    62.0620    24.5130    63.5230    86.2700    87.3260     2.1710   -35.3750 
  192.0000    62.2900    24.7140    63.2390    87.7050    89.0670     2.1660   -35.3190 
  192.1250    61.9580    24.5970    68.8190    89.6020    91.6330     2.1520   -35.2140 
  192.2500    61.0470    24.5110    78.0940    92.4540    95.3320     2.1400   -35.1600 
  192.3750    60.8910    24.7130    93.3180    96.5940   100.4760     2.1400   -35.3680 
  192.5000    64.2670    25.0170   106.3990   102.6860   107.7510     2.1560   -35.8070 
  192.6250    70.8570    25.0520   107.4650   111.8690   118.2040     2.1760   -36.1820 
  192.7500    72.7670    25.1010   104.7000   123.6740   131.3220     2.1880   -36.5730 
  192.8750    68.3540    25.1630   118.3490   137.4710   146.4060     2.1910   -37.0320 
  193.0000    63.7750    25.1610   136.9850   151.7290   161.6920     2.1870   -37.6130 
  193.1250    63.1510    25.0200   147.2360   162.2730   172.3840     2.1770   -38.2620 
  193.2500    62.3020    24.9500   158.5990   165.9960   174.9160     2.1650   -38.7990 
  193.3750    59.5360    25.0580   173.0580   161.7090   168.4470     2.1530   -38.8740 
  193.5000    56.8700    25.1060   180.1370   150.2360   154.3960     2.1470   -38.5030 
  193.6250    55.8790    25.0570   176.5980   134.0520   136.5640     2.1540   -38.2130 
