~V
VERS. 2.00: Ver 2.00
~W
STRT.M 60.0000:
STOP.M 264.0000:
STEP.M 0.1250:
NULL. -999.2500:
UWI. DF303:
~C
DEPT.M :
DEN.GM/CC :
SP.MV :
AC.US/MT :
GR.API :
CALI.CM :
RXO.OHMM :
RI. :
RML.OHMM :
~A
# ...
  240.0000     2.4320   -26.9860   341.3800    89.6750    25.1000    13.2340     9.6000    10.8790 
  240.1250     2.4810   -26.7380   326.2030    83.6640    25.1000    14.9550     9.9150    11.4520 
  240.2500     2.5250   -26.5260   310.1710    75.2040    25.0920    17.1970    10.0980    11.8420 
  240.3750     2.5480   -26.3960   303.8780    67.6370    25.0670    19.4220    10.0260    11.8480 
  240.5000     2.5370   -26.3700   312.6760    65.5470    25.0300    18.3790     9.6840    11.4170 
  240.6250     2.4950   -26.4830   331.8130    70.2230    25.0160    13.4060     9.2070    10.7450 
  240.7500     2.4390   -26.7180   348.2090    75.7760    25.0110     9.4690     8.8300    10.2150 
  240.8750     2.3940   -27.0490   354.7900    80.0820    25.0100     8.7010     8.6870    10.0370 
  241.0000     2.3750   -27.4260   353.7610    86.3050    25.0080     9.3300     8.8350    10.2690 
  241.1250     2.3780   -27.8070   350.2810    94.5670    25.0100     9.9100     9.2920    10.8820 
  241.2500     2.3900   -28.1640   347.6710    97.3030    25.0090    10.4520     9.9020    11.6320 
  241.3750     2.3930   -28.4430   346.0690    93.6410    25.0100    11.3250    10.5300    12.3380 
  241.5000     2.3920   -28.6270   344.9070    93.8830    25.0120    12.6270    11.0740    12.9010 
  241.6250     2.3980   -28.6840   343.0310   102.1230    25.0100    13.3850    11.4590    13.2920 
  241.7500     2.4100   -28.6150   338.1180   106.0070    25.0030    13.0980    11.6660    13.5170 
  241.8750     2.4160   -28.4280   330.2500   101.5360    24.9880    12.3140    11.6220    13.4730 
  242.0000     2.4080   -28.1580   322.3770    96.4040    24.9480    11.7300    11.2500    13.0310 
  242.1250     2.3960   -27.8240   319.8800    97.1820    24.8950    11.1510    10.4840    12.0860 
  242.2500     2.3890   -27.4620   329.1290    97.2990    24.8490    10.2620     9.5130    10.8780 
  242.3750     2.3890   -27.1050   346.5730    91.5480    24.8320     8.8570     8.5230     9.6690 
  242.5000     2.3930   -26.7790   364.8630    82.1650    24.8300     7.3790     7.6880     8.6980 
  242.6250     2.3970   -26.5180   376.4470    80.6470    24.8670     6.7240     7.1560     8.1730 
  242.7500     2.3960   -26.3340   377.2620    87.3250    24.9860     6.9020     6.8950     8.0250 
  242.8750     2.3880   -26.2090   372.5720    91.9970    25.1750     7.4580     6.8610     8.1600 
  243.0000     2.3780   -26.1450   367.0860    92.1300    25.3330     7.9120     6.9790     8.4340 
  243.1250     2.3770   -26.1200   363.4680    93.5100    25.3850     8.0780     7.1630     8.6920 
  243.2500     2.3820   -26.1320   362.0930    94.3710    25.3950     8.1520     7.3280     8.8520 
  243.3750     2.3840   -26.1540   361.8400    90.5210    25.3950     8.3970     7.4470     8.9210 
  243.5000     2.3820   -26.1570   362.9150    86.2370    25.3950     8.8400     7.5250     8.9520 
  243.6250     2.3790   -26.1260   365.9260    86.4530    25.3950     9.1260     7.5970     9.0090 
  243.7500     2.3750   -26.0560   370.2380    86.6210    25.3950     8.9690     7.7060     9.1300 
  243.8750     2.3720   -25.9720   372.7440    84.2800    25.3950     8.5280     7.8770     9.3310 
  244.0000     2.3740   -25.8950   370.6140    81.8630    25.3950     8.2290     8.1040     9.6020 
  244.1250     2.3850   -25.7970   363.0300    82.9740    25.3950     8.5420     8.3260     9.8770 
  244.2500     2.4000   -25.6750   352.9170    85.9700    25.3950     9.3980     8.4460    10.0310 
  244.3750     2.4090   -25.5620   346.6230    87.3690    25.3950    10.2580     8.3860     9.9540 
  244.5000     2.4050   -25.4680   347.8530    85.6750    25.3950    10.5150     8.1270     9.6100 
  244.6250     2.3880   -25.4140   356.0830    84.4860    25.3950     9.8580     7.7150     9.0660 
  244.7500     2.3620   -25.4030   366.9780    85.1410    25.3950     8.7880     7.2860     8.5230 
  244.8750     2.3380   -25.4200   375.4890    84.9550    25.3950     7.9100     6.9230     8.1050 
  245.0000     2.3270   -25.4670   380.0240    82.2990    25.3950     7.4710     6.6720     7.8620 
  245.1250     2.3310   -25.5830   381.1660    79.0200    25.3950     7.3210     6.5540     7.7900 
  245.2500     2.3430   -25.7480   380.8160    76.5760    25.3950     7.3130     6.5320     7.8080 
  245.3750     2.3480   -25.9540   380.9010    76.7040    25.3950     7.3940     6.5900     7.8880 
  245.5000     2.3410   -26.2060   380.7000    79.0680    25.3950     7.5140     6.7290     8.0430 
  245.6250     2.3250   -26.4830   377.6330    80.7400    25.3950     7.6120     6.9640     8.3210 
  245.7500     2.3160   -26.7790   369.5240    82.3550    25.3950     7.8910     7.2610     8.6920 
  245.8750     2.3190   -27.0700   360.4600    87.0240    25.3950     8.6960     7.5680     9.0750 
  246.0000     2.3270   -27.3280   355.9090    95.2620    25.3950     9.8030     7.8050     9.3380 
  246.1250     2.3350   -27.5630   358.6740    98.6640    25.3950    10.2010     7.8620     9.3240 
  246.2500     2.3360   -27.7890   366.9820    96.8470    25.3950     9.4970     7.7470     9.0770 
  246.3750     2.3310   -28.0050   375.3770    96.5330    25.3950     8.5150     7.5090     8.7030 
  246.5000     2.3210   -28.2120   381.9680   100.3010    25.3950     7.9780     7.2260     8.3230 
  246.6250     2.3150   -28.4090   387.2330    98.8570    25.3950     7.7670     6.9740     8.0280 
  246.7500     2.3170   -28.6000   391.8990    89.9480    25.3950     7.5700     6.7730     7.8180 
  246.8750     2.3200   -28.8040   395.7750    81.5170    25.3950     7.3450     6.6090     7.6610 
  247.0000     2.3240   -29.0360   398.1340    77.9540    25.3950     7.1110     6.4590     7.5230 
  247.1250     2.3310   -29.2910   398.8990    76.7540    25.3950     6.9190     6.3150     7.3860 
  247.2500     2.3450   -29.5580   398.6980    75.5320    25.3950     6.7970     6.1970     7.2660 
  247.3750     2.3590   -29.8240   398.1400    75.6000    25.3950     6.7300     6.1350     7.2000 
  247.5000     2.3610   -30.1100   396.6580    76.5320    25.3950     6.7070     6.1600     7.2390 
  247.6250     2.3470   -30.4020   393.2350    79.0310    25.3950     6.8650     6.3150     7.4540 
  247.7500     2.3230   -30.6710   386.9370    84.2640    25.3950     7.3020     6.5920     7.8450 
  247.8750     2.3070   -30.9210   378.8340    90.8450    25.3950     8.0140     6.9810     8.3940 
  248.0000     2.3060   -31.1400   370.0510    95.5980    25.3950     9.0220     7.4570     9.0500 
  248.1250     2.3150   -31.3080   361.5120    96.8080    25.3950    10.2260     7.9750     9.7250 
  248.2500     2.3280   -31.4390   354.0060    97.2440    25.3950    11.1340     8.4590    10.3130 
  248.3750     2.3410   -31.5390   348.0480    98.0320    25.3950    11.1760     8.8420    10.7410 
  248.5000     2.3480   -31.5680   344.6260   100.2560    25.3950    10.7330     9.0870    10.9790 
  248.6250     2.3440   -31.5600   344.6820   100.8480    25.3950    10.8600     9.1780    11.0330 
  248.7500     2.3370   -31.5520   348.1830    99.7520    25.3950    11.0670     9.1810    10.9950 
  248.8750     2.3400   -31.5490   351.7480    99.3950    25.4020    10.6800     9.1460    10.9290 
  249.0000     2.3560   -31.5490   352.3440   100.1890    25.4230    10.1390     9.1160    10.8920 
  249.1250     2.3710   -31.5640   349.1810   104.1850    25.4660    10.3740     9.1300    10.9290 
  249.2500     2.3710   -31.5710   344.7650   107.4880    25.4810    11.0490     9.1970    11.0310 
  249.3750     2.3590   -31.5540   342.1980   106.7080    25.4670    11.4020     9.3220    11.1850 
  249.5000     2.3510   -31.5190   341.1910   101.8290    25.4300    11.2260     9.5080    11.3900 
  249.6250     2.3550   -31.4090   339.7660    98.2280    25.3990    11.1890     9.7650    11.6680 
  249.7500     2.3640   -31.2380   337.0830    96.2240    25.3240    11.3210    10.0720    12.0120 
  249.8750     2.3640   -31.0080   334.9840    91.6860    25.1280    11.6640    10.4030    12.3900 
