~V
VERS. 2.00: Ver 2.00
~W
STRT.M 130.0000:
STOP.M 280.0000:
STEP.M 0.1250:
NULL. -999.2500:
UWI. DF3042:
~C
DEPT.M :
DEN.GM/CC :
GR.API :
RML.OHMM :
RI. :
RXO.OHMM :
CALI.CM :
SP.MV :
~A
# ...
  186.2500     2.2660    74.9190    85.9750    80.0410    83.2460    24.9530   -25.3110 
  186.3750     2.2710    73.0840    87.6810    80.0630    86.9370    24.9630   -25.3830 
  186.5000     2.2750    70.7830    88.4340    79.1090    83.1980    24.9750   -25.4640 
  186.6250     2.2750    71.4420    88.4160    77.6390    76.8700    24.9800   -25.5100 
  186.7500     2.2720    73.5570    88.3020    76.4540    74.4020    24.9810   -25.5550 
  186.8750     2.2680    74.2450    88.5560    76.0540    74.8850    24.9810   -25.5870 
  187.0000     2.2630    73.9180    89.4440    76.6620    77.9930    24.9820   -25.6040 
  187.1250     2.2610    73.4190    91.2480    78.4680    80.9800    24.9870   -25.6870 
  187.2500     2.2600    72.0990    94.1880    81.4430    82.9440    25.0020   -25.7260 
  187.3750     2.2610    71.0830    99.0180    86.0870    88.2790    25.0200   -25.8350 
  187.5000     2.2610    71.5770   106.6740    93.1150    95.6580    25.0330   -25.8970 
  187.6250     2.2570    72.8120   117.9020   103.2580    98.7230    25.0130   -25.9280 
  187.7500     2.2490    72.2140   130.3680   114.7660    99.4150    24.9900   -25.9760 
  187.8750     2.2390    69.8420   140.2860   124.6150   103.8850    24.9450   -25.9980 
  188.0000     2.2320    67.9640   142.9320   128.7540   111.1910    24.9680   -26.0740 
  188.1250     2.2370    68.2590   133.3140   122.4300   120.3600    25.0320   -26.0880 
  188.2500     2.2510    68.7400   115.6110   108.2840   123.6810    25.0650   -26.2300 
  188.3750     2.2710    68.7900    96.6150    91.5130   110.7110    25.0000   -26.3530 
  188.5000     2.2850    70.2630    83.2100    78.3620    77.3040    24.7740   -26.5750 
  188.6250     2.2840    72.6150    81.4990    75.3380    50.3520    24.6780   -26.8720 
  188.7500     2.2670    71.7650    91.5270    83.4170    46.8530    24.5620   -27.2430 
  188.8750     2.2430    68.2250   113.3140   102.7140    62.0150    24.6440   -27.6920 
  189.0000     2.2200    65.9440   145.0390   131.2320    91.8430    24.9180   -28.1800 
  189.1250     2.2050    66.5640   181.7720   164.0290   121.8770    25.1660   -28.6670 
  189.2500     2.1990    66.6080   213.9580   192.5160   142.9680    25.1330   -29.1320 
  189.3750     2.1990    65.9210   233.8790   210.3140   164.3730    25.0830   -29.5790 
  189.5000     2.2060    65.0270   238.0030   214.7870   180.3500    25.1050   -29.9860 
  189.6250     2.2170    64.4650   227.6030   206.8510   183.8280    25.1510   -30.3890 
  189.7500     2.2310    64.2840   211.3370   193.4120   179.7650    25.1670   -30.6880 
  189.8750     2.2430    63.8490   193.8480   178.3030   166.7690    25.1640   -31.0200 
  190.0000     2.2510    63.2320   178.0900   164.1830   147.8650    25.1510   -31.2620 
  190.1250     2.2530    65.1130   166.0090   153.0600   124.7020    25.2500   -31.6160 
  190.2500     2.2500    68.5190   156.8070   144.6650   109.1320    25.2350   -31.9060 
  190.3750     2.2430    68.4480   149.5200   138.3750   107.6650    25.2190   -32.2690 
  190.5000     2.2370    65.1140   143.3000   133.4870   115.9770    25.2260   -32.5870 
  190.6250     2.2330    65.3650   137.9080   129.6940   119.1230    25.2600   -32.8660 
  190.7500     2.2320    69.6120   133.3530   126.7100   115.2000    25.3060   -33.2400 
  190.8750     2.2340    73.2440   129.7860   124.4870   110.6500    25.3580   -33.5450 
  191.0000     2.2390    74.2800   127.1730   122.8950   111.8060    25.3840   -33.9350 
  191.1250     2.2460    73.9220   125.4250   121.7940   117.3400    25.4040   -34.1920 
  191.2500     2.2530    71.9950   124.2160   120.9440   119.2250    25.4110   -34.4760 
  191.3750     2.2570    69.5350   123.4640   120.2800   114.7050    25.4210   -34.6720 
  191.5000     2.2550    68.9680   123.1530   119.7970   104.9320    25.4430   -34.9180 
  191.6250     2.2450    70.3800   123.4230   119.6170    96.4950    25.4550   -35.2310 
  191.7500     2.2330    70.2860   124.4350   119.9430    93.0060    25.4220   -35.4610 
  191.8750     2.2240    68.8720   126.8000   121.3510    97.2380    25.3140   -35.7330 
  192.0000     2.2200    67.9250   131.7470   125.0090   102.5710    25.2120   -35.9130 
  192.1250     2.2230    68.1510   142.5340   134.0110   107.7840    25.1610   -36.2060 
  192.2500     2.2250    67.1290   161.5860   150.6860   112.6110    25.1500   -36.4870 
  192.3750     2.2240    64.0260   191.6390   177.5150   128.8260    25.1550   -36.8130 
  192.5000     2.2170    60.5420   234.0050   215.4860   161.6510    25.1750   -37.0540 
  192.6250     2.2060    58.0900   288.3400   263.8110   224.9600    25.2110   -37.2590 
  192.7500     2.1940    57.6490   346.7550   315.1220   287.5400    25.2300   -37.3960 
  192.8750     2.1860    59.0030   401.5220   362.5780   321.6580    25.2350   -37.5290 
  193.0000     2.1830    59.8900   445.5350   400.2800   332.8000    25.2350   -37.5850 
  193.1250     2.1840    58.5180   472.1350   422.9910   335.6430    25.2350   -37.5440 
  193.2500     2.1830    56.3550   482.8180   432.5530   326.5980    25.2340   -37.4480 
  193.3750     2.1760    55.2100   476.5430   428.5720   320.3390    25.2320   -37.2510 
  193.5000     2.1650    55.4940   452.1150   410.1630   331.1800    25.2240   -37.0600 
  193.6250     2.1590    56.6350   409.5920   376.5860   343.1630    25.1970   -36.7030 
  193.7500     2.1640    58.4420   359.8710   335.7200   338.5630    25.1600   -36.4530 
  193.8750     2.1810    60.6030   312.1430   294.8060   311.4760    25.1110   -36.1070 
  194.0000     2.2070    63.3500   273.3850   260.2540   259.8900    25.0450   -35.7540 
  194.1250     2.2290    66.4390   249.0290   237.8800   218.4430    24.8120   -35.3910 
  194.2500     2.2400    68.8680   236.7500   226.6280   201.6360    24.7360   -34.9550 
  194.3750     2.2410    69.2950   234.1500   224.6940   199.2960    24.7710   -34.5180 
  194.5000     2.2350    67.7190   237.1520   228.4460   190.0330    24.9070   -34.0030 
  194.6250     2.2290    65.1470   239.3240   231.9380   186.6910    24.9850   -33.6000 
  194.7500     2.2250    63.1030   234.6610   229.3290   191.4580    25.0400   -33.0290 
  194.8750     2.2260    60.9770   220.4770   217.8040   199.1430    25.0530   -32.5230 
  195.0000     2.2290    59.4270   198.1130   198.0680   197.8200    25.0600   -32.0130 
  195.1250     2.2320    59.3230   172.9890   174.3000   175.4210    25.0690   -31.5310 
  195.2500     2.2320    60.9220   151.8930   152.9790   145.8510    25.0690   -31.1130 
  195.3750     2.2270    62.7550   137.8370   137.5270   125.0600    25.0690   -30.7310 
  195.5000     2.2200    62.3610   130.9970   128.8130   110.2460    25.0690   -30.4080 
  195.6250     2.2150    59.6380   130.2910   126.2940   106.9090    25.0690   -30.0720 
  195.7500     2.2160    57.3440   132.3550   126.7720   108.8120    25.0610   -29.8160 
  195.8750     2.2220    58.1150   135.7070   128.7040   116.8160    25.0270   -29.4910 
  196.0000     2.2300    62.0910   140.0530   131.6060   124.3820    24.9500   -29.2240 
  196.1250     2.2320    67.0180   146.3080   136.0680   115.3150    24.9080   -28.8510 
  196.2500     2.2240    69.7960   154.1630   141.7330    95.9960    24.8940   -28.5430 
  196.3750     2.2090    67.9320   161.7690   147.0170    89.9180    24.8930   -28.1800 
  196.5000     2.1920    63.2790   165.9370   149.3220    95.8210    24.8930   -27.8560 
  196.6250     2.1820    60.6090   162.3310   145.2620   134.9140    24.8920   -27.4410 
  196.7500     2.1850    61.1430   151.5150   135.4190   166.3430    24.8840   -27.0660 
  196.8750     2.2030    63.2750   135.8320   121.6130   148.6800    24.8640   -26.6680 
  197.0000     2.2320    65.1820   118.6410   106.4540   113.0420    24.8490   -26.1900 
  197.1250     2.2670    66.8370   102.9360    92.4250    98.1580    24.8500   -25.7960 
  197.2500     2.2970    67.8880    89.5550    80.3930   106.1690    24.8970   -25.2560 
  197.3750     2.3140    67.6240    78.6410    70.5370    95.2490    24.9990   -24.7210 
