~V
VERS. 2.00: Ver 2.00
~W
STRT.M 60.0000:
STOP.M 273.0000:
STEP.M 0.1250:
NULL. -999.2500:
UWI. DF3001:
~C
DEPT.M :
DEN.GM/CC :
SP.MV :
AC.US/MT :
GR.API :
RML.OHMM :
RI. :
RXO.OHMM :
CALI.CM :
~A
# ...
  220.0000     2.2360   -11.0950   406.1760    74.4480     5.8940     5.4310     5.0300    24.5850 
  220.1250     2.2690   -11.1930   411.7870    79.4100     6.3320     5.7020     5.2770    24.5720 
  220.2500     2.3100   -11.3300   409.4120    83.0100     6.8240     6.1090     5.8570    24.5590 
  220.3750     2.3470   -11.4580   398.6410    90.6990     7.2800     6.5430     6.5910    24.5490 
  220.5000     2.3740   -11.5950   388.8020   100.5070     7.6110     6.9020     7.3100    24.5370 
  220.6250     2.3880   -11.7030   378.6790   103.3830     7.7160     7.0800     7.4760    24.5130 
  220.7500     2.3910   -11.7110   371.4700   101.9730     7.6420     7.0850     7.4360    24.5020 
  220.8750     2.3870   -11.6360   370.0970   102.5050     7.4860     6.9740     7.3410    24.4990 
  221.0000     2.3800   -11.5030   371.1070   106.2620     7.3820     6.8460     7.2890    24.4990 
  221.1250     2.3740   -11.3780   372.1990   112.1170     7.4660     6.8110     7.2710    24.4990 
  221.2500     2.3710   -11.3500   372.6010   117.8800     7.7280     6.8970     7.2660    24.4990 
  221.3750     2.3700   -11.3870   372.4840   126.2010     8.0990     7.0730     7.3400    24.4990 
  221.5000     2.3690   -11.4540   372.9510   134.1890     8.4750     7.2730     7.4860    24.5060 
  221.6250     2.3660   -11.5220   374.8880   135.9380     8.7230     7.4010     7.6490    24.5300 
  221.7500     2.3580   -11.5360   378.9150   135.2220     8.8030     7.4140     7.7210    24.5790 
  221.8750     2.3490   -11.5490   384.0520   137.5170     8.7240     7.3130     7.6950    24.6370 
  222.0000     2.3420   -11.5750   385.3040   142.1940     8.5290     7.1380     7.6820    24.6770 
  222.1250     2.3410   -11.5430   380.7880   142.7080     8.2670     6.9570     7.7110    24.6920 
  222.2500     2.3490   -11.4280   374.0820   140.1480     7.9720     6.8180     7.7930    24.6940 
  222.3750     2.3640   -11.1990   370.8230   138.7660     7.6870     6.7300     7.8540    24.6950 
  222.5000     2.3800   -10.9210   370.1990   135.9660     7.4790     6.6800     7.8660    24.6940 
  222.6250     2.3910   -10.7230   369.4380   128.6200     7.3840     6.6630     7.8510    24.6940 
  222.7500     2.3900   -10.5880   368.4950   119.7090     7.4160     6.6750     7.8550    24.6850 
  222.8750     2.3790   -10.4910   367.8660   113.1040     7.5340     6.7190     7.8720    24.6720 
  223.0000     2.3620   -10.3960   367.9050   112.0550     7.7420     6.8400     7.8050    24.6640 
  223.1250     2.3490   -10.2580   368.5200   116.7620     8.0350     7.0040     7.6150    24.6600 
  223.2500     2.3450   -10.1760   368.9300   122.0720     8.4020     7.2100     7.6130    24.6410 
  223.3750     2.3480   -10.1800   367.8780   123.0140     8.8400     7.4770     7.7920    24.5900 
  223.5000     2.3530   -10.2180   365.1850   118.5760     9.4300     7.8850     8.2260    24.4870 
  223.6250     2.3540   -10.2530   361.3250   115.1500    10.1500     8.5720     9.0440    24.3320 
  223.7500     2.3490   -10.3090   357.4820   113.9270    10.8210     9.2510     9.9820    24.1610 
  223.8750     2.3390   -10.4070   355.9870   112.7210    11.2970     9.7870    10.6540    24.0470 
  224.0000     2.3280   -10.5590   358.1480   112.7740    11.4890    10.0730    10.4020    24.0170 
  224.1250     2.3160   -10.7850   363.5630   115.0400    11.3510    10.0250     9.7590    24.1400 
  224.2500     2.3060   -11.0620   369.7820   116.4840    11.0020     9.7400     9.3460    24.3790 
  224.3750     2.3000   -11.4000   374.1710   116.1360    10.5120     9.2910     9.2210    24.6280 
  224.5000     2.3000   -11.8160   377.0110   117.5970     9.9500     8.7550     8.9510    24.7660 
  224.6250     2.3080   -12.2810   378.6350   118.4590     9.3720     8.2160     8.8690    24.8040 
  224.7500     2.3200   -12.7800   378.6130   116.1760     8.9120     7.7850     8.6960    24.8070 
  224.8750     2.3300   -13.3380   376.8390   112.3150     8.8010     7.6200     8.5630    24.8450 
  225.0000     2.3310   -13.9700   374.8300   109.0050     9.3740     8.0710     9.4100    24.9620 
  225.1250     2.3200   -14.7260   372.8830   104.9960    12.0050    10.3820    13.6460    25.1710 
  225.2500     2.2990   -15.5440   369.8530    97.3770    18.3210    16.0080    25.3210    25.2960 
  225.3750     2.2760   -16.3660   363.7700    87.0170    30.5470    26.6830    47.0050    25.3300 
  225.5000     2.2570   -17.1670   354.8820    75.7020    49.9030    43.3850    77.6660    25.3170 
  225.6250     2.2430   -18.0050   345.4610    69.8600    75.4770    65.6380   114.9840    25.2830 
  225.7500     2.2350   -18.8300   339.5550    68.1370   102.1890    88.5170   141.4780    25.2600 
  225.8750     2.2290   -19.5870   342.1950    65.9640   123.5000   107.2430   146.4060    25.2390 
  226.0000     2.2250   -20.2800   351.4630    61.5690   134.9860   118.8570   143.6300    25.2290 
  226.1250     2.2220   -20.8100   362.1800    57.6150   137.9920   123.5490   140.5000    25.2220 
  226.2500     2.2210   -21.1860   369.1280    55.7440   139.4760   125.7870   139.7800    25.2120 
  226.3750     2.2230   -21.4330   370.4600    56.8750   141.7390   127.6460   142.9150    25.2010 
  226.5000     2.2270   -21.5300   369.8330    60.0060   144.7260   129.7010   147.5800    25.1950 
  226.6250     2.2320   -21.5070   369.2480    62.1340   147.4890   131.7060   149.6250    25.1930 
  226.7500     2.2340   -21.4350   368.5490    59.4810   149.3510   133.3500   146.4710    25.1670 
  226.8750     2.2350   -21.3540   366.8740    55.4480   149.6440   134.3700   141.3410    25.0810 
  227.0000     2.2330   -21.2610   364.7440    55.4090   147.8720   134.3130   136.8200    24.9150 
  227.1250     2.2330   -21.1270   362.9490    60.8640   142.9760   132.0100   134.5500    24.8240 
  227.2500     2.2350   -20.9770   362.5380    66.4360   135.4130   127.0180   134.5390    24.7950 
  227.3750     2.2400   -20.8870   364.0570    67.8190   126.0010   119.3440   131.4860    24.7960 
  227.5000     2.2470   -20.8150   365.8780    64.7830   116.9420   109.8710   121.2440    24.7750 
  227.6250     2.2560   -20.7640   366.4200    61.4560   109.2260   100.2800   103.2770    24.7000 
  227.7500     2.2630   -20.7140   365.5310    60.4520   102.7040    92.2150    86.1990    24.6070 
  227.8750     2.2670   -20.5670   364.6410    61.6080    96.4740    86.5360    78.4420    24.5670 
  228.0000     2.2680   -20.4230   364.5010    63.4990    93.3180    83.4670    79.5420    24.5920 
  228.1250     2.2650   -20.3840   364.7890    65.6120    92.7680    82.8820    80.3690    24.6680 
  228.2500     2.2590   -20.4020   365.2030    66.1140    93.1240    83.4040    79.8950    24.7020 
  228.3750     2.2530   -20.4470   365.4090    64.1350    93.1110    83.9260    80.8580    24.7060 
  228.5000     2.2480   -20.4720   365.0670    61.4070    91.7930    83.5260    83.8250    24.7040 
  228.6250     2.2450   -20.4560   364.0930    60.5910    88.8940    81.7240    84.9200    24.7050 
  228.7500     2.2440   -20.4230   362.8180    60.8470    85.6570    79.3860    79.5010    24.6830 
  228.8750     2.2450   -20.3700   362.3200    61.6690    83.2910    77.5340    71.0910    24.5920 
  229.0000     2.2470   -20.3120   362.9130    63.0980    82.4920    76.9240    64.8380    24.4340 
  229.1250     2.2500   -20.2240   363.8810    64.0400    83.0230    77.6400    66.5910    24.3030 
  229.2500     2.2550   -20.0800   364.3820    62.8310    83.2050    78.3550    73.3030    24.2970 
  229.3750     2.2630   -19.8820   363.9860    61.4630    81.5460    77.7080    80.8620    24.3270 
  229.5000     2.2730   -19.6710   362.5410    63.1620    77.3360    74.8190    81.8210    24.2860 
  229.6250     2.2820   -19.4160   359.6050    67.5290    71.1850    69.7320    71.8440    24.1040 
  229.7500     2.2860   -19.1940   355.7670    70.5400    65.2970    64.2590    57.6960    23.8790 
  229.8750     2.2840   -19.0420   353.6900    69.6150    60.9740    59.7620    47.5350    23.8610 
