~V
VERS. 2.00: Ver 2.00
~W
STRT.M 60.0000:
STOP.M 282.0000:
STEP.M 0.1250:
NULL. -999.2500:
UWI. DF3058:
~C
DEPT.M :
GR.API :
RML.OHMM :
RI. :
RXO.OHMM :
CALI.CM :
DEN.GM/CC :
SP.MV :
~A
   60.0000    49.8610    15.2340     1.3210     4.2540    25.3250  -999.2500  -999.2500 
   60.1250    48.9470    14.9330     1.3230     4.1910    25.3060  -999.2500  -999.2500 
   60.2500    49.2960    14.7320     1.3230     4.9680    25.2750  -999.2500  -999.2500 
   60.3750    50.9290    14.6350     1.3220     6.8100    25.2530  -999.2500  -999.2500 
   60.5000    53.0010    14.6130     1.3210     8.9640    25.2360  -999.2500  -999.2500 
   60.6250    52.9510    14.6220     1.3210     9.5310    25.1640  -999.2500  -999.2500 
   60.7500    50.4390    14.6140     1.3250    10.0440    24.9550  -999.2500  -999.2500 
   60.8750    47.1830    14.5670     1.3340     9.6530    24.5900  -999.2500  -999.2500 
   61.0000    45.5860    14.4510     1.3470     9.1960    24.1830  -999.2500  -999.2500 
   61.1250    45.8860    14.2260     1.3610     9.5510    23.9630  -999.2500  -999.2500 
   61.2500    46.7640    13.9250     1.3730     9.0870    23.9260  -999.2500  -999.2500 
   61.3750    48.0090    13.6100     1.3810     7.7980    23.9560  -999.2500  -999.2500 
   61.5000    49.8100    13.3560     1.3840     6.7260    24.0070  -999.2500  -999.2500 
   61.6250    50.5220    13.2180     1.3840     5.4710    24.0290  -999.2500  -999.2500 
   61.7500    49.0870    13.1410     1.3840     4.0720    24.0300  -999.2500  -999.2500 
   61.8750    45.6040    13.0680     1.3850     2.6420    24.0080  -999.2500  -999.2500 
   62.0000    41.9640    12.9640     1.3880     2.1970    23.9980  -999.2500  -999.2500 
   62.1250    39.3450    12.8120     1.3960     2.6100    23.9540  -999.2500  -999.2500 
   62.2500    38.6330    12.6120     1.4060     3.4550    23.9890  -999.2500  -999.2500 
   62.3750    41.5510    12.3470     1.4170     4.4490    24.0320  -999.2500  -999.2500 
   62.5000    46.6700    12.0020     1.4250     5.1760    24.0540  -999.2500  -999.2500 
   62.6250    49.5450    11.5730     1.4300     4.8750    24.1890  -999.2500  -999.2500 
   62.7500    51.0300    11.1100     1.4320     4.0190    24.4590  -999.2500  -999.2500 
   62.8750    53.4800    10.6540     1.4350     3.2360    24.7150  -999.2500  -999.2500 
   63.0000    56.7410    10.2500     1.4410     2.6750    24.8710  -999.2500  -999.2500 
   63.1250    58.1640     9.9620     1.4510     2.3910    24.9060  -999.2500  -999.2500 
   63.2500    57.0870     9.8020     1.4650     2.2770    24.9170  -999.2500  -999.2500 
   63.3750    53.0040     9.7530     1.4760     2.2080    24.9170  -999.2500  -999.2500 
   63.5000    46.1270     9.7530     1.4840     2.1610    24.9170  -999.2500  -999.2500 
   63.6250    39.9890     9.7170     1.4840     2.1540    24.9170  -999.2500  -999.2500 
   63.7500    37.1300     9.6030     1.4780     2.1700    24.9170  -999.2500  -999.2500 
   63.8750    36.8680     9.4090     1.4690     2.1880    24.9170  -999.2500  -999.2500 
   64.0000    38.5840     9.1490     1.4590     2.1990    24.9170  -999.2500  -999.2500 
   64.1250    41.6780     8.8270     1.4520     2.2000    24.9170  -999.2500  -999.2500 
   64.2500    44.8430     8.4640     1.4470     2.1890    24.9170  -999.2500  -999.2500 
   64.3750    47.0420     8.0790     1.4440     2.1760    24.9170  -999.2500  -999.2500 
   64.5000    49.0270     7.7120     1.4400     2.1710    24.9170  -999.2500  -999.2500 
   64.6250    51.3240     7.4590     1.4330     2.1760    24.9140  -999.2500  -999.2500 
   64.7500    53.1750     7.4040     1.4230     2.1640    24.9000  -999.2500  -999.2500 
   64.8750    53.5740     7.5780     1.4080     2.1060    24.8720  -999.2500  -999.2500 
   65.0000    52.5870     7.9040     1.3790     1.9840    24.8410  -999.2500  -999.2500 
   65.1250    51.6630     8.0720     1.3120     1.8180    24.8050  -999.2500  -999.2500 
   65.2500    51.0860     7.7020     1.1850     1.6530    24.7640  -999.2500  -999.2500 
   65.3750    51.7080     6.5110     0.9880     1.3890    24.7340  -999.2500  -999.2500 
   65.5000    55.0720     4.5370     0.7310     1.2300    24.7000  -999.2500  -999.2500 
   65.6250    60.9430     2.4840     0.4700     0.9600    24.6830  -999.2500  -999.2500 
   65.7500    65.0490     1.1110     0.2680     0.4730    24.6760  -999.2500  -999.2500 
   65.8750    66.6160     0.4060     0.1420     0.3530    24.6740  -999.2500  -999.2500 
   66.0000    68.9300     0.1210     0.0850     1.8720    24.5490  -999.2500  -999.2500 
   66.1250    75.2740     0.1710     0.1290     2.8140    23.9940  -999.2500  -999.2500 
   66.2500    83.1780     0.5220     0.3260     4.3250    23.0260  -999.2500  -999.2500 
   66.3750    86.9670     1.2260     0.7620     6.3040    22.2200  -999.2500  -999.2500 
   66.5000    82.8540     2.2750     1.5050     8.1780    21.8240  -999.2500  -999.2500 
   66.6250    76.9060     3.5430     2.5910     9.1030    21.7230  -999.2500  -999.2500 
   66.7500    76.3060     4.6960     3.8260     9.4570    21.6730  -999.2500  -999.2500 
   66.8750    79.3580     5.4950     5.0070     9.8820    21.7340  -999.2500  -999.2500 
   67.0000    82.1000     5.9340     5.9760    10.3280    21.9050  -999.2500  -999.2500 
   67.1250    83.7810     6.2230     6.6640    10.5040    22.1110  -999.2500  -999.2500 
   67.2500    84.4920     6.5410     7.1760    10.6270    22.0300  -999.2500  -999.2500 
   67.3750    83.4640     6.8990     7.5760    10.8400    21.9380  -999.2500  -999.2500 
   67.5000    82.5160     7.2690     7.9160    11.1540    21.9070  -999.2500  -999.2500 
   67.6250    79.6000     7.6450     8.2480    11.3070    21.9860  -999.2500  -999.2500 
   67.7500    73.7730     8.0350     8.5990    11.2930    22.2320  -999.2500  -999.2500 
   67.8750    69.0880     8.4290     8.9480    11.2140    22.6230  -999.2500  -999.2500 
   68.0000    69.0070     8.7770     9.2370    11.1480    22.8320  -999.2500  -999.2500 
   68.1250    70.9110     8.9600     9.3510    11.1250    22.7620  -999.2500  -999.2500 
   68.2500    72.0700     8.9140     9.2460    10.8640    22.6360  -999.2500  -999.2500 
   68.3750    74.4820     8.6210     8.9170    10.2760    22.7930  -999.2500  -999.2500 
   68.5000    79.1060     8.1360     8.4190     9.4410    23.1630  -999.2500  -999.2500 
   68.6250    85.2660     7.5870     7.8620     8.3230    23.5240  -999.2500  -999.2500 
   68.7500    90.5220     7.1280     7.3810     7.3520    23.6940  -999.2500  -999.2500 
   68.8750    94.6620     6.8450     7.0530     6.7960    23.8870  -999.2500  -999.2500 
   69.0000    97.8450     6.7640     6.9090     6.5620    23.9360  -999.2500  -999.2500 
   69.1250    98.4050     6.8780     6.9510     6.6700    23.9100  -999.2500  -999.2500 
   69.2500    97.4140     7.0800     7.0820     6.8550    23.9690  -999.2500  -999.2500 
   69.3750    97.1320     7.2780     7.2160     6.8780    24.2370  -999.2500  -999.2500 
   69.5000    98.3190     7.3850     7.2670     6.6880    24.5120  -999.2500  -999.2500 
   69.6250    97.7160     7.2960     7.1390     6.3230    24.6530  -999.2500  -999.2500 
   69.7500    96.3970     7.0040     6.8330     5.9580    24.6980  -999.2500  -999.2500 
   69.8750    96.6990     6.5210     6.3730     5.5660    24.7060  -999.2500  -999.2500 
   70.0000    98.4640     5.9150     5.8220     5.2400    24.7060  -999.2500  -999.2500 
   70.1250    99.4970     5.3510     5.3200     5.0570    24.7060  -999.2500  -999.2500 
   70.2500   102.2960     5.0730     5.0610     5.0520    24.7080  -999.2500  -999.2500 
   70.3750   106.8040     5.3290     5.2530     5.4390    24.7100  -999.2500  -999.2500 
   70.5000   107.4540     6.2720     6.0420     6.8950    24.7010  -999.2500  -999.2500 
   70.6250   100.2780     7.9080     7.4760     9.9620    24.6550  -999.2500  -999.2500 
   70.7500    90.8160     9.6860     9.1110    13.7590    24.4450  -999.2500  -999.2500 
   70.8750    84.6380    10.9740    10.4200    17.3480    23.9070  -999.2500  -999.2500 
   71.0000    81.0380    11.1850    10.8790    18.0530    23.1250  -999.2500  -999.2500 
   71.1250    80.8080    10.1110    10.1860    13.5200    22.7380  -999.2500  -999.2500 
