~V
VERS. 2.00: Ver 2.00
~W
STRT.M 110.0000:
STOP.M 277.0000:
STEP.M 0.1250:
NULL. -999.2500:
UWI. DF3015:
~C
DEPT.M :
DEN.GM/CC :
SP.MV :
AC.US/MT :
GR.API :
CALI.CM :
RXO.OHMM :
RI. :
RML.OHMM :
~A
# ...
  130.0000     2.3650   -19.4370   389.5480    73.7400    24.9610     7.7520     8.1460     8.7940 
  130.1250     2.3210   -19.0380   398.0130    76.8850    24.9880     7.2900     7.6760     8.2670 
  130.2500     2.2770   -18.7720   403.4470    79.9100    25.0010     7.4930     7.4710     8.1890 
  130.3750     2.2500   -18.6630   405.9340    81.8130    25.0300     7.9490     7.5290     8.4960 
  130.5000     2.2450   -18.6380   407.3170    82.1300    25.0520     8.6830     7.7100     8.9250 
  130.6250     2.2570   -18.5930   409.7050    84.0810    25.0850     8.8790     7.6920     8.9490 
  130.7500     2.2710   -18.4440   412.9310    90.0000    25.1550     8.2430     7.3100     8.3790 
  130.8750     2.2840   -18.1130   415.3020    95.2170    25.2410     7.1650     6.6760     7.4600 
  131.0000     2.2990   -17.6720   414.8130    93.0330    25.2860     6.0070     6.0600     6.6370 
  131.1250     2.3150   -17.3580   410.3630    85.1730    25.2750     5.3090     5.7570     6.3420 
  131.2500     2.3170   -17.2800   404.2910    78.2320    25.1660     5.8000     5.8460     6.6120 
  131.3750     2.3000   -17.4320   399.0740    75.0580    24.8980     7.5490     6.3210     7.3630 
  131.5000     2.2730   -17.8200   396.3920    73.2190    24.5460     9.6640     7.0770     8.3690 
  131.6250     2.2500   -18.4520   395.9740    70.3050    24.3910    10.8500     7.9240     9.3040 
  131.7500     2.2310   -19.1750   394.2690    67.2800    24.3520    11.2420     8.7020    10.0510 
  131.8750     2.2220   -19.8680   387.8500    65.2060    24.3690    11.3770     9.4130    10.7280 
  132.0000     2.2360   -20.3160   375.6060    64.6780    24.4370    12.0420    10.1000    11.4750 
  132.1250     2.2910   -20.1820   361.7660    66.2770    24.6020    15.0990    10.6670    12.1920 
  132.2500     2.3700   -19.4640   354.9940    69.9480    24.7410    20.0790    10.8350    12.4160 
  132.3750     2.4370   -18.2980   361.0620    77.0690    24.7900    21.4340    10.2910    11.6610 
  132.5000     2.4510   -16.8940   379.9170    86.0410    24.7360    15.6940     9.0240     9.9370 
  132.6250     2.3890   -15.4280   404.1110    93.6730    24.5860     8.4390     7.4690     7.9490 
  132.7500     2.3070   -14.0490   421.6440    97.9700    24.4710     5.0360     6.1810     6.4510 
  132.8750     2.2530   -12.8710   426.5420    96.3030    24.4290     4.2020     5.3600     5.6610 
  133.0000     2.2480   -12.0690   419.3380    90.4550    24.4240     4.3440     5.0380     5.5640 
  133.1250     2.2740   -11.8330   405.8700    84.0470    24.4240     5.4610     5.2230     6.0910 
  133.2500     2.2950   -11.9950   394.4390    80.8460    24.4240     7.2020     5.6860     6.8670 
  133.3750     2.3000   -12.4200   388.2220    80.6890    24.4240     8.3210     6.2020     7.5440 
  133.5000     2.2940   -13.0420   386.5360    80.9180    24.4240     8.2460     6.5550     7.8550 
  133.6250     2.2840   -13.8540   385.9300    82.7930    24.4240     8.1930     6.6350     7.7480 
  133.7500     2.2780   -14.8040   383.8000    86.1250    24.4280     8.4650     6.5930     7.5270 
  133.8750     2.2770   -15.8690   380.9700    86.8400    24.4450     8.3490     6.5890     7.4240 
  134.0000     2.2770   -17.0140   379.7100    84.3240    24.4810     7.9350     6.7450     7.5890 
  134.1250     2.2640   -18.1350   381.4650    80.8890    24.4690     8.6750     7.1430     8.0970 
  134.2500     2.2450   -19.1210   383.2940    79.5530    24.3880    10.2200     7.7140     8.8320 
  134.3750     2.2350   -19.9170   380.5120    82.0150    24.2700    11.2480     8.4330     9.7620 
  134.5000     2.2480   -20.4030   368.8380    86.7220    24.2020    11.2440     9.3040    10.8910 
  134.6250     2.2940   -20.4300   347.3280    89.7310    24.1890    10.8860    10.2620    12.1250 
  134.7500     2.3640   -20.0640   325.4470    89.3190    24.1890    11.5340    11.0190    13.0670 
  134.8750     2.4410   -19.3060   313.8420    89.2960    24.1890    14.0570    11.2090    13.2210 
  135.0000     2.4990   -18.1820   319.9360    93.8750    24.1890    16.5340    10.5920    12.2700 
  135.1250     2.5050   -16.8330   344.6110    99.2430    24.1880    13.7200     9.2310    10.3710 
  135.2500     2.4700   -15.5380   374.3960    98.5290    24.1870     8.6120     7.7470     8.4350 
  135.3750     2.4240   -14.4090   398.5660    93.7360    24.1800     5.3510     6.5260     6.9870 
  135.5000     2.3880   -13.4920   411.6350    90.9280    24.1650     4.5990     5.7340     6.2010 
  135.6250     2.3640   -12.8310   414.1080    90.9090    24.1340     4.7630     5.4410     6.0850 
  135.7500     2.3430   -12.4210   413.4220    92.8110    24.1210     4.9800     5.4750     6.3190 
  135.8750     2.3320   -12.1880   413.4870    95.4100    24.1190     5.0090     5.6760     6.6310 
  136.0000     2.3380   -12.0420   415.4060    99.8350    24.1180     4.8360     5.8660     6.7860 
  136.1250     2.3560   -11.9010   418.4450   104.4610    24.1170     4.5440     5.9130     6.6790 
  136.2500     2.3670   -11.7170   421.2100   108.2880    24.1170     4.3120     5.8540     6.4640 
  136.3750     2.3710   -11.4870   423.1710   107.9870    24.1180     4.2840     5.7510     6.2490 
  136.5000     2.3740   -11.2170   424.4090   104.8990    24.1230     4.4810     5.6520     6.0840 
  136.6250     2.3710   -10.9080   425.2290   103.4430    24.1260     4.6740     5.5760     5.9780 
  136.7500     2.3580   -10.5120   425.6930   103.2630    24.1380     4.7830     5.5110     5.8950 
  136.8750     2.3420   -10.0960   425.4260   100.9510    24.1710     4.8120     5.4400     5.8130 
  137.0000     2.3380    -9.7210   423.9920    97.5600    24.2780     4.7730     5.3630     5.7360 
  137.1250     2.3490    -9.3970   420.7870    95.9520    24.5520     4.7460     5.3100     5.7070 
  137.2500     2.3530    -9.1440   415.9950    95.9300    24.8970     4.8280     5.3160     5.7610 
  137.3750     2.3450    -8.9560   410.2050    94.5440    25.0840     4.9960     5.3950     5.8990 
  137.5000     2.3360    -8.8550   404.7890    94.4380    25.1310     5.2360     5.5250     6.0810 
  137.6250     2.3440    -8.8370   402.0450    96.6160    25.1310     5.5260     5.6540     6.2310 
  137.7500     2.3590    -8.8690   402.3090    99.4780    25.1310     5.6650     5.7330     6.3010 
  137.8750     2.3650    -8.9610   404.2790    99.1980    25.1240     5.4620     5.7620     6.3150 
  138.0000     2.3550    -9.0900   405.1410    97.7490    25.0440     5.1480     5.7940     6.3770 
  138.1250     2.3380    -9.2360   401.3680    95.9460    24.7860     5.2510     5.9260     6.6450 
  138.2500     2.3350    -9.3480   393.6610    92.5730    24.4390     5.7090     6.1750     7.1130 
  138.3750     2.3520    -9.4150   385.3670    87.7330    24.2390     6.3390     6.4700     7.6310 
  138.5000     2.3770    -9.4250   380.8270    83.9470    24.1820     6.9230     6.6490     7.9080 
  138.6250     2.3900    -9.3950   382.4060    84.0510    24.1810     6.9270     6.5110     7.6200 
  138.7500     2.3900    -9.3320   384.6050    88.3150    24.1810     6.4140     6.1690     7.0190 
  138.8750     2.3890    -9.2330   379.7650    91.7630    24.1850     5.6560     5.8730     6.5490 
  139.0000     2.4060    -9.0900   361.9600    87.1630    24.1880     5.3280     5.8940     6.6360 
  139.1250     2.4540    -8.9240   330.2990    73.5740    24.1890     6.6870     6.5900     7.7580 
  139.2500     2.5200    -8.7610   295.3830    60.0920    24.1890    10.6350     8.0940     9.9930 
  139.3750     2.5930    -8.5880   266.3660    55.2600    24.1890    16.0680    10.5170    13.3860 
  139.5000     2.6580    -8.4060   248.6100    53.8210    24.2130    20.1820    13.7010    17.6030 
  139.6250     2.6910    -8.2180   243.0340    51.2600    24.3580    20.8900    16.8900    21.4150 
  139.7500     2.6920    -8.0670   243.0500    49.2690    24.6650    20.4630    19.1140    23.5820 
  139.8750     2.6700    -7.9560   244.6320    50.4890    24.9990    19.9310    20.0880    24.0030 
