~V
VERS. 2.00: Ver 2.00
~W
STRT.M 125.0000:
STOP.M 247.0000:
STEP.M 0.1250:
NULL. -999.2500:
UWI. DF3017:
~C
DEPT.M :
DEN.GM/CC :
GR.API :
RML.OHMM :
RI. :
RXO.OHMM :
CALI.CM :
SP.MV :
~A
# ...
  136.2500     2.3020    97.0980     6.8730     5.8420     6.2170    24.3670   -16.3090 
  136.3750     2.2880    92.4310     6.7140     5.7450     6.3170    24.3870   -16.3760 
  136.5000     2.2830    90.3160     6.5410     5.6190     6.0270    24.3930   -16.4250 
  136.6250     2.2860    94.0540     6.3950     5.4910     5.8200    24.3890   -16.4230 
  136.7500     2.2920    99.2190     6.2950     5.3840     5.6110    24.3870   -16.4610 
  136.8750     2.2980   101.2310     6.2410     5.3070     5.6020    24.3920   -16.4760 
  137.0000     2.3030    99.9670     6.2320     5.2640     5.7040    24.3930   -16.5220 
  137.1250     2.3090    98.0350     6.2700     5.2590     5.9210    24.3800   -16.5440 
  137.2500     2.3150    98.1210     6.3350     5.2810     5.9930    24.3670   -16.5800 
  137.3750     2.3200   100.3680     6.4070     5.3240     5.9020    24.3730   -16.6310 
  137.5000     2.3210   100.7300     6.4640     5.3780     5.8080    24.3800   -16.6440 
  137.6250     2.3130    97.1480     6.4790     5.4300     5.8610    24.3870   -16.6500 
  137.7500     2.3010    92.6990     6.4580     5.4700     6.0590    24.4530   -16.6140 
  137.8750     2.2890    92.4920     6.4120     5.4950     6.2280    24.6110   -16.5730 
  138.0000     2.2840    96.5660     6.3590     5.5110     6.2010    24.7930   -16.5100 
  138.1250     2.2880    98.9980     6.3190     5.5390     6.2100    24.8680   -16.4430 
  138.2500     2.2980    97.4110     6.3220     5.6090     6.2720    24.8840   -16.3700 
  138.3750     2.3080    93.3750     6.4080     5.7560     6.3770    24.8820   -16.2830 
  138.5000     2.3120    89.2350     6.6070     6.0030     6.5840    24.8780   -16.2230 
  138.6250     2.3050    86.4610     6.9180     6.3420     6.6740    24.8760   -16.1410 
  138.7500     2.2950    86.9070     7.2300     6.6750     6.8710    24.8770   -16.0860 
  138.8750     2.2900    89.6710     7.4190     6.8920     7.3270    24.8810   -16.0260 
  139.0000     2.2940    92.3730     7.3750     6.8920     8.0730    24.8840   -15.9730 
  139.1250     2.3040    95.4220     7.0350     6.6040     8.4740    24.8860   -15.9270 
  139.2500     2.3070    99.8270     6.5490     6.1530     7.4740    24.8920   -15.8450 
  139.3750     2.2950   104.7590     6.0770     5.6790     6.2200    24.8780   -15.7580 
  139.5000     2.2690   109.9760     5.7540     5.3100     5.3170    24.7810   -15.6620 
  139.6250     2.2410   113.4280     5.6620     5.1480     5.0850    24.5490   -15.5840 
  139.7500     2.2250   111.6600     5.7210     5.1580     5.2110    24.3940   -15.5120 
  139.8750     2.2250   104.5720     5.8420     5.2830     5.6380    24.3420   -15.4450 
  140.0000     2.2380    96.9840     5.9360     5.4560     6.2930    24.3370   -15.3750 
  140.1250     2.2560    95.5520     5.9810     5.6330     6.7530    24.3370   -15.2600 
  140.2500     2.2740    97.2050     6.0580     5.8400     6.9880    24.3370   -15.1790 
  140.3750     2.2960    96.9830     6.2980     6.1520     7.2440    24.3370   -15.0800 
  140.5000     2.3280    92.0370     6.8020     6.6650     7.9540    24.3370   -14.9410 
  140.6250     2.3750    83.9510     7.7740     7.5290     9.1830    24.3370   -14.7720 
  140.7500     2.4290    76.5210     9.1290     8.7350    11.9270    24.3370   -14.5540 
  140.8750     2.4820    70.1420    10.7230    10.2480    15.6930    24.3370   -14.3130 
  141.0000     2.5280    65.3870    12.4260    11.9570    17.1450    24.3370   -14.0440 
  141.1250     2.5650    63.1030    14.0910    13.6740    18.0470    24.3370   -13.7850 
  141.2500     2.5940    61.5800    15.5320    15.2070    20.6060    24.3370   -13.5220 
  141.3750     2.6150    59.6330    16.6630    16.4450    22.5890    24.3370   -13.2830 
  141.5000     2.6250    57.2560    17.4970    17.3580    21.8710    24.3270   -13.0860 
  141.6250     2.6220    55.6330    18.0850    17.9560    20.9920    24.2890   -12.9150 
  141.7500     2.6150    54.2040    18.5470    18.3770    21.4600    24.2070   -12.7990 
  141.8750     2.6080    52.1400    18.9540    18.7210    22.6460    24.1570   -12.7200 
  142.0000     2.6060    50.3710    19.3770    19.0880    23.5640    24.1300   -12.7070 
  142.1250     2.6090    49.7410    19.9090    19.5830    23.4430    24.0890   -12.6940 
  142.2500     2.6140    48.7910    20.5770    20.2240    23.4760    24.0120   -12.7320 
  142.3750     2.6230    47.3570    21.3610    20.9830    24.7250    23.9930   -12.7650 
  142.5000     2.6370    47.1050    22.1490    21.7560    25.1930    23.9440   -12.8360 
  142.6250     2.6510    49.7120    22.6840    22.3160    25.8310    23.9360   -12.8830 
  142.7500     2.6590    52.4940    22.7840    22.4940    25.5810    23.9320   -12.9300 
  142.8750     2.6540    54.2950    22.3760    22.2080    25.8440    23.9250   -12.9550 
  143.0000     2.6350    56.1720    21.5430    21.5090    24.5270    23.8770   -12.9520 
  143.1250     2.6090    58.1670    20.5070    20.5630    22.2540    23.8690   -12.9580 
  143.2500     2.5880    58.5140    19.5700    19.6390    20.8260    23.8670   -12.9270 
  143.3750     2.5760    56.1090    18.8700    18.8730    19.6540    23.8670   -12.9060 
  143.5000     2.5720    53.9560    18.4310    18.3140    18.6090    23.8670   -12.8540 
  143.6250     2.5710    55.0990    18.2210    17.9700    18.2620    23.8670   -12.8600 
  143.7500     2.5680    57.9220    18.1120    17.7530    17.8680    23.8670   -12.8390 
  143.8750     2.5630    58.9150    18.0400    17.6200    18.1400    23.8670   -12.8130 
  144.0000     2.5590    56.8110    17.9710    17.5420    18.2010    23.8700   -12.7870 
  144.1250     2.5570    57.2920    17.8970    17.5090    16.9930    23.8940   -12.7840 
  144.2500     2.5540    61.5810    17.8110    17.4860    16.7750    23.9610   -12.7720 
  144.3750     2.5470    65.1490    17.6890    17.4270    17.0460    24.0050   -12.7410 
  144.5000     2.5320    65.2850    17.4890    17.2720    16.1940    24.0670   -12.7320 
  144.6250     2.5130    64.9730    17.1440    16.9360    14.9070    24.1320   -12.7010 
  144.7500     2.4960    66.7240    16.6600    16.4290    14.0500    24.1980   -12.6800 
  144.8750     2.4850    68.2890    16.0740    15.7970    13.6250    24.2560   -12.6500 
  145.0000     2.4790    68.6430    15.4530    15.1250    13.0520    24.2700   -12.6040 
  145.1250     2.4780    67.9120    14.8970    14.5250    12.3160    24.2890   -12.5410 
  145.2500     2.4780    65.0520    14.4630    14.0520    12.0960    24.3260   -12.4820 
  145.3750     2.4810    59.3440    14.1740    13.7270    12.2420    24.3350   -12.4400 
  145.5000     2.4860    53.7170    14.0340    13.5480    12.4470    24.3510   -12.3960 
  145.6250     2.4950    53.2900    14.0540    13.5210    12.7500    24.4360   -12.3530 
  145.7500     2.5060    56.7560    14.1980    13.6070    12.6480    24.5250   -12.3600 
  145.8750     2.5160    58.4260    14.4690    13.8020    12.5940    24.5790   -12.3930 
  146.0000     2.5240    55.2430    14.8750    14.1100    13.3280    24.6110   -12.4630 
  146.1250     2.5260    52.8940    15.4390    14.5530    14.6440    24.6810   -12.5720 
  146.2500     2.5260    54.2410    16.1080    15.0940    15.9720    24.7330   -12.7170 
  146.3750     2.5230    56.3400    16.8300    15.6990    16.5030    24.7880   -12.8800 
  146.5000     2.5210    55.8320    17.5450    16.3210    17.2680    24.8700   -13.0130 
  146.6250     2.5210    53.6340    18.1860    16.8960    18.4740    24.9660   -13.1770 
  146.7500     2.5220    52.5260    18.7330    17.3910    19.3750    25.0490   -13.3000 
  146.8750     2.5240    51.7990    19.1760    17.7780    19.6470    25.0560   -13.4440 
  147.0000     2.5260    52.4700    19.4930    18.0320    19.6620    25.0110   -13.5620 
  147.1250     2.5250    54.3910    19.6150    18.0920    19.4180    24.9970   -13.6310 
  147.2500     2.5210    54.6560    19.5360    17.9700    19.2160    24.9670   -13.6630 
  147.3750     2.5110    54.0190    19.2480    17.6660    19.3540    24.9360   -13.6760 
