~V
VERS. 2.00: Ver 2.00
~W
STRT.M 140.0000:
STOP.M 286.0000:
STEP.M 0.1250:
NULL. -999.2500:
UWI. DF3059:
~C
DEPT.M :
SP.MV :
GR.API :
RML.OHMM :
RI. :
RXO.OHMM :
CALI.CM :
DEN.GM/CC :
~A
# ...
  151.2500   -25.8480    91.6950     9.0160     7.4750     7.6590    23.9030     2.2320 
  151.3750   -26.3560    91.3520     9.4350     7.8580     7.9130    23.9640     2.2460 
  151.5000   -26.7880    88.4130     9.8080     8.2110     8.1760    24.0200     2.2810 
  151.6250   -27.0610    86.5230    10.0240     8.4460     8.4450    23.9850     2.3200 
  151.7500   -27.1030    87.7530    10.0490     8.5290     8.5650    23.7870     2.3400 
  151.8750   -27.0710    90.3530     9.8980     8.4600     8.4460    23.6590     2.3300 
  152.0000   -26.9650    92.1110     9.6460     8.2860     8.2930    23.6510     2.2980 
  152.1250   -26.7870    91.6790     9.4060     8.0870     8.1760    23.6700     2.2620 
  152.2500   -26.5040    89.8180     9.2630     7.9390     8.1540    23.6780     2.2380 
  152.3750   -26.1030    89.8780     9.2400     7.8720     8.1910    23.6790     2.2250 
  152.5000   -25.7080    91.6420     9.3130     7.8770     8.2740    23.6800     2.2190 
  152.6250   -25.1780    92.4050     9.4100     7.9040     8.3220    23.6830     2.2150 
  152.7500   -24.6030    92.1400     9.4400     7.8800     8.2760    23.7090     2.2160 
  152.8750   -24.0650    93.0540     9.3350     7.7540     8.1160    23.7780     2.2230 
  153.0000   -23.4860    96.2960     9.0530     7.4930     7.8320    23.8870     2.2350 
  153.1250   -22.9110   100.9580     8.5580     7.0860     7.5190    23.9630     2.2480 
  153.2500   -22.3910   104.1990     7.9330     6.6000     7.3390    24.0580     2.2560 
  153.3750   -21.9570   104.2640     7.3100     6.1230     7.2680    24.1440     2.2560 
  153.5000   -21.5450   101.4580     6.9270     5.8000     7.1900    24.1880     2.2510 
  153.6250   -21.2740    98.1480     7.3120     5.9880     7.5300    24.2120     2.2500 
  153.7500   -21.0390    94.9890     8.7890     6.9830     8.4290    24.2460     2.2680 
  153.8750   -20.7630    90.5670    11.5010     9.0170    10.1430    24.2790     2.3170 
  154.0000   -20.6120    84.4130    15.1390    12.0220    13.4370    24.2940     2.3980 
  154.1250   -20.4680    77.6110    18.6580    15.3630    19.5840    24.3010     2.4980 
  154.2500   -20.2670    73.7040    20.6950    17.8030    27.8720    24.3040     2.5800 
  154.3750   -20.0840    74.6520    20.3910    18.3360    34.0700    24.2970     2.6150 
  154.5000   -19.9710    79.6900    17.8590    16.7060    30.6710    24.2610     2.5920 
  154.6250   -19.8810    88.1100    14.3080    13.7380    20.4270    24.1490     2.5220 
  154.7500   -19.7910    94.7280    11.3190    10.9740    12.2880    24.0230     2.4420 
  154.8750   -19.7230    95.7610     9.3850     8.9740     8.7800    23.9710     2.3740 
  155.0000   -19.5310    92.8070     8.4010     7.7550     7.5770    24.0320     2.3260 
  155.1250   -19.3620    93.9060     8.0890     7.1900     7.2370    24.1440     2.3030 
  155.2500   -19.1800    98.9930     8.0120     6.9490     7.0000    24.2500     2.2960 
  155.3750   -18.9850   101.1090     7.9890     6.8800     6.9270    24.3150     2.3000 
  155.5000   -18.8050    98.6360     7.9710     6.9050     6.9900    24.3510     2.3080 
  155.6250   -18.4630    97.1780     8.0570     7.0570     7.3390    24.3670     2.3170 
  155.7500   -18.2010    98.5860     8.3850     7.4040     7.9170    24.3730     2.3310 
  155.8750   -17.9750   100.5430     9.0840     8.0420     9.0640    24.3620     2.3570 
  156.0000   -17.7730    98.3300    10.2690     9.0700    10.7080    24.3280     2.3990 
  156.1250   -17.6830    88.4900    12.0790    10.6370    13.2460    24.3110     2.4590 
  156.2500   -17.6730    75.4550    14.2710    12.5730    16.4890    24.3050     2.5230 
  156.3750   -17.7080    65.7060    16.4490    14.5720    17.7000    24.3050     2.5800 
  156.5000   -17.6700    60.8460    18.0220    16.1330    16.7740    24.3050     2.6220 
  156.6250   -17.7250    58.1220    18.1330    16.4790    17.6040    24.3050     2.6430 
  156.7500   -17.8500    57.0390    16.7800    15.5260    21.0620    24.3050     2.6430 
  156.8750   -18.0020    59.3380    14.4290    13.6210    22.5270    24.3050     2.6200 
  157.0000   -18.1580    65.2100    11.9920    11.5230    17.6570    24.3080     2.5750 
  157.1250   -18.2690    75.2620    10.6540    10.1780    12.5290    24.3120     2.5230 
  157.2500   -18.3500    83.6310    10.8170     9.9650    10.0140    24.3140     2.4870 
  157.3750   -18.4400    84.1060    12.4300    10.9690    10.8950    24.3130     2.4800 
  157.5000   -18.6280    75.8390    14.9620    12.9390    14.2640    24.3030     2.5060 
  157.6250   -18.7210    64.9640    17.2860    15.1550    20.3460    24.2920     2.5500 
  157.7500   -18.7260    57.8950    18.2510    16.5310    25.2610    24.2730     2.5820 
  157.8750   -18.7160    57.5950    17.3180    16.3440    25.1690    24.2490     2.5800 
  158.0000   -18.7070    66.2790    14.8180    14.5900    21.7370    24.2430     2.5390 
  158.1250   -18.7010    81.7710    11.9000    12.1180    16.0840    24.2870     2.4710 
  158.2500   -18.6400    92.8320     9.6890    10.0430    10.9870    24.3870     2.4010 
  158.3750   -18.5880    95.0210     8.5050     8.7470     8.1550    24.4900     2.3450 
  158.5000   -18.4390    90.5770     8.2550     8.2430     7.3230    24.5410     2.3130 
  158.6250   -18.2980    88.8820     8.7000     8.4330     8.1810    24.5490     2.3180 
  158.7500   -18.2460    90.9760     9.3110     8.8990     9.4480    24.5490     2.3530 
  158.8750   -18.1400    90.4240     9.7220     9.3200    10.4290    24.5500     2.4040 
  159.0000   -18.1030    86.0540     9.7070     9.4400    11.4410    24.5600     2.4490 
  159.1250   -17.9980    84.1710     9.2980     9.1760    13.6770    24.5870     2.4600 
  159.2500   -17.9140    87.5100     8.9720     8.8780    14.0500    24.6190     2.4390 
  159.3750   -17.8480    91.6210     9.1630     8.9230    10.3020    24.6310     2.4070 
  159.5000   -17.7250    92.5610    10.0760     9.5520     8.5990    24.6320     2.3910 
  159.6250   -17.7540    88.5320    11.5900    10.7990    10.4210    24.6250     2.4150 
  159.7500   -17.7700    79.4860    13.0890    12.2120    14.4800    24.6080     2.4660 
  159.8750   -17.7180    71.0600    14.0770    13.3460    20.2900    24.5750     2.5160 
  160.0000   -17.6640    69.5810    14.3090    13.8630    24.4210    24.5490     2.5390 
  160.1250   -17.6300    74.7430    13.9640    13.7270    21.4410    24.5310     2.5250 
  160.2500   -17.6060    77.9720    13.7660    13.5320    15.6000    24.5080     2.5020 
  160.3750   -17.5670    78.0050    14.2020    13.7550    12.9600    24.4860     2.4930 
  160.5000   -17.5780    76.7410    15.4170    14.6310    14.0880    24.4810     2.5080 
  160.6250   -17.5400    72.2220    17.2320    16.1460    17.9050    24.4910     2.5390 
  160.7500   -17.4010    65.7690    19.0570    17.8280    20.4460    24.5060     2.5650 
  160.8750   -17.3220    61.6710    20.4470    19.2450    21.1640    24.5190     2.5780 
  161.0000   -17.1690    60.8550    21.1480    20.0680    21.8480    24.5440     2.5800 
  161.1250   -17.0700    60.8570    21.1260    20.1480    22.6600    24.5750     2.5780 
  161.2500   -16.9980    61.7210    20.8060    19.8530    23.0340    24.6080     2.5760 
  161.3750   -16.9590    63.2030    20.4810    19.4740    22.5580    24.6190     2.5740 
  161.5000   -16.9130    63.5250    20.3240    19.2010    21.1970    24.6130     2.5730 
  161.6250   -16.8410    64.3420    20.4100    19.1310    20.0740    24.6030     2.5730 
  161.7500   -16.7790    66.2870    20.6710    19.2270    19.9390    24.6170     2.5730 
  161.8750   -16.7480    67.3570    21.0820    19.4750    20.6390    24.6250     2.5720 
  162.0000   -16.7600    67.5430    21.6480    19.8750    21.3540    24.6220     2.5680 
  162.1250   -16.7660    69.3000    22.4000    20.4570    21.5190    24.5850     2.5620 
  162.2500   -16.7570    71.2290    23.2420    21.1440    22.4140    24.5200     2.5590 
  162.3750   -16.7110    71.4910    24.0270    21.8190    23.6330    24.4820     2.5620 
