~V
VERS. 2.00: Ver 2.00
~W
STRT.M 105.0000:
STOP.M 279.0000:
STEP.M 0.1250:
NULL. -999.2500:
UWI. DF3027:
~C
DEPT.M :
DEN.GM/CC :
AC.US/MT :
GR.API :
CALI.CM :
RXO.OHMM :
RI. :
RML.OHMM :
SP.MV :
~A
# ...
  175.0000     2.2780   384.0100    76.1420    29.4260    60.4930    66.9620    84.4380   -22.9260 
  175.1250     2.2750   384.9980    77.0490    29.3300    83.7880    79.8200   100.0380   -22.7320 
  175.2500     2.2660   387.2970    74.5170    29.2330    93.3550    91.2770   113.6210   -22.5510 
  175.3750     2.2560   389.3800    72.5310    29.1210    86.8420    98.4840   121.4700   -22.3730 
  175.5000     2.2530   389.9120    72.1510    28.9820    74.0720    99.2790   120.8100   -22.2130 
  175.6250     2.2570   388.8290    72.8210    28.8420    62.7120    92.5610   110.8540   -22.0990 
  175.7500     2.2610   388.0020    72.8200    28.7430    56.0110    82.1270    97.1140   -22.0170 
  175.8750     2.2640   388.7490    71.7930    28.6760    52.6180    71.1080    83.6450   -21.9700 
  176.0000     2.2640   391.2610    70.7990    28.6060    47.8610    61.9410    73.2480   -21.9820 
  176.1250     2.2640   394.6710    71.7470    28.5200    41.5060    56.9670    68.4940   -22.0640 
  176.2500     2.2650   397.6830    74.1900    28.4400    40.6450    56.5650    69.3880   -22.2020 
  176.3750     2.2650   399.7560    74.6320    28.3630    50.5980    60.9750    75.9480   -22.3960 
  176.5000     2.2640   400.7940    72.1170    28.2790    69.8660    69.8270    87.5670   -22.6440 
  176.6250     2.2660   400.6120    69.4950    28.1830    88.1220    82.0810   102.7730   -22.9150 
  176.7500     2.2680   399.0720    69.6510    28.0890    97.7110    94.3230   117.3010   -23.1840 
  176.8750     2.2690   395.7530    70.9460    28.0150    97.7800   103.4740   127.2870   -23.4230 
  177.0000     2.2690   390.7700    71.6310    27.9770    90.6850   107.7820   130.8610   -23.6030 
  177.1250     2.2750   385.7080    71.7210    27.9580    82.5000   107.2780   128.7400   -23.6880 
  177.2500     2.2800   383.0800    70.8800    27.9320    78.4640   104.2860   124.0180   -23.6710 
  177.3750     2.2780   384.1780    69.8950    27.9050    74.6910    99.5240   117.4600   -23.5590 
  177.5000     2.2670   388.1790    68.8240    27.8920    64.0750    93.3710   109.4660   -23.3620 
  177.6250     2.2590   391.9110    68.7010    27.8930    47.4680    86.3730   100.7750   -23.0770 
  177.7500     2.2590   392.5070    68.8700    27.8940    35.1020    79.5920    92.6780   -22.7410 
  177.8750     2.2660   389.6320    66.7650    27.8950    30.3600    73.9580    86.2900   -22.3920 
  178.0000     2.2660   385.0580    64.4670    27.8880    30.9870    70.3010    82.5400   -22.0480 
  178.1250     2.2420   381.6060    65.3730    27.8210    33.6060    69.6440    82.5470   -21.7270 
  178.2500     2.2030   380.4140    70.3730    27.6600    36.6600    71.7280    85.8380   -21.4600 
  178.3750     2.1690   381.0470    72.9600    27.6370    43.2330    76.2840    91.9610   -21.2550 
  178.5000     2.1490   382.4320    70.4850    27.6070    58.9430    82.5410    99.8390   -21.0930 
  178.6250     2.1300   383.7690    67.7670    27.5850    79.7840    89.0040   107.4190   -20.9860 
  178.7500     2.1080   385.2060    66.4410    27.5790    82.1300    94.0010   112.6380   -20.9260 
  178.8750     2.0980   387.1810    62.9770    27.5810    60.3620    96.7930   114.6550   -20.8900 
  179.0000     2.1130   389.5910    58.1510    27.5810    33.0730    97.6540   114.0090   -20.8660 
  179.1250     2.1500   391.1930    56.8230    27.5810    19.4850    97.6580   112.2170   -20.8650 
  179.2500     2.1980   390.8240    60.9080    27.5820    15.5350    98.1730   111.0440   -20.8880 
  179.3750     2.2550   388.4050    64.5000    27.5770    19.0850    99.7380   111.0790   -20.9300 
  179.5000     2.3000   385.2530    66.2590    27.5570    33.8900   102.1250   111.9440   -20.9720 
  179.6250     2.3040   383.7630    67.3690    27.6790    64.5800   103.7860   111.7180   -20.9950 
  179.7500     2.2840   384.6330    69.4830    27.6840    91.5210   102.1370   107.6080   -20.9880 
  179.8750     2.2720   387.1190    72.3710    27.6720    99.1160    94.8390    97.4650   -20.9570 
  180.0000     2.2840   390.0690    73.9190    27.6520    90.2740    81.5270    81.6590   -20.8950 
  180.1250     2.3060   392.7600    71.8870    27.6260    73.9370    64.7380    63.7060   -20.7490 
  180.2500     2.3210   395.0230    67.5910    27.5970    53.3610    49.1820    48.0060   -20.5290 
  180.3750     2.3270   396.5960    65.9040    27.5810    34.6320    37.0880    36.1980   -20.2510 
  180.5000     2.3320   397.1090    67.9780    27.5800    23.2790    28.8620    28.3230   -19.9430 
  180.6250     2.3400   396.1280    70.0070    27.5810    19.3050    24.3140    24.1670   -19.6460 
  180.7500     2.3460   394.1030    69.7230    27.5810    18.0980    22.1060    22.5070   -19.4140 
  180.8750     2.3470   391.5510    70.9720    27.5820    18.0860    21.8300    23.0000   -19.2710 
  181.0000     2.3370   388.7310    74.4630    27.5820    19.7220    23.2750    25.4180   -19.2300 
  181.1250     2.3090   384.9600    75.7840    27.5700    25.3270    26.5220    29.7650   -19.3600 
  181.2500     2.2780   379.6230    71.8680    27.5370    33.5040    30.9810    35.2970   -19.6290 
  181.3750     2.2720   372.8850    68.1400    27.4970    38.5260    36.0750    41.3460   -19.9990 
  181.5000     2.2950   365.8870    65.3580    27.5910    36.3490    41.1280    47.2520   -20.4560 
  181.6250     2.3100   360.6330    60.8360    27.9240    32.5920    45.9040    52.9840   -20.9990 
  181.7500     2.2990   358.1960    56.5060    28.1590    37.4160    51.2710    59.6730   -21.5500 
  181.8750     2.2820   358.9880    56.8250    28.0400    54.3760    58.5090    68.8330   -22.0620 
  182.0000     2.2770   362.8060    60.9320    27.6960    82.1180    68.6750    81.7850   -22.5200 
  182.1250     2.2820   369.2970    65.2820    27.5060   114.5870    82.2490    99.5790   -22.8870 
  182.2500     2.2830   376.8540    69.2440    27.4930   139.1670    96.7220   119.3860   -23.1480 
  182.3750     2.2840   383.9630    72.1720    27.5030   149.9150   108.9290   136.8400   -23.3010 
  182.5000     2.2850   389.1970    71.6070    27.5050   149.9240   116.1700   147.5960   -23.3540 
  182.6250     2.2770   391.7630    67.5070    27.5030   145.1850   116.9440   149.2270   -23.2810 
  182.7500     2.2570   393.2200    63.9430    27.4530   137.3310   113.4230   144.8440   -23.1040 
  182.8750     2.2350   395.1580    62.7380    27.3480   126.5680   106.5430   135.5560   -22.8440 
  183.0000     2.2230   398.4440    62.4470    27.2380   114.2040    96.7190   121.8920   -22.5160 
  183.1250     2.2340   402.4700    62.5340    27.1870    98.6290    84.6620   105.5770   -22.1380 
  183.2500     2.2570   405.4650    63.2990    27.2030    78.0080    72.7940    90.4640   -21.7460 
  183.3750     2.2720   406.4560    64.0000    27.2890    55.8160    63.0640    78.9430   -21.3450 
  183.5000     2.2650   405.3550    66.0760    27.3960    40.1410    56.6520    71.9850   -20.9460 
  183.6250     2.2460   401.6470    68.9240    27.4060    39.1950    54.4360    70.1420   -20.5460 
  183.7500     2.2430   394.1000    68.1470    27.3620    51.0360    55.3450    71.7870   -20.1300 
  183.8750     2.2680   380.0790    63.6620    27.3800    69.2230    58.5640    75.7150   -19.6920 
  184.0000     2.3190   357.3350    59.6940    27.4230    82.2830    63.0350    80.4090   -19.2260 
  184.1250     2.4030   324.8350    60.1140    27.2710    84.1010    67.3220    83.8830   -18.6780 
  184.2500     2.5130   288.3140    62.1970    26.9700    84.7230    70.2130    85.1470   -18.0580 
  184.3750     2.6270   253.8430    62.6750    26.7220    92.0980    71.1010    84.0070   -17.3840 
  184.5000     2.7080   227.0090    62.4740    26.6250   105.8350    69.6420    80.4140   -16.6490 
  184.6250     2.7370   212.7960    62.6560    26.6200   112.3800    64.8610    73.3980   -15.8660 
  184.7500     2.7500   209.3350    65.1190    26.6150   102.1680    56.7090    63.0020   -15.0870 
  184.8750     2.7690   215.6130    68.0170    26.6140    79.1770    45.6310    49.9910   -14.3340 
