~V
VERS. 2.00: Ver 2.00
~W
STRT.M 64.0000:
STOP.M 268.0000:
STEP.M 0.1250:
NULL. -999.2500:
UWI. DF3073:
~C
DEPT.M :
SP.MV :
GR.API :
CALI.CM :
RXO.OHMM :
RI. :
RML.OHMM :
DEN.GM/CC :
~A
# ...
  142.7500   -21.7460    87.9320    24.6650     6.8570     5.5260     6.9720     2.3620 
  142.8750   -22.0990    80.3450    24.6080     7.6870     6.0490     7.5460     2.3130 
  143.0000   -22.4850    78.8590    24.4310     7.7110     6.5460     8.0470     2.2510 
  143.1250   -22.8900    84.2260    24.3400     7.3050     6.9500     8.3950     2.2130 
  143.2500   -23.2710    87.5230    24.1880     7.3600     7.2740     8.6610     2.2020 
  143.3750   -23.5610    85.2620    24.1050     7.5450     7.5330     8.8870     2.2010 
  143.5000   -23.7590    81.2280    24.0980     7.8490     7.7520     9.1160     2.1950 
  143.6250   -23.8430    80.1910    24.1070     8.0540     7.9930     9.4280     2.1890 
  143.7500   -23.8450    80.6750    24.1450     8.2870     8.2820     9.7850     2.1950 
  143.8750   -23.8280    80.7110    24.1090     8.7000     8.5810    10.1520     2.2110 
  144.0000   -23.8390    80.2420    24.1170     9.2980     8.8530    10.4960     2.2270 
  144.1250   -23.8460    79.9890    23.9700     9.3520     9.0320    10.7270     2.2310 
  144.2500   -23.8600    79.1120    23.9450     9.2610     9.1200    10.8310     2.2250 
  144.3750   -23.8740    77.3710    23.9580     9.1710     9.1310    10.8350     2.2150 
  144.5000   -23.8330    78.0160    23.9240     9.2280     9.0990    10.7880     2.2040 
  144.6250   -23.7730    81.9980    23.9290     9.1590     9.0440    10.7320     2.1920 
  144.7500   -23.7290    83.9000    23.9020     9.0800     9.0010    10.7110     2.1820 
  144.8750   -23.7030    81.8870    23.9020     9.0440     8.9830    10.7410     2.1760 
  145.0000   -23.6680    79.2930    23.9110     9.0660     8.9740    10.7680     2.1710 
  145.1250   -23.5720    79.4660    23.8610     9.2280     8.9350    10.7280     2.1620 
  145.2500   -23.4180    78.9990    23.8910     9.4720     8.8540    10.6390     2.1500 
  145.3750   -23.2550    77.7150    23.8920     9.3840     8.7500    10.5190     2.1470 
  145.5000   -23.1370    80.1000    23.8030     8.9340     8.6630    10.4090     2.1560 
  145.6250   -23.0700    85.8550    23.7120     8.7130     8.6370    10.3810     2.1690 
  145.7500   -22.9880    88.1940    23.7180     8.4760     8.6720    10.4400     2.1720 
  145.8750   -22.8090    84.4750    23.7530     8.3910     8.7350    10.5410     2.1700 
  146.0000   -22.5400    79.1660    23.9020     8.9970     8.7830    10.6280     2.1760 
  146.1250   -22.2680    79.4030    23.9840    11.0430     8.7140    10.5880     2.1940 
  146.2500   -22.0150    82.3900    24.2270    12.6040     8.4980    10.3790     2.2140 
  146.3750   -21.7620    84.7490    24.6640    11.4770     8.1400     9.9920     2.2290 
  146.5000   -21.4660    88.5050    24.8590     8.7580     7.6740     9.4800     2.2350 
  146.6250   -21.1470    93.9340    24.8970     7.4530     7.1950     8.9520     2.2350 
  146.7500   -20.8620    95.7370    24.7840     6.9720     6.7770     8.4940     2.2400 
  146.8750   -20.6770    91.5750    24.6300     6.7700     6.4490     8.1610     2.2500 
  147.0000   -20.5750    86.0410    24.4270     6.7900     6.2180     7.9510     2.2600 
  147.1250   -20.5110    85.4380    24.1210     6.8100     6.0670     7.7970     2.2660 
  147.2500   -20.4260    87.3690    23.8430     6.7610     5.9550     7.6480     2.2730 
  147.3750   -20.3540    87.7730    23.7090     6.6870     5.8660     7.4850     2.2840 
  147.5000   -20.3680    87.3040    23.9290     6.6250     5.8080     7.3470     2.2920 
  147.6250   -20.4500    88.6560    24.2640     6.5210     5.8180     7.2610     2.2870 
  147.7500   -20.5600    90.4890    24.5760     6.4380     5.9190     7.2900     2.2730 
  147.8750   -20.6560    90.8940    24.6790     6.4740     6.1340     7.4670     2.2590 
  148.0000   -20.7280    91.1540    24.6530     6.5390     6.4380     7.7550     2.2400 
  148.1250   -20.7570    90.3490    24.5630     6.7890     6.7650     8.0950     2.2130 
  148.2500   -20.7830    86.2280    24.2020     7.2040     7.0240     8.3680     2.1900 
  148.3750   -20.7810    82.4020    24.0420     7.6250     7.1420     8.4940     2.1920 
  148.5000   -20.6970    83.4000    24.1650     7.9390     7.0810     8.3980     2.2270 
  148.6250   -20.5600    89.6310    24.3080     7.8110     6.8200     8.0400     2.2830 
  148.7500   -20.4230    95.3550    24.4720     7.3000     6.5000     7.5860     2.3210 
  148.8750   -20.2810    95.8960    24.5880     6.7200     6.2440     7.1910     2.3230 
  149.0000   -20.1240    90.9860    24.4590     6.4310     6.1190     6.9690     2.3030 
  149.1250   -19.9870    87.0330    24.3970     6.5910     6.1750     7.0060     2.3080 
  149.2500   -19.8830    89.2200    24.3820     6.7530     6.3730     7.2020     2.3570 
  149.3750   -19.7880    92.1670    24.4300     6.9780     6.6570     7.4590     2.4190 
  149.5000   -19.7150    90.0170    24.6250     8.3580     6.9170     7.6800     2.4530 
  149.6250   -19.6440    85.0020    24.6510    10.5700     7.0700     7.8090     2.4360 
  149.7500   -19.5440    84.4560    24.6690    10.0610     7.0740     7.7930     2.3970 
  149.8750   -19.4270    88.2610    24.6790     7.7280     6.9290     7.6200     2.3580 
  150.0000   -19.3680    94.2310    24.6740     6.7610     6.7180     7.3920     2.3320 
  150.1250   -19.3220    98.7940    24.6880     6.5940     6.5080     7.1740     2.3210 
  150.2500   -19.2550    99.4790    24.6820     6.5270     6.3230     7.0230     2.3180 
  150.3750   -19.2380    98.3600    24.6640     6.4250     6.1840     6.9680     2.3140 
  150.5000   -19.2760    97.7490    24.6330     6.3540     6.0930     6.9230     2.3070 
  150.6250   -19.3540    96.8490    24.6430     6.3360     6.0170     6.7910     2.3040 
  150.7500   -19.4070    95.8210    24.6400     6.3210     5.9630     6.6250     2.3110 
  150.8750   -19.4700    96.6550    24.6460     6.2100     5.9280     6.4560     2.3240 
  151.0000   -19.5020    98.1390    24.6640     6.1840     5.9050     6.2670     2.3370 
  151.1250   -19.5580    94.3250    24.6600     6.3920     5.9660     6.1730     2.3600 
  151.2500   -19.6630    86.7740    24.6550     6.6270     6.1960     6.3000     2.3960 
  151.3750   -19.7590    81.2040    24.6970     7.2770     6.6120     6.6420     2.4340 
  151.5000   -19.8010    79.9730    24.6690     8.5360     7.2570     7.3080     2.4560 
  151.6250   -19.8050    80.8250    24.6930     9.0050     8.2940     8.5240     2.4710 
  151.7500   -19.8830    80.1100    24.6770     9.5760     9.7200    10.1930     2.4970 
  151.8750   -19.9970    78.4100    24.6760    13.1910    11.5870    12.3280     2.5200 
  152.0000   -20.0930    76.9440    24.6970    17.8570    13.9250    14.9850     2.4980 
  152.1250   -20.1420    73.8670    24.8780    20.3620    16.6490    18.0370     2.4070 
  152.2500   -20.1730    69.0190    24.9030    19.0720    19.2420    20.8940     2.2980 
  152.3750   -20.2400    65.2910    24.9020    18.2350    21.3060    23.1180     2.2160 
  152.5000   -20.3740    65.2300    24.9440    19.9200    22.4470    24.2760     2.1740 
  152.6250   -20.5250    68.4840    24.9140    22.1990    22.1060    23.7970     2.1650 
  152.7500   -20.5970    71.6560    24.9270    22.6450    20.8870    22.4070     2.1750 
  152.8750   -20.5450    73.3210    24.9090    19.6730    19.4840    20.8950     2.1960 
  153.0000   -20.4350    73.2920    24.8830    15.0770    18.3600    19.7560     2.2170 
  153.1250   -20.3440    73.2680    24.7740    11.9110    17.6540    19.1100     2.2180 
  153.2500   -20.2950    73.9120    24.6750    11.5610    17.3110    18.8960     2.2020 
  153.3750   -20.2550    73.9950    24.7100    13.2090    17.3120    19.0210     2.1860 
  153.5000   -20.2030    73.5480    24.7810    16.0960    17.4580    19.1830     2.1880 
  153.6250   -20.1010    73.6110    24.8630    19.1040    17.4680    19.0380     2.2180 
  153.7500   -19.9410    73.1360    24.8300    19.9370    17.2860    18.6090     2.2750 
  153.8750   -19.7580    71.0980    24.7900    16.9710    17.0720    18.1610     2.3600 
