~V
VERS. 2.00: Ver 2.00
~W
STRT.M 130.0000:
STOP.M 271.0000:
STEP.M 0.1250:
NULL. -999.2500:
UWI. DF3076:
~C
DEPT.M :
DEN.GM/CC :
GR.API :
CALI.CM :
RXO.OHMM :
RI. :
RML.OHMM :
SP.MV :
~A
# ...
  242.5000     2.5480    81.5020    22.9830    61.7530   106.9260   103.9380   -15.1340 
  242.6250     2.5270    73.1340    23.0590    62.7240   114.6010   111.8060   -14.8860 
  242.7500     2.5160    73.6030    23.0760    57.8920   123.8670   121.8870   -14.6400 
  242.8750     2.5210    77.7480    23.0650    54.9860   130.7010   131.3200   -14.3580 
  243.0000     2.5400    79.5810    23.0620    58.5870   126.0500   133.2440   -14.0540 
  243.1250     2.5540    78.0770    23.0600    64.2060   101.3350   117.4750   -13.7370 
  243.2500     2.5340    72.7140    23.0440    64.2920    70.1020    89.1570   -13.3930 
  243.3750     2.4920    63.9050    23.0150    54.3030    44.2310    59.1770   -13.0250 
  243.5000     2.4560    55.2970    22.9180    35.6170    27.0990    36.0740   -12.6510 
  243.6250     2.4460    50.6690    22.5620    18.0430    17.6920    22.7530   -12.3010 
  243.7500     2.4510    50.4060    21.9390     9.5580    12.2280    15.1790   -11.9530 
  243.8750     2.4460    53.8190    21.2220     6.9830     9.1610    10.9700   -11.6330 
  244.0000     2.4250    57.8210    20.9130     6.5360     7.5520     8.6440   -11.3460 
  244.1250     2.3970    58.3120    21.2010     6.6120     6.9140     7.5340   -11.1140 
  244.2500     2.3740    56.7340    21.7980     6.6500     6.7850     6.9480   -10.9400 
  244.3750     2.3610    56.6870    22.3780     6.6160     6.7910     6.7960   -10.7890 
  244.5000     2.3580    58.9690    22.6570     6.5420     6.8140     6.8920   -10.6810 
  244.6250     2.3640    62.0280    22.6310     6.5090     6.9040     6.9770   -10.5870 
  244.7500     2.3700    64.2960    22.4910     6.5240     6.9740     7.0120   -10.4740 
  244.8750     2.3730    66.2980    22.3970     6.5310     6.9890     6.9880   -10.3330 
  245.0000     2.3730    67.4050    22.3610     6.4470     6.9330     6.9130   -10.1630 
  245.1250     2.3710    64.9680    22.3510     6.3000     6.7960     6.7910    -9.9400 
  245.2500     2.3650    61.9230    22.4510     6.2080     6.6030     6.6440    -9.6810 
  245.3750     2.3550    61.8980    22.6540     6.1490     6.3760     6.4910    -9.4210 
  245.5000     2.3490    65.1190    22.8230     6.0300     6.1410     6.3500    -9.1440 
  245.6250     2.3540    67.5790    22.8470     5.7790     5.9290     6.2440    -8.8830 
  245.7500     2.3650    67.5410    22.8550     5.5530     5.7500     6.1760    -8.6590 
  245.8750     2.3690    67.2960    22.9370     5.4200     5.6110     6.1430    -8.4760 
  246.0000     2.3600    66.3570    23.1080     5.4440     5.5070     6.1380    -8.3140 
  246.1250     2.3470    65.8370    23.2950     5.6880     5.4390     6.1530    -8.1860 
  246.2500     2.3370    65.0310    23.3990     6.0600     5.3910     6.1720    -8.0920 
  246.3750     2.3310    63.5960    23.3590     6.3450     5.3560     6.1890    -7.9930 
  246.5000     2.3320    63.6990    23.2350     6.3710     5.3260     6.1970    -7.9120 
  246.6250     2.3430    67.2790    23.1660     6.1630     5.2910     6.1900    -7.8020 
  246.7500     2.3620    70.3790    23.1590     5.9490     5.2490     6.1720    -7.6860 
  246.8750     2.3740    68.3990    23.1940     5.8400     5.2000     6.1520    -7.5660 
  247.0000     2.3710    62.7990    23.2530     5.8230     5.1480     6.1350    -7.4360 
  247.1250     2.3600    61.2930    23.3920     5.8030     5.0980     6.1300    -7.3350 
  247.2500     2.3520    63.0630    23.6030     5.7260     5.0520     6.1340    -7.2250 
  247.3750     2.3560    63.6230    23.7460     5.6200     5.0080     6.1390    -7.1160 
  247.5000     2.3690    61.9420    23.8010     5.5260     4.9650     6.1350    -7.0210 
  247.6250     2.3760    61.9160    23.8060     5.4760     4.9210     6.1110    -6.9620 
  247.7500     2.3670    62.6070    23.8030     5.4670     4.8730     6.0710    -6.9110 
  247.8750     2.3550    62.3880    23.7830     5.4900     4.8230     6.0240    -6.8840 
  248.0000     2.3510    62.8000    23.8000     5.5280     4.7720     5.9800    -6.8750 
  248.1250     2.3540    63.5330    23.8130     5.5940     4.7220     5.9480    -6.8690 
  248.2500     2.3550    63.6150    23.8340     5.6730     4.6760     5.9270    -6.8720 
  248.3750     2.3510    63.3510    23.8760     5.6840     4.6390     5.9210    -6.8930 
  248.5000     2.3400    64.2950    23.9310     5.5650     4.6190     5.9320    -6.9230 
  248.6250     2.3200    64.1260    23.9990     5.3830     4.6210     5.9590    -6.9420 
  248.7500     2.3050    61.6110    24.0250     5.2160     4.6390     5.9960    -6.9720 
  248.8750     2.3020    60.9730    24.0260     5.0940     4.6630     6.0340    -6.9850 
  249.0000     2.3080    62.8730    24.0230     5.0040     4.6800     6.0620    -6.9850 
  249.1250     2.3150    62.8910    24.0300     4.9250     4.6770     6.0660    -6.9720 
  249.2500     2.3260    60.9060    24.0300     4.8470     4.6500     6.0410    -6.9480 
  249.3750     2.3410    60.0180    23.9430     4.7740     4.6010     5.9850    -6.9370 
  249.5000     2.3560    62.1790    23.7160     4.7240     4.5320     5.9010    -6.9110 
  249.6250     2.3640    63.8130    23.3900     4.7110     4.4470     5.8000    -6.8760 
  249.7500     2.3620    63.0820    23.1930     4.7100     4.3550     5.7040    -6.8530 
  249.8750     2.3570    61.7390    23.2920     4.7120     4.2690     5.6280    -6.8260 
  250.0000     2.3530    61.6250    23.4840     4.7060     4.2000     5.5880    -6.7890 
  250.1250     2.3490    62.6080    23.5930     4.6760     4.1630     5.5980    -6.7620 
  250.2500     2.3410    62.0840    23.6340     4.6670     4.1550     5.6430    -6.7410 
  250.3750     2.3290    59.6960    23.6570     4.7040     4.1720     5.7090    -6.7100 
  250.5000     2.3180    58.4980    23.6320     4.7350     4.2030     5.7770    -6.7040 
  250.6250     2.3130    59.0450    23.6030     4.6790     4.2350     5.8230    -6.7130 
  250.7500     2.3210    58.7840    23.7940     4.5850     4.2570     5.8410    -6.7310 
  250.8750     2.3380    57.1270    24.5730     4.5890     4.2630     5.8310    -6.7630 
  251.0000     2.3560    57.0720    25.9410     4.7340     4.2530     5.7970    -6.8380 
  251.1250     2.3610    59.0580    26.9970     4.9160     4.2240     5.7450    -6.9360 
  251.2500     2.3390    60.1010    26.9610     5.0520     4.1820     5.6880    -7.0330 
  251.3750     2.3080    60.1030    26.3120     5.0900     4.1330     5.6330    -7.1260 
  251.5000     2.2930    60.3770    25.7150     5.0370     4.0860     5.5950    -7.1740 
  251.6250     2.2990    59.7710    25.1930     4.9780     4.0560     5.5910    -7.2210 
  251.7500     2.3100    58.8650    24.7740     4.9920     4.0470     5.6180    -7.2290 
  251.8750     2.3170    58.3790    24.8690     5.1440     4.0570     5.6680    -7.2270 
  252.0000     2.3240    57.8810    25.1230     5.2750     4.0750     5.7210    -7.2100 
  252.1250     2.3310    57.3490    25.1400     5.1840     4.0890     5.7500    -7.1430 
  252.2500     2.3290    58.6360    25.1100     4.9430     4.0890     5.7430    -7.0880 
  252.3750     2.3230    62.3020    25.0990     4.8250     4.0730     5.7020    -7.0420 
  252.5000     2.3240    67.0740    25.1380     4.8440     4.0440     5.6390    -6.9970 
  252.6250     2.3320    69.3570    25.2940     4.9000     4.0100     5.5750    -6.9450 
  252.7500     2.3430    68.5610    25.4110     4.9800     3.9800     5.5250    -6.9020 
  252.8750     2.3490    65.9960    25.4550     5.1030     3.9540     5.4900    -6.8500 
  253.0000     2.3470    63.4920    25.4660     5.1330     3.9300     5.4600    -6.7950 
  253.1250     2.3380    62.5100    25.5570     4.9310     3.9000     5.4270    -6.7530 
  253.2500     2.3260    63.4890    25.7970     4.6590     3.8660     5.3900    -6.6890 
  253.3750     2.3150    67.4030    26.0490     4.4990     3.8360     5.3590    -6.6290 
  253.5000     2.3020    71.5920    26.1670     4.4540     3.8180     5.3460    -6.5940 
  253.6250     2.2940    72.7530    26.1140     4.4190     3.8270     5.3660    -6.5790 
