~V
VERS. 2.00: Ver 2.00
~W
STRT.M 60.0000:
STOP.M 264.0000:
STEP.M 0.1250:
NULL. -999.2500:
UWI. DF303:
~C
DEPT.M :
DEN.GM/CC :
SP.MV :
AC.US/MT :
GR.API :
CALI.CM :
RXO.OHMM :
RI. :
RML.OHMM :
~A
# ...
  200.0000     2.2200   -29.0240   418.9630    61.7160    24.1440    65.1680    97.7140   101.4960 
  200.1250     2.2140   -29.2600   422.9930    66.5350    24.1450    63.6860    93.3370    96.3100 
  200.2500     2.2110   -29.4630   424.8420    70.9920    24.1500    59.7550    89.2160    91.5510 
  200.3750     2.2120   -29.6430   424.9860    70.9370    24.1590    56.4730    86.0110    87.9090 
  200.5000     2.2150   -29.7860   423.9060    66.4930    24.1660    55.7970    84.4660    86.1220 
  200.6250     2.2150   -29.9170   421.6020    62.0090    24.1720    57.8320    85.6650    87.2730 
  200.7500     2.2160   -30.0210   419.1490    62.5340    24.1760    59.8150    89.4840    91.2120 
  200.8750     2.2220   -30.1290   418.0780    66.3310    24.1800    62.4690    95.5470    97.6170 
  201.0000     2.2330   -30.2190   419.1020    68.6050    24.2090    69.9390   102.8740   105.5330 
  201.1250     2.2400   -30.2940   420.7360    66.2910    24.3630    80.9830   109.8100   113.2010 
  201.2500     2.2380   -30.3470   420.3790    62.8500    24.7650    88.2720   115.0050   119.0110 
  201.3750     2.2330   -30.3690   417.5520    59.7300    25.3700    89.2020   118.0760   122.4750 
  201.5000     2.2320   -30.3840   413.9250    56.5440    25.8090    89.6150   119.6150   124.3000 
  201.6250     2.2360   -30.3830   411.9810    54.8240    26.0800    97.4860   121.0280   126.1850 
  201.7500     2.2380   -30.3690   412.0090    54.6740    26.2960   110.1950   123.6400   129.6430 
  201.8750     2.2360   -30.3370   413.2460    54.9740    26.3970   122.1480   127.8720   135.1880 
  202.0000     2.2320   -30.2930   414.9290    57.2760    26.3040   129.1780   133.3880   142.4820 
  202.1250     2.2310   -30.2290   416.7080    62.2960    26.1970   128.0060   139.3830   150.5710 
  202.2500     2.2350   -30.1860   418.3400    66.3880    26.1250   123.7050   145.1330   158.3870 
  202.3750     2.2430   -30.1250   419.4250    66.5920    26.0820   116.2830   150.5630   165.7120 
  202.5000     2.2500   -30.0550   419.5080    63.8700    26.0540   105.9580   155.8340   172.7280 
  202.6250     2.2490   -29.9860   418.7050    60.7580    26.1220    96.4810   160.8630   179.4480 
  202.7500     2.2420   -29.8810   418.2130    59.3640    26.2470    90.3300   165.1140   185.3280 
  202.8750     2.2320   -29.7620   418.5520    59.4610    26.2880    89.1900   167.7930   189.3720 
  203.0000     2.2240   -29.6220   419.1910    60.7290    26.2480    92.2110   168.3510   190.7830 
  203.1250     2.2200   -29.4510   419.0590    60.3360    26.1830    93.8330   166.6450   189.2480 
  203.2500     2.2130   -29.2160   417.9610    58.8110    26.1480    92.9220   163.8200   186.1780 
  203.3750     2.2030   -28.9490   415.9650    57.5150    26.1670    92.7440   160.7130   182.6150 
  203.5000     2.1920   -28.6520   413.3040    58.3640    26.2740    97.5100   157.9950   179.3860 
  203.6250     2.1920   -28.2750   411.3220    59.4750    26.4730   106.4150   156.0240   176.9180 
  203.7500     2.2030   -27.8770   411.4520    58.0230    26.5760   109.4330   153.9030   174.1480 
  203.8750     2.2170   -27.4520   413.5120    55.6450    26.5770   103.0600   149.7780   168.7470 
  204.0000     2.2260   -27.0290   415.5290    55.1670    26.5090    92.0920   141.3600   157.8200 
  204.1250     2.2310   -26.5960   415.0320    59.6140    26.2610    85.4700   126.6190   139.2440 
  204.2500     2.2360   -26.1750   412.3690    67.8770    25.8890    78.3040   108.3440   117.1730 
  204.3750     2.2400   -25.7590   408.6940    74.2450    25.5190    66.1090    90.0950    96.1040 
  204.5000     2.2420   -25.3640   404.6610    72.8440    25.2600    52.0820    75.0100    79.2850 
  204.6250     2.2450   -25.0010   400.1080    65.4300    25.1720    43.6200    65.1300    68.4950 
  204.7500     2.2520   -24.6710   395.5270    61.2030    25.1400    40.4030    59.0090    61.8870 
  204.8750     2.2610   -24.3830   391.9430    60.9590    25.1800    41.3280    55.2540    57.9430 
  205.0000     2.2680   -24.0890   389.9120    60.9640    25.3230    45.4320    52.4410    55.0890 
  205.1250     2.2750   -23.8430   388.9890    61.7900    25.5120    48.0290    49.4190    51.9380 
  205.2500     2.2850   -23.6250   388.2320    64.5500    25.6000    44.2370    45.9750    48.1500 
  205.3750     2.2970   -23.4300   387.9840    67.3510    25.6170    36.8920    42.5720    44.2550 
  205.5000     2.3040   -23.2530   389.3590    68.3480    25.6070    32.4530    39.7860    41.0070 
  205.6250     2.3000   -23.0920   393.5610    68.9540    25.5960    33.0880    38.0860    39.0600 
  205.7500     2.2890   -22.9510   399.2030    70.1000    25.5810    34.8590    37.2110    38.1430 
  205.8750     2.2810   -22.8060   404.5740    71.5190    25.5700    35.6390    36.8080    37.8260 
  206.0000     2.2800   -22.6980   408.7090    72.2370    25.5590    34.9540    36.4280    37.5550 
  206.1250     2.2840   -22.5970   411.3520    70.2230    25.5500    33.3430    35.6450    36.8060 
  206.2500     2.2820   -22.5060   412.4380    68.1710    25.5390    31.7270    34.4920    35.6110 
  206.3750     2.2730   -22.4420   411.5720    69.7620    25.5300    30.5830    33.1980    34.2450 
  206.5000     2.2610   -22.3990   409.2520    74.4470    25.5270    30.0260    32.0350    33.0340 
  206.6250     2.2510   -22.4080   406.7580    77.5530    25.5250    29.4480    31.2750    32.2980 
  206.7500     2.2430   -22.4330   404.9520    78.5770    25.5230    29.2200    30.9230    32.0450 
  206.8750     2.2350   -22.4890   404.1180    76.9070    25.5160    29.3530    30.9070    32.1920 
  207.0000     2.2300   -22.5580   404.4850    71.6630    25.5080    29.9890    31.0620    32.5460 
  207.1250     2.2390   -22.6650   406.1290    66.0550    25.5050    30.5830    31.1450    32.8220 
  207.2500     2.2520   -22.8050   407.7790    65.5500    25.5020    30.7520    31.0180    32.8400 
  207.3750     2.2540   -22.9630   406.8900    68.9930    25.4960    30.1910    30.7310    32.6310 
  207.5000     2.2500   -23.1250   398.5880    69.6480    25.4780    29.2160    30.5050    32.4350 
  207.6250     2.2770   -23.2820   373.9310    66.8510    25.4070    28.0780    30.7000    32.6950 
  207.7500     2.3560   -23.4540   334.6230    66.6120    25.2590    27.1610    31.4130    33.5950 
  207.8750     2.4680   -23.6130   291.0130    69.1190    25.0980    26.9350    32.5650    35.0930 
  208.0000     2.5630   -23.7840   261.2390    68.6400    24.9730    28.5300    33.8840    36.8910 
  208.1250     2.5750   -23.9590   265.9060    64.8510    24.9520    33.1150    34.8740    38.3820 
  208.2500     2.5120   -24.0980   297.7690    63.4820    25.0160    36.9580    35.2170    39.0940 
  208.3750     2.4110   -24.2190   340.3360    64.5350    25.1140    36.8540    34.8550    38.8970 
  208.5000     2.3230   -24.3090   376.0820    65.4200    25.1630    34.2580    33.9970    38.0290 
  208.6250     2.2830   -24.3710   394.5550    68.4500    25.1680    33.4160    33.0120    36.9790 
  208.7500     2.2710   -24.4000   402.1610    72.1420    25.1660    33.8230    32.2510    36.2160 
  208.8750     2.2680   -24.4020   404.5360    71.4370    25.1650    32.9880    31.8620    35.9270 
  209.0000     2.2700   -24.3510   404.0060    67.0100    25.1620    30.6970    31.8670    36.1320 
  209.1250     2.2820   -24.2600   400.8120    64.9330    25.1620    29.6480    32.2420    36.7940 
  209.2500     2.2940   -24.1650   397.6490    65.1070    25.1770    30.5950    32.8200    37.7040 
  209.3750     2.2950   -24.0660   397.0950    66.0720    25.2340    32.2730    33.5090    38.7440 
  209.5000     2.2880   -23.9790   399.6920    66.1590    25.3760    33.2130    34.2450    39.8200 
  209.6250     2.2850   -23.9170   403.5520    64.4170    25.4910    33.1790    35.0160    40.8820 
  209.7500     2.2820   -23.8880   406.3300    61.7350    25.5820    33.8300    35.8850    42.0160 
  209.8750     2.2710   -23.8950   407.5130    61.6670    25.6050    35.6970    36.9630    43.3980 
