~V
VERS. 2.00: Ver 2.00
~W
STRT.M 65.0000:
STOP.M 267.0000:
STEP.M 0.1250:
NULL. -999.2500:
UWI. DF3007:
~C
DEPT.M :
GR.API :
RML.OHMM :
RI. :
RXO.OHMM :
CALI.CM :
DEN.GM/CC :
SP.MV :
~A
# ...
   87.5000    98.5600     9.6450     6.9540     7.6250    24.0730  -999.2500   -24.7800 
   87.6250    98.3040     9.5670     6.9510     7.2310    24.1450  -999.2500   -24.7970 
   87.7500   101.2940     9.2890     6.8110     6.8140    24.2290  -999.2500   -24.8260 
   87.8750   105.3840     8.8850     6.5730     6.5280    24.2910  -999.2500   -24.8690 
   88.0000   106.6780     8.4590     6.3040     6.2410    24.3330  -999.2500   -24.8720 
   88.1250   106.2150     8.1370     6.0930     6.0370    24.3680  -999.2500   -24.8230 
   88.2500   106.1860     7.9960     5.9950     5.9120    24.3540  -999.2500   -24.8500 
   88.3750   105.4070     8.0940     6.0560     6.1270    24.2960  -999.2500   -24.8600 
   88.5000   104.5840     8.4620     6.3010     6.5320    24.2200  -999.2500   -24.9880 
   88.6250   102.9410     9.1030     6.7430     6.9090    24.0930  -999.2500   -25.0470 
   88.7500    97.5730     9.8350     7.2700     7.1800    23.8150  -999.2500   -25.0950 
   88.8750    88.2690    10.4420     7.7410     7.8600    23.4450  -999.2500   -25.0050 
   89.0000    81.2890    10.6940     7.9910     8.6050    23.2310  -999.2500   -24.7440 
   89.1250    83.3240    10.3770     7.8380     8.9260    23.3120  -999.2500   -24.4310 
   89.2500    87.6960     9.6850     7.3750     8.5400    23.6080  -999.2500   -23.9680 
   89.3750    94.3660     8.9110     6.7790     7.6360    23.9250  -999.2500   -23.5200 
   89.5000   105.3130     8.3720     6.2610     6.7030    24.1680  -999.2500   -23.0830 
   89.6250   113.1610     8.3010     6.0010     6.3150    24.2630  -999.2500   -22.6710 
   89.7500   110.0190     8.5310     5.9580     6.3660    24.2370  -999.2500   -22.4270 
   89.8750    98.5400     8.8240     6.0350     7.1160    24.0710  -999.2500   -22.2380 
   90.0000    88.3240     8.9610     6.1260     8.5050    23.8500  -999.2500   -22.2410 
   90.1250    86.7790     8.8750     6.1770     9.6500    23.7670  -999.2500   -22.2260 
   90.2500    91.1350     8.8690     6.3000     9.4110    23.9190  -999.2500   -22.2590 
   90.3750    94.9510     9.3930     6.7310     9.0410    24.1390  -999.2500   -22.2840 
   90.5000    92.4270    10.9330     7.8030     9.9920    24.3620  -999.2500   -22.2590 
   90.6250    85.7160    14.0310    10.0360    13.7200    24.4460  -999.2500   -22.2670 
   90.7500    80.4290    18.2610    13.3350    20.3730    24.3790  -999.2500   -22.2590 
   90.8750    75.5500    22.8410    17.2800    28.2890    24.2400  -999.2500   -22.3570 
   91.0000    69.2630    26.5530    20.9550    33.6040    24.1120  -999.2500   -22.5040 
   91.1250    66.1380    27.6680    22.7910    34.5340    24.0280  -999.2500   -22.8710 
   91.2500    68.8430    26.0870    22.2800    34.3130    23.9500  -999.2500   -23.3000 
   91.3750    74.8500    22.5950    19.8120    31.5910    23.7290  -999.2500   -23.8520 
   91.5000    79.5120    18.5870    16.5100    24.5960    23.2770  -999.2500   -24.3830 
   91.6250    82.1010    15.4140    13.5720    17.2530    22.8820  -999.2500   -24.9510 
   91.7500    82.5290    13.3810    11.4410    12.9230    22.7220  -999.2500   -25.4670 
   91.8750    79.6970    12.3740    10.1250    11.4660    22.6910  -999.2500   -25.9280 
   92.0000    74.6820    12.1120     9.4750    11.2880    22.6850  -999.2500   -26.3850 
   92.1250    71.3070    12.2840     9.3290    11.4080    22.7280  -999.2500   -26.6450 
   92.2500    69.8240    12.5070     9.3760    11.3650    22.7630  -999.2500   -26.8860 
   92.3750    69.4980    12.6020     9.4470    11.2820    22.7890  -999.2500   -26.9940 
   92.5000    70.1270    12.5130     9.4450    11.2520    22.8090  -999.2500   -27.0260 
   92.6250    73.7900    12.2760     9.3410    11.1300    22.8390  -999.2500   -27.0060 
   92.7500    80.5020    12.0140     9.1900    10.6880    22.8670  -999.2500   -26.8890 
   92.8750    85.2790    11.7950     9.0350    10.0200    22.8880  -999.2500   -26.7900 
   93.0000    84.1430    11.6450     8.9020     9.5660    22.9010  -999.2500   -26.5990 
   93.1250    80.1790    11.5640     8.8050     9.5510    22.9400  -999.2500   -26.4940 
   93.2500    80.5430    11.5120     8.7300     9.6250    23.0310  -999.2500   -26.3820 
   93.3750    84.8430    11.4690     8.6700     9.6090    23.1570  -999.2500   -26.2800 
   93.5000    88.8910    11.4340     8.6240     9.5430    23.2810  -999.2500   -26.2510 
   93.6250    90.3110    11.4340     8.6050     9.4900    23.3270  -999.2500   -26.2240 
   93.7500    88.3380    11.4800     8.6180     9.5410    23.3400  -999.2500   -26.2790 
   93.8750    84.3180    11.5640     8.6620     9.5090    23.3380  -999.2500   -26.3150 
   94.0000    81.0030    11.6560     8.7200     9.4310    23.3360  -999.2500   -26.4460 
   94.1250    77.8930    11.7130     8.7630     9.4850    23.3330  -999.2500   -26.4800 
   94.2500    76.7500    11.7200     8.7730     9.7110    23.3350  -999.2500   -26.5410 
   94.3750    80.1430    11.6900     8.7480     9.7070    23.3260  -999.2500   -26.5560 
   94.5000    85.4340    11.6530     8.7020     9.5910    23.2920  -999.2500   -26.5990 
   94.6250    84.7440    11.6370     8.6540     9.5310    23.2390  -999.2500   -26.6020 
   94.7500    80.1070    11.6420     8.6160     9.5560    23.1890  -999.2500   -26.6110 
   94.8750    77.9540    11.6470     8.5840     9.6080    23.1500  -999.2500   -26.6200 
   95.0000    78.2750    11.6210     8.5430     9.6530    23.0870  -999.2500   -26.5380 
   95.1250    77.7780    11.5320     8.4710     9.7070    22.9650  -999.2500   -26.5870 
   95.2500    76.6030    11.3900     8.3690     9.7160    22.7510  -999.2500   -26.5500 
   95.3750    75.4010    11.2170     8.2490     9.6100    22.5090  -999.2500   -26.5820 
   95.5000    74.7080    11.0440     8.1350     9.5120    22.4230  -999.2500   -26.5750 
   95.6250    74.9430    10.9000     8.0500     9.4240    22.6640  -999.2500   -26.5590 
   95.7500    76.8190    10.7940     8.0030     9.3530    22.9760  -999.2500   -26.6200 
   95.8750    79.2660    10.7310     7.9980     9.3650    23.1260  -999.2500   -26.6360 
   96.0000    80.3920    10.7260     8.0450     9.4680    23.1430  -999.2500   -26.6480 
   96.1250    79.5890    10.8300     8.1760     9.5950    23.1570  -999.2500   -26.5960 
   96.2500    77.1490    11.0590     8.3970     9.6950    23.1890  -999.2500   -26.5070 
   96.3750    75.2440    11.3980     8.6980     9.7400    23.2590  -999.2500   -26.3820 
   96.5000    73.9370    11.7560     9.0230     9.8640    23.3650  -999.2500   -26.1290 
   96.6250    73.7760    11.9220     9.2300    10.1020    23.5020  -999.2500   -25.8040 
   96.7500    75.3690    11.7530     9.2020    10.3290    23.6510  -999.2500   -25.2230 
   96.8750    77.8110    11.2110     8.8850    10.3660    23.8080  -999.2500   -24.5910 
   97.0000    81.2550    10.4040     8.3270    10.0980    23.9700  -999.2500   -23.9010 
   97.1250    86.6010     9.5800     7.6800     9.0740    24.1010  -999.2500   -23.2480 
   97.2500    94.0570     8.9730     7.1300     7.6020    24.1780  -999.2500   -22.6470 
   97.3750   101.5770     8.6520     6.7550     6.7760    24.1960  -999.2500   -22.1050 
   97.5000   105.1310     8.5550     6.5450     6.8860    24.1620  -999.2500   -21.7100 
   97.6250   102.2020     8.5360     6.4320     6.9670    24.0850  -999.2500   -21.3520 
   97.7500    96.2030     8.4440     6.3130     7.0960    24.0390  -999.2500   -21.2190 
   97.8750    91.5190     8.2260     6.1400     7.1140    24.1290  -999.2500   -21.1870 
   98.0000    89.2580     7.9110     5.9160     6.3910    24.3120  -999.2500   -21.3810 
   98.1250    88.5560     7.6080     5.7040     5.5730    24.3750  -999.2500   -21.6400 
   98.2500    90.3280     7.4540     5.5980     5.5510    24.2860  -999.2500   -22.0000 
   98.3750    94.1850     7.5670     5.6860     6.0570    24.1400  -999.2500   -22.4470 
   98.5000    95.5100     8.0300     6.0370     6.6330    24.0520  -999.2500   -22.9740 
   98.6250    90.1830     8.8950     6.7240     7.0460    23.9880  -999.2500   -23.7300 
