~V
VERS. 2.00: Ver 2.00
~W
STRT.M 130.0000:
STOP.M 279.0000:
STEP.M 0.1250:
NULL. -999.2500:
UWI. DF307:
~C
DEPT.M :
DEN.GM/CC :
AC.US/MT :
GR.API :
CALI.CM :
RXO.OHMM :
RI. :
RML.OHMM :
SP.MV :
~A
# ...
  210.0000     2.2310   390.6230    72.7720    25.5890    75.2160    90.1840   107.6730   -31.4560 
  210.1250     2.2270   383.9660    72.0330    25.5790    75.2260    90.7590   108.1390   -31.4850 
  210.2500     2.2350   376.4500    67.2590    25.5860    80.4480    91.0610   108.4680   -31.5630 
  210.3750     2.2510   370.6610    61.9820    25.6040    84.5990    91.5870   109.1520   -31.6760 
  210.5000     2.2640   368.5600    60.3770    25.5790    81.8590    92.1580   109.8290   -31.7810 
  210.6250     2.2680   371.4720    63.3840    25.4740    76.6170    92.1840   109.7120   -31.8800 
  210.7500     2.2660   377.7300    67.2910    25.3410    76.9110    91.4470   108.5980   -31.9580 
  210.8750     2.2610   385.7410    69.7620    25.2230    80.2950    90.0010   106.5910   -32.0070 
  211.0000     2.2530   393.8470    70.2220    25.1270    80.8590    88.0310   103.9080   -32.0330 
  211.1250     2.2400   400.4560    69.3780    25.0460    78.9700    85.5530   100.4860   -32.0360 
  211.2500     2.2250   404.9230    68.9440    24.9850    79.3610    82.5260    96.2940   -32.0280 
  211.3750     2.2090   406.5450    70.0500    24.9350    80.4070    78.9140    91.4130   -32.0210 
  211.5000     2.1940   404.7770    70.8390    24.8720    78.0840    75.0090    86.3460   -32.0240 
  211.6250     2.1880   399.7320    70.0580    24.7930    73.0430    71.5620    82.1180   -32.0490 
  211.7500     2.1950   394.0590    69.9920    24.7310    70.8440    69.2330    79.4480   -32.0880 
  211.8750     2.2100   390.1400    70.7150    24.7010    73.7620    68.4900    78.7980   -32.1310 
  212.0000     2.2200   389.3700    70.7280    24.6940    80.0330    69.4760    80.1860   -32.1730 
  212.1250     2.2140   391.4210    69.6950    24.6970    85.5570    71.6490    82.7490   -32.2020 
  212.2500     2.2010   393.3300    70.2890    24.7010    88.8430    73.0540    84.0440   -32.2120 
  212.3750     2.1920   392.6860    72.8380    24.7040    89.4770    71.8910    81.9480   -32.1930 
  212.5000     2.1940   388.2100    74.7020    24.7210    83.5010    67.4200    75.8730   -32.1260 
  212.6250     2.2080   381.6790    74.4500    24.7450    64.9470    60.4200    67.2780   -31.9760 
  212.7500     2.2260   376.9480    73.1230    24.7460    42.2430    53.3030    59.0710   -31.7680 
  212.8750     2.2400   374.7240    72.1330    24.7130    36.5130    47.4290    52.6420   -31.5120 
  213.0000     2.2480   373.1810    71.7810    24.6540    34.7400    43.3340    48.3760   -31.1700 
  213.1250     2.2520   371.0080    71.7800    24.5540    36.1440    41.1260    46.2010   -30.7920 
  213.2500     2.2570   370.0260    72.7740    24.4030    36.4400    40.0900    45.2080   -30.4230 
  213.3750     2.2620   372.0700    73.0930    24.2050    34.6470    39.8780    44.9650   -30.0850 
  213.5000     2.2670   377.5600    71.4290    24.0260    32.8190    40.1970    45.1550   -29.8120 
  213.6250     2.2700   385.1000    68.9230    23.9860    32.7980    40.7600    45.5080   -29.6020 
  213.7500     2.2730   391.1460    66.6410    24.0790    33.2980    41.1780    45.6700   -29.4450 
  213.8750     2.2780   393.2460    65.2790    24.2050    33.5760    41.0650    45.2400   -29.3460 
  214.0000     2.2880   390.6230    68.2350    24.2740    33.6790    40.0430    43.8200   -29.3080 
  214.1250     2.3020   383.9660    75.4720    24.2800    33.1560    37.8210    41.1550   -29.2980 
  214.2500     2.3070   376.4560    79.5540    24.2790    31.7080    34.9100    37.8490   -29.2850 
  214.3750     2.3000   370.6130    76.6450    24.2790    29.9120    31.7810    34.4320   -29.2590 
  214.5000     2.2880   368.5530    72.4220    24.2790    28.4730    28.8070    31.2930   -29.2230 
  214.6250     2.2810   372.0160    72.8870    24.2790    27.1880    26.3230    28.7880   -29.2160 
  214.7500     2.2830   378.0470    74.2160    24.2790    25.5450    24.4320    26.9950   -29.2310 
  214.8750     2.2920   383.2940    74.7970    24.2790    23.8920    23.2480    26.0560   -29.2750 
  215.0000     2.3010   385.7930    75.8640    24.2790    23.0400    22.9040    26.1580   -29.3890 
  215.1250     2.3000   385.4630    76.2210    24.2800    23.5160    23.7550    27.7730   -29.5780 
  215.2500     2.2920   383.6810    73.1650    24.2780    24.8690    25.7800    30.8530   -29.8100 
  215.3750     2.2850   381.2230    68.8300    24.2730    27.3100    28.9540    35.3100   -30.0700 
  215.5000     2.2810   380.0470    67.7170    24.2800    31.5330    32.9390    40.6530   -30.3160 
  215.6250     2.2750   383.2940    67.9910    24.3120    36.8690    36.7830    45.5640   -30.4890 
  215.7500     2.2630   390.8420    66.6610    24.3460    40.1710    39.3160    48.5690   -30.6150 
  215.8750     2.2510   400.7390    66.7650    24.3690    40.1510    39.9920    49.0850   -30.6930 
  216.0000     2.2410   409.7860    70.7550    24.3960    37.9010    39.1690    47.8120   -30.6880 
  216.1250     2.2290   414.2270    74.1740    24.4570    35.0010    37.9140    46.3850   -30.6040 
  216.2500     2.2160   413.6170    72.0250    24.5370    32.7890    37.3940    46.2400   -30.4700 
  216.3750     2.2040   408.7170    67.0270    24.6100    32.6980    38.2050    48.0140   -30.3000 
  216.5000     2.1960   401.1050    65.4710    24.6590    35.4980    40.5090    51.7590   -30.1410 
  216.6250     2.1910   392.9300    68.3880    24.6820    40.2500    44.0460    56.9300   -30.0170 
  216.7500     2.1880   386.6450    70.5100    24.6910    44.2890    47.6110    61.7220   -29.9190 
  216.8750     2.1870   383.8040    69.7120    24.7030    46.3960    50.0520    64.3640   -29.8340 
  217.0000     2.1850   384.7830    66.8350    24.7290    46.5500    50.5430    63.7430   -29.7440 
  217.1250     2.1860   389.0430    63.2780    24.7640    44.9430    48.8590    60.0140   -29.6540 
  217.2500     2.1940   394.4640    61.3470    24.7840    42.4210    46.2830    55.4580   -29.5670 
  217.3750     2.2090   399.5230    62.7590    24.7760    39.7610    43.7660    51.4420   -29.4730 
  217.5000     2.2200   402.6810    64.9900    24.7430    37.5630    41.8540    48.5380   -29.3770 
  217.6250     2.2150   401.8970    64.1370    24.7000    36.1890    40.6660    46.7190   -29.2860 
  217.7500     2.1970   397.4200    62.8670    24.6700    35.5860    39.6680    45.1530   -29.1970 
  217.8750     2.1770   390.5840    63.9770    24.6650    35.3670    38.2970    43.1060   -29.1210 
  218.0000     2.1660   383.6880    67.1710    24.6750    34.2100    36.0800    40.0580   -29.0650 
  218.1250     2.1720   379.0140    69.4200    24.6860    30.8410    32.7990    35.8990   -29.0090 
  218.2500     2.1890   376.0970    68.9390    24.6930    26.6660    29.0760    31.4160   -28.9430 
  218.3750     2.2080   373.1610    65.9400    24.6870    23.1210    25.5140    27.3030   -28.8550 
  218.5000     2.2220   367.9170    63.8350    24.6610    20.5940    22.6130    24.1430   -28.6930 
  218.6250     2.2300   356.9030    64.7490    24.6410    19.0620    20.9710    22.7360   -28.4250 
  218.7500     2.2500   338.8640    64.8500    24.6450    18.5100    20.7520    23.2380   -28.0400 
  218.8750     2.2950   314.2910    64.0530    24.6580    19.3700    22.0600    25.6210   -27.5110 
  219.0000     2.3670   287.9580    63.8930    24.6920    22.7340    24.4780    29.1250   -26.8570 
  219.1250     2.4500   271.8430    64.4840    24.8500    34.0740    26.2650    31.1480   -26.0590 
  219.2500     2.5230   274.4130    64.9620    25.1510    48.1480    25.2790    29.1300   -25.1600 
  219.3750     2.5640   297.3700    68.0490    25.4900    47.6730    21.2460    23.3510   -24.2100 
  219.5000     2.5590   334.1000    75.4350    25.7180    29.9020    16.0670    16.7050   -23.2530 
  219.6250     2.5070   372.0760    83.2710    25.8050    14.9420    11.9900    11.9640   -22.3570 
  219.7500     2.4430   401.7050    90.2340    25.8970     9.6370     9.3960     9.2220   -21.5650 
  219.8750     2.3910   421.4140    96.9990    26.0380     8.7550     7.9940     7.9970   -20.9040 
