~V
VERS. 2.00: Ver 2.00
~W
STRT.M 125.0000:
STOP.M 275.0000:
STEP.M 0.1250:
NULL. -999.2500:
UWI. DF3074:
~C
DEPT.M :
GR.API :
CALI.CM :
RXO.OHMM :
RI. :
RML.OHMM :
DEN.GM/CC :
SP.MV :
~A
# ...
  203.7500    98.6520    25.1830    10.4210     9.0180    13.1540     2.3880   -18.0660 
  203.8750    98.5830    24.9510    11.0160     9.1700    13.4870     2.4050   -18.7210 
  204.0000    94.8630    24.8180    11.3570     9.3450    13.8510     2.4130   -19.3390 
  204.1250    89.7230    24.7550    11.3090     9.5190    14.1920     2.4010   -19.8500 
  204.2500    87.8700    24.7800    11.1220     9.7050    14.5470     2.3820   -20.3390 
  204.3750    89.4110    24.7990    11.2080     9.9570    15.0280     2.3720   -20.7670 
  204.5000    88.6560    24.7190    11.6470    10.3380    15.7500     2.3760   -21.1550 
  204.6250    83.9840    24.5260    12.5070    10.8900    16.7450     2.3830   -21.4090 
  204.7500    80.8000    24.4040    13.8650    11.5030    17.7590     2.3890   -21.5680 
  204.8750    81.0880    24.3320    15.5790    12.0290    18.4910     2.4050   -21.6070 
  205.0000    84.0300    24.2140    16.2940    12.3440    18.7500     2.4310   -21.4480 
  205.1250    87.3360    23.9120    15.0680    12.4170    18.5820     2.4370   -21.1680 
  205.2500    89.9620    23.5590    13.4840    12.3950    18.3560     2.4190   -20.6970 
  205.3750    91.4130    23.4350    13.0030    12.3750    18.2880     2.4060   -20.0840 
  205.5000    92.9080    23.6890    13.8370    12.3840    18.3950     2.4330   -19.3170 
  205.6250    94.3250    24.2150    14.8800    12.3100    18.3960     2.4920   -18.5250 
  205.7500    94.6740    24.6170    14.6470    11.9590    17.8630     2.5320   -17.7250 
  205.8750    96.0690    24.7140    12.9540    11.2020    16.5530     2.5240   -16.9200 
  206.0000   100.6850    24.5510    10.9380    10.0830    14.5970     2.4710   -16.1110 
  206.1250   103.0700    24.2920     9.3840     8.8370    12.4830     2.4020   -15.2260 
  206.2500    97.3480    24.1570     7.8310     7.7680    10.7520     2.3510   -14.3440 
  206.3750    86.6290    24.1400     6.6520     7.0290     9.6460     2.3230   -13.5050 
  206.5000    78.4390    23.8260     6.1970     6.6520     9.1810     2.3110   -12.7590 
  206.6250    75.0370    23.0270     6.2640     6.6010     9.2420     2.3160   -12.0380 
  206.7500    71.6740    22.2360     6.3470     6.6850     9.4680     2.3320   -11.3750 
  206.8750    67.6930    21.6090     6.2810     6.7650     9.6010     2.3500   -10.7680 
  207.0000    63.1820    21.0100     6.0460     6.7370     9.4800     2.3520   -10.2630 
  207.1250    57.5910    20.0740     5.7460     6.5610     9.0980     2.3310    -9.8870 
  207.2500    53.1360    19.0050     5.5480     6.3270     8.6630     2.3050    -9.6510 
  207.3750    51.7200    18.2700     5.4960     6.1120     8.3070     2.2850    -9.4650 
  207.5000    52.8660    17.9400     5.5340     5.9670     8.0850     2.2740    -9.3480 
  207.6250    55.2550    17.8840     5.6090     5.9210     7.9990     2.2680    -9.2210 
  207.7500    57.1200    17.9080     5.7380     5.9400     7.9820     2.2680    -9.0880 
  207.8750    58.5600    18.0870     5.9400     6.0030     8.0120     2.2780    -8.9650 
  208.0000    62.5200    18.6080     6.1540     6.0930     8.0920     2.3050    -8.8130 
  208.1250    70.9830    19.6760     6.2410     6.2040     8.2320     2.3500    -8.7420 
  208.2500    78.7750    21.0650     6.2420     6.3210     8.3990     2.3900    -8.6820 
  208.3750    82.7680    22.6580     6.3190     6.4220     8.5490     2.4050    -8.6710 
  208.5000    84.7210    24.1670     6.5210     6.4870     8.6420     2.3950    -8.6820 
  208.6250    86.1390    24.8830     6.6950     6.4880     8.6420     2.3820    -8.7530 
  208.7500    86.7170    25.0260     6.7120     6.4310     8.5570     2.3840    -8.8860 
  208.8750    86.5200    24.9860     6.6060     6.3220     8.3980     2.3990    -9.0640 
  209.0000    86.3560    24.9770     6.4620     6.1730     8.1800     2.4120    -9.3400 
  209.1250    86.7070    25.0230     6.4330     6.0090     7.9400     2.4100    -9.6730 
  209.2500    88.1560    25.0390     6.4850     5.8880     7.7670     2.3990   -10.0320 
  209.3750    89.3410    25.0460     6.5320     5.8750     7.7620     2.3870   -10.4180 
  209.5000    87.5750    25.0360     6.6170     6.0290     8.0090     2.3830   -10.8040 
  209.6250    82.5000    25.0090     7.2060     6.4290     8.6350     2.3870   -11.2180 
  209.7500    78.2960    24.9790     8.4240     7.0670     9.6280     2.3900   -11.6280 
  209.8750    76.4190    24.9860     9.5870     7.9480    10.9700     2.3840   -12.0100 
  210.0000    77.3550    25.0110    10.0980     9.0330    12.5650     2.3670   -12.4150 
  210.1250    78.8840    25.0450     9.9720    10.2110    14.1930     2.3410   -12.7480 
  210.2500    78.5910    25.0850    10.6120    11.2820    15.5650     2.3170   -13.0840 
  210.3750    77.2130    25.1180    11.7000    12.0780    16.4680     2.3070   -13.4100 
  210.5000    76.0670    25.1520    12.5210    12.4930    16.7870     2.3160   -13.6960 
  210.6250    76.3080    25.1830    12.5520    12.4790    16.5020     2.3320   -13.9760 
  210.7500    77.7850    25.2000    12.1510    12.2640    15.9860     2.3360   -14.2190 
  210.8750    81.4910    25.2250    11.9070    12.1020    15.6530     2.3280   -14.4620 
  211.0000    85.1500    25.2750    12.0750    12.2950    15.9750     2.3180   -14.6250 
  211.1250    83.8800    25.3340    12.4160    13.3260    17.6560     2.3170   -14.8560 
  211.2500    80.2500    25.3780    14.1710    15.4630    20.9670     2.3310   -15.0680 
  211.3750    76.6010    25.3850    18.9960    19.0400    26.2380     2.3560   -15.3020 
  211.5000    73.1280    25.3680    27.4260    24.1630    33.4540     2.3820   -15.5920 
  211.6250    69.2680    25.3260    35.4640    30.2160    41.5130     2.3930   -15.8510 
  211.7500    66.6990    25.3120    39.1600    35.2860    47.6020     2.3890   -16.1550 
  211.8750    66.9670    25.3410    38.7420    37.9060    49.7440     2.3790   -16.4480 
  212.0000    69.3990    25.3760    35.7250    38.0010    48.4170     2.3720   -16.7920 
  212.1250    71.4530    25.3970    30.4030    36.9150    46.2210     2.3710   -17.0720 
  212.2500    71.7090    25.4240    26.3900    36.4660    45.5460     2.3660   -17.3560 
  212.3750    71.0630    25.4720    27.0620    37.4020    47.1090     2.3450   -17.6170 
  212.5000    70.3920    25.5270    32.0410    39.8280    50.8030     2.3020   -17.8610 
  212.6250    70.0610    25.5800    36.9590    43.4260    55.9950     2.2560   -18.0880 
  212.7500    69.3860    25.6170    39.7950    47.1600    61.1250     2.2290   -18.2820 
  212.8750    69.9690    25.6450    41.1230    50.2860    65.0950     2.2210   -18.4980 
  213.0000    71.9660    25.6510    41.7000    52.5530    67.6700     2.2210   -18.7170 
  213.1250    74.0720    25.6350    41.6650    54.5390    69.9090     2.2170   -18.9480 
  213.2500    74.1110    25.6190    43.2050    57.3250    73.3930     2.2080   -19.2410 
  213.3750    72.8490    25.6150    47.3100    61.5680    78.9630     2.2040   -19.5610 
  213.5000    72.3790    25.6330    54.4210    67.4740    86.8490     2.2080   -19.8880 
  213.6250    73.4890    25.6450    64.2340    74.7980    96.7540     2.2180   -20.2860 
  213.7500    73.6880    25.6480    75.1440    82.2040   106.8130     2.2230   -20.6530 
  213.8750    72.1020    25.6490    83.7500    88.4440   115.1170     2.2220   -21.0430 
  214.0000    70.6380    25.6530    87.1250    92.6220   120.2320     2.2200   -21.4110 
  214.1250    73.0210    25.6450    87.2750    94.3680   121.6480     2.2270   -21.7480 
  214.2500    76.1120    25.6290    85.8540    94.8820   121.3110     2.2350   -22.0410 
  214.3750    75.7100    25.6140    84.5810    95.2210   120.8080     2.2340   -22.2780 
  214.5000    72.6070    25.6150    85.2360    96.2830   121.3500     2.2260   -22.5160 
  214.6250    70.6110    25.5980    87.4540    98.7230   123.7090     2.2210   -22.6760 
  214.7500    69.9280    25.5910    90.7950   102.1560   127.2520     2.2250   -22.9010 
  214.8750    68.4410    25.5960    96.8180   105.8310   130.8840     2.2280   -23.1260 
