~V
VERS. 2.00: Ver 2.00
~W
STRT.M 120.0000:
STOP.M 278.0000:
STEP.M 0.1250:
NULL. -999.2500:
UWI. DF3047:
~C
DEPT.M :
DEN.GM/CC :
SP.MV :
AC.US/MT :
GR.API :
CALI.CM :
RXO.OHMM :
RI. :
RML.OHMM :
~A
# ...
  270.0000     2.4270    -9.3810   292.4330    63.0650    27.3650     7.7800     6.6320     8.6700 
  270.1250     2.4010    -9.3910   296.7050    63.0650    26.9780     8.2580     6.6320     8.6770 
  270.2500     2.3790    -9.4320   301.4920    63.0650    27.0510     7.7800     6.6300     8.6780 
  270.3750     2.3670    -9.4980   305.3770    63.0650    27.7370     6.6910     6.6290     8.6800 
  270.5000     2.3600    -9.5860   307.2830    63.0650    28.7120     5.9230     6.6300     8.6870 
  270.6250     2.3470    -9.6940   308.0240    63.0650    29.0710     5.7970     6.6320     8.7010 
  270.7500     2.3240    -9.8220   308.8840    63.0650    28.7390     5.8160     6.6330     8.7170 
  270.8750     2.2950    -9.9460   311.0820    63.0650    28.3470     5.8580     6.6310     8.7360 
  271.0000     2.2660   -10.0500   315.3940    63.0650    28.4940     5.9390     6.6290     8.7520 
  271.1250     2.2340   -10.1020   320.7620    63.0650    29.1350     5.9180     6.6260     8.7590 
  271.2500     2.2030   -10.1070   325.6420    63.0650    29.5300     5.8840     6.6250     8.7560 
  271.3750     2.1860   -10.0490   328.3970    63.0650    29.1940     6.2020     6.6240     8.7450 
  271.5000     2.1850    -9.9040   327.7190    63.0650    28.2720     7.1160     6.6230     8.7310 
  271.6250     2.1990    -9.7020   324.7970    63.0650    27.3520     8.1620     6.6230     8.7220 
  271.7500     2.2200    -9.4700   321.1440    63.0650    26.5700     8.4960     6.6230     8.7220 
  271.8750     2.2430    -9.2310   318.3950    63.0650    25.8160     8.0730     6.6230     8.7220 
  272.0000     2.2600    -9.0110   318.0750    63.0650    25.3430     7.4850     6.6230     8.7220 
  272.1250     2.2630    -8.8170   319.8300    63.0650    25.4740     7.2210     6.6230     8.7220 
  272.2500     2.2470    -8.6430   322.9310    63.0650    25.8230     7.1330     6.6230     8.7220 
  272.3750     2.2080    -8.5160   326.7640    63.0650    26.0940     6.9900     6.6230     8.7220 
  272.5000     2.1690    -8.4550   331.1430    63.0650    26.3940     6.6720     6.6230     8.7220 
  272.6250     2.1600    -8.4250   335.5840    63.0650    26.7910     6.2950     6.6230     8.7220 
  272.7500     2.1920    -8.4090   339.3060    63.0650    26.8420     6.0860     6.6230     8.7220 
  272.8750     2.2490    -8.3980   341.6260    63.0650    26.2050     6.0380     6.6230     8.7220 
  273.0000     2.2960    -8.3920   342.4030    63.0650    25.0850     6.0000     6.6230     8.7220 
  273.1250     2.3150    -8.4000   342.4220    63.0650    24.2390     5.9070     6.6230     8.7220 
  273.2500     2.3030    -8.4180   341.5630    63.0650    24.1110     5.8380     6.6230     8.7220 
  273.3750     2.2580    -8.4310   338.7640    63.0650    24.5360     5.7920     6.6230     8.7220 
  273.5000     2.1980    -8.4400   332.2760    63.0650    24.9910     5.7220     6.6230     8.7220 
  273.6250     2.1430    -8.4570   323.0450    63.0650    24.7160     5.6620     6.6230     8.7220 
  273.7500     2.1040    -8.4750   313.0400    63.0650    23.8480     5.6880     6.6230     8.7220 
  273.8750     2.0850    -8.4980   304.4060    63.0650    23.0470     5.8030     6.6230     8.7220 
  274.0000     2.0810    -8.5170   298.6180    63.0650    22.6540     5.9310     6.6230     8.7220 
  274.1250     2.0870    -8.5290   295.0110    63.0650    22.1740     6.0140     6.6230     8.7220 
  274.2500     2.0880    -8.5330   293.1800    63.0650    21.1610     6.0990     6.6230     8.7220 
  274.3750     2.0670    -8.5380   292.9050    63.0650    19.9230     6.2050     6.6230     8.7220 
  274.5000     2.0310    -8.5420   293.7690    63.0650    18.9430     6.2520     6.6230     8.7220 
  274.6250     1.9920    -8.5430   294.6450    63.0650    18.2210     6.1550     6.6230     8.7220 
  274.7500     1.9650    -8.5440   295.1500    63.0650    17.4870     6.0120     6.6230     8.7220 
  274.8750     1.9550    -8.5370   295.7080    63.0650    16.8200     5.9220     6.6230     8.7220 
  275.0000     1.9540    -8.5280   296.9460    63.0650    16.4370     5.8980     6.6230     8.7220 
  275.1250     1.9530    -8.5240   298.3280    63.0650    16.3760     5.9010     6.6230     8.7220 
  275.2500     1.9490    -8.5200   299.0020    63.0650    16.3890     5.9020     6.6230     8.7220 
  275.3750     1.9420    -8.5110   298.7880    63.0650    16.3910     5.9030     6.6230     8.7220 
  275.5000     1.9380    -8.4950   298.6310    63.0650    16.3910     5.9040     6.6230     8.7220 
  275.6250     1.9350    -8.4710   298.2870    63.0650    16.3910     5.9040     6.6230     8.7220 
  275.7500     1.9330    -8.4420   305.4590    63.0650    16.3910     5.9040     6.6230     8.7220 
  275.8750     1.9330    -8.4100   328.1270    63.0650    16.3920     5.9040     6.6230     8.7220 
  276.0000     1.9340    -8.3740   358.5390    63.0650    16.3840     5.9040     6.6230     8.7220 
  276.1250     1.9330    -8.3330   377.1610    63.0650    16.3580     5.9030     6.6230     8.7220 
  276.2500     1.9280    -8.2950   381.0980    63.0650    16.3290     5.9030     6.6230     8.7220 
  276.3750     1.9230    -8.2660   380.2970    63.0650    16.3130     5.9030     6.6230     8.7220 
  276.5000     1.9170    -8.2610  -999.2500    63.0650    16.3110     5.9040     6.6230     8.7220 
  276.6250     1.9170    -8.2610  -999.2500  -999.2500  -999.2500  -999.2500  -999.2500  -999.2500 
  276.7500     1.8940  -999.2500  -999.2500  -999.2500  -999.2500  -999.2500  -999.2500  -999.2500 
  276.8750     1.9390  -999.2500  -999.2500  -999.2500  -999.2500  -999.2500  -999.2500  -999.2500 
  277.0000     2.0690  -999.2500  -999.2500  -999.2500  -999.2500  -999.2500  -999.2500  -999.2500 
  277.1250     1.9370  -999.2500  -999.2500  -999.2500  -999.2500  -999.2500  -999.2500  -999.2500 
  277.2500     1.4630  -999.2500  -999.2500  -999.2500  -999.2500  -999.2500  -999.2500  -999.2500 
  277.3750     1.3060  -999.2500  -999.2500  -999.2500  -999.2500  -999.2500  -999.2500  -999.2500 
  277.5000     1.8650  -999.2500  -999.2500  -999.2500  -999.2500  -999.2500  -999.2500  -999.2500 
  277.6250     2.8270  -999.2500  -999.2500  -999.2500  -999.2500  -999.2500  -999.2500  -999.2500 
  277.7500     3.3970  -999.2500  -999.2500  -999.2500  -999.2500  -999.2500  -999.2500  -999.2500 
  277.8750     2.9860  -999.2500  -999.2500  -999.2500  -999.2500  -999.2500  -999.2500  -999.2500 
  278.0000     2.2140  -999.2500  -999.2500  -999.2500  -999.2500  -999.2500  -999.2500  -999.2500 
