~V
VERS. 2.00: Ver 2.00
~W
STRT.M 56.0000:
STOP.M 296.0000:
STEP.M 0.1250:
NULL. -999.2500:
UWI. DF301:
~C
DEPT.M :
DEN.GM/CC :
SP.MV :
AC.US/MT :
GR.API :
CALI.CM :
RXO.OHMM :
RI. :
RML.OHMM :
~A
# ...
  106.0000  -999.2500    -7.5650  -999.2500    67.3860    24.6080    30.8770    20.2570    22.2930 
  106.1250  -999.2500    -7.8740  -999.2500    64.8260    24.6530    31.6100    22.3160    23.5460 
  106.2500  -999.2500    -8.2080  -999.2500    67.3870    24.6620    31.3960    21.4850    22.0510 
  106.3750  -999.2500    -8.7590  -999.2500    69.2980    24.6680    28.6720    18.8930    19.0400 
  106.5000  -999.2500    -9.4320  -999.2500    69.0020    24.6200    22.7530    15.7300    15.6750 
  106.6250  -999.2500   -10.0660  -999.2500    69.0380    24.4840    16.2460    12.8530    12.7940 
  106.7500  -999.2500   -10.7170  -999.2500    72.4620    24.2530    12.2800    10.7550    10.8700 
  106.8750  -999.2500   -11.3360  -999.2500    77.1910    24.1030    10.6530     9.3510     9.7280 
  107.0000  -999.2500   -11.7560  -999.2500    79.8220    24.0190    10.2380     8.5420     9.2020 
  107.1250  -999.2500   -12.0120  -999.2500    76.8900    23.9530    10.1870     8.1910     9.0910 
  107.2500  -999.2500   -12.0960  -999.2500    70.3320    23.8240    10.0740     8.1450     9.1920 
  107.3750  -999.2500   -11.9730  -999.2500    69.4860    23.6380     9.8630     8.1770     9.2870 
  107.5000  -999.2500   -11.7680  -999.2500    76.1630    23.4010     9.7210     8.1840     9.2940 
  107.6250  -999.2500   -11.6500  -999.2500    83.5860    23.2140     9.6990     8.1350     9.2070 
  107.7500  -999.2500   -11.5740  -999.2500    83.6760    23.1380     9.6330     8.0450     9.0790 
  107.8750  -999.2500   -11.5300  -999.2500    79.5760    23.1390     9.5180     7.9740     8.9870 
  108.0000  -999.2500   -11.6320  -999.2500    75.5210    23.1510     9.4020     7.9680     8.9790 
  108.1250  -999.2500   -11.8110  -999.2500    73.1020    23.1450     9.3440     8.0520     9.0720 
  108.2500  -999.2500   -12.0430  -999.2500    73.5790    23.1390     9.6250     8.2210     9.2570 
  108.3750  -999.2500   -12.3000  -999.2500    76.8790    23.2020    10.4260     8.4210     9.4620 
  108.5000  -999.2500   -12.5710  -999.2500    79.7570    23.3470    11.3300     8.5940     9.6220 
  108.6250  -999.2500   -12.8140  -999.2500    79.2530    23.5400    11.6850     8.6820     9.6660 
  108.7500  -999.2500   -12.9780  -999.2500    77.8550    23.6820    11.2970     8.6020     9.5080 
  108.8750  -999.2500   -13.0500  -999.2500    78.7770    23.7480    11.1330     8.3510     9.1700 
  109.0000  -999.2500   -13.0090  -999.2500    80.1190    23.8050    11.1060     7.9580     8.6960 
  109.1250  -999.2500   -12.9360  -999.2500    78.9540    23.9000    10.8600     7.4970     8.1780 
  109.2500  -999.2500   -12.8480  -999.2500    75.9150    24.0160     9.8910     7.0820     7.7530 
  109.3750  -999.2500   -12.7810  -999.2500    75.1520    24.1240     8.8270     6.8000     7.5140 
  109.5000  -999.2500   -12.7970  -999.2500    76.4780    24.1610     8.5720     6.7030     7.5100 
  109.6250  -999.2500   -12.8980  -999.2500    76.2740    24.0590     9.1250     6.8030     7.7340 
  109.7500  -999.2500   -13.1090  -999.2500    74.3480    23.9110     9.7350     7.0930     8.1380 
  109.8750  -999.2500   -13.4180  -999.2500    71.9700    23.7350    10.0720     7.4620     8.5740 
  110.0000  -999.2500   -13.8290  -999.2500    68.0250    23.5410    10.4320     7.8120     8.9330 
  110.1250  -999.2500   -14.3010  -999.2500    63.0730    23.4390    10.7340     8.0570     9.1450 
  110.2500  -999.2500   -14.7390  -999.2500    62.1730    23.3590    10.8910     8.1450     9.1850 
  110.3750  -999.2500   -15.1510  -999.2500    64.6100    23.2820    10.9880     8.1370     9.1370 
  110.5000  -999.2500   -15.4080  -999.2500    66.6050    23.2290    11.0390     8.0850     9.0680 
  110.6250  -999.2500   -15.5160  -999.2500    66.2510    23.2130    10.9530     8.0330     9.0260 
  110.7500  -999.2500   -15.5580  -999.2500    64.8140    23.2480    10.8270     8.0150     9.0300 
  110.8750  -999.2500   -15.5100  -999.2500    64.8920    23.2980    11.2940     8.0210     9.0450 
  111.0000  -999.2500   -15.3840  -999.2500    67.1780    23.3630    12.9350     8.0320     9.0360 
  111.1250  -999.2500   -15.2510  -999.2500    71.2620    23.4390    15.0220     8.0250     8.9870 
  111.2500  -999.2500   -15.1010  -999.2500    74.7430    23.5460    14.5340     7.9880     8.9120 
  111.3750  -999.2500   -14.9180  -999.2500    76.4800    23.6190    12.3530     7.9390     8.8540 
  111.5000  -999.2500   -14.8330  -999.2500    76.5170    23.6380    10.5990     7.9010     8.8420 
  111.6250  -999.2500   -14.7990  -999.2500    75.3040    23.6210    10.0140     7.8910     8.8840 
  111.7500  -999.2500   -14.7320  -999.2500    73.4080    23.6020    10.1210     7.9260     8.9690 
  111.8750  -999.2500   -14.7600  -999.2500    69.9330    23.5910    10.3140     7.9890     9.0560 
  112.0000  -999.2500   -14.8210  -999.2500    66.5500    23.5730    10.4370     8.0540     9.1160 
  112.1250  -999.2500   -14.8310  -999.2500    66.3360    23.5070    10.4810     8.1030     9.1340 
  112.2500  -999.2500   -14.8840  -999.2500    69.1420    23.4120    10.4730     8.1320     9.1160 
  112.3750  -999.2500   -14.9830  -999.2500    70.4430    23.3700    10.4510     8.1540     9.0930 
  112.5000  -999.2500   -15.0190  -999.2500    68.7010    23.3600    10.4300     8.1820     9.0870 
  112.6250  -999.2500   -14.9860  -999.2500    66.0990    23.3730    10.5070     8.2190     9.0970 
  112.7500  -999.2500   -15.0310  -999.2500    64.7200    23.3660    10.6850     8.2500     9.0970 
  112.8750  -999.2500   -15.0730  -999.2500    64.9980    23.3460    10.7510     8.2420     9.0590 
  113.0000  -999.2500   -15.0820  -999.2500    65.9570    23.2860    10.6970     8.1840     8.9810 
  113.1250  -999.2500   -15.1610  -999.2500    66.3000    23.1920    10.5340     8.0910     8.8900 
  113.2500  -999.2500   -15.3080  -999.2500    66.2460    23.1230    10.2030     8.0080     8.8450 
  113.3750  -999.2500   -15.4030  -999.2500    64.9390    23.0870     9.9130     7.9770     8.8840 
  113.5000  -999.2500   -15.4700  -999.2500    62.7190    23.0300     9.9440     8.0110     9.0070 
  113.6250  -999.2500   -15.6000  -999.2500    62.4940    22.9210    10.3390     8.0870     9.1550 
  113.7500  -999.2500   -15.7020  -999.2500    65.5340    22.7320    10.7270     8.1140     9.1840 
  113.8750  -999.2500   -15.7720  -999.2500    67.9250    22.6160    10.8240     8.0000     9.0030 
  114.0000     2.2000   -15.8510  -999.2500    68.3270    22.5590    10.7060     7.7430     8.6410 
  114.1250     2.2000   -15.8070  -999.2500    68.1200    22.5130    10.4730     7.4710     8.2880 
  114.2500     2.1990   -15.6210  -999.2500    66.8140    22.4920    10.1640     7.5060     8.3810 
  114.3750     2.2130   -15.3710  -999.2500    64.5150    22.5360    10.2070     8.1320     9.2690 
  114.5000     2.2590   -15.0040  -999.2500    64.0640    22.6040    11.8470     9.6350    11.2520 
  114.6250     2.3520   -14.5340  -999.2500    65.2340    22.7110    17.7920    12.2160    14.3730 
  114.7500     2.4810   -14.0360  -999.2500    64.4920    22.9140    29.1550    15.6990    17.8540 
  114.8750     2.5840   -13.5800  -999.2500    62.6180    23.2340    37.7650    18.4880    19.9420 
  115.0000     2.6090   -13.2550  -999.2500    61.4970    23.4960    35.1320    18.8490    19.4880 
  115.1250     2.5440   -13.0920  -999.2500    60.4930    23.5040    23.5770    16.6110    16.7400 
  115.2500     2.4220   -13.0080  -999.2500    59.8910    23.1040    14.7020    13.4260    13.2440 
  115.3750     2.3080   -12.9620  -999.2500    61.0160    22.6350    10.5820    10.8320    10.5380 
  115.5000     2.2310   -12.9800  -999.2500    63.2620    22.4130     9.2590     9.1000     8.9260 
  115.6250     2.1960   -12.9620  -999.2500    66.0900    22.3900     9.0550     8.1010     8.1740 
  115.7500     2.1910   -12.6650  -999.2500    69.9320    22.4390     9.3900     7.6300     7.9370 
  115.8750     2.1960   -12.0930  -999.2500    73.1810    22.5280     9.5620     7.3310     7.7840 
