~V
VERS. 2.00: Ver 2.00
~W
STRT.M 125.0000:
STOP.M 269.0000:
STEP.M 0.1250:
NULL. -999.2500:
UWI. DF3036:
~C
DEPT.M :
GR.API :
RML.OHMM :
RI. :
RXO.OHMM :
CALI.CM :
DEN.GM/CC :
SP.MV :
~A
# ...
  215.0000    64.3660   175.2420   161.9710    73.3240    21.2800     2.1850   -38.3670 
  215.1250    65.7560   168.5710   154.7090    84.9340    21.8880     2.1840   -38.5310 
  215.2500    66.3760   161.2690   146.3030    90.0210    22.2690     2.1810   -38.6840 
  215.3750    65.4290   156.5410   139.9660    88.7900    22.3970     2.1800   -38.8550 
  215.5000    65.5900   155.1020   136.6180    87.2640    22.3870     2.1810   -38.9890 
  215.6250    68.5710   156.7630   136.2490    86.8980    22.3210     2.1860   -39.1480 
  215.7500    71.0720   160.2420   137.7250    85.8610    22.2380     2.1910   -39.3070 
  215.8750    70.9970   165.0450   140.6240    85.0090    22.1230     2.1920   -39.4880 
  216.0000    70.5560   170.9900   144.7750    84.6840    21.9900     2.1880   -39.6420 
  216.1250    72.2780   178.4470   150.4590    87.8680    21.9600     2.1780   -39.8700 
  216.2500    73.5390   187.4880   157.6070    95.8450    21.9570     2.1690   -40.0600 
  216.3750    71.9980   198.1180   166.1610   106.4510    21.9670     2.1620   -40.2650 
  216.5000    69.0260   209.7850   175.6400   113.2320    22.0280     2.1600   -40.4600 
  216.6250    67.5600   220.8220   184.7940   114.2270    22.2550     2.1580   -40.6190 
  216.7500    67.8310   229.4360   191.9780   118.2130    22.6110     2.1530   -40.7380 
  216.8750    69.9870   233.8190   195.6900   126.8000    22.8930     2.1450   -40.8020 
  217.0000    71.5680   232.2830   194.9140   134.9190    22.9750     2.1370   -40.8260 
  217.1250    70.6710   223.6200   188.8290   134.7760    22.8700     2.1320   -40.7090 
  217.2500    69.0620   208.9670   179.3160   129.9850    22.7340     2.1310   -40.5210 
  217.3750    67.9180   190.5740   168.0940   124.0480    22.6360     2.1320   -40.2140 
  217.5000    66.1600   171.4610   156.9740   118.3200    22.5940     2.1330   -39.7640 
  217.6250    64.7410   154.8570   147.6850   110.9390    22.5860     2.1310   -39.1810 
  217.7500    65.8940   147.0340   140.5600   101.7410    22.5810     2.1270   -38.5040 
  217.8750    67.9130   141.3940   135.4890    91.8800    22.5540     2.1240   -37.8080 
  218.0000    68.2470   137.4380   132.0230    88.2290    22.4990     2.1260   -37.1640 
  218.1250    69.2340   134.6090   129.6310    83.5930    22.4950     2.1350   -36.5940 
  218.2500    70.8370   132.0760   127.5100    83.5280    22.6260     2.1460   -36.1240 
  218.3750    69.5680   129.3900   125.2270    86.9410    22.8260     2.1560   -35.7450 
  218.5000    66.0240   126.3080   122.5380    92.9300    23.0130     2.1580   -35.5410 
  218.6250    65.8380   122.8130   119.3980    99.0610    23.1170     2.1490   -35.4930 
  218.7500    68.1550   119.2380   116.1260   104.1700    23.1730     2.1330   -35.5800 
  218.8750    67.1200   115.8630   112.9950   105.9970    23.1830     2.1190   -35.7040 
  219.0000    64.2600   112.8690   110.1860   103.4560    23.1250     2.1190   -35.8340 
  219.1250    65.9930   110.3280   107.7720    98.7330    22.9320     2.1430   -35.8640 
  219.2500    69.9620   107.9950   105.5390    90.9960    22.7020     2.1810   -35.8670 
  219.3750    72.0300   105.6720   103.3180    85.1090    22.4370     2.2160   -35.8060 
  219.5000    74.6900   103.2890   101.0460    82.3180    22.0910     2.2310   -35.7670 
  219.6250    79.7730   101.0320    98.8870    70.2190    21.7570     2.2170   -35.6570 
  219.7500    81.3710    99.2040    97.1070    56.4830    21.4830     2.1930   -35.5650 
  219.8750    77.1200    98.0310    95.8900    46.7000    21.2210     2.1720   -35.4640 
  220.0000    71.1620    97.5400    95.2320    41.4170    20.9440     2.1620   -35.4000 
  220.1250    70.1070    97.5740    94.9270    40.7260    20.7640     2.1620   -35.3870 
  220.2500    70.9500    97.7000    94.5590    43.0210    20.6720     2.1680   -35.3910 
  220.3750    69.9710    97.6660    93.8880    44.0310    20.6660     2.1750   -35.3820 
  220.5000    67.6620    97.3910    92.8650    42.5200    20.7010     2.1810   -35.2660 
  220.6250    67.1190    96.9650    91.6260    41.5160    20.8800     2.1830   -35.1180 
  220.7500    69.1860    96.6220    90.4660    42.7940    21.2740     2.1810   -34.8570 
  220.8750    71.5010    96.5150    89.5630    48.0490    21.7030     2.1790   -34.5180 
  221.0000    73.0980    96.6960    88.9820    56.8270    21.9970     2.1800   -34.0390 
  221.1250    73.8270    97.1400    88.7150    65.2250    22.0870     2.1830   -33.5220 
  221.2500    73.5950    97.7240    88.6290    68.9680    22.0810     2.1870   -32.9770 
  221.3750    72.2470    98.4520    88.7130    68.9480    22.0540     2.1890   -32.4920 
  221.5000    70.2450    99.4820    89.0720    68.7230    22.0560     2.1900   -32.0310 
  221.6250    69.0700   101.3030    90.0800    70.3050    22.1040     2.1890   -31.6070 
  221.7500    69.3470   104.2480    91.9870    73.7870    22.1680     2.1890   -31.1640 
  221.8750    71.1430   108.5880    95.0050    77.0180    22.2060     2.1920   -30.7490 
  222.0000    74.6120   114.3660    99.1680    78.2430    22.2270     2.1990   -30.3770 
  222.1250    77.6740   121.5200   104.4280    79.9430    22.2570     2.2080   -29.9940 
  222.2500    78.1590   129.3600   110.2420    82.5630    22.2950     2.2150   -29.6420 
  222.3750    76.6370   137.3260   116.1670    86.7120    22.3220     2.2170   -29.2980 
  222.5000    74.8320   144.7800   121.7060    92.0340    22.3430     2.2120   -29.0830 
  222.6250    71.3790   150.7330   126.0910    90.7570    22.3680     2.2030   -28.9840 
  222.7500    67.0110   154.7300   128.9820    88.6870    22.3510     2.1950   -29.0560 
  222.8750    64.7290   156.5540   130.2260    88.9350    22.2790     2.1920   -29.2240 
  223.0000    64.7530   156.4690   130.0380    94.1210    22.1810     2.1970   -29.4680 
  223.1250    66.6140   155.0560   128.8640   107.3480    22.1540     2.2080   -29.7640 
  223.2500    69.6290   153.3640   127.4890   116.9170    22.2040     2.2170   -30.0110 
  223.3750    70.6260   151.8500   126.2610   120.1960    22.3440     2.2180   -30.1940 
  223.5000    67.8850   150.4600   125.1590   122.5760    22.5770     2.2100   -30.2610 
  223.6250    64.2290   148.4070   123.6130   129.7460    22.8950     2.1970   -30.2120 
  223.7500    63.7020   144.8410   120.9630   129.8450    23.1850     2.1850   -30.0410 
  223.8750    64.8230   139.1890   116.7430   127.9450    23.3090     2.1790   -29.7880 
  224.0000    65.9630   131.4890   110.9330   121.8920    23.1910     2.1820   -29.4740 
  224.1250    67.8950   122.4420   104.0160   113.1300    23.0360     2.1900   -29.0820 
  224.2500    69.3620   113.5990    97.2220   103.2160    22.9580     2.2010   -28.6650 
  224.3750    71.5230   106.2630    91.6390    94.0750    22.9150     2.2110   -28.2260 
  224.5000    76.0330   102.0290    88.5530    85.3390    22.8540     2.2160   -27.7400 
  224.6250    78.0490   104.1000    90.4570    82.9080    22.8150     2.2160   -27.2050 
  224.7500    74.2500   113.0130    97.8120    88.6900    22.8200     2.2190   -26.6390 
  224.8750    68.2920   127.3490   109.6020    98.6740    22.8080     2.2360   -26.0540 
  225.0000    65.8710   142.1050   121.9370   110.9910    22.7610     2.2780   -25.4030 
  225.1250    66.6650   146.7590   126.3070   134.3180    22.7150     2.3430   -24.7830 
  225.2500    66.6360   134.5650   117.1650   164.4870    22.6950     2.4210   -24.1580 
  225.3750    66.7720   105.7200    94.0750   190.7580    22.6690     2.4900   -23.5870 
  225.5000    68.6400    69.8720    63.9650   193.8600    22.6610     2.5330   -23.0410 
  225.6250    72.3710    41.6240    38.6240   111.2930    22.6450     2.5420   -22.6850 
  225.7500    74.1490    23.5790    22.2500    36.4710    22.5390     2.5150   -22.4400 
  225.8750    71.3730    13.4750    13.2510    12.9670    22.2470     2.4580   -22.3820 
  226.0000    67.1720     9.1380     8.8450     7.1550    21.9750     2.3900   -22.5160 
  226.1250    68.7860     7.9630     7.2660     6.1630    21.8280     2.3320   -22.8910 
