~V
VERS. 2.00: Ver 2.00
~W
STRT.M 60.0000:
STOP.M 283.0000:
STEP.M 0.1250:
NULL. -999.2500:
UWI. DF3045:
~C
DEPT.M :
DEN.GM/CC :
SP.MV :
AC.US/MT :
GR.API :
CALI.CM :
RXO.OHMM :
RI. :
RML.OHMM :
~A
# ...
  260.0000     2.4750   -16.1590   334.9260    57.5610    23.9710     7.3270     8.4980    10.1700 
  260.1250     2.4700   -16.1450   335.8000    56.2890    23.9050     7.2210     8.5980    10.1650 
  260.2500     2.4700   -16.1830   334.5710    55.5030    23.7260     7.3330     8.6810    10.1760 
  260.3750     2.4770   -16.2530   332.4850    56.3920    23.3240     7.6840     8.7670    10.2410 
  260.5000     2.4970   -16.3420   330.2660    58.0480    23.4550     8.2100     8.8830    10.3710 
  260.6250     2.5210   -16.4470   323.9350    60.1190    23.6880     9.9280     9.0550    10.5570 
  260.7500     2.5400   -16.5400   309.5200    60.6100    23.9040    14.4180     9.2690    10.7860 
  260.8750     2.5530   -16.6060   288.6030    58.5950    23.8420    19.0950     9.4780    11.0030 
  261.0000     2.5620   -16.6590   271.6300    56.9950    23.4490    20.2310     9.6400    11.1720 
  261.1250     2.5570   -16.7250   266.2850    58.2530    23.6000    18.6850     9.7050    11.2160 
  261.2500     2.5310   -16.8240   275.0590    61.4500    24.0170    16.9450     9.6890    11.1600 
  261.3750     2.4960   -16.9780   293.5110    65.5140    23.9800    14.2610     9.6050    11.0230 
  261.5000     2.4720   -17.1780   308.2680    70.1470    23.9470    13.0270     9.4710    10.8490 
  261.6250     2.4640   -17.3650   311.3070    74.5670    23.9790    15.0030     9.3400    10.7020 
  261.7500     2.4680   -17.5220   305.0340    75.3090    23.9670    17.2970     9.2610    10.6300 
  261.8750     2.4760   -17.6150   301.8400    70.8980    23.9520    16.1100     9.2650    10.6670 
  262.0000     2.4850   -17.6230   307.3110    65.5590    24.0420    12.1580     9.3640    10.8190 
  262.1250     2.4980   -17.5360   316.4010    66.8480    23.9880    11.7500     9.5690    11.0950 
  262.2500     2.5170   -17.3550   320.4300    72.5550    23.9630    13.1660     9.8460    11.4400 
  262.3750     2.5360   -17.1460   313.1290    74.4510    24.0880    16.8030    10.1630    11.8050 
  262.5000     2.5400   -16.9460   299.9250    70.9380    24.1610    20.4770    10.4980    12.1640 
  262.6250     2.5310   -16.7700   288.9340    66.5080    24.2190    21.9770    10.8070    12.4870 
  262.7500     2.5200   -16.6530   287.5720    65.7410    24.1760    18.5980    11.0480    12.7160 
  262.8750     2.5120   -16.6130   295.3710    67.9150    24.0300    13.5480    11.1990    12.8470 
  263.0000     2.5050   -16.6290   300.9420    70.5700    24.0600    11.1560    11.2740    12.8960 
  263.1250     2.5000   -16.6790   296.7730    70.7430    24.1510    13.1960    11.2790    12.8850 
  263.2500     2.5050   -16.7410   282.4130    70.1450    24.1300    17.0150    11.2280    12.8290 
  263.3750     2.5210   -16.7490   267.8560    69.3710    24.0520    21.0550    11.1220    12.7240 
  263.5000     2.5410   -16.6840   264.8710    65.6050    24.0710    20.7060    10.9760    12.5820 
  263.6250     2.5450   -16.6040   275.6710    61.1150    24.0560    16.0360    10.7930    12.4090 
  263.7500     2.5250   -16.5130   293.8370    59.9540    24.0330    12.4470    10.6010    12.2490 
  263.8750     2.4850   -16.4350   309.3820    60.9410    23.9520    13.2280    10.4530    12.1520 
  264.0000     2.4500   -16.3910   317.8890    61.6260    23.8350    13.8080    10.3970    12.1630 
  264.1250     2.4400   -16.3950   317.8170    61.6370    23.5110    12.7480    10.4720    12.3630 
  264.2500     2.4520   -16.4150   308.1900    62.8230    22.5470    11.8940    10.6920    12.7220 
  264.3750     2.4730   -16.4170   292.5110    63.7150    21.6890    12.1080    11.0490    13.2370 
  264.5000     2.4860   -16.4090   280.4980    64.5100    21.6730    11.8330    11.5140    13.8450 
  264.6250     2.4880   -16.3880   277.0600    64.4070    22.3040    11.0340    12.0560    14.4980 
  264.7500     2.4860   -16.3270   280.4750    64.7500    22.8380    10.8930    12.6080    15.1360 
  264.8750     2.4930   -16.2200   284.4810    65.1880    23.0960    11.8790    13.1150    15.7070 
  265.0000     2.5090   -16.0800   285.0610    64.1260    23.4330    15.0370    13.5310    16.1500 
  265.1250     2.5200   -15.9480   282.0630    62.9630    23.8460    17.4860    13.8100    16.4290 
  265.2500     2.5200   -15.8660   278.0530    62.7840    23.9910    19.0920    13.9500    16.5530 
  265.3750     2.5180   -15.8800   276.7290    63.0240    23.8500    19.6580    13.9400    16.5200 
  265.5000     2.5200   -15.9640   277.2910    63.0890    23.8390    19.4040    13.7910    16.3420 
  265.6250     2.5270   -16.0200   276.3320    62.8180    23.8150    18.8760    13.4930    16.0020 
  265.7500     2.5380   -16.0460   272.7960    61.5460    23.8740    18.7590    13.1160    15.5650 
  265.8750     2.5520   -16.0400   269.3280    59.7580    23.9480    18.3690    12.6850    15.0810 
  266.0000     2.5580   -16.0060   269.3010    60.0170    23.8120    17.7380    12.2380    14.5900 
  266.1250     2.5460   -15.9190   272.1780    61.9720    23.7280    17.0740    11.8330    14.1530 
  266.2500     2.5260   -15.8140   275.5770    62.8910    23.7270    17.2270    11.4910    13.7990 
  266.3750     2.5120   -15.7090   278.2900    62.9350    23.7380    17.5500    11.2230    13.5430 
  266.5000     2.5030   -15.6340   280.3640    61.5900    23.7300    17.7070    11.0210    13.3690 
  266.6250     2.4840   -15.5900   281.7570    58.7180    23.7940    17.0430    10.8860    13.2630 
  266.7500     2.4600   -15.5950   281.7700    56.5580    23.9710    16.2020    10.7930    13.1850 
  266.8750     2.4440   -15.6130   281.7820    56.9650    24.1830    14.8900    10.7180    13.1070 
  267.0000     2.4500   -15.6100   283.7960    58.5820    24.0490    12.9530    10.6540    13.0270 
  267.1250     2.4640   -15.5720   288.2640    59.5970    23.9470    10.8740    10.5970    12.9390 
  267.2500     2.4690   -15.4970   295.6740    60.3560    23.6360     9.1350    10.5360    12.8540 
  267.3750     2.4590   -15.4090   306.2380    62.1680    23.6780     8.4250    10.4860    12.7820 
  267.5000     2.4470   -15.3170   317.7760    64.8670    23.7430     8.0580    10.4700    12.7300 
  267.6250     2.4450   -15.2620   327.3800    65.9880    23.7160     7.7440    10.4920    12.7040 
  267.7500     2.4490   -15.2440   333.5830    64.8250    23.7550     7.4210    10.5280    12.6980 
  267.8750     2.4470   -15.2580   337.2100    63.3130    23.7990     7.1540    10.5720    12.7030 
  268.0000     2.4310   -15.2930   340.6810    64.4670    23.7200     6.9190    10.6080    12.7110 
  268.1250     2.4060   -15.3600   345.5330    66.8420    23.7200     6.6850    10.6160    12.7170 
  268.2500     2.3830   -15.4030   352.5260    65.0820    23.7420     6.5320    10.6010    12.7080 
  268.3750     2.3740   -15.4270   361.3960    60.1360    23.7180     6.4770    10.5550    12.6770 
  268.5000     2.3830   -15.4450   368.0190    56.3240    23.7070     6.4790    10.4640    12.6230 
  268.6250     2.4070   -15.4330   368.6160    55.3590    23.7310     6.5100    10.3410    12.5370 
  268.7500     2.4420   -15.4330   361.7500    53.8340    23.6730     6.7050    10.2050    12.4210 
  268.8750     2.4730   -15.4380   349.8510    51.7110    23.5120     7.0660    10.0710    12.2900 
  269.0000     2.4820   -15.4450   339.2720    52.1560    23.4530     7.4270     9.9500    12.1720 
  269.1250     2.4770   -15.4240   333.6460    55.1020    23.4330     7.4590     9.8490    12.0870 
  269.2500     2.4720   -15.4330   333.8630    56.9740    23.4330     7.3480     9.7890    12.0540 
  269.3750     2.4700   -15.4830   337.1810    56.4060    23.5970     7.3020     9.8000    12.1150 
  269.5000     2.4630   -15.5550   338.8260    54.9990    23.6810     7.4190     9.9030    12.2870 
  269.6250     2.4550   -15.6430   337.4170    56.9780    23.7050     8.2020    10.1000    12.5600 
  269.7500     2.4540   -15.6680   336.5080    60.9350    23.7580     9.0860    10.3490    12.8920 
  269.8750     2.4560   -15.6370   340.9290    62.9430    23.7730     9.2720    10.6270    13.2550 
