~V
VERS. 2.00: Ver 2.00
~W
STRT.M 135.0000:
STOP.M 270.0000:
STEP.M 0.1250:
NULL. -999.2500:
UWI. DF3063:
~C
DEPT.M :
SP.MV :
GR.API :
CALI.CM :
RXO.OHMM :
RI. :
RML.OHMM :
DEN.GM/CC :
~A
# ...
  213.7500   -24.1680    89.0300    24.5340     8.9370     9.0070    12.6820     2.4210 
  213.8750   -24.5220    83.4430    24.5420    10.5130     9.9320    14.0040     2.4130 
  214.0000   -24.9180    80.7410    24.5330    12.0230    11.0620    15.5970     2.4080 
  214.1250   -25.2830    82.2010    24.5440    13.4440    12.4520    17.5360     2.4010 
  214.2500   -25.5650    83.1660    24.6080    16.2370    14.1640    19.9410     2.3890 
  214.3750   -25.7740    81.1990    24.6730    18.9650    16.3200    22.9470     2.3720 
  214.5000   -25.9860    77.1190    24.6670    21.4270    19.0020    26.6310     2.3560 
  214.6250   -26.2990    73.6950    24.5690    25.6540    22.4720    31.2560     2.3550 
  214.7500   -26.7060    72.1590    24.4030    30.9670    26.7120    36.6740     2.3670 
  214.8750   -27.0720    70.7290    24.4460    37.2980    31.5810    42.6090     2.3760 
  215.0000   -27.3040    67.1590    24.5200    44.6200    36.7550    48.6490     2.3660 
  215.1250   -27.4480    62.4120    24.5600    56.2090    41.8610    54.3940     2.3440 
  215.2500   -27.6020    58.6730    24.6370    62.6000    46.5620    59.4740     2.3230 
  215.3750   -27.8570    57.7610    24.6410    72.7930    50.5880    63.5880     2.3080 
  215.5000   -28.1510    58.8290    24.5560    83.6840    53.9030    66.7610     2.3060 
  215.6250   -28.3860    59.6700    24.1240    87.2910    56.5180    69.0380     2.3260 
  215.7500   -28.4870    60.8430    24.0350    78.6090    58.6600    70.7590     2.3970 
  215.8750   -28.5080    62.1010    23.8660    69.5970    60.4820    72.0380     2.3890 
  216.0000   -28.5910    62.7590    23.8000    64.1370    61.7340    72.5720     2.3390 
  216.1250   -28.7740    61.0100    23.9190    62.9460    61.7540    71.5670     2.2870 
  216.2500   -28.9810    58.8730    24.4870    65.9580    60.5980    69.2410     2.2610 
  216.3750   -29.0660    58.8760    25.1170    69.4280    58.5520    65.9580     2.2490 
  216.5000   -29.0450    60.7700    25.2720    69.5590    55.9910    62.2290     2.2340 
  216.6250   -29.0100    61.5710    25.2480    65.6380    53.4960    58.8600     2.2240 
  216.7500   -29.0660    60.6610    25.0550    56.2700    51.6990    56.5320     2.2300 
  216.8750   -29.2300    60.7150    24.6540    46.2410    50.9580    55.5630     2.2390 
  217.0000   -29.3870    62.4520    24.5690    43.1540    51.4350    56.0010     2.2350 
  217.1250   -29.4480    64.6820    24.6820    50.4610    53.2100    57.7610     2.2260 
  217.2500   -29.4080    65.4250    24.7650    59.6810    55.7190    60.2330     2.2280 
  217.3750   -29.3970    62.7470    24.9050    64.8820    58.5880    62.9730     2.2420 
  217.5000   -29.5090    57.5780    24.9530    63.9390    61.6450    65.7610     2.2490 
  217.6250   -29.6890    55.4280    24.9460    62.6470    64.4930    68.1690     2.2420 
  217.7500   -29.8050    57.5350    24.7800    63.2140    66.7970    69.9940     2.2310 
  217.8750   -29.7850    59.7400    24.4650    65.1130    68.3680    71.2770     2.2230 
  218.0000   -29.7130    61.0740    24.0730    69.0720    69.2920    72.0830     2.2180 
  218.1250   -29.7100    62.6180    23.8180    72.9930    69.6520    72.4830     2.2150 
  218.2500   -29.8720    63.4670    24.2510    77.5720    69.6800    72.6610     2.2190 
  218.3750   -30.1020    62.2910    24.8140    77.2490    69.7080    73.0110     2.2320 
  218.5000   -30.2220    60.2380    24.9310    70.6780    70.1990    74.0380     2.2440 
  218.6250   -30.2240    58.9120    24.7470    65.0960    71.9120    76.3180     2.2520 
  218.7500   -30.2250    58.1450    24.2580    70.1700    74.9650    79.8560     2.2560 
  218.8750   -30.3630    59.8030    24.0330    86.0020    79.0710    84.2540     2.2540 
  219.0000   -30.6040    62.6760    24.1270   101.9780    83.5810    88.9290     2.2420 
  219.1250   -30.8030    62.0640    24.5030   105.0530    87.3560    92.9220     2.2240 
  219.2500   -30.8600    59.9730    24.8060   101.4610    89.8770    95.6160     2.2140 
  219.3750   -30.8320    58.9330    24.9020    97.7470    90.9340    96.7490     2.2240 
  219.5000   -30.9000    59.8890    24.9220    96.9120    90.6390    96.4410     2.2420 
  219.6250   -31.0900    61.1530    24.7510    92.0450    89.3820    95.2930     2.2490 
  219.7500   -31.3050    60.8070    24.8540    84.9580    88.1510    94.4210     2.2390 
  219.8750   -31.3940    60.5330    24.9680    83.7770    87.8410    94.5330     2.2220 
  220.0000   -31.3510    62.5690    25.0700    94.1340    88.8690    95.8630     2.2200 
  220.1250   -31.2850    66.4510    25.1360   102.2920    91.7800    98.9920     2.2310 
  220.2500   -31.2990    66.3320    24.9950   105.3710    96.8640   104.2510     2.2340 
  220.3750   -31.4230    62.9590    24.9710   100.9230   104.1940   111.6990     2.2110 
  220.5000   -31.5220    61.0730    24.9120   104.8800   113.4680   120.9870     2.1850 
  220.6250   -31.5160    62.0790    24.6440   116.0500   124.4020   131.4250     2.1740 
  220.7500   -31.4210    62.0170    24.8010   135.8850   135.3780   141.4000     2.1740 
  220.8750   -31.3630    60.7050    25.0230   160.0290   144.1130   148.5300     2.1800 
  221.0000   -31.4180    59.5250    25.2420   182.0180   148.5250   150.7780     2.1980 
  221.1250   -31.5510    58.9430    25.2330   175.5980   145.1890   144.6310     2.2320 
  221.2500   -31.6530    60.5970    25.0200   150.9820   133.0990   130.0690     2.2680 
  221.3750   -31.6300    64.2750    24.7900   139.9640   113.9720   110.0070     2.2950 
  221.5000   -31.4940    67.1450    24.7530   126.9850    92.4970    88.9300     2.3160 
  221.6250   -31.3680    66.3590    24.8680    95.5210    73.4420    70.7460     2.3240 
  221.7500   -31.3540    64.2880    24.8350    72.1440    58.7240    56.8460     2.3130 
  221.8750   -31.4270    64.4920    24.8840    51.8560    48.9570    47.8890     2.2960 
  222.0000   -31.4580    68.0080    24.6060    30.3850    44.1410    44.0930     2.2920 
  222.1250   -31.3920    72.5310    24.5110    23.4380    44.7670    45.8720     2.3000 
  222.2500   -31.2690    73.5350    24.4530    31.9190    49.6300    51.8430     2.3010 
  222.3750   -31.1630    69.0240    24.5910    54.5030    58.2050    61.1500     2.2820 
  222.5000   -31.1770    63.0170    24.7130    84.7630    69.4180    72.3730     2.2530 
  222.6250   -31.3050    61.0160    24.9220    99.8950    80.8690    82.9650     2.2320 
  222.7500   -31.4390    60.3660    24.9010   102.4510    89.1570    90.0340     2.2270 
  222.8750   -31.4520    58.5480    24.8510    96.9040    91.9040    91.4870     2.2300 
  223.0000   -31.3810    56.7890    24.9520    97.2720    88.5320    87.0940     2.2270 
  223.1250   -31.3300    59.1520    24.9490   101.4730    80.6530    78.8870     2.2230 
  223.2500   -31.3720    64.1320    24.8190    98.4020    72.3980    70.9560     2.2330 
  223.3750   -31.4970    66.4760    24.5730    80.8690    65.3080    64.5810     2.2620 
  223.5000   -31.6160    62.4160    24.6640    60.9810    60.1600    60.4060     2.2850 
  223.6250   -31.6670    58.0570    24.6430    53.0420    57.8400    59.2080     2.2880 
  223.7500   -31.6530    61.5630    24.6840    53.7760    58.0090    60.6210     2.2780 
  223.8750   -31.6320    69.9160    24.7020    56.3230    60.6910    64.7060     2.2760 
  224.0000   -31.6160    74.7770    24.7010    59.8360    65.7860    71.2650     2.2910 
  224.1250   -31.6190    71.5170    24.6590    65.9870    72.9920    79.7400     2.3160 
  224.2500   -31.6470    66.2050    24.4970    77.2240    80.8880    88.5730     2.3310 
  224.3750   -31.6800    63.6190    24.3290    97.8430    87.9900    96.1970     2.3140 
  224.5000   -31.6770    63.7830    24.2040   128.2410    93.0080   101.2150     2.2750 
  224.6250   -31.6100    64.5640    24.5680   138.8670    94.8920   102.8200     2.2380 
  224.7500   -31.5070    63.9660    24.9540   118.1830    94.8090   102.5960     2.2200 
  224.8750   -31.4290    64.4740    25.0840    95.1080    94.0170   102.0970     2.2180 
