~V
VERS. 2.00: Ver 2.00
~W
STRT.M 65.0000:
STOP.M 267.0000:
STEP.M 0.1250:
NULL. -999.2500:
UWI. DF3007:
~C
DEPT.M :
GR.API :
RML.OHMM :
RI. :
RXO.OHMM :
CALI.CM :
DEN.GM/CC :
SP.MV :
~A
   65.0000    57.0470     0.2660     0.2070 628549.1880    25.3060  -999.2500    35.2420 
   65.1250    61.8850     0.2310     0.2220    17.9530    25.1620  -999.2500    29.2950 
   65.2500    71.8950     0.4540     0.3690     7.0900    25.0000  -999.2500    22.9130 
   65.3750    85.8370     0.9600     0.6820     6.5900    24.8330  -999.2500    16.4150 
   65.5000    99.1450     1.8290     1.1860     6.7720    24.6730  -999.2500     9.9370 
   65.6250   107.2400     2.8720     1.8850     6.5360    24.5350  -999.2500     3.8860 
   65.7500   111.9620     3.7590     2.6700     6.1370    24.4030  -999.2500    -1.6630 
   65.8750   112.9100     4.1510     3.4570     5.9930    24.2870  -999.2500    -6.1920 
   66.0000   109.1130     4.4770     4.2130     6.1310    24.2600  -999.2500    -9.6190 
   66.1250   103.7920     4.9160     4.9950     6.5340    24.2230  -999.2500   -11.8580 
   66.2500   100.4270     5.5850     5.9020     7.2820    24.1440  -999.2500   -13.7510 
   66.3750    98.5000     6.5250     7.0080     8.5930    24.1120  -999.2500   -15.5720 
   66.5000    96.1320     7.7050     8.3180    10.8360    24.0000  -999.2500   -17.2970 
   66.6250    92.5230     8.9970     9.7370    14.9900    23.8670  -999.2500   -19.0520 
   66.7500    86.8670    10.1600    11.0230    21.4190    23.7370  -999.2500   -20.6330 
   66.8750    79.4840    10.9790    11.9380    29.5270    23.9280  -999.2500   -22.1860 
   67.0000    73.4050    11.3150    12.3110    31.4640    23.8170  -999.2500   -23.5660 
   67.1250    70.9680    11.1160    12.0560    22.1010    23.4310  -999.2500   -24.7950 
   67.2500    71.1680    10.6490    11.4550    14.6850    23.0820  -999.2500   -25.8510 
   67.3750    72.6710    10.1270    10.7410    11.3490    22.9760  -999.2500   -26.7100 
   67.5000    74.8150     9.7070    10.0980    10.5150    23.0210  -999.2500   -27.3930 
   67.6250    76.7120     9.4850     9.6530    10.5010    23.0220  -999.2500   -27.8880 
   67.7500    78.9380     9.4140     9.3820    10.3920    23.0030  -999.2500   -28.2840 
   67.8750    81.6970     9.4430     9.2510    10.1440    22.9680  -999.2500   -28.6100 
   68.0000    82.5860     9.5260     9.2170     9.8470    22.9420  -999.2500   -28.9180 
   68.1250    80.6090     9.6430     9.2610     9.7230    22.9240  -999.2500   -29.2100 
   68.2500    79.1890     9.7860     9.3570     9.8840    22.9080  -999.2500   -29.5100 
   68.3750    79.9180     9.9620     9.4980    10.1500    22.9010  -999.2500   -29.7700 
   68.5000    81.3500    10.1610     9.6660    10.4180    22.9000  -999.2500   -30.0900 
   68.6250    81.4330    10.3480     9.8200    10.6850    22.8970  -999.2500   -30.3070 
   68.7500    81.2810    10.4680     9.9080    11.1420    22.8890  -999.2500   -30.5750 
   68.8750    81.8580    10.4690     9.8870    11.8290    22.8790  -999.2500   -30.7300 
   69.0000    81.8430    10.3250     9.7340    13.1130    22.8790  -999.2500   -30.7980 
   69.1250    80.0480    10.0330     9.4480    14.1140    22.8690  -999.2500   -30.7450 
   69.2500    78.9760     9.6910     9.1100    12.5600    22.8680  -999.2500   -30.5240 
   69.3750    82.9690     9.4100     8.8060    10.1080    22.8880  -999.2500   -30.3210 
   69.5000    90.7620     9.3080     8.6340     9.0360    22.9640  -999.2500   -29.9930 
   69.6250    94.8010     9.5050     8.7010     8.8520    23.2110  -999.2500   -29.7060 
   69.7500    92.6490     9.9210     8.9600     8.8450    23.5730  -999.2500   -29.4620 
   69.8750    88.8000    10.4220     9.3170     8.7020    23.8440  -999.2500   -29.3500 
   70.0000    87.2120    10.8290     9.6370     8.6690    23.8800  -999.2500   -29.4430 
   70.1250    86.2620    10.9330     9.7450     9.2680    23.6440  -999.2500   -29.6450 
   70.2500    84.3500    10.7490     9.6200     9.7100    23.3150  -999.2500   -30.0630 
   70.3750    83.9920    10.3860     9.3250     9.7660    23.0960  -999.2500   -30.4850 
   70.5000    85.0290    10.0020     8.9750     9.6740    23.0350  -999.2500   -31.0060 
   70.6250    83.3110     9.7430     8.6910     9.6120    23.0650  -999.2500   -31.4990 
   70.7500    80.9100     9.6200     8.5100     9.6330    23.1060  -999.2500   -31.9300 
   70.8750    82.0560     9.5920     8.4190     9.6780    23.1470  -999.2500   -32.2660 
   71.0000    85.7110     9.6000     8.3750     9.7280    23.1660  -999.2500   -32.4710 
   71.1250    88.9670     9.5950     8.3350     9.6770    23.1330  -999.2500   -32.5500 
   71.2500    90.7920     9.5790     8.2820     9.5810    23.0250  -999.2500   -32.5960 
   71.3750    90.9220     9.5650     8.2230     9.4800    22.8740  -999.2500   -32.6090 
   71.5000    89.4510     9.5670     8.1690     9.3670    22.7990  -999.2500   -32.6780 
   71.6250    88.9020     9.5940     8.1330     9.4410    22.8140  -999.2500   -32.7670 
   71.7500    88.5520     9.6320     8.1130     9.6040    22.8680  -999.2500   -32.8220 
   71.8750    87.0440     9.6700     8.1000     9.7980    22.9050  -999.2500   -32.9270 
   72.0000    86.1550     9.6970     8.0830     9.9130    22.9080  -999.2500   -32.9530 
   72.1250    86.0680     9.7070     8.0450     9.9650    22.8990  -999.2500   -33.0920 
   72.2500    84.9010     9.7100     7.9880     9.9260    22.8860  -999.2500   -33.1480 
   72.3750    84.0770     9.7140     7.9230     9.7720    22.8860  -999.2500   -33.2050 
   72.5000    85.5660     9.7290     7.8650     9.5320    22.9140  -999.2500   -33.1850 
   72.6250    87.2140     9.7630     7.8350     9.4230    22.9920  -999.2500   -33.1480 
   72.7500    85.4370     9.8080     7.8330     9.4440    23.0510  -999.2500   -33.1150 
   72.8750    81.9420     9.8520     7.8530     9.5410    23.0810  -999.2500   -32.9620 
   73.0000    80.4780     9.8850     7.8890     9.6860    23.0840  -999.2500   -32.8730 
   73.1250    82.1600     9.9060     7.9440     9.8140    23.0750  -999.2500   -32.6490 
   73.2500    83.4500     9.9370     8.0260     9.9510    23.0870  -999.2500   -32.4220 
   73.3750    83.4970    10.0080     8.1480    10.0330    23.0950  -999.2500   -32.1580 
   73.5000    84.6580    10.1390     8.3130    10.1090    23.1050  -999.2500   -31.7990 
   73.6250    89.2100    10.3200     8.5040    10.2210    23.1550  -999.2500   -31.3950 
   73.7500    93.2910    10.4770     8.6610    10.3130    23.2430  -999.2500   -30.8590 
   73.8750    92.5180    10.5240     8.7170    10.3440    23.3130  -999.2500   -30.3280 
   74.0000    88.7130    10.3880     8.6120    10.1760    23.3400  -999.2500   -29.6390 
   74.1250    87.7450    10.0050     8.2840     9.6430    23.3920  -999.2500   -28.9580 
   74.2500    92.0090     9.4540     7.7900     8.8860    23.5610  -999.2500   -28.1800 
   74.3750   100.4850     8.8080     7.1910     7.8750    23.8510  -999.2500   -27.4250 
   74.5000   109.7970     8.1380     6.5570     6.6050    24.1760  -999.2500   -26.7270 
   74.6250   116.7170     7.5080     5.9640     5.9530    24.3440  -999.2500   -26.1930 
   74.7500   118.2110     6.9760     5.4750     5.6530    24.3730  -999.2500   -25.7900 
   74.8750   116.1310     6.6510     5.1660     5.6050    24.3240  -999.2500   -25.5520 
   75.0000   113.6860     6.6830     5.1360     5.7190    24.2850  -999.2500   -25.5610 
   75.1250   110.9000     7.2870     5.5380     6.1420    24.2970  -999.2500   -25.7280 
   75.2500   106.7140     8.3810     6.3310     6.9620    24.2910  -999.2500   -26.2210 
   75.3750    99.4120     9.7990     7.4370     8.5810    24.2070  -999.2500   -26.8190 
   75.5000    90.2890    11.2470     8.6740    10.9570    24.0510  -999.2500   -27.5700 
   75.6250    82.7890    12.2910     9.7350    13.3780    23.8730  -999.2500   -28.3430 
   75.7500    78.2270    12.7620    10.4110    11.8420    23.6680  -999.2500   -29.1110 
   75.8750    74.4080    12.7020    10.6570    10.6630    23.4030  -999.2500   -29.8600 
   76.0000    69.0450    12.3260    10.5810    10.6030    23.2690  -999.2500   -30.5300 
   76.1250    66.9470    11.9170    10.3660    10.9460    23.4130  -999.2500   -31.1220 
