~V
VERS. 2.00: Ver 2.00
~W
STRT.M 60.0000:
STOP.M 232.0000:
STEP.M 0.1250:
NULL. -999.2500:
UWI. DF3065:
~C
DEPT.M :
GR.API :
CALI.CM :
RXO.OHMM :
RI. :
RML.OHMM :
DEN.GM/CC :
SP.MV :
~A
# ...
   71.2500    92.6170    24.3960     8.2410     6.9960    10.6090  -999.2500   -24.7950 
   71.3750    93.4880    24.4200     8.2380     7.0270    10.6920  -999.2500   -24.8790 
   71.5000    92.1080    24.5350     7.9900     6.9860    10.6620  -999.2500   -25.0220 
   71.6250    87.5490    24.5570     8.5640     6.7970    10.4150  -999.2500   -25.1560 
   71.7500    84.3050    24.3610     9.1320     6.4720     9.9610  -999.2500   -25.3170 
   71.8750    84.6270    24.3420     8.5770     6.0560     9.3710  -999.2500   -25.5650 
   72.0000    87.4960    24.4310     8.5320     5.6690     8.8380  -999.2500   -25.8640 
   72.1250    91.6910    24.6380     8.3410     5.4880     8.7110  -999.2500   -26.1990 
   72.2500    96.0080    24.6590     7.7950     5.6100     9.1600  -999.2500   -26.6040 
   72.3750    97.2050    24.5050     8.0470     6.0770    10.2080  -999.2500   -27.0440 
   72.5000    93.2720    24.4480    13.7090     6.8980    11.7910  -999.2500   -27.5130 
   72.6250    84.0110    24.1220    30.4060     8.0350    13.6700  -999.2500   -28.0540 
   72.7500    73.7920    23.9000    45.2440     9.1770    15.2480  -999.2500   -28.6430 
   72.8750    66.7430    24.0930    40.3360     9.9930    16.0520  -999.2500   -29.1890 
   73.0000    64.4340    24.3420    23.6360    10.2360    15.8400  -999.2500   -29.6930 
   73.1250    66.6710    24.0460    15.0560     9.8340    14.6680  -999.2500   -30.1340 
   73.2500    70.2780    23.6080    13.5860     9.1260    13.1590  -999.2500   -30.4440 
   73.3750    73.2790    23.3310    13.0390     8.3860    11.7940  -999.2500   -30.6460 
   73.5000    74.6100    23.2010    12.4770     7.8070    10.8860  -999.2500   -30.7440 
   73.6250    73.4390    23.1920    12.1140     7.5210    10.5600  -999.2500   -30.6950 
   73.7500    71.1950    23.2050    12.0720     7.4680    10.5890  -999.2500   -30.5020 
   73.8750    70.1080    23.2320    11.9470     7.5530    10.7390  -999.2500   -30.2290 
   74.0000    71.4390    23.2420    11.5270     7.6360    10.7780  -999.2500   -29.8320 
   74.1250    74.3660    23.3250    11.6280     7.5850    10.5400  -999.2500   -29.3410 
   74.2500    78.5240    23.5220    11.8590     7.4070    10.1210  -999.2500   -28.8190 
   74.3750    86.0180    23.5560    11.1940     7.1370     9.5980  -999.2500   -28.2800 
   74.5000    94.2180    23.5820    10.2080     6.8300     9.0820  -999.2500   -27.7530 
   74.6250    97.8740    23.8240     9.4750     6.5860     8.7370  -999.2500   -27.3160 
   74.7500    97.9030    23.9790     9.3010     6.4690     8.6240  -999.2500   -26.9850 
   74.8750    95.4240    24.1130     9.5230     6.5120     8.7490  -999.2500   -26.7520 
   75.0000    89.7850    24.1060    10.0530     6.7000     9.0620  -999.2500   -26.6830 
   75.1250    81.7650    23.9180    10.8090     7.0030     9.5240  -999.2500   -26.7550 
   75.2500    75.3160    23.6640    11.5810     7.3330     9.9920  -999.2500   -26.8900 
   75.3750    71.6540    23.5650    12.3000     7.6170    10.3620  -999.2500   -27.0530 
   75.5000    71.0030    23.2940    12.3700     7.8000    10.5930  -999.2500   -27.1940 
   75.6250    73.2870    23.2890    11.9600     7.8530    10.6830  -999.2500   -27.2610 
   75.7500    74.2370    23.3360    12.1090     7.8050    10.6850  -999.2500   -27.2350 
   75.8750    73.1330    23.2830    12.5790     7.6610    10.6110  -999.2500   -27.1390 
   76.0000    72.8840    23.2550    11.8570     7.4580    10.4830  -999.2500   -26.9510 
   76.1250    75.1340    23.3070    11.0590     7.2220    10.2930  -999.2500   -26.6870 
   76.2500    78.0010    23.4080    10.4680     6.9680    10.0710  -999.2500   -26.3720 
   76.3750    80.8820    23.5000     9.9640     6.7160     9.8610  -999.2500   -26.0590 
   76.5000    84.1940    23.5350     8.3270     6.5520     9.7860  -999.2500   -25.7920 
   76.6250    86.3390    23.5240     7.2800     6.6000    10.0170  -999.2500   -25.5590 
   76.7500    86.1340    23.5860     7.3200     6.8650    10.5410  -999.2500   -25.3390 
   76.8750    83.6240    23.5980     8.1840     7.3410    11.3410  -999.2500   -25.0860 
   77.0000    80.8780    23.6510     9.7020     7.9880    12.3190  -999.2500   -24.8190 
   77.1250    80.2550    23.8660    14.6490     8.6760    13.1870  -999.2500   -24.5400 
   77.2500    81.7290    24.0240    22.5010     9.1870    13.6550  -999.2500   -24.2610 
   77.3750    83.4790    24.2760    24.1980     9.3750    13.6080  -999.2500   -23.9970 
   77.5000    84.8500    24.1270    17.0100     9.1940    13.0780  -999.2500   -23.7520 
   77.6250    87.0030    23.7800    11.6850     8.6720    12.1700  -999.2500   -23.5280 
   77.7500    87.9990    23.4540    10.4110     8.0720    11.2480  -999.2500   -23.3220 
   77.8750    86.6560    23.3420    10.3860     7.5400    10.5000  -999.2500   -23.1590 
   78.0000    83.3080    23.3280    10.3790     7.1440    10.0110  -999.2500   -23.0370 
   78.1250    80.6320    23.6870    10.1220     6.9570     9.9080  -999.2500   -22.9850 
   78.2500    81.1750    24.1450     9.5220     6.9460    10.0580  -999.2500   -22.9970 
   78.3750    84.1870    24.4330     9.3100     7.0510    10.3080  -999.2500   -23.0370 
   78.5000    85.7540    24.5290     9.3030     7.1860    10.5390  -999.2500   -23.0990 
   78.6250    83.4280    24.2660     9.4300     7.2930    10.6970  -999.2500   -23.1800 
   78.7500    81.2310    23.7350     9.2000     7.3540    10.7800  -999.2500   -23.2610 
   78.8750    80.7280    23.3640     8.6620     7.3770    10.7980  -999.2500   -23.3330 
   79.0000    81.9530    23.3740     8.7240     7.3550    10.7590  -999.2500   -23.4180 
   79.1250    82.2790    23.9590     9.4680     7.2650    10.6310  -999.2500   -23.4970 
   79.2500    81.0010    24.1710     9.8970     7.1210    10.4560  -999.2500   -23.5660 
   79.3750    79.3420    24.2660     9.9540     6.9120    10.2720  -999.2500   -23.6250 
   79.5000    78.0390    24.4090    10.1920     6.6410    10.0800  -999.2500   -23.6570 
   79.6250    78.5810    24.2280    10.5410     6.4230    10.0360  -999.2500   -23.6800 
   79.7500    79.0060    24.3640    10.4370     6.3650    10.3420  -999.2500   -23.7320 
   79.8750    77.8270    24.5830    10.1340     6.6040    11.2930  -999.2500   -23.8170 
   80.0000    74.9210    24.4810    10.1320     7.2990    13.2580  -999.2500   -23.9210 
   80.1250    73.2790    24.3820    11.9700     8.8110    16.7340  -999.2500   -24.0280 
   80.2500    73.1050    24.3170    20.9820    11.0770    21.3350  -999.2500   -24.1440 
   80.3750    71.4840    24.4710    34.6240    13.9900    26.5000  -999.2500   -24.2660 
   80.5000    69.0360    24.5520    43.5260    17.1820    31.3490  -999.2500   -24.4200 
   80.6250    68.8770    24.5090    47.4400    19.4760    34.0190  -999.2500   -24.6380 
   80.7500    67.9080    24.5210    45.0980    19.9810    33.6440  -999.2500   -24.8500 
   80.8750    66.1520    24.4320    32.0640    18.6990    30.5530  -999.2500   -25.0620 
   81.0000    66.4930    24.0310    17.5540    16.3570    26.0420  -999.2500   -25.2780 
   81.1250    68.1440    23.3350    11.3330    13.8880    21.7940  -999.2500   -25.4800 
   81.2500    67.6390    22.7000    10.2730    11.9340    18.8080  -999.2500   -25.6660 
   81.3750    66.9790    22.5430    11.7810    10.6540    17.1580  -999.2500   -25.8270 
   81.5000    69.4600    22.6140    19.3890     9.9250    16.4740  -999.2500   -25.9390 
   81.6250    73.3560    22.6460    21.0120     9.6960    16.4760  -999.2500   -25.9620 
   81.7500    73.6960    22.6110    15.6480     9.7440    16.7260  -999.2500   -25.9800 
   81.8750    70.9110    22.3190    11.6010     9.9070    16.9380  -999.2500   -26.0010 
   82.0000    69.2290    22.1450    12.0530    10.0740    17.0100  -999.2500   -26.0000 
   82.1250    71.8470    22.0490    13.9860    10.1720    16.9050  -999.2500   -26.0160 
   82.2500    75.5710    22.1190    15.0730    10.1730    16.6670  -999.2500   -26.0330 
   82.3750    79.8090    22.2250    14.6190    10.0420    16.2960  -999.2500   -26.0230 
