~V
VERS. 2.00: Ver 2.00
~W
STRT.M 60.0000:
STOP.M 273.0000:
STEP.M 0.1250:
NULL. -999.2500:
UWI. DF3001:
~C
DEPT.M :
DEN.GM/CC :
SP.MV :
AC.US/MT :
GR.API :
RML.OHMM :
RI. :
RXO.OHMM :
CALI.CM :
~A
# ...
  180.0000     2.2300   -23.6350   379.3960    62.4810   188.6680   168.6700   168.8420    24.9380 
  180.1250     2.2250   -23.7060   380.5860    61.6750   197.2450   177.1830   179.0310    24.9390 
  180.2500     2.2220   -23.7840   380.9150    59.0590   199.3350   180.1330   181.8550    24.9390 
  180.3750     2.2220   -23.8340   380.3050    57.3960   196.6600   178.6540   175.0390    24.9340 
  180.5000     2.2260   -23.9580   379.1720    59.3630   191.6430   174.6360   164.2460    24.9260 
  180.6250     2.2320   -24.1330   377.9600    62.8880   186.6120   170.1260   153.9310    24.9160 
  180.7500     2.2370   -24.2900   377.0810    65.1420   183.1160   166.7900   144.8860    24.9010 
  180.8750     2.2400   -24.4830   376.5850    66.8980   181.9000   165.4910   143.1260    24.8760 
  181.0000     2.2390   -24.7810   376.5720    67.4740   183.1730   166.5730   151.8410    24.8520 
  181.1250     2.2340   -25.0840   377.3790    66.7000   186.8030   170.0980   152.0610    24.8350 
  181.2500     2.2270   -25.3880   378.6620    65.8050   191.0260   174.7500   147.4440    24.8320 
  181.3750     2.2200   -25.7420   379.9930    65.2680   194.1020   179.1410   144.3040    24.8320 
  181.5000     2.2140   -26.1110   381.1070    64.3920   194.5010   181.6720   150.4990    24.8320 
  181.6250     2.2100   -26.4720   382.2520    62.3710   190.5330   180.4740   163.8410    24.8220 
  181.7500     2.2090   -26.7510   383.2960    60.8110   183.9040   175.8740   170.7760    24.7880 
  181.8750     2.2110   -26.8980   384.2410    62.2220   175.9940   168.7250   160.5700    24.7080 
  182.0000     2.2160   -27.0070   385.1480    66.3630   168.0570   160.3450   136.5320    24.5760 
  182.1250     2.2230   -27.0300   385.7600    69.6240   160.9280   152.0850   119.7840    24.3620 
  182.2500     2.2290   -26.9830   386.1060    69.1770   151.6200   144.5890   114.7380    24.0960 
  182.3750     2.2330   -26.9310   386.3700    67.1160   143.3550   137.8320   114.6160    23.8700 
  182.5000     2.2370   -26.8240   386.6430    65.1180   135.6760   131.4940   111.0850    23.7500 
  182.6250     2.2400   -26.7170   386.8990    64.4150   128.2360   125.2080   103.1490    23.7240 
  182.7500     2.2420   -26.7160   387.1820    64.9430   120.9380   118.8080    95.4270    23.7170 
  182.8750     2.2440   -26.8350   387.4700    65.0250   114.0060   112.4420    87.3360    23.7170 
  183.0000     2.2460   -26.8720   387.9800    63.8300   107.8680   106.5280    79.9750    23.7170 
  183.1250     2.2460   -26.9070   389.1700    62.8020   103.4490   102.0290    73.5070    23.7170 
  183.2500     2.2450   -27.0330   390.5400    63.3550   101.2630    99.6180    69.8810    23.7180 
  183.3750     2.2420   -27.1000   391.0770    63.7900   101.9090    99.9620    68.7580    23.7200 
  183.5000     2.2380   -27.1090   390.2430    63.6610   105.7880   103.4490    68.8300    23.7190 
  183.6250     2.2360   -27.1470   388.4650    65.0500   113.4190   110.4750    71.3520    23.7180 
  183.7500     2.2340   -27.1610   386.3010    66.1470   123.6260   119.7970    76.8730    23.7180 
  183.8750     2.2330   -27.0510   383.7560    65.0110   135.3520   130.3390    83.2820    23.7200 
  184.0000     2.2320   -26.9860   380.9810    62.0280   147.3630   140.9320    87.8290    23.7190 
  184.1250     2.2290   -27.0440   378.7060    60.1390   158.4060   150.4260    90.9080    23.7260 
  184.2500     2.2270   -27.0590   377.6890    59.6980   168.1200   158.5810    96.4260    23.7550 
  184.3750     2.2220   -27.0290   378.4790    59.8930   176.4400   165.3810   104.1050    23.8070 
  184.5000     2.2160   -26.9610   380.9910    59.3290   183.1420   170.6610   111.1070    23.8410 
  184.6250     2.2060   -26.8770   384.2220    57.3740   187.0290   173.4560   118.3680    23.8520 
  184.7500     2.1960   -26.7690   386.5680    55.6300   187.7660   173.5760   122.8800    23.8750 
  184.8750     2.1890   -26.6370   387.3410    54.7950   185.1520   171.3130   127.9640    23.9440 
  185.0000     2.1890   -26.4850   386.7380    54.0120   180.7500   167.9760   135.2170    24.0530 
  185.1250     2.1950   -26.1810   385.4900    54.4460   178.2990   166.4130   133.9320    24.1150 
  185.2500     2.2020   -25.7640   384.6420    56.9570   182.0710   169.4390   128.4620    24.1920 
  185.3750     2.2040   -25.3430   384.8280    58.7890   195.2340   179.2990   134.1910    24.3760 
  185.5000     2.2000   -24.9640   386.0370    57.9190   219.6740   196.7000   156.5280    24.6820 
  185.6250     2.1920   -24.4610   387.3220    55.4740   249.7930   219.6500   192.7440    25.0230 
  185.7500     2.1860   -23.8500   387.5360    52.8220   272.2980   240.2800   234.1200    25.1730 
  185.8750     2.1850   -23.2620   386.2590    49.5880   273.1220   249.9240   269.6710    25.2010 
  186.0000     2.1890   -22.6500   383.8750    46.7330   250.2950   241.1460   277.2670    25.1810 
  186.1250     2.1970   -21.9510   382.2780    48.4150   205.4040   209.8690   231.4210    25.1690 
  186.2500     2.2080   -21.3350   383.1030    53.2210   158.0910   168.5450   177.7710    25.1550 
  186.3750     2.2150   -20.8420   385.6860    56.9020   120.9430   129.2580   133.6130    25.1040 
  186.5000     2.2170   -20.3490   387.6770    56.4570    97.7030   100.4220    89.3510    24.9520 
  186.6250     2.2120   -19.8970   386.1910    53.1800    88.1710    86.2230    65.6530    24.5700 
  186.7500     2.2050   -19.5890   381.8090    51.7030    86.9980    82.1030    67.6280    24.1620 
  186.8750     2.2030   -19.3210   376.5530    51.9790    91.2060    84.5550    82.1100    23.9140 
  187.0000     2.2100   -19.0300   372.7710    51.6830    97.6040    89.9260   101.9870    23.8250 
  187.1250     2.2220   -18.9000   371.6390    50.0880   102.3680    94.4470   115.3980    23.8380 
  187.2500     2.2290   -18.8280   371.1120    50.3050   103.5370    96.1140   108.9470    23.9600 
  187.3750     2.2250   -18.6780   368.9110    53.3350   101.7590    95.2270    82.9250    24.1710 
  187.5000     2.2130   -18.4800   362.5280    57.4510    99.7350    93.8620    76.5470    24.3860 
  187.6250     2.2090   -18.2890   348.3790    58.8860   101.5090    95.4980    91.2440    24.5990 
  187.7500     2.2270   -18.0670   327.4110    57.0320   108.4250   101.7210   113.8000    24.6840 
  187.8750     2.2770   -17.7960   301.8010    54.6670   120.0800   112.2970   131.2570    24.5260 
  188.0000     2.3600   -17.5030   273.5270    53.9220   133.6740   124.6950   129.8630    24.3810 
  188.1250     2.4640   -17.2000   244.1720    54.0590   142.2200   132.6820   122.0260    24.4300 
  188.2500     2.5580   -16.7850   218.2310    52.6330   139.7600   130.3830   135.1650    24.5900 
  188.3750     2.6140   -16.2510   203.4060    51.2400   122.6520   114.3940   155.0190    24.6920 
  188.5000     2.6050   -15.6950   206.8960    53.1210    92.9790    86.6620   162.2460    24.7390 
  188.6250     2.5210   -15.1170   234.9890    56.0510    60.4670    56.2770   126.9670    24.7960 
  188.7500     2.4100   -14.4500   279.2590    56.0760    35.5280    32.9700    68.4960    24.9030 
  188.8750     2.3170   -13.8010   325.8390    54.4170    20.1300    18.5790    28.2830    25.0870 
  189.0000     2.2780   -13.3080   357.6440    55.5050    11.9010    10.8880    11.6060    25.2000 
  189.1250     2.3120   -12.9160   364.4650    58.8550     8.2750     7.5000     7.0120    25.0000 
  189.2500     2.3850   -12.5880   361.8070    59.2100     6.5630     5.9000     5.5090    24.5190 
  189.3750     2.4480   -12.3370   362.3460    56.8440     5.8760     5.2580     4.9960    23.9950 
  189.5000     2.4490   -12.1600   369.6830    54.5930     5.7280     5.1200     4.7310    23.6910 
  189.6250     2.3540   -12.0230   382.5380    52.1220     5.8320     5.2170     4.5120    23.6860 
  189.7500     2.2100   -11.9160   399.0520    48.3120     5.9550     5.3320     4.4240    24.0680 
  189.8750     2.0630   -11.8360   417.5340    44.4400     6.0120     5.3850     4.4000    25.1980 
