~V
VERS. 2.00: Ver 2.00
~W
STRT.M 57.0000:
STOP.M 290.0000:
STEP.M 0.1250:
NULL. -999.2500:
UWI. DF3043:
~C
DEPT.M :
SP.MV :
DEN.GM/CC :
AC.US/MT :
GR.API :
CALI.CM :
RXO.OHMM :
RI. :
RML.OHMM :
~A
# ...
  237.0000   -18.3660     2.2120   400.6740    62.0110    24.8340    61.1190    81.1390    95.1030 
  237.1250   -18.3680     2.2140   400.9060    62.9560    24.8520    56.5410    82.1920    95.5520 
  237.2500   -18.3760     2.2230   400.3060    65.2260    24.8620    62.6130    85.8790    99.5940 
  237.3750   -18.3790     2.2420   401.2760    67.8210    24.8280    77.7170    93.0290   108.0060 
  237.5000   -18.3650     2.2790   399.3110    68.5630    24.7260   107.8440   102.2670   119.1990 
  237.6250   -18.3270     2.3410   377.7890    66.1010    24.5840   194.4160   109.3380   127.6030 
  237.7500   -18.2790     2.3990   336.4730    62.4260    24.4370   229.9940   110.6190   128.0840 
  237.8750   -18.2380     2.4200   296.2560    61.7770    24.3550   172.5300   105.7100   120.7140 
  238.0000   -18.2120     2.3920   285.8730    64.2280    24.4260    90.2090    97.4000   110.1480 
  238.1250   -18.2020     2.3310   316.1950    66.0360    24.6430    70.4550    89.4710   101.1990 
  238.2500   -18.2040     2.2780   355.5300    66.2740    24.8460    76.7420    83.2810    94.4600 
  238.3750   -18.2130     2.2460   382.1220    66.2220    24.9410    88.9590    78.2320    88.7270 
  238.5000   -18.2180     2.2330   392.6080    66.6780    24.9510    91.6820    73.4550    82.9330 
  238.6250   -18.1990     2.2290   394.8250    65.7320    24.9350    79.6370    68.6650    77.1030 
  238.7500   -18.1560     2.2260   395.2630    64.9310    24.9070    62.3620    64.4600    72.3240 
  238.8750   -18.0950     2.2240   395.1690    66.8630    24.8390    51.0250    61.7980    69.6980 
  239.0000   -18.0330     2.2220   395.1310    70.4730    24.5350    57.3810    61.4940    69.9070 
  239.1250   -17.9940     2.2180   395.4760    70.9930    23.9930    71.7180    64.3250    73.5260 
  239.2500   -17.9650     2.2130   396.9740    68.0320    23.7570    78.4440    69.5340    79.5710 
  239.3750   -17.9400     2.2140   398.7560    65.2580    24.0830    78.3290    76.2000    86.9570 
  239.5000   -17.9170     2.2290   394.4860    65.0540    24.5730    77.9050    82.6070    93.6480 
  239.6250   -17.8730     2.2530   378.3670    66.4470    24.6510   100.2050    85.6540    95.7120 
  239.7500   -17.8160     2.2680   361.4810    67.1410    24.5780   112.4600    83.8990    91.6010 
  239.8750   -17.7560     2.2620   358.4260    66.3620    24.6180    97.7950    77.4780    82.1870 
  240.0000   -17.6980     2.2410   373.0420    66.1840    24.4680    66.4900    68.1660    70.4080 
  240.1250   -17.6460     2.2250   391.9480    69.1080    23.7860    41.7340    58.6480    59.7550 
  240.2500   -17.5860     2.2210   401.0180    73.2130    23.1680    31.8130    50.8860    51.7230 
  240.3750   -17.5170     2.2240   400.3790    76.4360    23.1580    31.3430    45.4280    46.4150 
  240.5000   -17.4530     2.2280   396.9350    78.1230    23.6830    32.8470    42.1110    43.3630 
  240.6250   -17.4010     2.2250   395.6690    76.9410    24.2280    35.3210    40.6430    42.0830 
  240.7500   -17.3740     2.2190   395.4430    72.5970    24.5570    36.3470    40.1310    41.6180 
  240.8750   -17.3880     2.2120   394.6880    68.1340    24.7210    35.9820    40.1000    41.4900 
  241.0000   -17.4360     2.2110   392.8630    68.6470    24.7630    35.9450    40.2080    41.3960 
  241.1250   -17.5100     2.2210   390.6880    71.4950    24.7530    36.5440    40.2380    41.1940 
  241.2500   -17.5850     2.2310   389.6090    71.4210    24.7540    37.3030    40.2150    41.0210 
  241.3750   -17.6410     2.2330   390.2450    68.1900    24.7590    37.3100    40.3780    41.1990 
  241.5000   -17.6840     2.2250   391.9540    66.3850    24.7510    36.4010    41.0970    42.1350 
  241.6250   -17.7350     2.2080   393.2830    70.0360    24.7250    34.9270    42.9040    44.3730 
  241.7500   -17.7980     2.1800   392.3230    74.4470    24.6270    37.0470    45.7890    47.7740 
  241.8750   -17.8550     2.1370   388.7580    76.0730    24.3750    47.1490    49.4700    51.8950 
  242.0000   -17.8900     2.0920   384.7590    74.4830    24.0670    62.5670    53.1340    55.7200 
  242.1250   -17.9000     2.0750   384.6550    71.9590    23.9930    65.9840    55.1630    57.4000 
  242.2500   -17.8990     2.0930   388.5280    70.7900    24.1420    56.5970    54.8890    56.4560 
  242.3750   -17.8900     2.1300   392.7200    70.7590    24.3150    46.0320    52.7630    53.6900 
  242.5000   -17.8710     2.1700   393.8890    72.1810    24.3780    40.2880    50.1840    50.7970 
  242.6250   -17.8340     2.2040   390.8680    75.0950    24.3790    37.9530    48.9340    49.5920 
  242.7500   -17.7890     2.2380   383.3930    78.0810    24.3840    37.8070    49.5210    50.3130 
  242.8750   -17.7390     2.2660   370.5690    79.7560    24.4080    49.0400    51.7400    52.5920 
  243.0000   -17.6750     2.2740   356.9330    78.9300    24.4750    69.4950    54.9400    55.7150 
  243.1250   -17.5730     2.2530   354.2030    75.8920    24.5650    76.9180    58.3450    58.9030 
  243.2500   -17.4340     2.2270   364.5550    72.4220    24.6130    63.8020    61.3640    61.6330 
  243.3750   -17.2690     2.2140   381.1720    70.5580    24.6200    46.0820    63.4170    63.3090 
  243.5000   -17.0860     2.2160   394.4600    71.8550    24.5570    41.6820    63.3840    62.6240 
  243.6250   -16.9220     2.2310   398.5450    76.2680    24.2780    48.6640    59.0620    57.0920 
  243.7500   -16.7970     2.2580   396.0950    79.1660    23.8460    55.2730    50.9170    47.6730 
  243.8750   -16.7040     2.2950   387.1110    80.5420    23.5930    50.7300    41.0270    37.1580 
  244.0000   -16.6420     2.3330   371.8060    83.5960    23.7560    34.7320    32.1400    28.4970 
  244.1250   -16.6220     2.3570   357.4600    88.3010    24.1580    18.6300    26.5630    23.7310 
  244.2500   -16.6480     2.3580   349.9540    89.5880    24.4100    17.7320    24.2700    22.3950 
  244.3750   -16.7330     2.3380   345.8990    86.4690    24.4580    30.1580    25.3580    24.3490 
  244.5000   -16.8650     2.3080   339.2760    81.2400    24.4280    44.7020    30.1090    29.6640 
  244.6250   -17.0180     2.2830   334.7460    77.4480    24.3900    53.8680    39.2730    39.0170 
  244.7500   -17.1570     2.2660   343.2230    75.2800    24.2440    60.0960    50.9820    50.9040 
  244.8750   -17.2630     2.2540   362.8850    72.3840    23.8770    69.0660    62.4560    62.6680 
  245.0000   -17.3440     2.2510   379.3280    68.3130    23.3570    69.3820    70.9010    71.1640 
  245.1250   -17.3810     2.2660   376.7640    67.2570    23.0390    55.3970    75.0360    74.9830 
  245.2500   -17.3700     2.2880   363.2600    70.3800    23.1630    52.4260    76.7160    76.5120 
  245.3750   -17.3310     2.3020   352.0230    73.3460    23.6170    68.8440    76.6880    76.6720 
  245.5000   -17.2700     2.2950   346.8120    72.0620    24.0620    99.3640    74.8310    75.1640 
  245.6250   -17.1970     2.2730   341.6600    67.9500    24.2210   119.4810    70.7570    71.4450 
  245.7500   -17.1030     2.2530   327.2310    66.2210    24.2120   112.2530    65.6430    66.8290 
  245.8750   -16.9690     2.2450   319.2600    68.1150    24.1210    75.3700    60.8080    62.8050 
  246.0000   -16.7960     2.2500   280.3170    71.4620    23.7800    41.0010    57.4490    60.5900 
  246.1250   -16.5840     2.2700   269.7000    73.3970    23.1700    41.1550    56.7880    61.3260 
  246.2500   -16.3590     2.3040   269.3680    74.8490    22.7960    45.0430    58.8200    64.8190 
  246.3750   -16.1320     2.3510   269.4390    78.1000    22.9810    53.8290    63.5980    71.0080 
  246.5000   -15.8880     2.3980   263.0920    81.1120    23.5540    60.6380    71.1000    79.7950 
  246.6250   -15.6380     2.4380   253.0070    79.7520    24.0240    75.5570    81.8590    91.7600 
  246.7500   -15.3960     2.4760   251.0070    75.0830    24.2220   112.3800    95.3770   106.7560 
  246.8750   -15.1610     2.5180   251.9620    70.7410    24.2590   152.7290   110.4690   123.9570 
