~V
VERS. 2.00: Ver 2.00
~W
STRT.M 60.0000:
STOP.M 273.0000:
STEP.M 0.1250:
NULL. -999.2500:
UWI. DF3001:
~C
DEPT.M :
DEN.GM/CC :
SP.MV :
AC.US/MT :
GR.API :
RML.OHMM :
RI. :
RXO.OHMM :
CALI.CM :
~A
# ...
   90.0000  -999.2500   -15.4440  -999.2500    99.6240     5.6070     4.3940     4.9210    23.6790 
   90.1250  -999.2500   -15.2710  -999.2500    99.3950     5.4900     4.3410     4.7450    23.6790 
   90.2500  -999.2500   -15.1630  -999.2500   101.9720     5.4770     4.3410     4.5980    23.6790 
   90.3750  -999.2500   -15.0590  -999.2500   102.1140     5.5950     4.4220     4.7530    23.6790 
   90.5000  -999.2500   -15.0650  -999.2500    96.5190     5.8290     4.5890     5.1090    23.6790 
   90.6250  -999.2500   -15.2700  -999.2500    91.5440     6.1360     4.8270     5.4250    23.6800 
   90.7500  -999.2500   -15.5280  -999.2500    90.3540     6.4320     5.0780     5.6960    23.6890 
   90.8750  -999.2500   -15.7810  -999.2500    89.1130     6.6550     5.2880     6.0150    23.7250 
   91.0000  -999.2500   -16.0470  -999.2500    85.0840     6.7590     5.4150     6.3650    23.8450 
   91.1250  -999.2500   -16.4160  -999.2500    82.5080     6.7060     5.4210     6.5670    24.0870 
   91.2500  -999.2500   -16.8060  -999.2500    83.6690     6.5420     5.3330     6.5080    24.3500 
   91.3750  -999.2500   -17.1830  -999.2500    85.0590     6.3230     5.1860     6.0250    24.4620 
   91.5000  -999.2500   -17.5350  -999.2500    84.8800     6.1200     5.0250     5.6000    24.4780 
   91.6250  -999.2500   -17.8070  -999.2500    85.2420     6.0110     4.9120     5.4840    24.4740 
   91.7500  -999.2500   -18.0420  -999.2500    88.9260     6.0240     4.8810     5.4600    24.4740 
   91.8750  -999.2500   -18.2260  -999.2500    93.8000     6.1680     4.9530     5.5200    24.4920 
   92.0000  -999.2500   -18.3460  -999.2500    93.6900     6.4250     5.1210     5.7800    24.5390 
   92.1250  -999.2500   -18.3430  -999.2500    88.5750     6.7220     5.3410     6.1670    24.5850 
   92.2500  -999.2500   -18.2880  -999.2500    85.6360     6.9450     5.5280     6.6290    24.5960 
   92.3750  -999.2500   -18.2330  -999.2500    87.8910     7.0110     5.6220     7.2320    24.5980 
   92.5000  -999.2500   -18.1690  -999.2500    93.0610     6.8920     5.5970     7.4670    24.6020 
   92.6250  -999.2500   -18.1410  -999.2500    94.5130     6.6430     5.4660     6.8140    24.5750 
   92.7500  -999.2500   -18.1590  -999.2500    92.3600     6.4180     5.3150     5.7910    24.4350 
   92.8750  -999.2500   -18.2140  -999.2500    89.6730     6.3000     5.2020     5.4780    24.1570 
   93.0000  -999.2500   -18.2720  -999.2500    87.3240     6.3070     5.1590     5.5390    23.8800 
   93.1250  -999.2500   -18.3460  -999.2500    84.8650     6.4080     5.1940     5.5880    23.8130 
   93.2500  -999.2500   -18.4490  -999.2500    83.7700     6.5310     5.2660     5.4900    23.8140 
   93.3750  -999.2500   -18.6010  -999.2500    85.9010     6.6380     5.3430     5.5340    23.8220 
   93.5000  -999.2500   -18.7350  -999.2500    88.9790     6.7120     5.3980     5.7860    23.8220 
   93.6250  -999.2500   -18.7850  -999.2500    89.7220     6.7390     5.4080     5.9760    23.8350 
   93.7500  -999.2500   -18.8230  -999.2500    89.7290     6.7140     5.3740     5.8520    23.8950 
   93.8750  -999.2500   -18.9390  -999.2500    91.4090     6.6270     5.2970     5.5480    24.0100 
   94.0000  -999.2500   -19.1980  -999.2500    94.4360     6.4880     5.1870     5.2610    24.0740 
   94.1250  -999.2500   -19.6250  -999.2500    93.2680     6.3400     5.0710     5.2320    23.9970 
   94.2500  -999.2500   -20.1350  -999.2500    89.8320     6.2540     4.9920     5.3320    23.7450 
   94.3750  -999.2500   -20.6490  -999.2500    88.8710     6.2950     4.9980     5.4900    23.3830 
   94.5000  -999.2500   -21.2550  -999.2500    90.4320     6.5170     5.1350     5.6610    23.1150 
   94.6250  -999.2500   -22.0190  -999.2500    89.7560     6.9820     5.4660     5.8850    22.9660 
   94.7500  -999.2500   -22.8290  -999.2500    88.0760     7.6270     5.9640     6.3000    22.8690 
   94.8750  -999.2500   -23.5980  -999.2500    87.9400     8.3650     6.5800     6.9840    22.8300 
   95.0000  -999.2500   -24.3540  -999.2500    87.3320     9.0690     7.2260     7.7960    22.8350 
   95.1250  -999.2500   -25.0820  -999.2500    82.8780     9.5590     7.7690     8.5150    22.8510 
   95.2500  -999.2500   -25.7180  -999.2500    79.2000     9.7870     8.1340     8.8890    22.8600 
   95.3750  -999.2500   -26.2810  -999.2500    79.0010     9.7940     8.3110     8.8210    22.8820 
   95.5000  -999.2500   -26.7890  -999.2500    80.1020     9.6980     8.3510     8.6200    22.9350 
   95.6250  -999.2500   -27.2300  -999.2500    77.9050     9.6360     8.3360     8.7200    23.0090 
   95.7500  -999.2500   -27.6100  -999.2500    72.9660     9.6580     8.3390     9.0770    23.0740 
   95.8750  -999.2500   -27.9440  -999.2500    67.7350     9.7350     8.3720     9.6720    23.1460 
   96.0000  -999.2500   -28.1860  -999.2500    62.9670     9.8090     8.4100    10.3400    23.2300 
   96.1250  -999.2500   -28.3100  -999.2500    59.3610     9.8050     8.4070    10.8610    23.3530 
   96.2500  -999.2500   -28.3410  -999.2500    59.4850     9.7210     8.3470    11.0980    23.4590 
   96.3750  -999.2500   -28.3280  -999.2500    63.3110     9.5830     8.2420    11.2100    23.5420 
   96.5000  -999.2500   -28.2710  -999.2500    67.9620     9.4410     8.1230    11.2070    23.5960 
   96.6250  -999.2500   -28.0690  -999.2500    69.1360     9.3500     8.0390    11.1050    23.6410 
   96.7500  -999.2500   -27.8070  -999.2500    68.4820     9.3300     8.0150    11.0590    23.6620 
   96.8750  -999.2500   -27.5440  -999.2500    69.4510     9.3740     8.0560    11.0430    23.6680 
   97.0000  -999.2500   -27.3060  -999.2500    71.2080     9.4600     8.1470    10.9690    23.6670 
   97.1250  -999.2500   -26.9820  -999.2500    70.1110     9.5600     8.2670    10.8150    23.6660 
   97.2500  -999.2500   -26.5580  -999.2500    68.8400     9.6550     8.3890    10.6410    23.6680 
   97.3750  -999.2500   -26.1060  -999.2500    70.5570     9.7350     8.4940    10.5080    23.6670 
   97.5000  -999.2500   -25.6020  -999.2500    72.9870     9.7810     8.5640    10.4710    23.6640 
   97.6250  -999.2500   -24.9900  -999.2500    73.9300     9.7170     8.5450    10.4900    23.6630 
   97.7500  -999.2500   -24.2620  -999.2500    72.9690     9.4730     8.3910    10.4250    23.6730 
   97.8750  -999.2500   -23.4470  -999.2500    71.3690     8.9930     8.0510    10.1510    23.6890 
   98.0000  -999.2500   -22.5620  -999.2500    70.4660     8.2840     7.5120     9.5560    23.7500 
   98.1250  -999.2500   -21.6590  -999.2500    75.1770     7.4400     6.8080     8.6120    23.9440 
   98.2500  -999.2500   -20.8320  -999.2500    87.0720     6.6500     6.0830     7.3510    24.1900 
   98.3750  -999.2500   -20.1140  -999.2500   100.2780     6.0430     5.4480     6.0060    24.3580 
   98.5000  -999.2500   -19.4850  -999.2500   108.8330     5.6830     4.9840     5.2280    24.4250 
   98.6250  -999.2500   -19.0350  -999.2500   108.1860     5.5970     4.7510     5.0140    24.4370 
   98.7500  -999.2500   -18.7890  -999.2500   102.7710     5.6730     4.6890     5.1210    24.4430 
   98.8750  -999.2500   -18.6950  -999.2500    96.0770     5.8240     4.7390     5.2930    24.4390 
   99.0000  -999.2500   -18.6910  -999.2500    88.7120     5.9640     4.8310     5.4580    24.4210 
   99.1250  -999.2500   -18.7800  -999.2500    86.6400     6.0190     4.8980     5.6120    24.3850 
   99.2500  -999.2500   -18.9750  -999.2500    91.6280     5.9840     4.9140     5.6250    24.3690 
   99.3750  -999.2500   -19.2620  -999.2500    98.8470     5.8860     4.8840     5.5390    24.3440 
   99.5000  -999.2500   -19.5940  -999.2500   100.5650     5.7770     4.8350     5.4280    24.2550 
   99.6250  -999.2500   -19.9910  -999.2500    94.3910     5.7340     4.8150     5.5510    24.0430 
   99.7500  -999.2500   -20.4670  -999.2500    88.5810     5.8040     4.8610     5.7710    23.8510 
   99.8750  -999.2500   -21.0430  -999.2500    86.3330     5.9980     4.9900     5.9670    23.7520 
