~V
VERS. 2.00: Ver 2.00
~W
STRT.M 100.0000:
STOP.M 258.0000:
STEP.M 0.1250:
NULL. -999.2500:
UWI. DF3025:
~C
DEPT.M :
AC.US/MT :
DEN.GM/CC :
GR.API :
CALI.CM :
RXO.OHMM :
RI. :
RML.OHMM :
SP.MV :
~A
# ...
  130.0000   382.4690     2.3690    71.0580    23.8180     9.6490     9.0460     9.5520   -17.9970 
  130.1250   420.1660     2.3130    80.6850    23.8450     5.8120     7.2500     7.5330   -17.9710 
  130.2500   435.4250     2.2930    88.9770    23.8970     4.9510     5.9120     6.2550   -17.9200 
  130.3750   439.1350     2.2980    93.0960    23.9340     4.8320     5.0260     5.5410   -17.8150 
  130.5000   441.4330     2.3150    92.9530    23.9600     5.0540     4.4680     5.1470   -17.6640 
  130.6250   445.8160     2.3340    92.7490    23.9960     4.7340     4.1450     4.9140   -17.5090 
  130.7500   447.1850     2.3590    94.8980    24.0880     4.3260     3.9780     4.8040   -17.3720 
  130.8750   436.8980     2.3930    97.8860    24.2800     3.9890     4.0100     4.9390   -17.2330 
  131.0000   407.0080     2.4360    99.0730    24.4660     4.0220     4.3420     5.4840   -17.0740 
  131.1250   357.3560     2.4860    97.1680    24.3920     5.4420     5.2160     6.7010   -16.9030 
  131.2500   307.1350     2.5400    91.8950    24.1250     8.4680     6.6990     8.5540   -16.7470 
  131.3750   269.4630     2.5890    84.2460    23.9280    11.6720     8.7320    10.8260   -16.6340 
  131.5000   249.9190     2.6150    76.4080    23.9220    14.2000    10.8070    12.8000   -16.5710 
  131.6250   257.3420     2.5960    72.7420    23.9780    15.9860    11.6020    12.9730   -16.5400 
  131.7500   293.8920     2.5410    73.7460    24.0140    15.2070    10.7190    11.3170   -16.5050 
  131.8750   352.4980     2.4670    78.0250    24.0680    11.1760     8.8360     8.9140   -16.4620 
  132.0000   408.3860     2.3930    84.3840    24.1360     6.6400     6.9030     6.8410   -16.4250 
  132.1250   435.6690     2.3430    91.2430    24.1630     4.8160     5.5150     5.6030   -16.3990 
  132.2500   443.2510     2.3180    96.3030    24.1570     4.5470     4.6500     4.9740   -16.3750 
  132.3750   444.8230     2.3090    97.4660    24.1300     4.4710     4.2230     4.7730   -16.3420 
  132.5000   445.1850     2.3050    94.4820    24.0630     4.5700     4.1360     4.8340   -16.2820 
  132.6250   440.8740     2.3050    93.3110    23.9510     4.6660     4.2920     5.0150   -16.2000 
  132.7500   432.8590     2.3160    96.6190    23.8650     4.6860     4.5230     5.1820   -16.1520 
  132.8750   424.0460     2.3370   100.5440    23.8670     4.7300     4.7350     5.2850   -16.1490 
  133.0000   418.4610     2.3590   100.0360    23.9600     4.8800     4.8750     5.3110   -16.1630 
  133.1250   421.0420     2.3710    96.4160    24.1030     5.1180     4.9140     5.2740   -16.1670 
  133.2500   429.2860     2.3670    96.6160    24.2300     5.1190     4.8950     5.2250   -16.1520 
  133.3750   436.7470     2.3490   100.7290    24.3250     4.8920     4.8620     5.2040   -16.1260 
  133.5000   437.0790     2.3270   104.4530    24.3790     4.7900     4.8620     5.2460   -16.0970 
  133.6250   428.7570     2.3230   102.8440    24.3880     4.9590     4.9380     5.3860   -16.0520 
  133.7500   415.4240     2.3440    96.9040    24.3780     5.1590     5.0780     5.5860   -15.9920 
  133.8750   397.7700     2.3810    90.4460    24.3650     5.2260     5.2300     5.7860   -15.9330 
  134.0000   377.7170     2.4190    86.5060    24.3460     5.3150     5.3150     5.9010   -15.9080 
  134.1250   367.1860     2.4370    85.0100    24.3130     5.5620     5.2440     5.8500   -15.9480 
  134.2500   373.9460     2.4280    85.0260    24.2920     5.6000     5.0620     5.7080   -16.0130 
  134.3750   391.0050     2.4040    87.6300    24.3000     5.2270     4.8860     5.6300   -16.0510 
  134.5000   399.9360     2.3910    92.2880    24.3160     5.0320     4.8750     5.8220   -16.0370 
  134.6250   381.5330     2.4190    93.3540    24.2930     5.6780     5.2720     6.5800   -15.9900 
  134.7500   343.8660     2.4750    89.0500    24.2410     8.1880     6.1960     7.9990   -15.9560 
  134.8750   300.5030     2.5330    83.0630    24.1850    13.2560     7.7860    10.1680   -15.9590 
  135.0000   263.9830     2.5750    77.0440    24.1080    18.6740    10.0560    12.9830   -16.0040 
  135.1250   248.2590     2.5940    69.5390    23.9740    20.2490    12.6090    15.7800   -16.0540 
  135.2500   253.7980     2.5970    62.2640    23.8340    18.8430    14.5120    17.4540   -16.0430 
  135.3750   273.7720     2.5820    58.3900    23.7040    16.2820    15.2320    17.5650   -15.9710 
  135.5000   292.4920     2.5570    57.8080    23.5500    13.4930    14.9840    16.6990   -15.8980 
  135.6250   293.3880     2.5460    58.0330    23.3930    11.6220    14.4750    15.9450   -15.8930 
  135.7500   280.9230     2.5580    58.6900    23.3760    12.1750    14.2930    15.8530   -15.9490 
  135.8750   267.4520     2.5810    59.0780    23.5390    14.5700    14.5660    16.4160   -16.0130 
  136.0000   263.0600     2.5970    56.6900    23.7320    16.4680    15.1890    17.3790   -16.0290 
  136.1250   268.6180     2.5920    52.8160    23.7590    16.6580    15.9270    18.3450   -15.9660 
  136.2500   276.7250     2.5750    52.4730    23.6630    16.3280    16.4830    18.9310   -15.8750 
  136.3750   284.1510     2.5520    56.2330    23.5630    16.3810    16.6830    18.9620   -15.8110 
  136.5000   289.4730     2.5310    59.9180    23.5260    16.7020    16.5150    18.5140   -15.7900 
  136.6250   291.2390     2.5250    59.0030    23.5310    16.5590    16.1080    17.8350   -15.7960 
  136.7500   290.8870     2.5310    56.0550    23.5700    15.5570    15.6920    17.2310   -15.8050 
  136.8750   290.3190     2.5370    54.4760    23.7260    14.7030    15.3980    16.8630   -15.8240 
  137.0000   291.0160     2.5290    55.9500    24.0090    14.7330    15.3150    16.8120   -15.8700 
  137.1250   293.3520     2.5030    58.4540    24.2250    16.0400    15.4980    17.0900   -15.9390 
  137.2500   296.0130     2.4730    60.2510    24.2700    16.4380    15.8330    17.5020   -16.0050 
  137.3750   298.3200     2.4500    62.3700    24.2550    16.6090    16.2170    17.9110   -16.0320 
  137.5000   300.8220     2.4420    64.4150    24.2640    16.4110    16.5710    18.2340   -15.9960 
  137.6250   302.1920     2.4510    65.6090    24.1330    16.1220    16.8510    18.4310   -15.9240 
  137.7500   297.8620     2.4700    67.2260    23.8190    15.9850    17.0620    18.5330   -15.8590 
  137.8750   287.0140     2.4980    69.8580    23.4990    15.9300    17.1890    18.5170   -15.8270 
  138.0000   276.5960     2.5230    71.5610    23.3860    16.9170    17.1770    18.3240   -15.8390 
  138.1250   279.0050     2.5270    67.7910    23.5180    17.3670    16.9020    17.8480   -15.8830 
  138.2500   291.0350     2.5130    62.0460    23.6510    16.1000    16.3790    17.1560   -15.9270 
  138.3750   300.3300     2.4950    58.8750    23.7110    14.2950    15.7080    16.3860   -15.9790 
  138.5000   298.6050     2.4830    60.2150    23.8350    13.7550    15.0390    15.6930   -16.0540 
  138.6250   289.5570     2.4800    63.2800    24.1250    13.5090    14.5450    15.2450   -16.1370 
  138.7500   287.0830     2.4850    63.4760    24.3710    12.7690    14.3030    15.0860   -16.2060 
  138.8750   294.0240     2.4930    61.8620    24.4020    13.1650    14.3490    15.2370   -16.2550 
  139.0000   302.0860     2.5020    61.7230    24.2550    14.2320    14.6560    15.6520   -16.2810 
  139.1250   300.9280     2.5080    62.4730    24.0890    14.7640    15.1320    16.2160   -16.2900 
  139.2500   294.7040     2.5190    60.8200    23.9960    15.0530    15.6050    16.7370   -16.3260 
  139.3750   292.5110     2.5340    57.3470    23.9820    16.0180    15.9670    17.0940   -16.4100 
  139.5000   296.9090     2.5450    56.0610    24.0040    15.7540    16.1620    17.2360   -16.5370 
  139.6250   301.9110     2.5350    59.0830    23.9930    14.4790    16.2080    17.2190   -16.6840 
  139.7500   302.4570     2.5110    62.3110    23.9220    13.4070    16.2320    17.2090   -16.8020 
  139.8750   298.9600     2.4930    64.3140    23.8080    14.1000    16.3080    17.2750   -16.8630 
