~V
VERS. 2.00: Ver 2.00
~W
STRT.M 135.0000:
STOP.M 270.0000:
STEP.M 0.1250:
NULL. -999.2500:
UWI. DF3063:
~C
DEPT.M :
SP.MV :
GR.API :
CALI.CM :
RXO.OHMM :
RI. :
RML.OHMM :
DEN.GM/CC :
~A
# ...
  247.5000   -10.8880    75.7570    24.2960    43.6880    29.9770    35.4870     2.4240 
  247.6250   -11.0590    74.6060    24.2000    74.3330    37.1440    43.6370     2.4950 
  247.7500   -11.2360    72.7410    24.3280   108.6980    45.7160    52.7290     2.5480 
  247.8750   -11.4310    71.2590    24.1830   114.9340    54.5510    61.4860     2.5710 
  248.0000   -11.6480    71.4070    24.1020    83.3150    62.3190    68.7650     2.5400 
  248.1250   -11.8550    73.9840    24.0970    74.3880    68.5300    74.2240     2.4640 
  248.2500   -12.0350    76.8720    24.1510    83.6390    74.7440    79.2870     2.3990 
  248.3750   -12.1510    78.4100    24.1880    93.2340    81.8260    84.6540     2.4190 
  248.5000   -12.2270    78.0870    24.0760    86.1500    88.2260    88.9870     2.5060 
  248.6250   -12.2440    75.8540    23.9300   105.7800    89.9160    88.4300     2.6110 
  248.7500   -12.2180    72.9550    23.9520   177.3900    83.4650    80.5700     2.6920 
  248.8750   -12.1360    70.6070    24.0620   278.6930    68.9890    66.0360     2.7180 
  249.0000   -12.0200    69.7040    24.0710   300.5440    50.9150    48.6870     2.6970 
  249.1250   -11.8810    66.5850    23.9980   187.6180    35.0470    33.5900     2.6460 
  249.2500   -11.7300    62.3500    23.9410    76.0480    23.2700    22.5240     2.5780 
  249.3750   -11.5930    58.4200    23.8350    22.7650    15.3850    15.2960     2.4960 
  249.5000   -11.4590    55.8740    23.7860     8.0910    10.7720    11.0480     2.4140 
  249.6250   -11.3520    56.1970    23.7760     6.3800     8.5410     9.0320     2.3600 
  249.7500   -11.2610    57.3700    23.7660     6.2780     7.4060     8.1430     2.3480 
  249.8750   -11.1920    57.3880    23.7490     7.3140     6.9480     7.9150     2.3640 
  250.0000   -11.1200    55.5230    23.7410     8.5470     6.8990     8.0440     2.3780 
  250.1250   -11.0300    52.8410    23.6620     9.0920     7.0730     8.2770     2.3860 
  250.2500   -10.9190    52.1440    23.5000     9.0180     7.2480     8.4360     2.4000 
  250.3750   -10.8020    51.8320    23.4790     8.5410     7.3640     8.5040     2.4200 
  250.5000   -10.6600    52.1870    23.5170     8.0480     7.4020     8.4870     2.4360 
  250.6250   -10.4770    55.1220    23.5120     7.8900     7.3770     8.4170     2.4370 
  250.7500   -10.2790    56.9780    23.4600     8.1520     7.3120     8.3490     2.4250 
  250.8750   -10.0940    55.9300    23.3000     7.9980     7.2170     8.2740     2.4060 
  251.0000    -9.9520    52.5500    23.6500     7.5570     7.0860     8.1940     2.3830 
  251.1250    -9.8700    52.1190    23.5850     7.4790     6.9260     8.1370     2.3620 
  251.2500    -9.8520    55.4790    23.3390     7.6270     6.7640     8.1330     2.3520 
  251.3750    -9.9090    56.8530    23.0230     7.6160     6.6140     8.1590     2.3560 
  251.5000   -10.0310    53.2990    23.0030     7.2450     6.4810     8.2170     2.3580 
  251.6250   -10.1850    48.0900    23.3070     6.5980     6.3900     8.2700     2.3500 
  251.7500   -10.3520    46.9340    23.3750     6.2320     6.3310     8.2980     2.3380 
  251.8750   -10.4940    50.2230    23.3400     6.5020     6.3010     8.3070     2.3310 
  252.0000   -10.5620    55.6360    23.4380     7.0830     6.2900     8.3250     2.3250 
  252.1250   -10.5480    61.0660    23.6690     7.5830     6.2940     8.3450     2.3190 
  252.2500   -10.4680    65.2890    23.9720     7.8280     6.2930     8.3670     2.3110 
  252.3750   -10.3580    66.0380    24.1830     7.9890     6.2820     8.3990     2.3040 
  252.5000   -10.2850    63.2480    24.2260     8.0330     6.2580     8.4390     2.3000 
  252.6250   -10.2750    59.3850    24.0400     8.0940     6.2230     8.4970     2.2980 
  252.7500   -10.3210    57.6950    23.9800     8.1150     6.1840     8.5400     2.2950 
  252.8750   -10.3960    58.9070    23.9110     8.0530     6.1410     8.5620     2.2890 
  253.0000   -10.5070    59.2790    23.8590     7.7610     6.1000     8.5520     2.2870 
  253.1250   -10.6370    57.6180    23.9050     7.5670     6.0660     8.4920     2.2910 
  253.2500   -10.7730    55.7850    23.9530     7.4760     6.0410     8.4350     2.3020 
  253.3750   -10.9400    55.2070    23.9720     7.3810     6.0340     8.3910     2.3210 
  253.5000   -11.0960    56.1890    23.9090     7.2340     6.0470     8.3630     2.3520 
  253.6250   -11.2010    56.7930    23.9020     7.2530     6.0880     8.3530     2.3930 
  253.7500   -11.2120    55.2920    23.9190     7.4620     6.1480     8.3800     2.4310 
  253.8750   -11.1400    52.7610    23.9330     7.6010     6.2220     8.4200     2.4520 
  254.0000   -11.0650    50.9110    23.7300     7.6000     6.2860     8.4450     2.4640 
  254.1250   -11.0680    49.9110    23.7060     7.6850     6.3190     8.4330     2.4720 
  254.2500   -11.1750    49.4240    23.6980     7.6600     6.3150     8.3800     2.4680 
  254.3750   -11.2030    51.1550    23.6650     7.5630     6.2740     8.2940     2.4470 
  254.5000   -11.0810    55.4280    23.5360     7.5390     6.2070     8.1900     2.4270 
  254.6250   -10.8490    58.2460    23.6610     7.5490     6.1300     8.0970     2.4170 
  254.7500   -10.6260    58.6180    23.6840     7.5170     6.0580     8.0030     2.4080 
  254.8750   -10.5470    58.3000    23.6970     7.4600     6.0030     7.9310     2.3880 
  255.0000   -10.4920    59.0840    23.7480     7.4650     5.9790     7.9300     2.3670 
  255.1250   -10.3730    61.9510    23.8360     7.4690     5.9970     7.9810     2.3590 
  255.2500   -10.2720    64.5140    23.8890     7.4110     6.0400     8.0380     2.3660 
  255.3750   -10.2020    63.4470    23.9190     7.0340     6.0960     8.1010     2.3770 
  255.5000   -10.2270    58.0660    23.9770     6.6210     6.1620     8.1750     2.3910 
  255.6250   -10.4430    54.3340    23.9900     6.6980     6.2300     8.2360     2.4100 
  255.7500   -10.6630    55.1090    24.0540     7.0880     6.2930     8.2730     2.4260 
  255.8750   -10.7760    56.1380    24.1360     7.5780     6.3450     8.2760     2.4260 
  256.0000   -10.9310    54.1580    24.2550     7.8260     6.3750     8.2410     2.4150 
  256.1250   -11.1140    52.9820    24.2700     7.6630     6.3900     8.1980     2.4040 
  256.2500   -11.2300    54.8980    24.2690     7.3090     6.4030     8.1720     2.4010 
  256.3750   -11.3260    57.8100    24.1650     7.2090     6.4170     8.1670     2.4010 
  256.5000   -11.4680    58.3360    24.2120     7.3920     6.4300     8.1720     2.3980 
  256.6250   -11.5230    56.1600    24.2320     7.5990     6.4410     8.1920     2.3900 
  256.7500   -11.6140    55.0230    24.2440     7.4460     6.4450     8.2100     2.3840 
  256.8750   -11.7350    58.0940    24.2290     7.0820     6.4400     8.1940     2.3930 
  257.0000   -11.8310    62.9020    24.0360     6.7100     6.4210     8.1530     2.4100 
  257.1250   -11.9360    62.3890    24.0130     6.7550     6.4030     8.1380     2.4180 
  257.2500   -12.0410    58.0150    23.9470     6.9690     6.4060     8.1600     2.4080 
  257.3750   -12.1740    56.2200    23.9580     7.0800     6.4540     8.2130     2.3960 
  257.5000   -12.2670    58.6960    24.0250     7.1210     6.5550     8.3190     2.4000 
  257.6250   -12.3690    61.1420    24.0060     7.4230     6.7140     8.4990     2.4200 
  257.7500   -12.4740    62.2890    24.0030     7.6790     6.9050     8.6860     2.4400 
  257.8750   -12.6390    65.1340    24.0170     7.8390     7.0980     8.8650     2.4490 
  258.0000   -12.7730    68.0570    24.0530     7.8750     7.2780     9.0140     2.4590 
  258.1250   -12.9170    65.7650    24.2460     8.2660     7.4200     9.1120     2.4760 
  258.2500   -13.0300    60.9240    24.2830     8.1920     7.5310     9.1780     2.4950 
  258.3750   -13.1420    58.4670    24.2940     7.6480     7.6370     9.2410     2.5080 
  258.5000   -13.2640    58.4540    24.3450     7.5440     7.7640     9.3440     2.5160 
  258.6250   -13.3770    58.5980    24.3460     8.8010     7.9400     9.5170     2.5150 
