~V
VERS. 2.00: Ver 2.00
~W
STRT.M 60.0000:
STOP.M 268.0000:
STEP.M 0.1250:
NULL. -999.2500:
UWI. DF3035:
~C
DEPT.M :
GR.API :
CALI.CM :
RXO.OHMM :
RI. :
RML.OHMM :
SP.MV :
DEN.GM/CC :
AC.US/MT :
~A
   60.0000    51.7210    25.9470     4.8700     4.5280    10.2650    44.7760  -999.2500  -999.2500 
   60.1250    51.3290    25.8760     5.6420     4.7290    12.3010    44.0170  -999.2500  -999.2500 
   60.2500    51.2290    25.8140     4.4600     5.0230    11.2110    43.4100  -999.2500  -999.2500 
   60.3750    51.5400    25.6750     2.4910     5.0840     9.2810    43.0550  -999.2500  -999.2500 
   60.5000    52.3360    25.3710     1.5500     4.8400     8.1770    43.0080  -999.2500  -999.2500 
   60.6250    54.3370    24.9330     1.2820     4.6060     8.7660    43.3300  -999.2500  -999.2500 
   60.7500    56.5210    24.5520     1.2370     4.4490    10.8810    43.9760  -999.2500  -999.2500 
   60.8750    56.8700    24.3260     1.2880     4.2310    13.5200    44.9260  -999.2500  -999.2500 
   61.0000    53.8530    24.2400     1.3460     3.9380    15.1150    46.1550  -999.2500  -999.2500 
   61.1250    51.9820    24.2320     1.3570     3.6960    15.8450    47.6610  -999.2500  -999.2500 
   61.2500    54.2450    24.2430     1.3340     3.5830    17.1550    49.3240  -999.2500  -999.2500 
   61.3750    56.5190    24.2400     1.3060     3.5230    16.2620    51.0060  -999.2500  -999.2500 
   61.5000    54.5260    24.2210     1.3060     3.2360    11.2700    52.5520  -999.2500  -999.2500 
   61.6250    50.6520    24.1940     1.3280     2.4120     5.9380    53.7350  -999.2500  -999.2500 
   61.7500    48.5870    24.1580     1.3310     1.5590     2.5450    54.3880  -999.2500  -999.2500 
   61.8750    48.9660    24.1070     1.3160     1.0720     0.8450    54.2440  -999.2500  -999.2500 
   62.0000    52.3640    24.0540     1.4340     0.9010     0.1150    52.9620  -999.2500  -999.2500 
   62.1250    58.5630    24.0100     2.1590     0.9310    -0.0600    49.9720  -999.2500  -999.2500 
   62.2500    63.8570    23.9980     3.6750     1.0910     0.0840    45.3010  -999.2500  -999.2500 
   62.3750    67.1690    24.0590     5.5420     1.4200     0.6210    39.2570  -999.2500  -999.2500 
   62.5000    69.9340    24.1780     6.8060     1.9940     1.8150    32.4230  -999.2500  -999.2500 
   62.6250    72.2370    24.2670     6.8860     2.8470     3.7810    25.2350  -999.2500  -999.2500 
   62.7500    74.0570    24.6850     6.4920     3.6990     5.0080    18.0670  -999.2500  -999.2500 
   62.8750    76.2480    26.1210     6.0680     4.3460     5.0050    11.2240  -999.2500  -999.2500 
   63.0000    78.1870    28.6160     5.8080     4.8280     4.7890     5.0740  -999.2500  -999.2500 
   63.1250    77.2320    30.4640     6.0450     5.3370     5.0230     0.1380  -999.2500  -999.2500 
   63.2500    74.3200    30.1950     6.6820     5.9660     5.6840    -3.5130  -999.2500  -999.2500 
   63.3750    71.7720    28.2620     7.3120     6.6680     6.6500    -6.1140  -999.2500  -999.2500 
   63.5000    70.9780    26.1780     7.5830     7.2890     7.6220    -8.1630  -999.2500  -999.2500 
   63.6250    73.6950    25.0800     7.4830     7.5490     8.0340    -9.9570  -999.2500  -999.2500 
   63.7500    78.4640    24.6670     7.3190     7.4090     7.8080   -11.6280  -999.2500  -999.2500 
   63.8750    81.7970    24.5510     7.2610     6.9900     7.2380   -13.1980  -999.2500  -999.2500 
   64.0000    80.7030    24.5120     7.3810     6.4950     6.6780   -14.6620  -999.2500  -999.2500 
   64.1250    77.8520    24.4620     7.5930     6.1240     6.3750   -15.9510  -999.2500  -999.2500 
   64.2500    76.5750    24.4450     7.7040     5.9360     6.3360   -17.0600  -999.2500  -999.2500 
   64.3750    75.8450    24.4670     7.7210     5.9260     6.5150   -17.9770  -999.2500  -999.2500 
   64.5000    74.9040    24.4830     7.7890     6.0460     6.8290   -18.6670  -999.2500  -999.2500 
   64.6250    78.1970    24.4850     7.9390     6.2390     7.1750   -19.0960  -999.2500  -999.2500 
   64.7500    85.8680    24.4740     7.9940     6.4300     7.4620   -19.3420  -999.2500  -999.2500 
   64.8750    91.7470    24.4410     7.8400     6.5680     7.6250   -19.4190  -999.2500  -999.2500 
   65.0000    91.5100    24.4250     7.4780     6.6110     7.6130   -19.3630  -999.2500  -999.2500 
   65.1250    89.5010    24.4810     7.0370     6.5130     7.3900   -19.2420  -999.2500  -999.2500 
   65.2500    91.6660    24.5600     6.6910     6.3200     7.0580   -19.1090  -999.2500  -999.2500 
   65.3750    97.3520    24.6230     6.4780     6.0870     6.7210   -19.0150  -999.2500  -999.2500 
   65.5000   104.6600    24.6870     6.3650     5.8800     6.4750   -18.9790  -999.2500  -999.2500 
   65.6250   109.8330    24.7560     6.3400     5.7660     6.3980   -19.0120  -999.2500  -999.2500 
   65.7500   107.1980    24.7890     6.3940     5.7420     6.4590   -19.1140  -999.2500  -999.2500 
   65.8750    97.3090    24.7590     6.5170     5.7770     6.5980   -19.2570  -999.2500  -999.2500 
   66.0000    90.1650    24.7070     6.6670     5.8180     6.7260   -19.3850  -999.2500  -999.2500 
   66.1250    95.5520    24.7060     6.6640     5.8040     6.7370   -19.4320  -999.2500  -999.2500 
   66.2500   105.1780    24.7710     6.3920     5.7210     6.6260   -19.3660  -999.2500  -999.2500 
   66.3750   110.9890    24.8650     5.9520     5.5890     6.4370   -19.1750  -999.2500  -999.2500 
   66.5000   111.2170    24.9390     5.5910     5.4470     6.2450   -18.9150  -999.2500  -999.2500 
   66.6250   110.8300    24.9710     5.4570     5.3470     6.1290   -18.6280  -999.2500  -999.2500 
   66.7500   109.2680    24.9590     5.4770     5.3190     6.1260   -18.3320  -999.2500  -999.2500 
   66.8750   106.0520    24.8770     5.6530     5.4030     6.2830   -18.0940  -999.2500  -999.2500 
   67.0000   103.7520    24.7080     6.0030     5.6360     6.6510   -17.9670  -999.2500  -999.2500 
   67.1250   102.7180    24.4760     6.6210     6.0600     7.2890   -17.9860  -999.2500  -999.2500 
   67.2500   100.4110    24.3090     7.8480     6.5990     8.0950   -18.1570  -999.2500  -999.2500 
   67.3750    97.1930    24.3130     9.7890     7.1440     8.8950   -18.4690  -999.2500  -999.2500 
   67.5000    95.3950    24.4500    11.3510     7.5420     9.4130   -18.8720  -999.2500  -999.2500 
   67.6250    94.0310    24.5310    10.7220     7.6100     9.3440   -19.3560  -999.2500  -999.2500 
   67.7500    94.6980    24.5090     8.8340     7.4170     8.9050   -19.8800  -999.2500  -999.2500 
   67.8750    98.4790    24.4820     7.3870     7.1170     8.4200   -20.4270  -999.2500  -999.2500 
   68.0000   100.1390    24.5070     6.9730     6.8770     8.1530   -21.0120  -999.2500  -999.2500 
   68.1250    94.4410    24.5130     7.0780     6.8520     8.2920   -21.6610  -999.2500  -999.2500 
   68.2500    87.6620    24.4510     7.2540     7.0340     8.7470   -22.3550  -999.2500  -999.2500 
   68.3750    84.1500    24.3780     7.5860     7.3530     9.3620   -23.0710  -999.2500  -999.2500 
   68.5000    82.5170    24.3320     8.0520     7.6820     9.9030   -23.8000  -999.2500  -999.2500 
   68.6250    81.8470    24.3020     8.3940     7.8640    10.1010   -24.5020  -999.2500  -999.2500 
   68.7500    82.6060    24.2720     8.5100     7.8660     9.9710   -25.1600  -999.2500  -999.2500 
   68.8750    83.1560    24.2600     8.4580     7.7240     9.6390   -25.7570  -999.2500  -999.2500 
   69.0000    81.8170    24.2810     8.3100     7.5160     9.2750   -26.2550  -999.2500  -999.2500 
   69.1250    78.4510    24.3030     8.1230     7.3410     9.0380   -26.6240  -999.2500  -999.2500 
   69.2500    74.6320    24.2780     7.9890     7.2460     8.9560   -26.9000  -999.2500  -999.2500 
   69.3750    72.0010    24.1940     7.9670     7.2310     9.0030   -27.1000  -999.2500  -999.2500 
   69.5000    73.0300    24.0910     8.0820     7.2740     9.1270   -27.2250  -999.2500  -999.2500 
   69.6250    77.9750    24.0580     8.3020     7.3390     9.2570   -27.3020  -999.2500  -999.2500 
   69.7500    81.1150    24.0930     8.5040     7.3840     9.3380   -27.3610  -999.2500  -999.2500 
   69.8750    79.9700    24.1010     8.6170     7.3900     9.3550   -27.3940  -999.2500  -999.2500 
