~V
VERS. 2.00: Ver 2.00
~W
STRT.M 66.0000:
STOP.M 262.0000:
STEP.M 0.1250:
NULL. -999.2500:
UWI. DF3009:
~C
DEPT.M :
GR.API :
RML.OHMM :
RI. :
RXO.OHMM :
CALI.CM :
DEN.GM/CC :
SP.MV :
~A
# ...
  133.5000    73.1470     8.0060     7.4520     9.2040    24.2660     2.2580   -22.9130 
  133.6250    74.7540     8.8870     8.0060     9.4600    24.2310     2.2650   -22.3490 
  133.7500    73.6740    10.7770     9.3400    10.9560    24.3120     2.2910   -21.6950 
  133.8750    73.5130    13.2990    11.3130    14.2470    24.3250     2.3440   -21.0860 
  134.0000    74.2520    15.6230    13.4250    19.5950    24.2950     2.4170   -20.3730 
  134.1250    71.5970    16.4740    14.6780    29.6130    24.3500     2.4840   -19.6210 
  134.2500    68.1130    15.4480    14.4600    33.3290    24.3030     2.5190   -19.0520 
  134.3750    70.7050    13.0020    12.7840    23.9870    24.3420     2.5110   -18.5150 
  134.5000    80.6740    10.1600    10.3790    13.2060    24.2800     2.4730   -17.9930 
  134.6250    88.2320     8.2490     8.2350     7.4580    24.2210     2.4300   -17.7690 
  134.7500    91.2710     7.2690     6.7310     5.7890    24.1180     2.4010   -17.5870 
  134.8750    92.8550     6.7480     5.8190     5.2070    23.9640     2.3890   -17.4060 
  135.0000    96.4350     6.4600     5.3290     4.9120    23.9170     2.3890   -17.4500 
  135.1250   101.9240     6.3640     5.1250     4.7720    23.8470     2.3900   -17.5960 
  135.2500   106.4570     6.3240     5.0720     4.7220    23.9190     2.3880   -17.6480 
  135.3750   106.7380     6.3940     5.1600     4.7920    23.9040     2.3860   -17.7870 
  135.5000   102.4540     6.6470     5.4030     5.0860    23.9950     2.3920   -18.0110 
  135.6250    98.7480     7.0760     5.7880     5.9610    24.1050     2.4180   -18.1090 
  135.7500    96.9510     7.5200     6.2050     7.7000    24.2150     2.4560   -18.3290 
  135.8750    94.6280     7.8760     6.5830    10.7410    24.3390     2.4910   -18.6310 
  136.0000    92.3860     8.1720     6.9150    14.9420    24.3360     2.5060   -18.8600 
  136.1250    93.6480     8.6300     7.3110    15.4980    24.4150     2.4940   -19.1710 
  136.2500    96.3300     9.4440     7.8950    11.3350    24.3790     2.4710   -19.5680 
  136.3750    96.7770    10.6200     8.7000     9.5750    24.3000     2.4480   -19.9510 
  136.5000    92.9580    11.9170     9.6060    10.8600    24.1540     2.4280   -20.3490 
  136.6250    84.8960    12.7990    10.2920    13.2550    23.9600     2.3980   -20.6620 
  136.7500    77.2910    12.9180    10.4830    12.7400    23.9310     2.3570   -20.8280 
  136.8750    73.8270    12.2170    10.0770    10.4880    23.9190     2.3150   -20.9440 
  137.0000    78.1270    10.9670     9.2080     9.0960    24.0150     2.2870   -20.9170 
  137.1250    91.1740     9.6790     8.2000     8.2870    24.1180     2.2860   -20.6210 
  137.2500   103.4270     8.7530     7.3760     7.2860    24.2080     2.3050   -20.3400 
  137.3750   106.5250     8.2940     6.8470     6.3530    24.3390     2.3330   -20.0770 
  137.5000   101.7670     8.2360     6.6080     5.9150    24.3040     2.3580   -19.7330 
  137.6250    97.9540     8.4390     6.6050     5.9820    24.2760     2.3710   -19.6270 
  137.7500    95.9630     8.6680     6.6910     6.2780    24.2290     2.3740   -19.6690 
  137.8750    94.5540     8.7900     6.7750     6.6570    24.2810     2.3680   -19.6780 
  138.0000    95.1250     8.7400     6.7920     6.8610    24.4560     2.3580   -19.7940 
  138.1250    98.2660     8.5470     6.7220     6.8070    24.5580     2.3440   -20.1640 
  138.2500    99.6630     8.3620     6.6320     6.6160    24.7210     2.3290   -20.5660 
  138.3750    96.6910     8.3150     6.5980     6.4860    24.7000     2.3120   -21.0220 
  138.5000    91.8490     8.4890     6.6890     6.6770    24.7280     2.2940   -21.6980 
  138.6250    87.3950     8.9210     6.9690     7.1960    24.6990     2.2790   -22.3300 
  138.7500    83.6480     9.4730     7.3840     7.8830    24.6360     2.2690   -22.9130 
  138.8750    78.6630    10.0040     7.8570     8.7410    24.5220     2.2610   -23.6690 
  139.0000    72.7090    10.3970     8.2980     9.8200    24.2380     2.2530   -24.4510 
  139.1250    70.9130    10.6740     8.6560    10.9030    24.0400     2.2370   -24.9880 
  139.2500    71.4980    11.1150     9.0420    11.2290    23.8900     2.2120   -25.4300 
  139.3750    70.4800    12.0430     9.6330    11.1950    23.9270     2.1830   -25.6710 
  139.5000    67.6040    13.5970    10.5490    11.3130    23.9770     2.1640   -25.4880 
  139.6250    65.8710    15.4720    11.6860    12.0350    24.0120     2.1800   -25.0780 
  139.7500    65.3140    16.8090    12.5790    13.2710    24.1090     2.2380   -24.4110 
  139.8750    65.1050    16.8650    12.7560    15.1750    24.1110     2.3280   -23.4240 
  140.0000    68.2540    15.3370    11.9480    18.0850    24.2150     2.4210   -22.4180 
  140.1250    78.7350    12.6280    10.2750    17.7640    24.3180     2.4730   -21.4190 
  140.2500    94.8290    10.0290     8.5210    11.9760    24.4080     2.4740   -20.4040 
  140.3750   110.8200     8.2710     7.1880     6.9360    24.4130     2.4370   -19.6140 
  140.5000   120.0650     7.5480     6.4770     5.4000    24.2380     2.3890   -19.0310 
  140.6250   120.4510     7.7600     6.4460     5.8430    24.0900     2.3490   -18.5710 
  140.7500   115.9830     8.3970     6.8230     6.5080    23.9130     2.3230   -18.3960 
  140.8750   111.1610     9.1310     7.3990     7.1050    23.8240     2.3090   -18.3850 
  141.0000   107.6610     9.7090     7.9580     7.4770    23.8500     2.3050   -18.2920 
  141.1250   105.8020     9.9490     8.2840     7.2420    23.9990     2.3050   -18.2620 
  141.2500   104.4570     9.9010     8.3450     6.8150    24.2240     2.3070   -18.3040 
  141.3750   101.8920     9.6060     8.1540     6.4660    24.2100     2.3080   -18.2420 
  141.5000    97.7020     9.0920     7.7500     6.2920    24.1290     2.3080   -18.1210 
  141.6250    95.4400     8.3520     7.1540     6.2500    23.7940     2.3120   -18.0850 
  141.7500    97.5540     7.5090     6.4740     6.2350    23.6600     2.3210   -17.9750 
  141.8750   103.5170     6.7260     5.8240     6.0130    23.5940     2.3360   -17.8280 
  142.0000   110.5440     6.1870     5.3480     5.4830    23.6250     2.3550   -17.8590 
  142.1250   115.3310     6.2560     5.2720     5.4730    23.7070     2.3730   -17.9470 
  142.2500   113.3980     7.0600     5.6960     5.9930    23.6910     2.3780   -17.9720 
  142.3750   102.3410     8.7990     6.7320     7.4460    23.6720     2.3650   -18.0690 
  142.5000    87.9250    11.4110     8.4400    10.0220    23.5250     2.3320   -18.1760 
  142.6250    78.9210    14.9810    10.8400    13.9780    23.4640     2.2920   -18.1730 
  142.7500    75.5340    18.7690    13.5550    17.3810    23.3890     2.2680   -18.1520 
  142.8750    74.7470    21.9520    16.2010    19.9980    23.3130     2.2770   -18.0430 
  143.0000    73.0380    24.1390    18.3830    21.8440    23.4500     2.3260   -17.7730 
  143.1250    66.9500    25.2860    19.7250    23.1260    23.6010     2.4090   -17.5020 
  143.2500    60.6090    25.6960    20.3730    23.5050    23.7130     2.4930   -17.1690 
  143.3750    57.0990    25.6290    20.5100    23.0550    23.6460     2.5570   -16.6950 
  143.5000    56.1740    25.3500    20.3560    22.3270    23.6490     2.5910   -16.3150 
  143.6250    55.8440    25.1440    20.1410    21.3910    23.9220     2.5950   -15.8830 
  143.7500    55.2090    25.2250    20.0730    21.4730    24.1200     2.5880   -15.4420 
  143.8750    54.6080    25.6860    20.2570    22.7860    24.3170     2.5780   -15.2160 
  144.0000    52.8990    26.4710    20.7010    24.2840    24.3820     2.5690   -15.0390 
  144.1250    51.7930    27.3670    21.3180    23.3750    24.4190     2.5680   -14.7920 
  144.2500    53.5630    28.0700    21.9030    24.3480    24.4750     2.5740   -14.6970 
  144.3750    56.2620    28.4250    22.3250    26.3440    24.5180     2.5850   -14.6710 
  144.5000    56.7010    28.4520    22.5490    28.0540    24.5570     2.5990   -14.5260 
  144.6250    53.6730    28.3490    22.6570    25.1720    24.4650     2.6080   -14.5420 
