~V
VERS. 2.00: Ver 2.00
~W
STRT.M 115.0000:
STOP.M 288.0000:
STEP.M 0.1250:
NULL. -999.2500:
UWI. DF3049:
~C
DEPT.M :
GR.API :
CALI.CM :
RXO.OHMM :
RI. :
RML.OHMM :
SP.MV :
DEN.GM/CC :
AC.US/MT :
~A
# ...
  155.0000    55.3280    25.6100    49.6790    44.4520    54.1130   -20.8010     2.2430   391.0130 
  155.1250    57.3480    25.5660    55.7470    49.8740    60.6040   -20.8650     2.2360   393.5420 
  155.2500    60.2890    25.5560    58.1940    53.1310    63.6680   -20.9020     2.2340   394.1490 
  155.3750    63.2360    25.5560    57.2660    53.8290    63.0200   -20.9020     2.2390   393.4670 
  155.5000    64.3840    25.5220    53.4980    52.4950    59.8190   -20.8680     2.2450   392.1270 
  155.6250    62.5350    25.3960    49.0050    49.7830    55.3050   -20.8010     2.2470   390.6550 
  155.7500    59.8140    25.0970    45.8560    45.4420    49.4720   -20.6970     2.2440   389.1640 
  155.8750    63.3730    24.8150    42.6370    39.3940    42.1780   -20.5660     2.2440   386.9340 
  156.0000    75.5920    24.5780    36.9270    32.0730    33.8240   -20.4230     2.2550   383.3050 
  156.1250    89.1540    24.3520    27.9550    24.6510    25.5420   -20.2630     2.2730   378.8970 
  156.2500    93.6330    24.2670    18.8870    18.5710    18.7920   -20.1060     2.2950   376.6410 
  156.3750    91.4020    24.3220    11.9270    14.1050    13.8540   -19.9670     2.3200   378.4140 
  156.5000    89.6500    24.6070     7.9480    11.0980    10.5830   -19.8620     2.3490   383.4540 
  156.6250    90.9280    25.0880     6.3890     9.2260     8.6130   -19.8080     2.3750   388.9670 
  156.7500    92.6950    25.5360     5.9000     8.2970     7.6840   -19.8040     2.3900   392.1180 
  156.8750    94.7790    25.7050     5.6550     7.9530     7.3530   -19.8540     2.3990   393.0110 
  157.0000    95.6260    25.7080     5.5940     8.0700     7.4680   -19.9470     2.4130   391.9580 
  157.1250    95.1260    25.6250     5.7630     8.5600     7.9360   -20.1070     2.4370   388.6090 
  157.2500    93.4320    25.5040     6.1560     9.3940     8.7340   -20.3100     2.4660   382.5790 
  157.3750    92.0210    25.4520     6.8180    10.4510     9.7620   -20.5400     2.4880   375.9440 
  157.5000    92.7200    25.4230     7.8790    11.6930    11.0090   -20.7700     2.4940   370.7030 
  157.6250    93.7760    25.2980     9.2360    13.1320    12.5340   -21.0100     2.4920   367.6870 
  157.7500    92.6590    25.1510    10.6140    14.8860    14.5400   -21.2650     2.4890   366.6340 
  157.8750    87.8410    25.0340    11.5720    16.8900    16.9680   -21.5330     2.4870   366.7400 
  158.0000    81.3930    24.9900    12.6640    18.8200    19.4700   -21.8140     2.4750   368.1860 
  158.1250    76.5140    24.9810    14.3380    20.0530    21.3450   -22.1140     2.4510   371.0570 
  158.2500    77.3670    24.9810    15.6590    19.9060    21.6770   -22.4270     2.4290   374.6590 
  158.3750    82.8400    24.9810    15.5110    18.9720    20.9100   -22.7530     2.4210   377.5890 
  158.5000    87.0640    24.9810    13.8910    18.1500    20.1090   -23.1130     2.4280   378.9230 
  158.6250    85.5710    24.9810    12.4320    18.3200    20.5580   -23.4990     2.4410   378.5860 
  158.7500    80.9300    24.9810    15.0700    20.6930    23.9100   -23.9090     2.4400   377.8390 
  158.8750    77.0060    24.9790    26.0790    25.9610    30.7930   -24.3190     2.4190   378.2900 
  159.0000    73.4270    24.9610    44.8840    35.0400    42.0090   -24.7350     2.3850   379.8720 
  159.1250    70.4790    24.9090    63.0130    48.2410    57.7530   -25.1620     2.3530   381.5220 
  159.2500    68.8370    24.8130    74.5810    63.9720    76.1030   -25.5890     2.3290   382.8150 
  159.3750    67.1070    24.7360    83.9610    77.8410    91.6920   -26.0120     2.3100   384.7500 
  159.5000    65.8460    24.6430    93.5750    87.6370   101.6460   -26.4310     2.3020   387.7940 
  159.6250    67.3280    24.4940    99.0640    93.9300   107.1090   -26.8480     2.3090   391.1870 
  159.7500    68.6460    24.3140    98.3180    97.6940   110.1230   -27.2460     2.3220   393.5310 
  159.8750    65.8600    24.2330    96.4570    99.2240   111.1030   -27.6350     2.3260   394.5760 
  160.0000    62.6420    24.2130    94.1820    98.1270   109.3700   -28.0050     2.3150   394.8660 
  160.1250    62.1670    24.2140    89.9690    95.0560   105.5930   -28.3470     2.3000   395.3140 
  160.2500    63.5340    24.2030    82.2860    92.0650   102.1750   -28.6850     2.2960   396.7560 
  160.3750    63.5250    24.1960    72.6840    91.4590   101.5480   -29.0280     2.3060   398.4360 
  160.5000    62.6020    24.1670    66.3670    94.9670   105.3900   -29.3590     2.3200   399.0130 
  160.6250    61.5050    24.0880    71.1870   103.8140   114.9010   -29.6730     2.3250   398.0060 
  160.7500    61.5010    24.0480    92.8320   119.0440   131.5180   -29.9940     2.3100   396.5380 
  160.8750    63.4600    24.0350   118.9360   137.8910   152.7890   -30.3190     2.2860   395.9670 
  161.0000    64.2990    24.0350   139.0850   156.8260   174.9110   -30.6590     2.2640   396.2830 
  161.1250    61.0780    24.0350   146.8430   171.7760   192.5110   -31.0020     2.2480   396.8250 
  161.2500    55.0870    24.0420   142.4540   179.5130   200.8050   -31.3360     2.2440   396.9910 
  161.3750    53.3040    24.0980   134.0380   182.9600   203.5310   -31.6470     2.2490   396.7250 
  161.5000    57.6910    24.2430   128.7870   185.6300   205.3480   -31.9330     2.2570   396.2250 
  161.6250    62.3780    24.4150   129.3670   190.1400   209.4730   -32.2020     2.2570   395.8780 
  161.7500    60.7270    24.4910   137.1880   197.5180   217.0670   -32.4370     2.2510   396.2430 
  161.8750    57.3080    24.5180   146.9550   205.8470   225.8900   -32.6490     2.2500   397.2460 
  162.0000    58.7470    24.5340   156.8280   212.4000   232.7410   -32.8300     2.2610   398.2060 
  162.1250    63.7440    24.5420   163.9320   214.0510   233.8330   -32.9870     2.2770   398.2120 
  162.2500    65.6170    24.5320   167.3280   207.7530   225.6380   -33.1260     2.2850   396.8200 
  162.3750    64.1090    24.5260   163.1790   196.2660   211.8490   -33.2470     2.2840   395.0320 
  162.5000    62.0930    24.5270   153.4180   183.6190   197.4280   -33.3610     2.2780   393.5250 
  162.6250    61.0490    24.5330   140.6020   174.1360   187.0530   -33.4580     2.2730   392.2330 
  162.7500    58.5130    24.5330   128.8140   172.4040   185.2090   -33.5470     2.2720   391.1570 
  162.8750    58.5220    24.4880   124.5690   178.9560   192.1500   -33.6130     2.2710   391.3500 
  163.0000    62.5740    24.4010   131.2590   193.5480   207.8920   -33.6480     2.2670   393.7650 
  163.1250    66.0040    24.3950   144.9480   214.0270   230.7680   -33.6460     2.2580   397.7410 
  163.2500    63.9920    24.5770   154.3820   235.6570   256.0860   -33.5960     2.2470   400.7400 
  163.3750    61.6810    24.8930   161.0930   252.6250   276.3400   -33.5090     2.2420   401.4780 
  163.5000    63.7440    25.1580   167.5740   261.8570   286.9280   -33.3910     2.2460   400.4390 
  163.6250    66.1300    25.3540   168.7090   263.3980   287.6560   -33.2600     2.2550   398.2260 
  163.7500    62.4090    25.4660   163.6630   258.9060   281.0830   -33.1230     2.2650   394.3650 
  163.8750    58.3890    25.5060   160.6040   251.3690   271.2460   -32.9810     2.2750   389.3260 
  164.0000    59.1550    25.5130   163.5500   241.3740   258.8830   -32.8420     2.2860   385.0260 
  164.1250    63.3670    25.5130   164.6690   229.3240   244.4670   -32.7140     2.2960   383.9150 
  164.2500    64.2330    25.5130   155.4580   216.4790   229.5990   -32.6310     2.2970   387.3490 
  164.3750    63.1830    25.5130   139.6760   204.7290   216.3120   -32.6060     2.2860   392.7840 
  164.5000    62.9570    25.5130   126.6080   194.9550   205.3980   -32.5620     2.2680   398.1000 
  164.6250    63.4310    25.5130   120.6290   187.0240   196.4770   -32.4890     2.2490   402.1100 
  164.7500    66.1530    25.5130   122.0500   180.1800   188.5960   -32.4310     2.2380   403.7820 
  164.8750    71.5650    25.5130   123.3180   173.7240   181.1570   -32.3770     2.2380   402.8900 
