~V
VERS. 2.00: Ver 2.00
~W
STRT.M 64.0000:
STOP.M 257.0000:
STEP.M 0.1250:
NULL. -999.2500:
UWI. DF3069:
~C
DEPT.M :
GR.API :
CALI.CM :
RXO.OHMM :
RI. :
RML.OHMM :
DEN.GM/CC :
SP.MV :
~A
# ...
  210.2500    58.1960    23.2810   116.3220   158.3450   189.9910     2.2680   -37.6100 
  210.3750    58.3060    23.2650   119.3920   160.6910   192.0530     2.2890   -37.2010 
  210.5000    60.1790    23.2800   121.3990   156.2180   184.9470     2.2880   -36.7650 
  210.6250    60.3070    23.5240   119.8800   145.5390   170.0340     2.2710   -36.2110 
  210.7500    60.8090    23.6140   110.6460   131.7520   152.2990     2.2550   -35.7190 
  210.8750    62.9490    23.7580   105.0220   117.6080   135.2140     2.2520   -35.3950 
  211.0000    65.9970    23.8470    93.4420   104.9120   120.6980     2.2680   -35.2340 
  211.1250    67.3530    23.9510    78.1280    95.0770   110.0260     2.2960   -35.1210 
  211.2500    67.5190    23.8900    69.5600    88.0580   102.5440     2.3260   -34.8980 
  211.3750    67.1810    23.6770    67.6260    83.1700    97.1470     2.3430   -34.5380 
  211.5000    66.9790    23.7510    66.8650    79.2670    92.6640     2.3280   -34.1720 
  211.6250    68.1850    23.9690    66.3360    75.7000    88.4970     2.2910   -33.9510 
  211.7500    68.6380    24.1230    67.9610    72.3840    84.5200     2.2530   -33.8340 
  211.8750    67.3140    24.1610    67.8780    69.3840    80.8220     2.2340   -33.6980 
  212.0000    66.2440    24.2520    64.3880    66.8520    77.8140     2.2360   -33.4590 
  212.1250    67.4410    24.2000    56.8500    65.7350    76.6270     2.2400   -33.0930 
  212.2500    68.7520    24.0180    51.0980    66.3020    77.5100     2.2390   -32.7630 
  212.3750    68.5970    23.9420    52.5300    68.7990    80.8300     2.2390   -32.5570 
  212.5000    67.4390    23.9850    62.7370    73.7300    87.0930     2.2440   -32.4580 
  212.6250    65.1100    23.9650    75.6600    81.8310    96.5070     2.2470   -32.3180 
  212.7500    62.1680    24.1510    81.6180    90.2050   105.6430     2.2480   -32.0130 
  212.8750    60.7500    24.2090    79.7330    94.1140   109.0510     2.2670   -31.5840 
  213.0000    60.8560    24.1220    75.5050    89.0300   102.1140     2.3400   -31.1770 
  213.1250    62.0530    23.9360    83.5570    73.5740    84.1390     2.4590   -30.9180 
  213.2500    63.4190    23.9740   105.8850    54.6330    62.5310     2.5880   -30.7070 
  213.3750    63.1310    23.9200   109.2830    37.3350    42.6460     2.6760   -30.4240 
  213.5000    61.5930    23.8510    73.0070    24.0930    27.2880     2.6770   -30.0000 
  213.6250    62.4770    23.5550    30.3330    15.6690    17.6470     2.6200   -29.5060 
  213.7500    64.9320    22.9050    11.2420    10.5360    11.8690     2.5490   -29.1460 
  213.8750    65.0680    22.4710     7.4580     7.8100     8.7810     2.4940   -28.9690 
  214.0000    61.8210    22.1490     7.0800     6.4820     7.3940     2.4670   -28.8840 
  214.1250    60.4470    22.2810     7.1040     6.0910     7.1970     2.4520   -28.7630 
  214.2500    63.5000    22.3290     7.1650     6.2370     7.6100     2.4420   -28.6270 
  214.3750    68.9660    22.2080     7.4160     6.7770     8.4200     2.4330   -28.5370 
  214.5000    76.0180    22.4020     7.9190     7.5440     9.3890     2.4240   -28.5660 
  214.6250    82.7350    22.6620     9.3060     8.3460    10.2750     2.4180   -28.7680 
  214.7500    86.8900    23.2630    11.1880     9.0220    10.9280     2.4190   -28.9320 
  214.8750    89.2780    23.7800    11.9630     9.4630    11.2790     2.4290   -28.9600 
  215.0000    90.9500    23.9690    11.0920     9.6010    11.2890     2.4420   -28.8710 
  215.1250    93.9990    24.0120    10.0140     9.4440    11.0210     2.4480   -28.7020 
  215.2500   100.9250    24.1740     9.4730     9.1660    10.6740     2.4440   -28.5390 
  215.3750   110.9420    24.1870     9.1010     8.8370    10.3660     2.4330   -28.4260 
  215.5000   118.9940    24.2010     8.7500     8.5270    10.1730     2.4200   -28.3470 
  215.6250   118.6210    24.2010     8.5620     8.2950    10.1480     2.4180   -28.2110 
  215.7500   115.2230    24.2070     8.6860     8.1280    10.2000     2.4310   -28.0230 
  215.8750   112.3950    24.2210     9.1190     7.9990    10.2540     2.4500   -27.8630 
  216.0000   109.3050    24.2260     9.2200     7.8950    10.2750     2.4590   -27.7730 
  216.1250   106.3600    24.2310     8.9800     7.8330    10.2770     2.4540   -27.8050 
  216.2500   104.4400    24.2240     8.5820     7.8050    10.2920     2.4390   -27.9170 
  216.3750   105.4340    24.2160     8.4790     7.8210    10.3590     2.4270   -28.0050 
  216.5000   109.6080    24.2180     8.4660     7.8980    10.5100     2.4290   -28.0050 
  216.6250   116.0220    24.2040     8.5860     8.0480    10.7650     2.4400   -27.9350 
  216.7500   120.1830    24.2060     9.0010     8.2370    11.0540     2.4520   -27.9410 
  216.8750   117.3940    24.2180     9.5340     8.4430    11.3670     2.4560   -28.0750 
  217.0000   109.2340    24.1970     9.6710     8.6390    11.6470     2.4520   -28.2670 
  217.1250   103.7170    24.2120     9.7890     8.7890    11.8140     2.4480   -28.4150 
  217.2500   103.2800    24.1920    10.2300     8.9210    11.9110     2.4450   -28.4600 
  217.3750   105.4380    24.1610    10.5120     9.0460    11.9590     2.4400   -28.4760 
  217.5000   108.0780    24.0840    10.1660     9.1590    11.9760     2.4280   -28.5660 
  217.6250   111.3100    23.9940    10.0450     9.2720    11.9820     2.4130   -28.8090 
  217.7500   113.9120    23.9570    10.4390     9.4140    12.0160     2.4000   -29.0910 
  217.8750   114.2710    23.9790    10.7030     9.5730    12.0460     2.3950   -29.3040 
  218.0000   112.5490    23.9510    10.8420     9.7400    12.0770     2.4000   -29.4200 
  218.1250   108.5580    23.9080    11.4360     9.8950    12.1430     2.4070   -29.5160 
  218.2500   104.6290    23.9200    11.0090    10.0320    12.2270     2.4090   -29.6890 
  218.3750   101.7510    23.9580    10.4660    10.1480    12.3280     2.3970   -29.9530 
  218.5000   100.5380    23.9110    11.3500    10.2570    12.4170     2.3720   -30.2800 
  218.6250   103.0240    23.9220    12.0530    10.3600    12.5250     2.3510   -30.5730 
  218.7500   106.8330    23.9580    12.3870    10.5200    12.7330     2.3450   -30.8020 
  218.8750   106.1450    23.8900    12.3070    10.8190    13.1350     2.3520   -31.0350 
  219.0000    99.6310    23.6060    12.5420    11.3500    13.8390     2.3580   -31.3970 
  219.1250    94.8850    23.3560    13.2990    12.3380    15.2070     2.3540   -31.9290 
  219.2500    95.7140    23.0850    13.7840    13.9200    17.4300     2.3500   -32.5160 
  219.3750    97.5690    22.6150    15.5040    16.3140    20.7640     2.3540   -33.0670 
  219.5000    94.5690    22.6090    19.1100    19.8760    25.5710     2.3610   -33.5190 
  219.6250    86.0980    23.0990    25.3250    25.2930    32.4970     2.3560   -33.9530 
  219.7500    78.6770    23.6690    33.1900    32.6420    41.3520     2.3390   -34.5200 
  219.8750    76.5500    23.8770    42.8400    42.0660    52.1950     2.3230   -35.1830 
  220.0000    78.1100    23.9480    52.5230    53.5260    64.9870     2.3100   -35.8190 
  220.1250    75.4120    23.9590    64.3180    66.5980    79.3620     2.2900   -36.3220 
  220.2500    68.3310    23.9190    78.0460    79.9350    94.0720     2.2650   -36.7070 
  220.3750    63.7440    23.8960    92.8850    92.7090   108.4560     2.2490   -37.0640 
  220.5000    64.6080    23.9210   102.9390   104.3270   121.6220     2.2490   -37.4910 
  220.6250    65.3470    23.9000   105.1260   113.7840   132.2890     2.2520   -37.9310 
  220.7500    61.9510    23.9030   105.1800   121.3170   140.5840     2.2500   -38.2010 
  220.8750    57.5270    23.8900   110.4110   126.8150   146.4090     2.2400   -38.2880 
  221.0000    55.8240    23.8960   116.7500   130.4640   149.8030     2.2340   -38.2900 
  221.1250    56.4750    23.8950   116.5930   132.4360   150.9370     2.2400   -38.3340 
  221.2500    58.2430    23.8480   110.2230   133.0630   150.3740     2.2540   -38.4480 
  221.3750    59.9610    23.6950   102.0280   132.3150   147.9990     2.2700   -38.5760 
