~V
VERS. 2.00: Ver 2.00
~W
STRT.M 125.0000:
STOP.M 254.0000:
STEP.M 0.1250:
NULL. -999.2500:
UWI. DF3068:
~C
DEPT.M :
SP.MV :
GR.API :
CALI.CM :
RXO.OHMM :
RI. :
RML.OHMM :
DEN.GM/CC :
~A
# ...
  136.2500   -16.9810   103.4660    24.4820     5.0640     4.7280     5.9200     2.3340 
  136.3750   -17.1180   100.5670    24.4780     5.3490     5.0410     6.4690     2.3310 
  136.5000   -17.1650    95.4870    24.4480     5.7860     5.7440     7.4920     2.3590 
  136.6250   -17.1420    92.6160    24.4080     7.2890     6.9280     8.9650     2.4230 
  136.7500   -17.1480    88.7820    24.3790    11.4410     8.3100    10.4300     2.4970 
  136.8750   -17.2280    82.4960    24.3640    19.1730     9.3970    11.2660     2.5600 
  137.0000   -17.3540    76.6880    24.3660    20.5480     9.6400    10.9860     2.5840 
  137.1250   -17.4480    76.6960    24.3850    12.7480     8.8380     9.6800     2.5440 
  137.2500   -17.4940    81.7990    24.3920     6.6020     7.6770     8.2280     2.4680 
  137.3750   -17.5240    87.9220    24.3480     5.6380     6.5980     7.0600     2.3920 
  137.5000   -17.5610    91.7070    24.2300     5.4340     5.8030     6.2990     2.3390 
  137.6250   -17.5680    94.1440    24.0770     5.3120     5.3950     5.9590     2.3200 
  137.7500   -17.4920    98.3530    24.0120     5.0700     5.2670     5.8710     2.3310 
  137.8750   -17.3190   102.8190    24.1040     4.8210     5.3330     5.9520     2.3680 
  138.0000   -17.1040   103.7490    24.2620     4.7720     5.5290     6.1850     2.4150 
  138.1250   -16.9530    97.5630    24.3050     5.5150     5.8850     6.6670     2.4440 
  138.2500   -16.9150    88.8230    24.2440     6.7770     6.4380     7.4320     2.4540 
  138.3750   -16.9770    83.2650    24.1690     7.1780     7.2170     8.4740     2.4540 
  138.5000   -17.0850    81.4310    24.1110     6.9600     8.1840     9.6720     2.4540 
  138.6250   -17.1710    78.4680    24.0460     9.3160     9.1110    10.6380     2.4650 
  138.7500   -17.1930    71.8310    24.0360    12.9300     9.5730    10.8980     2.4900 
  138.8750   -17.1530    66.9720    24.1250    13.2520     9.2720    10.2270     2.5120 
  139.0000   -17.0930    69.9990    24.2130     9.4290     8.3140     8.9120     2.5020 
  139.1250   -17.0640    80.1390    24.0150     6.9200     7.1950     7.6540     2.4500 
  139.2500   -17.0790    88.9550    23.5920     5.9770     6.4110     6.9910     2.4040 
  139.3750   -17.1010    92.2830    23.2090     5.6430     6.2000     7.1590     2.4050 
  139.5000   -17.0820    90.5330    23.0570     5.9180     6.7320     8.2850     2.4590 
  139.6250   -17.0040    83.5080    23.2520    10.1630     8.3290    10.6250     2.5310 
  139.7500   -16.9010    73.4840    23.6630    15.2320    10.8930    13.9340     2.5870 
  139.8750   -16.8040    64.1730    24.1060    18.4910    14.1290    17.7540     2.6240 
  140.0000   -16.7150    58.2190    24.3540    20.3580    17.2600    21.0800     2.6500 
  140.1250   -16.6370    57.5010    24.3610    19.6860    19.1050    22.5090     2.6610 
  140.2500   -16.5870    59.6390    24.3510    18.0830    19.6780    22.4390     2.6560 
  140.3750   -16.5670    60.1670    24.3750    16.9010    19.6070    21.9030     2.6390 
  140.5000   -16.5610    57.8400    24.4050    17.2520    19.5430    21.7370     2.6190 
  140.6250   -16.5210    56.7870    24.3710    18.4000    19.8450    22.2940     2.5990 
  140.7500   -16.4580    59.5430    24.2700    19.4300    20.4220    23.2810     2.5830 
  140.8750   -16.4180    63.0680    24.1620    19.9190    21.1150    24.3850     2.5790 
  141.0000   -16.4470    63.3050    24.1040    19.8880    21.7590    25.3050     2.5850 
  141.1250   -16.5410    60.1990    24.1000    19.4040    22.2090    25.7930     2.5860 
  141.2500   -16.6170    58.3260    24.1030    19.0380    22.4600    25.9000     2.5760 
  141.3750   -16.6380    60.5660    24.1170    18.8800    22.5160    25.6970     2.5620 
  141.5000   -16.6090    64.7760    24.1340    18.8250    22.3940    25.2870     2.5540 
  141.6250   -16.5830    66.0930    24.1360    18.6300    22.1100    24.8030     2.5550 
  141.7500   -16.6020    63.9830    24.1660    18.4380    21.7650    24.3820     2.5630 
  141.8750   -16.6650    62.0510    24.2620    17.5320    21.4240    24.0620     2.5750 
  142.0000   -16.7400    62.0530    24.4020    17.6630    21.1070    23.7810     2.5910 
  142.1250   -16.7820    63.8250    24.4720    18.7510    20.7650    23.3830     2.6110 
  142.2500   -16.8080    67.4830    24.4500    19.3360    20.3670    22.8310     2.6280 
  142.3750   -16.8510    71.0330    24.3840    18.5640    19.9600    22.2290     2.6310 
  142.5000   -16.9230    71.8090    24.3330    17.0400    19.6580    21.7700     2.6120 
  142.6250   -16.9970    69.1780    24.2450    15.2250    19.6410    21.7100     2.5780 
  142.7500   -17.0240    65.5420    24.0590    15.1960    19.9160    22.0360     2.5500 
  142.8750   -17.0100    61.8810    23.8160    16.1050    20.3800    22.5880     2.5400 
  143.0000   -17.0100    57.9680    23.6200    16.7180    20.8110    23.0760     2.5520 
  143.1250   -17.1050    57.0330    23.5390    16.9750    20.9340    23.1700     2.5780 
  143.2500   -17.2520    59.6450    23.5120    16.3230    20.7350    22.8910     2.5880 
  143.3750   -17.3690    63.3510    23.5260    15.0810    20.3190    22.4010     2.5710 
  143.5000   -17.4030    65.7640    23.5670    14.3320    19.8570    21.9220     2.5440 
  143.6250   -17.3840    66.2670    23.6050    14.9240    19.5290    21.6440     2.5370 
  143.7500   -17.4100    65.2760    23.6660    15.8590    19.3370    21.5080     2.5460 
  143.8750   -17.5320    63.9290    23.7890    15.1520    19.1610    21.3390     2.5570 
  144.0000   -17.7120    64.0070    23.9450    13.1680    18.8200    20.9130     2.5640 
  144.1250   -17.8560    64.6880    24.0760    12.8040    18.1020    20.0100     2.5760 
  144.2500   -17.9070    64.6720    24.2440    13.4000    17.0760    18.7650     2.5900 
  144.3750   -17.8610    65.2520    24.4940    12.7520    15.9160    17.4260     2.5980 
  144.5000   -17.7510    67.4390    24.7190    11.3280    14.8510    16.2780     2.5940 
  144.6250   -17.6360    69.5210    24.7980    11.2110    14.1400    15.6170     2.5860 
  144.7500   -17.5670    69.0250    24.8780    12.8410    13.8490    15.4740     2.5830 
  144.8750   -17.5460    66.7540    25.0360    13.8860    14.0090    15.8290     2.5850 
  145.0000   -17.5490    63.5140    25.1940    13.2950    14.5640    16.5540     2.5900 
  145.1250   -17.5650    61.3650    25.2450    13.9600    15.3380    17.3960     2.6030 
  145.2500   -17.5680    62.5950    25.2450    14.6030    16.0080    18.0330     2.6170 
  145.3750   -17.5490    65.5330    25.2490    15.2290    16.3640    18.2810     2.6210 
  145.5000   -17.5030    65.8390    25.2420    14.8050    16.3220    18.1010     2.6070 
  145.6250   -17.3940    62.2270    25.2130    13.3940    15.9020    17.5580     2.5840 
  145.7500   -17.2390    58.9470    25.1750    12.7600    15.3140    16.8850     2.5670 
  145.8750   -17.0780    58.2370    25.1730    13.0410    14.6730    16.1920     2.5550 
  146.0000   -16.9650    59.5410    25.2350    13.2210    14.0480    15.5310     2.5430 
  146.1250   -16.9130    61.3360    25.3220    12.8050    13.4940    14.9390     2.5280 
  146.2500   -16.8680    63.4380    25.3700    12.3510    13.0430    14.4410     2.5120 
  146.3750   -16.8200    65.3100    25.3790    11.8150    12.7270    14.0880     2.4980 
  146.5000   -16.7990    64.8860    25.3770    11.0000    12.5800    13.9390     2.4870 
  146.6250   -16.8630    61.6850    25.3770    11.1080    12.6540    14.0650     2.4830 
  146.7500   -16.9830    60.9290    25.3740    12.0460    12.8850    14.3740     2.4820 
  146.8750   -17.0820    64.1100    25.3660    12.6160    13.1980    14.7580     2.4820 
  147.0000   -17.1010    67.0250    25.3300    12.4520    13.4890    15.0790     2.4810 
  147.1250   -17.0620    66.8450    25.2560    12.1730    13.6170    15.1590     2.4730 
  147.2500   -17.0690    66.8400    25.1970    12.2890    13.5350    14.9720     2.4660 
  147.3750   -17.1530    68.1320    25.1490    12.2330    13.2750    14.5720     2.4690 
