~V
VERS. 2.00: Ver 2.00
~W
STRT.M 57.0000:
STOP.M 272.0000:
STEP.M 0.1250:
NULL. -999.2500:
UWI. DF3055:
~C
DEPT.M :
SP.MV :
GR.API :
RML.OHMM :
RI. :
RXO.OHMM :
CALI.CM :
DEN.GM/CC :
~A
# ...
  147.0000   -16.6630    89.9620     7.5400     6.5370     8.1920    24.8460     2.3450 
  147.1250   -16.6200    95.0750     7.1720     6.3030     6.8080    24.8450     2.3310 
  147.2500   -16.6070    93.5100     6.8330     6.0370     6.5230    24.8450     2.3300 
  147.3750   -16.5870    86.9560     6.6070     5.8540     6.6140    24.8450     2.3360 
  147.5000   -16.5590    81.9940     6.5370     5.8150     6.8700    24.8450     2.3450 
  147.6250   -16.5300    83.0480     6.6530     5.9530     7.2200    24.8450     2.3550 
  147.7500   -16.5270    86.5730     7.0320     6.3190     7.8720    24.8450     2.3730 
  147.8750   -16.5180    86.3290     7.6730     6.9020     8.8960    24.8450     2.4010 
  148.0000   -16.5370    82.6920     8.5900     7.7160    10.4970    24.8450     2.4390 
  148.1250   -16.5860    77.5820     9.7570     8.7540    12.5650    24.8450     2.4820 
  148.2500   -16.6500    71.8390    11.1050     9.9810    14.6550    24.8450     2.5180 
  148.3750   -16.7270    66.0410    12.4640    11.2590    15.8200    24.8450     2.5440 
  148.5000   -16.8030    62.0420    13.7100    12.4760    16.9790    24.8440     2.5550 
  148.6250   -16.8860    58.5580    14.7620    13.5530    18.4050    24.8420     2.5570 
  148.7500   -16.9490    52.4920    15.5900    14.4420    19.1030    24.8350     2.5530 
  148.8750   -17.0140    47.5650    16.3140    15.2160    19.2580    24.8220     2.5490 
  149.0000   -17.0710    46.0360    17.0130    15.9290    20.0900    24.8020     2.5490 
  149.1250   -17.1130    46.1270    17.7220    16.6070    21.6000    24.7850     2.5550 
  149.2500   -17.1400    44.5230    18.4200    17.2480    22.4900    24.7780     2.5660 
  149.3750   -17.1560    43.2700    19.0670    17.8430    22.8300    24.7740     2.5740 
  149.5000   -17.1850    43.8000    19.6140    18.3720    22.9740    24.7720     2.5760 
  149.6250   -17.1990    43.5890    20.0140    18.8020    22.8110    24.7710     2.5700 
  149.7500   -17.2210    42.0270    20.2200    19.0810    22.0560    24.7710     2.5610 
  149.8750   -17.2210    41.8420    20.2610    19.2130    21.2100    24.7710     2.5550 
  150.0000   -17.2260    42.7150    20.1600    19.2040    20.2280    24.7710     2.5530 
  150.1250   -17.2310    41.9030    19.9690    19.0850    19.4740    24.7710     2.5520 
  150.2500   -17.2370    39.4400    19.7760    18.9250    19.4470    24.7710     2.5490 
  150.3750   -17.2490    39.5090    19.6590    18.8160    19.9920    24.7710     2.5410 
  150.5000   -17.2570    42.5500    19.6650    18.8180    21.0050    24.7710     2.5320 
  150.6250   -17.2680    46.2320    19.8310    18.9680    22.1450    24.7710     2.5250 
  150.7500   -17.2700    47.5860    20.2150    19.3050    22.7300    24.7710     2.5230 
  150.8750   -17.2990    47.7930    20.7850    19.7850    22.7650    24.7710     2.5270 
  151.0000   -17.3190    49.1820    21.5110    20.3740    23.0410    24.7710     2.5330 
  151.1250   -17.3480    50.9320    22.3300    21.0280    23.9320    24.7710     2.5390 
  151.2500   -17.3720    52.1290    23.1090    21.6810    25.0280    24.7710     2.5440 
  151.3750   -17.3950    53.4970    23.7050    22.2490    25.5120    24.7710     2.5450 
  151.5000   -17.4090    55.8540    24.0160    22.6570    25.2970    24.7750     2.5390 
  151.6250   -17.4170    57.9570    24.0020    22.8540    24.8060    24.7820     2.5250 
  151.7500   -17.4290    56.9260    23.6830    22.8080    24.5570    24.8010     2.5010 
  151.8750   -17.4350    54.6070    23.2690    22.6370    24.0900    24.8340     2.4770 
  152.0000   -17.4510    52.5080    22.9370    22.4580    23.6370    24.8740     2.4580 
  152.1250   -17.4600    52.3030    22.8110    22.3710    23.5580    24.8960     2.4520 
  152.2500   -17.4730    53.7270    22.9550    22.4370    23.9140    24.9020     2.4630 
  152.3750   -17.4640    54.1940    23.2280    22.5850    24.7830    24.9040     2.4850 
  152.5000   -17.4550    52.8630    23.4540    22.7040    25.8570    24.9080     2.5090 
  152.6250   -17.4670    50.5520    23.4500    22.6590    26.2570    24.9180     2.5280 
  152.7500   -17.4750    50.9480    23.0270    22.2860    25.3730    24.9360     2.5340 
  152.8750   -17.4800    54.6510    22.2520    21.6100    24.1640    24.9540     2.5260 
  153.0000   -17.4940    58.1420    21.2330    20.7030    22.8890    24.9590     2.5070 
  153.1250   -17.4990    58.2680    20.1470    19.6930    21.5970    24.9500     2.4800 
  153.2500   -17.5220    57.0250    19.2550    18.7650    20.5100    24.9220     2.4510 
  153.3750   -17.5660    58.7440    18.7000    18.0550    20.1110    24.8710     2.4260 
  153.5000   -17.6110    62.6160    18.5040    17.6270    19.8500    24.8080     2.4050 
  153.6250   -17.6280    65.9570    18.5800    17.4740    19.3170    24.7660     2.3900 
  153.7500   -17.6590    67.5910    18.7750    17.5490    19.3590    24.7420     2.3820 
  153.8750   -17.7020    68.5020    18.9310    17.7070    19.0710    24.7140     2.3800 
  154.0000   -17.7310    67.1430    19.0150    17.8750    18.7850    24.6740     2.3880 
  154.1250   -17.7820    63.8720    19.0860    18.0230    18.3100    24.6410     2.4050 
  154.2500   -17.8170    62.8420    19.2050    18.1610    17.4790    24.6260     2.4290 
  154.3750   -17.8370    62.3000    19.3520    18.2910    17.6630    24.6190     2.4520 
  154.5000   -17.8520    60.1010    19.4050    18.3730    18.6210    24.6130     2.4680 
  154.6250   -17.8920    57.7200    19.2680    18.3310    19.5000    24.6060     2.4740 
  154.7500   -17.9400    57.8070    18.7640    18.0600    19.6550    24.5950     2.4710 
  154.8750   -17.9630    57.7570    18.0890    17.5810    18.6580    24.5870     2.4660 
  155.0000   -17.9950    56.6120    17.4690    16.9390    17.4630    24.5710     2.4620 
  155.1250   -18.0280    56.1520    16.8440    16.2000    16.7810    24.5360     2.4640 
  155.2500   -18.0690    54.0810    16.2000    15.4130    16.4500    24.4570     2.4710 
  155.3750   -18.1260    51.4450    15.4890    14.6240    16.2800    24.3530     2.4770 
  155.5000   -18.2050    54.1140    14.7540    13.8650    15.3430    24.2910     2.4780 
  155.6250   -18.2850    60.0870    14.0320    13.1840    13.6590    24.3160     2.4730 
  155.7500   -18.3660    59.8810    13.4880    12.6570    12.4620    24.4030     2.4680 
  155.8750   -18.4650    55.2850    13.1430    12.2890    12.3160    24.4570     2.4660 
  156.0000   -18.5920    52.8150    12.9700    12.0670    12.5850    24.4720     2.4690 
  156.1250   -18.7130    53.3430    12.9140    11.9500    12.8180    24.4690     2.4750 
  156.2500   -18.8260    52.2610    12.8570    11.8860    12.8440    24.4580     2.4830 
  156.3750   -18.9490    51.1880    12.7610    11.8260    12.8530    24.4390     2.4910 
  156.5000   -19.0570    50.5770    12.6740    11.7730    13.0840    24.4090     2.4990 
  156.6250   -19.1540    51.3360    12.6740    11.7710    13.2780    24.3840     2.5090 
  156.7500   -19.2580    53.9170    12.9160    11.9200    13.3180    24.3760     2.5150 
  156.8750   -19.3650    55.9050    13.3930    12.2500    13.3590    24.3720     2.5150 
  157.0000   -19.4490    57.8580    14.0550    12.7530    13.8280    24.3610     2.5080 
  157.1250   -19.5390    60.6920    14.7200    13.3390    14.6910    24.3420     2.5000 
  157.2500   -19.6490    64.3180    15.1140    13.7940    15.6950    24.3020     2.4920 
  157.3750   -19.7680    66.1140    15.0070    13.9040    15.9490    24.2480     2.4840 
  157.5000   -19.8920    68.4300    14.3100    13.5350    15.4540    24.2130     2.4730 
  157.6250   -20.0470    72.0490    13.1640    12.7040    14.4550    24.2030     2.4550 
  157.7500   -20.2130    73.7840    11.9130    11.5990    12.5480    24.2150     2.4310 
  157.8750   -20.3740    76.2240    10.8800    10.5490    10.6080    24.2440     2.4050 
  158.0000   -20.5430    81.7250    10.1470     9.7070     9.5820    24.3070     2.3790 
  158.1250   -20.7250    87.3250     9.6460     9.0860     9.2990    24.4200     2.3540 
