~V
VERS. 2.00: Ver 2.00
~W
STRT.M 125.0000:
STOP.M 276.0000:
STEP.M 0.1250:
NULL. -999.2500:
UWI. DF3039:
~C
DEPT.M :
SP.MV :
GR.API :
CALI.CM :
RXO.OHMM :
RI. :
RML.OHMM :
DEN.GM/CC :
~A
# ...
  147.5000   -20.3440    83.7650    23.7010     6.5860     6.7610     8.4680     2.3010 
  147.6250   -20.3560    87.0080    23.6220     6.5860     6.9770     8.7110     2.2960 
  147.7500   -20.4320    90.2590    23.5970     6.5990     7.0930     8.8350     2.2970 
  147.8750   -20.4900    87.6460    23.5670     6.9450     7.0640     8.7870     2.2930 
  148.0000   -20.4110    84.5440    23.5620     7.2640     6.8590     8.5370     2.2810 
  148.1250   -20.1710    92.2190    23.6520     6.7370     6.4770     8.0780     2.2780 
  148.2500   -19.9100   105.1470    23.8600     5.9610     6.0130     7.5340     2.3050 
  148.3750   -19.7500   107.7750    24.3240     5.3410     5.5580     7.0010     2.3580 
  148.5000   -19.7030    99.4300    24.5540     4.8580     5.1940     6.5810     2.4090 
  148.6250   -19.6940    95.7600    24.7410     4.5870     5.0070     6.4100     2.4210 
  148.7500   -19.6150   100.6070    24.6400     4.4950     5.0140     6.4960     2.3990 
  148.8750   -19.4760   105.2170    24.5960     4.4940     5.2130     6.8350     2.3670 
  149.0000   -19.3920   102.4710    24.5950     4.7070     5.5870     7.3670     2.3470 
  149.1250   -19.4760    95.9810    24.4340     5.6260     6.1010     8.0290     2.3420 
  149.2500   -19.6480    88.8120    24.0890     6.6090     6.6600     8.6860     2.3320 
  149.3750   -19.7520    80.1920    23.7110     7.2660     7.1870     9.2310     2.3050 
  149.5000   -19.7210    72.8710    23.3750     7.6630     7.6250     9.6210     2.2740 
  149.6250   -19.5730    70.6460    23.2500     7.9080     7.9410     9.8570     2.2590 
  149.7500   -19.4380    71.3990    23.3010     8.3430     8.1990    10.0480     2.2670 
  149.8750   -19.3750    72.6180    23.5230     9.0940     8.4680    10.3120     2.2950 
  150.0000   -19.3490    74.6970    23.8650    10.0230     8.8620    10.8170     2.3380 
  150.1250   -19.2260    75.8290    24.0820    11.1020     9.5210    11.7770     2.3910 
  150.2500   -18.9830    74.6750    24.0310    12.8800    10.4900    13.1980     2.4480 
  150.3750   -18.7270    72.0060    24.0780    13.5960    11.7840    15.0220     2.5010 
  150.5000   -18.5440    69.0290    24.0870    15.1250    13.3800    17.1180     2.5480 
  150.6250   -18.4800    65.4070    24.0970    18.1020    15.1590    19.2180     2.5870 
  150.7500   -18.4710    60.6960    24.1550    21.7010    16.8760    21.0600     2.6210 
  150.8750   -18.4480    55.8880    24.2050    22.8420    18.3040    22.4350     2.6490 
  151.0000   -18.3430    52.0690    24.2010    22.9370    19.3020    23.2440     2.6630 
  151.1250   -18.1990    51.7460    24.0450    22.9380    19.8040    23.5100     2.6650 
  151.2500   -18.1170    53.0160    24.0580    22.6310    20.0740    23.5730     2.6580 
  151.3750   -18.1170    52.3240    24.1010    21.8490    20.3000    23.6980     2.6490 
  151.5000   -18.1780    49.4260    24.2170    21.0450    20.6560    24.0880     2.6440 
  151.6250   -18.2010    46.6880    24.2180    20.4130    21.2610    24.7910     2.6550 
  151.7500   -18.1260    44.7530    24.1230    20.7040    22.0720    25.6720     2.6800 
  151.8750   -17.9830    44.3110    24.0120    22.3500    23.0180    26.6080     2.7060 
  152.0000   -17.8910    45.4370    23.9170    22.8230    23.9870    27.4540     2.7200 
  152.1250   -17.9260    46.5730    23.7730    22.6330    24.7940    28.0370     2.7160 
  152.2500   -18.0160    47.2250    23.6540    22.4760    25.3800    28.3190     2.7040 
  152.3750   -18.0790    48.8030    23.5870    22.9450    25.7240    28.3270     2.6920 
  152.5000   -18.0320    51.3750    23.5840    23.2800    25.8390    28.1150     2.6800 
  152.6250   -17.9190    51.9310    23.5930    24.0460    25.8160    27.8290     2.6640 
  152.7500   -17.8850    51.9310    23.6320    24.6400    25.7910    27.6220     2.6510 
  152.8750   -17.9660    52.7120    23.7570    25.2270    25.8200    27.5180     2.6520 
  153.0000   -18.0800    52.2240    23.9710    25.9630    25.9230    27.5290     2.6680 
  153.1250   -18.1060    49.0610    24.2410    25.7740    26.1430    27.7010     2.6790 
  153.2500   -18.0260    46.1560    24.3210    24.5500    26.4650    28.0070     2.6700 
  153.3750   -17.9130    45.2370    24.2400    24.3070    26.8540    28.3630     2.6480 
  153.5000   -17.8790    45.4220    24.3090    26.2710    27.2130    28.6370     2.6350 
  153.6250   -17.9710    44.5030    24.4380    28.3280    27.3140    28.6190     2.6430 
  153.7500   -18.0710    43.4010    24.4990    28.1240    27.0530    28.2120     2.6540 
  153.8750   -18.0760    44.1550    24.5000    26.6370    26.4010    27.3810     2.6490 
  154.0000   -17.9890    46.7680    24.5100    26.4950    25.3930    26.1770     2.6320 
  154.1250   -17.9100    49.0130    24.5110    26.7300    24.1320    24.7600     2.6250 
  154.2500   -17.9130    50.6510    24.5100    24.2220    22.9250    23.5080     2.6310 
  154.3750   -17.9930    54.0810    24.4950    20.7140    22.0110    22.6710     2.6300 
  154.5000   -18.0860    59.0930    24.5350    18.6010    21.5360    22.3860     2.6130 
  154.6250   -18.0880    60.6960    24.5160    19.2640    21.6160    22.7200     2.5890 
  154.7500   -17.9920    59.4220    24.5060    20.4760    22.1290    23.5050     2.5750 
  154.8750   -17.9190    57.4080    24.3640    22.9730    22.9930    24.6090     2.5700 
  155.0000   -17.9520    55.6740    24.4930    25.4560    24.0480    25.8450     2.5760 
  155.1250   -18.0930    55.5760    24.4830    28.2100    25.0520    26.9000     2.5950 
  155.2500   -18.2180    57.7980    24.4110    28.3160    25.7910    27.6140     2.6180 
  155.3750   -18.2420    60.0050    24.2770    26.5420    26.1550    27.9310     2.6270 
  155.5000   -18.1780    59.8460    24.2480    25.3830    26.0880    27.8350     2.6130 
  155.6250   -18.1280    57.7690    24.4080    27.6470    25.5910    27.3320     2.5820 
  155.7500   -18.1810    57.3030    24.3890    28.6240    24.8110    26.5560     2.5590 
  155.8750   -18.2890    58.0280    24.4880    25.9780    23.8280    25.5760     2.5620 
  156.0000   -18.3790    58.1920    24.4720    21.9500    22.7580    24.5070     2.5850 
  156.1250   -18.3310    57.6690    24.5020    20.3450    21.7540    23.4800     2.6020 
  156.2500   -18.2120    55.9170    24.4780    19.3240    20.8140    22.5230     2.5990 
  156.3750   -18.1380    53.3610    24.3040    19.0850    19.9240    21.6230     2.5880 
  156.5000   -18.1720    51.8590    24.2120    19.2740    19.1200    20.8180     2.5790 
  156.6250   -18.2800    55.0870    24.1640    19.1650    18.4190    20.1270     2.5750 
  156.7500   -18.3370    61.0970    24.1010    18.2170    17.7630    19.4610     2.5660 
  156.8750   -18.3020    63.1950    24.1030    17.3740    17.1560    18.8470     2.5550 
  157.0000   -18.1840    60.0760    24.1680    16.5280    16.6290    18.3180     2.5500 
  157.1250   -18.1370    58.3550    24.2420    15.5230    16.2080    17.9180     2.5560 
  157.2500   -18.2020    59.1990    24.1690    15.2370    15.8910    17.6580     2.5590 
  157.3750   -18.3180    58.7390    23.9920    15.6320    15.7190    17.5550     2.5450 
  157.5000   -18.3910    56.2260    23.9120    15.3310    15.6850    17.6050     2.5160 
  157.6250   -18.3560    56.9040    23.9230    14.8430    15.7960    17.8220     2.4920 
  157.7500   -18.2700    60.3500    23.9800    14.9250    16.0170    18.1660     2.4780 
  157.8750   -18.2150    62.9400    24.0730    15.3710    16.2990    18.5650     2.4740 
  158.0000   -18.2510    63.5800    24.2050    15.6190    16.5900    18.9500     2.4830 
  158.1250   -18.3370    61.0080    24.1950    16.7920    16.8410    19.2670     2.5130 
  158.2500   -18.3550    57.8040    24.2300    17.3360    17.0050    19.4730     2.5500 
  158.3750   -18.2450    55.8830    24.3340    17.0400    17.0600    19.5670     2.5800 
  158.5000   -18.0740    56.2060    24.4370    16.5420    17.0240    19.5670     2.5930 
  158.6250   -17.9720    60.1420    24.4710    16.0590    16.9060    19.4860     2.5910 
