~V
VERS. 2.00: Ver 2.00
~W
STRT.M 130.0000:
STOP.M 268.0000:
STEP.M 0.1250:
NULL. -999.2500:
UWI. DF3061:
~C
DEPT.M :
GR.API :
CALI.CM :
RXO.OHMM :
RI. :
RML.OHMM :
DEN.GM/CC :
SP.MV :
~A
# ...
  242.5000    61.9640    23.9600    72.2550    85.3530    92.9460     2.1950   -20.8070 
  242.6250    60.1380    23.6160    74.4160    82.3610    91.3600     2.1780   -20.7510 
  242.7500    61.0610    23.2320    72.3620    77.9700    87.9880     2.1660   -20.6730 
  242.8750    65.3840    22.9500    68.8950    71.3620    81.6230     2.1780   -20.5630 
  243.0000    70.4160    23.2170    73.5740    62.5980    72.1910     2.2030   -20.4050 
  243.1250    71.8560    23.8630    81.5560    52.3470    60.7710     2.2240   -20.1880 
  243.2500    70.0220    24.3650    74.2450    42.4860    49.8400     2.2350   -19.9560 
  243.3750    67.4090    24.4350    50.6600    34.2500    40.7060     2.2430   -19.7240 
  243.5000    65.9790    24.5130    29.1060    28.0500    33.5550     2.2540   -19.5080 
  243.6250    67.0510    24.4110    20.7830    24.0060    28.5380     2.2690   -19.3230 
  243.7500    71.1480    24.4900    19.4810    21.3160    25.3850     2.2860   -19.1690 
  243.8750    75.6090    24.7450    18.9710    19.6550    23.4570     2.2970   -19.0430 
  244.0000    76.2090    24.8000    17.9760    18.7150    22.2990     2.2970   -18.9650 
  244.1250    74.6020    24.7600    16.2370    18.3820    21.8850     2.2890   -18.9660 
  244.2500    76.4210    24.7290    14.7840    18.3800    21.7250     2.2780   -19.0170 
  244.3750    80.7380    24.7450    14.1010    18.4790    21.5870     2.2690   -19.1040 
  244.5000    82.5330    24.6040    13.8560    18.6080    21.4320     2.2660   -19.2270 
  244.6250    81.9670    24.5390    13.7440    18.7700    21.2870     2.2690   -19.3870 
  244.7500    82.2420    24.6020    13.6370    18.8540    21.0440     2.2730   -19.6020 
  244.8750    81.2540    24.3500    13.9110    18.7290    20.5770     2.2740   -19.8770 
  245.0000    77.5640    23.7910    14.0140    18.3580    19.8820     2.2740   -20.1910 
  245.1250    75.9980    23.3260    13.1140    17.7630    20.5170     2.2820   -20.5260 
  245.2500    79.0860    23.3400    11.9370    17.1200    19.7740     2.2960   -20.8650 
  245.3750    80.1530    23.4110    10.9480    16.5590    19.1260     2.3080   -21.2080 
  245.5000    75.9590    23.4390    10.5110    16.1280    18.6280     2.3080   -21.5450 
  245.6250    72.0630    23.5440    10.5540    15.8390    18.2950     2.2970   -21.8680 
  245.7500    71.9190    23.8100    11.7670    15.6630    18.0910     2.2870   -22.1580 
  245.8750    74.7770    23.8870    13.9130    15.6430    18.0670     2.2960   -22.4110 
  246.0000    78.6480    23.9420    15.2070    15.8700    18.3290     2.3220   -22.6490 
  246.1250    83.7870    23.7920    13.8730    16.6530    19.2340     2.3480   -22.8780 
  246.2500    87.0110    23.6380    11.7420    18.1710    20.9870     2.3550   -23.1100 
  246.3750    85.0980    23.4570    12.4280    20.5380    23.7210     2.3350   -23.3510 
  246.5000    80.2890    23.4640    20.6240    23.7820    27.4690     2.3040   -23.5890 
  246.6250    77.5270    23.9930    35.5240    28.0530    32.4020     2.2830   -23.8050 
  246.7500    77.8740    24.5190    40.8060    33.1500    38.2880     2.2910   -24.0000 
  246.8750    77.7880    24.6760    36.5280    38.6210    44.6070     2.3320   -24.1820 
  247.0000    74.8680    24.7100    34.0370    43.6200    50.3820     2.3760   -24.3330 
  247.1250    71.3990    24.5240    39.6240    46.9880    54.2710     2.4020   -24.4460 
  247.2500    70.4190    24.2280    51.3960    49.0070    56.6030     2.4010   -24.5460 
  247.3750    72.7370    24.4320    60.8510    50.5610    58.3980     2.3820   -24.6240 
  247.5000    76.4660    24.2230    64.1870    52.2440    60.3410     2.3750   -24.6870 
  247.6250    77.2810    24.1470    56.7970    54.1700    62.5660     2.4070   -24.7340 
  247.7500    74.9610    24.0280    52.8520    56.0880    64.7810     2.4850   -24.7870 
  247.8750    72.6400    23.9180    59.0830    58.0180    67.0110     2.5660   -24.8360 
  248.0000    74.1180    23.8580    63.3290    60.2550    69.5940     2.6070   -24.8880 
  248.1250    76.9390    23.9880    65.5530    62.9820    72.7440     2.6070   -24.9550 
  248.2500    75.8740    23.5490    60.1950    65.6720    75.8510     2.5960   -25.0160 
  248.3750    72.0170    23.2350    62.0040    67.9910    78.5300     2.5920   -25.0770 
  248.5000    70.9070    23.3150    63.9310    70.0450    80.9020     2.5840   -25.1380 
  248.6250    74.5940    23.1390    64.0330    71.4140    82.4840     2.5640   -25.2130 
  248.7500    77.4020    23.2340    70.0520    72.1090    83.2860     2.5390   -25.2810 
  248.8750    78.4710    23.3870    79.1860    72.1550    83.3390     2.5170   -25.3640 
  249.0000    80.1460    23.6150    86.6560    71.2100    82.2480     2.4990   -25.4550 
  249.1250    83.8040    23.4920    81.2710    68.7020    79.3510     2.4830   -25.5500 
  249.2500    85.1740    23.6820    75.3160    65.1340    75.2300     2.4620   -25.6540 
  249.3750    81.3830    23.7250    63.0740    61.1490    70.6270     2.4350   -25.7440 
  249.5000    76.9120    23.5150    48.8950    57.4250    66.3260     2.4160   -25.8030 
  249.6250    78.7010    23.7080    40.9850    55.2590    63.8240     2.4160   -25.8320 
  249.7500    84.3340    23.8610    40.8870    54.9730    63.4940     2.4340   -25.8520 
  249.8750    87.6400    24.1570    45.2490    56.8940    65.7120     2.4500   -25.8530 
  250.0000    88.4330    24.1470    48.3240    61.4580    70.9840     2.4430   -25.8330 
  250.1250    89.4960    23.7290    55.7220    68.8310    79.5000     2.4190   -25.7890 
  250.2500    88.7150    23.7230    75.6750    77.6700    89.7090     2.4020   -25.7210 
  250.3750    84.4870    23.8210    95.3620    86.7750   100.2250     2.4120   -25.6610 
  250.5000    80.2600    23.8550    92.9660    94.7480   109.4340     2.4380   -25.6440 
  250.6250    79.2560    23.7350    92.1380    99.6390   115.0830     2.4590   -25.6950 
  250.7500    78.7940    23.7290    99.2320   100.9320   116.5760     2.4570   -25.7570 
  250.8750    76.3500    23.7820    99.6870    98.3160   113.5550     2.4330   -25.8060 
  251.0000    73.2300    23.7050    83.6660    92.2240   106.5180     2.4130   -25.8520 
  251.1250    72.2040    23.6620    77.4610    83.7900    96.7780     2.4190   -25.8910 
  251.2500    71.8250    23.6740    82.7060    74.5490    86.1040     2.4480   -25.9340 
  251.3750    71.2280    23.5270    90.1310    64.9310    74.9950     2.4850   -25.9720 
  251.5000    73.1310    23.4630   117.6890    55.6200    64.2420     2.5190   -25.9860 
  251.6250    77.9280    23.9200   143.6950    47.5420    54.9110     2.5470   -25.9490 
  251.7500    77.9510    24.1320   118.7420    40.6000    46.8930     2.5650   -25.8950 
  251.8750    72.7060    23.9570    66.4040    34.5210    39.8710     2.5650   -25.8720 
  252.0000    70.2340    24.2610    41.4070    29.1550    33.6740     2.5510   -25.8820 
  252.1250    72.9440    24.2800    38.3080    24.4960    28.2930     2.5260   -25.9100 
  252.2500    74.9210    24.1030    30.7050    20.5030    23.6800     2.4870   -25.9250 
  252.3750    76.8400    23.6570    19.8900    17.2360    19.9080     2.4380   -25.9450 
  252.5000    82.5590    23.4640    11.9340    14.6880    16.9650     2.3910   -25.9920 
  252.6250    89.7840    23.5970    10.2090    12.9300    14.9340     2.3530   -26.1000 
  252.7500    92.4120    23.5590     9.7920    11.8000    13.6280     2.3200   -26.2540 
  252.8750    90.8710    23.3560     9.7260    11.2120    12.9490     2.2960   -26.4360 
  253.0000    88.1760    23.5590     9.8810    11.0700    12.7850     2.2860   -26.6510 
  253.1250    86.4910    23.8400    10.3140    11.3110    13.0640     2.2900   -26.9090 
  253.2500    85.1750    23.8310    10.9460    11.7450    13.5660     2.3050   -27.1850 
  253.3750    83.5280    23.5150    11.5850    12.2270    14.1230     2.3250   -27.4330 
  253.5000    82.0440    23.6930    11.7890    12.6640    14.6270     2.3400   -27.6330 
  253.6250    82.3880    23.9800    11.6860    12.9810    14.9940     2.3450   -27.7490 
