~V
VERS. 2.00: Ver 2.00
~W
STRT.M 65.0000:
STOP.M 267.0000:
STEP.M 0.1250:
NULL. -999.2500:
UWI. DF3007:
~C
DEPT.M :
GR.API :
RML.OHMM :
RI. :
RXO.OHMM :
CALI.CM :
DEN.GM/CC :
SP.MV :
~A
# ...
  233.7500    71.1520    27.8300    26.6510    28.0550    24.2730     2.3100   -14.7610 
  233.8750    70.5410    25.3940    24.3650    25.5550    24.2580     2.2970   -14.7580 
  234.0000    71.7130    22.7440    21.8080    22.0080    24.2910     2.2830   -14.6610 
  234.1250    75.7640    20.4080    19.4740    18.9220    24.3310     2.2780   -14.5080 
  234.2500    79.2080    18.6490    17.6300    17.3640    24.3790     2.2890   -14.4960 
  234.3750    80.5470    17.5320    16.3500    16.4240    24.4090     2.3200   -14.4100 
  234.5000    82.0930    16.9740    15.5870    15.7400    24.4090     2.3580   -14.1850 
  234.6250    84.0210    16.8420    15.2580    15.8740    24.3860     2.3880   -14.0910 
  234.7500    83.2270    16.8610    15.1300    16.7770    24.3460     2.3950   -13.9650 
  234.8750    80.3340    16.8920    15.0820    17.5250    24.3330     2.3750   -13.7880 
  235.0000    78.6040    16.8920    15.0520    15.7830    24.3610     2.3450   -13.7570 
  235.1250    80.4020    16.9800    15.0610    15.2440    24.3960     2.3160   -13.6540 
  235.2500    82.3650    17.1860    15.1710    15.0500    24.3790     2.2970   -13.4520 
  235.3750    82.1550    17.5850    15.4430    15.0990    24.3060     2.2870   -13.3190 
  235.5000    80.7950    17.9660    15.9020    15.1490    24.2090     2.2800   -13.2380 
  235.6250    80.9130    18.4090    16.5490    15.8520    24.1440     2.2730   -13.1770 
  235.7500    81.4140    18.5910    17.2850    16.9920    24.1270     2.2660   -13.1230 
  235.8750    79.9450    18.6410    18.0430    18.3720    24.1560     2.2590   -13.1090 
  236.0000    77.6760    19.2760    18.7510    19.3740    24.2080     2.2580   -13.0860 
  236.1250    76.0400    19.9220    19.3000    19.8250    24.2320     2.2660   -13.1270 
  236.2500    74.2550    20.3270    19.6300    19.9350    24.2330     2.2850   -13.3060 
  236.3750    72.1270    20.4470    19.7020    20.1870    24.2280     2.3070   -13.4570 
  236.5000    70.4670    20.3050    19.5350    20.7760    24.2540     2.3210   -13.5920 
  236.6250    71.5570    19.9940    19.1980    21.0620    24.4010     2.3200   -13.7220 
  236.7500    74.0560    19.6980    18.8530    20.9190    24.5310     2.3050   -13.8340 
  236.8750    75.8460    19.5200    18.5970    20.6900    24.5810     2.2830   -13.8990 
  237.0000    74.7930    19.4810    18.4580    20.6840    24.5820     2.2650   -14.0010 
  237.1250    71.0640    19.5060    18.3910    20.9190    24.5670     2.2540   -14.0500 
  237.2500    69.1700    19.4730    18.2870    20.8040    24.5370     2.2510   -13.9830 
  237.3750    69.8910    19.3360    18.0890    20.1860    24.5090     2.2540   -13.9710 
  237.5000    72.1440    19.1170    17.7980    19.6070    24.4830     2.2600   -13.9770 
  237.6250    74.0560    18.8960    17.4670    18.8060    24.4420     2.2660   -13.8750 
  237.7500    75.0200    18.7220    17.1630    17.8010    24.3710     2.2710   -13.9010 
  237.8750    75.1620    18.5610    16.8960    17.0000    24.3220     2.2750   -13.8990 
  238.0000    76.2410    18.3330    16.6350    17.2080    24.3050     2.2790   -13.7390 
  238.1250    80.1570    18.0190    16.3690    17.6940    24.3030     2.2790   -13.7280 
  238.2500    82.8190    17.8640    16.2390    17.8820    24.3020     2.2720   -13.7020 
  238.3750    82.4190    18.3700    16.5910    18.3690    24.2860     2.2480   -13.5710 
  238.5000    79.1430    20.1950    17.9380    18.8970    24.2370     2.2160   -13.5440 
  238.6250    72.9420    24.0860    20.9540    19.5740    24.1920     2.1930   -13.4840 
  238.7500    67.9220    29.2770    25.1580    22.1970    24.1900     2.2050   -13.3640 
  238.8750    66.3970    34.3130    29.4470    28.9770    24.2410     2.2730   -13.2380 
  239.0000    66.3000    37.1600    32.1090    37.7900    24.2890     2.3770   -13.1900 
  239.1250    62.1880    35.3310    30.8750    47.7300    24.3040     2.4810   -13.0550 
  239.2500    56.1820    29.6740    26.2380    58.2010    24.3040     2.5420   -12.9000 
  239.3750    53.1680    22.3840    20.0110    47.6930    24.3030     2.5330   -12.8360 
  239.5000    53.3470    15.9730    14.3820    22.2100    24.3290     2.4920   -12.6650 
  239.6250    55.9630    12.0770    10.7660     9.7020    24.3920     2.4470   -12.5320 
  239.7500    59.1900    10.1500     8.7550     6.9740    24.4580     2.4150   -12.4690 
  239.8750    61.6270     9.6020     7.9220     6.5820    24.4920     2.3910   -12.4480 
  240.0000    63.2120     9.8790     7.8850     6.7670    24.5000     2.3640   -12.3600 
  240.1250    64.2510    10.5400     8.3720     7.0370    24.4940     2.3300   -12.3760 
  240.2500    65.4590    11.1920     9.0150     7.5230    24.4850     2.2950   -12.4450 
  240.3750    67.2170    11.6860     9.6220     8.0600    24.4830     2.2730   -12.4080 
  240.5000    67.8430    11.9870    10.0840     8.3940    24.4770     2.2720   -12.4820 
  240.6250    65.8620    12.0990    10.3310     8.5680    24.4430     2.2930   -12.5980 
  240.7500    63.9760    12.0960    10.4030     8.8210    24.3950     2.3280   -12.5520 
  240.8750    64.8620    12.0130    10.3280     9.0460    24.3570     2.3620   -12.5700 
  241.0000    68.4440    11.8880    10.1430     9.1030    24.3320     2.3830   -12.6220 
  241.1250    72.0720    11.7640     9.8930     8.8690    24.3160     2.3870   -12.5230 
  241.2500    73.7050    11.6820     9.6460     8.4960    24.3140     2.3760   -12.5000 
  241.3750    73.0060    11.6730     9.4470     8.0210    24.3270     2.3530   -12.5090 
  241.5000    69.7300    11.7490     9.3280     7.6290    24.3490     2.3290   -12.4150 
  241.6250    65.0700    11.9130     9.3120     7.5770    24.3760     2.3140   -12.4110 
  241.7500    61.4340    12.1190     9.3670     7.7190    24.4020     2.3130   -12.4300 
  241.8750    60.5990    12.3250     9.4590     7.8640    24.4130     2.3280   -12.4210 
  242.0000    63.3960    12.4880     9.5490     7.8540    24.4080     2.3460   -12.4570 
  242.1250    66.9730    12.5660     9.5970     7.7500    24.3610     2.3600   -12.5260 
  242.2500    68.0470    12.5730     9.5980     7.5870    24.2810     2.3600   -12.5670 
  242.3750    66.6570    12.5360     9.5630     7.4020    24.2580     2.3460   -12.5850 
  242.5000    65.5010    12.4900     9.5110     7.3120    24.3100     2.3260   -12.6770 
  242.6250    66.7220    12.4750     9.4670     7.3240    24.3860     2.3070   -12.6740 
  242.7500    67.1260    12.5000     9.4480     7.3370    24.4160     2.2950   -12.7010 
  242.8750    64.8200    12.5640     9.4570     7.3420    24.4240     2.2910   -12.7610 
  243.0000    60.5630    12.6550     9.4970     7.3200    24.4230     2.2920   -12.7560 
  243.1250    58.2240    12.7680     9.5720     7.2710    24.4170     2.2930   -12.7910 
  243.2500    59.5840    12.8900     9.6730     7.2440    24.4040     2.2940   -12.8360 
  243.3750    62.0690    13.0160     9.7950     7.2490    24.3850     2.2980   -12.8480 
  243.5000    63.1870    13.1420     9.9290     7.2360    24.3540     2.3040   -12.8540 
  243.6250    62.2630    13.2750    10.0690     7.2240    24.3350     2.3150   -12.9260 
  243.7500    61.0010    13.4170    10.2100     7.3030    24.3350     2.3310   -12.9300 
  243.8750    60.2530    13.5640    10.3470     7.6030    24.3610     2.3530   -12.8840 
  244.0000    58.8930    13.6970    10.4690     8.2030    24.4050     2.3780   -12.9330 
  244.1250    58.8470    13.7810    10.5520     9.4200    24.4330     2.4030   -12.8570 
  244.2500    61.6000    13.8030    10.5900    11.1830    24.4400     2.4220   -12.7410 
  244.3750    66.0860    13.7720    10.5860    12.5610    24.4040     2.4290   -12.7260 
  244.5000    67.9900    13.7200    10.5590    11.9430    24.3400     2.4280   -12.6040 
  244.6250    64.5870    13.7000    10.5470     9.8550    24.3080     2.4220   -12.4680 
  244.7500    60.7180    13.7320    10.5740     8.5610    24.3040     2.4160   -12.3930 
  244.8750    59.0650    13.8080    10.6430     8.1640    24.3060     2.4160   -12.2910 
