~V
VERS. 2.00: Ver 2.00
~W
STRT.M 125.0000:
STOP.M 256.0000:
STEP.M 0.1250:
NULL. -999.2500:
UWI. DF3030:
~C
DEPT.M :
GR.API :
RML.OHMM :
RI. :
RXO.OHMM :
CALI.CM :
DEN.GM/CC :
SP.MV :
~A
# ...
  170.0000    68.9740    41.5800    39.1000    26.9790    23.9170     2.3240   -31.2620 
  170.1250    66.1860    41.1610    38.5320    19.9090    23.9240     2.3470   -31.0300 
  170.2500    62.6290    46.0150    42.2380    18.6420    23.9830     2.3490   -30.9080 
  170.3750    61.0680    55.9560    50.1610    21.1500    24.0400     2.3280   -30.8550 
  170.5000    62.4220    68.6010    60.5980    26.8960    24.0630     2.2930   -30.8530 
  170.6250    64.1370    76.5870    69.2640    33.3910    24.0630     2.2610   -30.9390 
  170.7500    66.0010    77.4700    71.8040    39.8920    24.0510     2.2480   -31.0610 
  170.8750    68.6170    69.7390    66.1720    44.6120    24.0030     2.2570   -31.1920 
  171.0000    72.2450    55.8160    53.9970    45.1230    23.8920     2.2810   -31.2800 
  171.1250    78.1060    41.1540    40.1750    33.4710    23.8200     2.3070   -31.3660 
  171.2500    85.3430    29.7220    29.0670    22.2520    23.8010     2.3220   -31.4880 
  171.3750    92.1740    22.1310    21.5600    16.7110    23.8270     2.3230   -31.5230 
  171.5000    97.0090    17.8340    17.1320    14.5410    23.8840     2.3160   -31.5550 
  171.6250    98.8170    16.6460    15.4300    13.8850    23.9080     2.3060   -31.5020 
  171.7500    99.2250    17.8710    15.7650    13.4140    23.9360     2.2990   -31.4760 
  171.8750    96.3850    21.4270    18.1730    14.2480    23.9920     2.2920   -31.3350 
  172.0000    90.6530    27.0840    22.6840    16.9730    24.0390     2.2850   -31.2130 
  172.1250    85.6790    34.3910    29.2510    22.0930    24.0590     2.2790   -31.2350 
  172.2500    82.2880    42.1020    36.7340    30.5060    24.0620     2.2750   -31.0940 
  172.3750    79.2350    49.5200    44.2360    40.5370    24.0630     2.2760   -30.9860 
  172.5000    76.2040    56.7880    51.4060    44.2020    24.0630     2.2820   -30.8960 
  172.6250    76.6130    65.8410    59.4020    38.0820    24.0460     2.2870   -30.8530 
  172.7500    76.5110    78.7190    70.0310    37.8540    24.0090     2.2850   -30.8010 
  172.8750    72.8200    96.2670    84.1690    44.9180    23.9710     2.2740   -30.8270 
  173.0000    70.0400   117.1830   100.6580    59.5910    23.9550     2.2580   -30.9330 
  173.1250    70.8320   135.9070   115.1300    74.5430    23.9550     2.2460   -30.8930 
  173.2500    70.0810   146.2870   122.7370    78.3580    23.9550     2.2400   -30.9390 
  173.3750    68.4670   144.1570   120.8490    73.6130    23.9550     2.2400   -31.0440 
  173.5000    70.5520   131.3670   110.7050    69.8720    23.9660     2.2440   -31.0910 
  173.6250    74.6960   112.8860    97.3030    65.6040    23.9980     2.2510   -31.1430 
  173.7500    75.4910    98.0180    86.7640    58.3270    24.0410     2.2580   -31.1980 
  173.8750    74.7430    92.3960    81.9390    49.3520    24.0640     2.2650   -31.2210 
  174.0000    74.9510    96.3310    83.9050    43.4750    24.0810     2.2670   -31.2130 
  174.1250    73.1470   108.4600    93.4250    50.1290    24.1150     2.2630   -31.3320 
  174.2500    69.9210   125.6160   107.7370    62.5100    24.1400     2.2570   -31.4090 
  174.3750    67.9020   144.7720   124.2070    77.1160    24.1560     2.2510   -31.4350 
  174.5000    67.5780   162.2150   139.5820    86.7520    24.1770     2.2480   -31.4940 
  174.6250    68.7120   173.4420   149.9450    86.7650    24.2380     2.2490   -31.5510 
  174.7500    69.4570   178.0550   154.7390    83.4080    24.3240     2.2480   -31.6620 
  174.8750    69.4260   177.3350   154.8410    79.9610    24.4370     2.2430   -31.8280 
  175.0000    71.8150   173.5740   152.0550    80.6910    24.5100     2.2360   -31.8600 
  175.1250    77.0370   168.8550   148.1210    83.4100    24.5200     2.2300   -31.8650 
  175.2500    78.5740   164.6340   144.4400    83.3880    24.4680     2.2310   -31.9730 
  175.3750    75.6110   161.4210   141.5520    81.6770    24.4220     2.2370   -31.9720 
  175.5000    73.9910   159.2430   139.5770    81.8610    24.4040     2.2460   -31.9820 
  175.6250    74.3690   157.6670   138.2610    81.2370    24.4040     2.2530   -31.9930 
  175.7500    71.3560   155.7710   136.8500    80.5190    24.3970     2.2580   -31.9730 
  175.8750    67.2450   152.9270   134.7980    80.7150    24.3760     2.2610   -31.8890 
  176.0000    67.5310   148.9910   131.9060    80.1920    24.3470     2.2650   -31.9700 
  176.1250    71.2890   144.6140   128.5870    78.6620    24.3710     2.2680   -32.0510 
  176.2500    73.7130   141.1540   125.9070    77.0960    24.4380     2.2680   -31.9820 
  176.3750    73.5520   139.6530   124.7680    75.9190    24.4920     2.2610   -32.0560 
  176.5000    72.2440   140.5900   125.6700    75.5930    24.5120     2.2470   -32.1720 
  176.6250    71.9920   143.8860   128.6970    77.8270    24.5120     2.2320   -32.3000 
  176.7500    72.8130   147.9980   132.5900    83.5230    24.5070     2.2200   -32.4430 
  176.8750    72.8610   151.6120   136.2020    88.2800    24.4850     2.2150   -32.5730 
  177.0000    71.7930   153.6680   138.5320    90.0300    24.4370     2.2200   -32.6780 
  177.1250    70.8910   153.3530   138.7350    88.1330    24.4130     2.2300   -32.8050 
  177.2500    72.2890   151.2880   137.2630    86.4740    24.4040     2.2400   -32.9040 
  177.3750    74.9510   148.1460   134.6740    84.1410    24.3960     2.2480   -32.9760 
  177.5000    76.0140   144.7150   131.6840    82.7000    24.3740     2.2500   -33.0260 
  177.6250    73.8740   141.9340   129.1570    82.2020    24.3370     2.2500   -33.0470 
  177.7500    71.9050   140.4210   127.7080    82.1730    24.3200     2.2490   -33.0630 
  177.8750    72.5520   140.6410   127.7960    81.6540    24.3170     2.2490   -33.1830 
  178.0000    74.2510   142.8250   129.6780    82.5750    24.3070     2.2490   -33.2400 
  178.1250    75.5360   147.0660   133.5300    83.4780    24.2690     2.2470   -33.2320 
  178.2500    77.2640   152.3740   138.5080    86.6230    24.2160     2.2420   -33.4410 
  178.3750    78.5810   157.8990   143.8570    86.1560    24.1910     2.2370   -33.6590 
  178.5000    77.4310   162.8850   148.8460    86.9250    24.1660     2.2320   -33.8500 
  178.6250    73.7570   166.7970   152.8740    92.7870    24.1430     2.2320   -34.1260 
  178.7500    70.9280   169.9520   156.1040    96.6280    24.1060     2.2330   -34.4570 
  178.8750    70.2020   172.6950   158.8240    95.6890    24.0760     2.2330   -34.6650 
  179.0000    69.8040   175.1880   161.2650    93.0490    24.0730     2.2300   -34.9120 
  179.1250    68.3420   177.1540   163.3680    93.5820    24.1010     2.2250   -35.2800 
  179.2500    68.7440   178.3600   165.0430    96.4390    24.1340     2.2200   -35.4520 
  179.3750    71.9330   178.8070   166.3160    98.8350    24.1550     2.2190   -35.5510 
  179.5000    74.8300   178.8880   167.4860    96.0910    24.1770     2.2220   -35.7480 
  179.6250    73.8740   179.5220   169.2970    95.5590    24.2050     2.2260   -35.8580 
  179.7500    71.1800   181.6130   172.4690    95.3520    24.2030     2.2300   -35.8730 
  179.8750    69.5390   185.8480   177.5700    92.9100    24.1940     2.2330   -35.9480 
  180.0000    70.9300   192.2070   184.6390    91.6630    24.1680     2.2340   -35.9500 
  180.1250    72.7280   199.1790   192.8370    90.3320    24.1550     2.2350   -35.9240 
  180.2500    70.5440   205.1150   200.0900    90.2160    24.1330     2.2330   -35.9620 
  180.3750    65.7830   208.0530   204.5010    93.0250    24.0870     2.2300   -35.9040 
  180.5000    64.2280   208.5630   204.6780    95.6610    24.0210     2.2240   -35.7730 
  180.6250    67.2270   204.9770   199.6740    93.9030    23.9140     2.2210   -35.6410 
  180.7500    68.9460   201.2870   191.5230    87.1600    23.8120     2.2210   -35.6320 
  180.8750    68.7710   197.7910   182.1950    77.9770    23.7010     2.2240   -35.6320 
  181.0000    69.8990   190.0970   173.8270    67.5290    23.5260     2.2270   -35.6510 
  181.1250    72.3770   185.1130   168.9010    56.7430    23.0840     2.2290   -35.6260 
