~V
VERS. 2.00: Ver 2.00
~W
STRT.M 67.0000:
STOP.M 264.0000:
STEP.M 0.1250:
NULL. -999.2500:
UWI. DF3014:
~C
DEPT.M :
GR.API :
CALI.CM :
RXO.OHMM :
RI. :
RML.OHMM :
DEN.GM/CC :
SP.MV :
~A
# ...
  179.5000    76.4790    23.1600    28.6020    38.9460    46.1750     2.3390   -28.1760 
  179.6250    76.5090    23.2190    26.4140    36.7740    43.3920     2.3340   -28.1560 
  179.7500    73.5670    23.1350    23.9490    34.9300    41.0750     2.3350   -28.1520 
  179.8750    70.1140    23.0020    21.8020    33.5540    39.3630     2.3410   -28.1420 
  180.0000    71.7710    22.9170    19.9200    32.6120    38.2160     2.3490   -28.1330 
  180.1250    79.7630    22.6830    19.1900    32.1040    37.6220     2.3520   -28.1120 
  180.2500    86.0880    22.6210    19.6150    31.8510    37.3120     2.3490   -28.0570 
  180.3750    86.4630    22.5830    20.2330    31.7740    37.1950     2.3420   -28.0020 
  180.5000    84.1990    22.6360    20.2230    31.8930    37.2500     2.3350   -27.9870 
  180.6250    82.9680    22.6190    20.4760    32.1890    37.4960     2.3410   -27.9930 
  180.7500    80.2790    22.5230    20.1970    32.5660    37.8330     2.3560   -27.9930 
  180.8750    77.6840    22.4110    20.1290    32.9670    38.2400     2.3670   -27.9790 
  181.0000    77.9560    22.3470    20.6570    33.4500    38.7940     2.3620   -27.9080 
  181.1250    78.4390    22.4340    22.1260    34.0730    39.5290     2.3450   -27.7750 
  181.2500    75.1230    22.7480    25.3700    34.8830    40.5270     2.3310   -27.6480 
  181.3750    69.8420    23.3570    28.9430    36.0520    41.9870     2.3270   -27.5720 
  181.5000    67.4120    23.7800    29.8840    37.6870    44.0260     2.3270   -27.5230 
  181.6250    67.3520    23.8070    29.2880    40.0110    46.8360     2.3230   -27.5140 
  181.7500    67.6550    23.8460    31.6280    43.0170    50.3820     2.3160   -27.5320 
  181.8750    69.3340    23.8540    37.0720    46.5250    54.4430     2.3080   -27.5420 
  182.0000    72.7440    23.7960    43.6480    50.1400    58.5430     2.3010   -27.5290 
  182.1250    75.7770    23.8200    48.8580    53.2390    61.9670     2.2990   -27.5260 
  182.2500    74.8690    23.8410    49.7730    55.5540    64.4720     2.2990   -27.5480 
  182.3750    73.3210    23.6900    48.4670    56.7770    65.6830     2.3010   -27.5830 
  182.5000    74.3750    23.6250    46.8640    56.4980    65.1860     2.3050   -27.6330 
  182.6250    75.9830    23.5820    46.6980    54.7540    63.0780     2.3170   -27.7060 
  182.7500    76.4450    23.5040    46.0620    52.4740    60.4240     2.3370   -27.7520 
  182.8750    76.3750    23.5180    45.3350    50.2120    57.8330     2.3580   -27.7750 
  183.0000    76.7950    23.5410    43.6920    48.3190    55.7620     2.3690   -27.8100 
  183.1250    76.6000    23.4730    37.5860    47.5250    55.2070     2.3620   -27.8830 
  183.2500    76.6110    23.2530    30.8990    48.2620    56.5540     2.3430   -27.9840 
  183.3750    78.1230    23.0400    30.4840    50.7910    60.0980     2.3250   -28.1160 
  183.5000    79.3320    22.9700    40.9920    55.4410    66.2790     2.3120   -28.2730 
  183.6250    78.8250    22.9840    53.3760    63.0030    75.7220     2.2970   -28.4440 
  183.7500    75.9180    23.1610    54.7530    72.8100    87.5650     2.2770   -28.6270 
  183.8750    70.6710    23.2470    56.6410    84.4340   101.3670     2.2600   -28.7920 
  184.0000    65.4320    23.1920    63.3940    97.3330   116.5170     2.2550   -28.9440 
  184.1250    63.0060    23.3450    83.7720   110.0340   131.2640     2.2580   -29.1150 
  184.2500    61.5260    23.4960   101.1360   120.7300   143.5320     2.2520   -29.3010 
  184.3750    59.7520    23.6060   112.2420   129.1740   153.0530     2.2350   -29.5100 
  184.5000    60.5030    23.9310   109.4130   135.6850   160.1700     2.2180   -29.7500 
  184.6250    64.1090    23.8990    90.6650   139.9990   164.6370     2.2080   -29.9530 
  184.7500    66.0370    23.8860    84.8880   143.1300   167.8240     2.2020   -30.0940 
  184.8750    64.2960    23.8440    90.7530   146.2040   170.8790     2.1990   -30.2130 
  185.0000    60.3000    23.8630    96.9660   149.7770   174.3150     2.2000   -30.3470 
  185.1250    57.2060    24.0110   102.3180   153.4110   177.5500     2.2040   -30.5090 
  185.2500    58.1980    24.1500   103.1490   155.8050   178.6770     2.2030   -30.7230 
  185.3750    63.4880    24.1140   101.5690   155.0680   175.3520     2.1990   -30.9450 
  185.5000    67.8760    24.1550   101.1470   149.7440   166.1230     2.2020   -31.1220 
  185.6250    66.3590    24.1510   102.4780   139.4890   151.3520     2.2190   -31.2290 
  185.7500    62.0510    23.9750   101.4540   126.8480   134.7550     2.2430   -31.3110 
  185.8750    59.6130    23.5990    96.9030   114.1030   119.2600     2.2660   -31.3940 
  186.0000    60.7330    23.7920    84.5990   103.6680   107.3220     2.2820   -31.4580 
  186.1250    64.2360    23.6490    68.2970    97.6810   100.7040     2.2890   -31.5510 
  186.2500    66.5560    23.3390    56.3700    95.4320    98.1410     2.2880   -31.6500 
  186.3750    66.3510    23.4510    56.0000    95.9800    98.4220     2.2810   -31.7440 
  186.5000    63.4330    23.8450    64.5860    97.7690    99.7650     2.2720   -31.8180 
  186.6250    58.9140    24.1650    84.5430    98.3370    99.6610     2.2630   -31.8660 
  186.7500    56.3990    24.3330   100.8720    96.2150    96.8130     2.2540   -31.8880 
  186.8750    57.2640    24.4510   101.7290    91.5250    91.5830     2.2500   -31.9270 
  187.0000    59.5200    24.4720    83.2890    85.6510    85.6410     2.2600   -32.0550 
  187.1250    62.9960    24.4100    59.6250    81.0970    81.7830     2.2860   -32.2200 
  187.2500    67.7620    24.2890    48.6060    79.8640    81.7850     2.3090   -32.3570 
  187.3750    71.9120    24.3740    48.2550    83.4360    86.8650     2.3110   -32.4540 
  187.5000    72.2020    24.2200    51.9240    92.6360    97.5730     2.2900   -32.5250 
  187.6250    69.9390    24.2110    63.8090   108.2390   114.8130     2.2600   -32.5890 
  187.7500    67.6070    24.1790    97.4460   128.2280   136.9340     2.2360   -32.6810 
  187.8750    64.7720    24.1640   131.1040   150.5230   162.0950     2.2240   -32.8270 
  188.0000    62.0720    24.0820   139.5160   172.0000   186.9690     2.2230   -33.0130 
  188.1250    59.8060    23.9900   133.9830   188.7090   206.8000     2.2270   -33.1820 
  188.2500    58.1930    23.9030   139.9080   199.5850   219.6410     2.2270   -33.3120 
  188.3750    57.9020    23.9110   145.1630   204.6250   225.3150     2.2240   -33.3870 
  188.5000    57.7200    23.8840   141.4270   205.0700   225.5120     2.2230   -33.4100 
  188.6250    56.7150    23.6190   134.4420   203.0780   222.8920     2.2230   -33.4540 
  188.7500    56.4710    23.5560   129.3170   200.1090   218.8650     2.2230   -33.5770 
  188.8750    58.0580    23.5510   125.9670   195.8460   213.1800     2.2250   -33.7420 
  189.0000    58.0040    23.5610   125.5110   189.8370   205.4140     2.2380   -33.8790 
  189.1250    54.6060    23.5750   130.4620   179.8280   192.9960     2.2500   -33.9720 
  189.2500    53.4340    23.5920   128.2430   165.5720   175.8480     2.2430   -34.0650 
  189.3750    56.2960    23.6320   118.7850   148.4760   156.1680     2.2190   -34.1490 
  189.5000    59.5120    23.9470   106.8310   131.0270   137.0350     2.1980   -34.2580 
  189.6250    59.7710    24.4090   101.4660   116.1970   121.6790     2.2010   -34.3380 
  189.7500    59.3930    24.4740    94.1130   105.8530   111.8150     2.2160   -34.3610 
  189.8750    59.4610    24.4800    74.4960   101.7570   108.6960     2.2260   -34.3290 
  190.0000    59.2720    24.4990    55.5760   104.4110   112.3090     2.2280   -34.2760 
  190.1250    58.6220    24.4950    58.7870   113.6440   122.6480     2.2260   -34.2380 
  190.2500    56.7120    24.5270    94.5410   126.4500   136.9740     2.2240   -34.1570 
  190.3750    53.2600    24.5600   138.2250   139.4470   151.6820     2.2210   -34.0400 
  190.5000    50.9800    24.4990   159.5360   148.9440   162.4020     2.2180   -33.8730 
  190.6250    53.7370    24.4640   157.4280   151.3140   164.8290     2.2200   -33.7180 
