~V
VERS. 2.00: Ver 2.00
~W
STRT.M 130.0000:
STOP.M 280.0000:
STEP.M 0.1250:
NULL. -999.2500:
UWI. DF3042:
~C
DEPT.M :
DEN.GM/CC :
GR.API :
RML.OHMM :
RI. :
RXO.OHMM :
CALI.CM :
SP.MV :
~A
# ...
  163.7500     2.2200    75.1790   198.9720   164.8220   203.2440    24.2640   -24.3380 
  163.8750     2.2230    75.9130   202.9270   168.5300   198.3930    24.2910   -24.6170 
  164.0000     2.2190    77.1490   201.7390   167.9350   190.5500    24.3240   -24.8660 
  164.1250     2.2050    75.8780   201.1110   167.3300   186.5510    24.3450   -25.0840 
  164.2500     2.1890    73.7000   202.9240   168.4760   189.6960    24.3250   -25.2870 
  164.3750     2.1800    72.2470   206.3090   170.8920   194.2060    24.3040   -25.4810 
  164.5000     2.1830    71.1780   209.3770   173.2360   193.9520    24.3000   -25.6410 
  164.6250     2.2000    71.9270   209.4400   173.5380   190.0960    24.3000   -25.7810 
  164.7500     2.2190    74.5290   205.5650   170.9750   184.7580    24.2990   -25.9030 
  164.8750     2.2330    76.1200   197.9450   165.5130   180.5790    24.2900   -25.9610 
  165.0000     2.2390    74.4840   187.8580   157.9440   173.0400    24.2710   -26.0740 
  165.1250     2.2370    72.7520   177.1320   149.5250   160.9540    24.2340   -26.1050 
  165.2500     2.2330    73.6610   167.3800   141.6120   151.2960    24.1850   -26.1720 
  165.3750     2.2290    75.4590   159.2520   134.8500   145.5310    24.1440   -26.1790 
  165.5000     2.2280    75.0500   152.8520   129.4500   141.2490    24.1210   -26.2690 
  165.6250     2.2290    72.6980   148.3310   125.6420   136.2660    24.1120   -26.3520 
  165.7500     2.2350    72.2570   145.5660   123.3790   130.2130    24.1070   -26.4860 
  165.8750     2.2440    73.6530   145.0950   123.1420   128.6770    24.0850   -26.6520 
  166.0000     2.2540    75.2550   147.7700   125.6490   128.3370    24.0370   -26.8000 
  166.1250     2.2580    77.8400   155.4530   132.4590   128.5450    24.0130   -26.9700 
  166.2500     2.2560    80.2060   168.2630   143.6400   128.9510    24.0050   -27.0810 
  166.3750     2.2480    80.2360   185.9280   158.9690   134.3440    24.0050   -27.1930 
  166.5000     2.2380    77.1540   206.5550   176.9180   143.9440    24.0050   -27.2950 
  166.6250     2.2340    74.7320   225.2640   193.5980   153.7110    24.0050   -27.3650 
  166.7500     2.2340    73.6980   236.1510   204.1590   160.9440    24.0050   -27.4200 
  166.8750     2.2350    71.8630   234.5850   204.6580   165.7280    24.0050   -27.4430 
  167.0000     2.2330    68.3570   219.2780   193.6120   164.6510    24.0050   -27.4780 
  167.1250     2.2270    65.6210   193.2620   172.5840   157.1050    24.0050   -27.5080 
  167.2500     2.2230    66.2560   166.3890   149.3840   140.9530    24.0050   -27.5940 
  167.3750     2.2250    69.0440   145.0970   129.6660   123.2840    24.0050   -27.7160 
  167.5000     2.2360    70.3260   132.9330   117.1830   107.2000    24.0050   -27.8440 
  167.6250     2.2510    70.3690   132.8110   115.2550   100.3420    24.0050   -27.9920 
  167.7500     2.2630    71.7070   143.1870   122.8630   105.0360    24.0050   -28.1250 
  167.8750     2.2660    72.3410   164.1920   140.0200   120.0810    24.0050   -28.2940 
  168.0000     2.2600    69.9900   195.6270   166.1880   137.4610    24.0050   -28.3750 
  168.1250     2.2440    67.3990   236.7000   200.1100   148.4790    24.0050   -28.5260 
  168.2500     2.2230    66.3180   280.5170   235.7010   153.2830    23.9990   -28.5520 
  168.3750     2.2010    64.2590   319.3400   266.6120   158.5690    23.9720   -28.6060 
  168.5000     2.1820    63.0930   344.7320   286.3250   162.7820    23.9060   -28.5830 
  168.6250     2.1720    64.7190   347.5900   288.0240   166.2830    23.8200   -28.5700 
  168.7500     2.1740    64.9310   333.0260   275.8980   161.6150    23.7090   -28.5160 
  168.8750     2.1850    63.2970   309.0070   256.0160   151.0460    23.5400   -28.4610 
  169.0000     2.2010    63.6870   284.9080   235.7360   132.0250    23.2870   -28.4240 
  169.1250     2.2140    66.3400   269.7390   222.6670   108.0830    23.0280   -28.3780 
  169.2500     2.2190    67.1150   266.0200   219.3930    87.2510    22.8140   -28.4330 
  169.3750     2.2170    66.9990   274.1360   226.6260    75.8490    22.6860   -28.4510 
  169.5000     2.2110    66.9710   291.6120   242.7190    74.5060    22.6200   -28.4850 
  169.6250     2.2030    65.0170   311.4320   262.6150    80.1390    22.6610   -28.4840 
  169.7500     2.1950    63.2530   322.0920   276.7220    89.2620    22.7610   -28.4970 
  169.8750     2.1890    62.4080   313.8960   276.4990    96.1780    22.8330   -28.4970 
  170.0000     2.1910    61.7200   282.4720   256.8970   101.0900    22.8480   -28.5090 
  170.1250     2.2070    62.5340   232.2520   218.6050   102.5720    22.8420   -28.4580 
  170.2500     2.2310    67.9710   181.2570   175.5080    98.7100    22.8240   -28.3870 
  170.3750     2.2570    75.8180   139.9420   137.5000    88.8080    22.7890   -28.3350 
  170.5000     2.2750    79.4760   111.4470   109.5110    73.7460    22.8050   -28.3080 
  170.6250     2.2770    75.0810    95.6270    93.1960    63.3560    22.9410   -28.3490 
  170.7500     2.2730    69.7520    87.6440    84.6430    64.8750    23.1420   -28.4510 
  170.8750     2.2710    68.4010    85.5210    81.9580    73.3600    23.2740   -28.6090 
  171.0000     2.2790    71.0340    88.0730    83.9170    82.6520    23.3110   -28.8270 
  171.1250     2.2920    75.0920    95.4060    90.5850    87.7490    23.2980   -29.0760 
  171.2500     2.3030    78.4870   106.8670   101.2630    88.4620    23.2980   -29.4160 
  171.3750     2.3050    77.4550   122.9580   116.3150    93.5650    23.3280   -29.6830 
  171.5000     2.2960    72.0460   144.5000   136.2890   103.9380    23.3520   -29.9930 
  171.6250     2.2800    68.6590   173.2290   162.3180   108.0580    23.3680   -30.2690 
  171.7500     2.2600    67.3330   207.3760   192.4580   110.8130    23.4090   -30.4720 
  171.8750     2.2410    63.8010   243.9040   223.7690   120.0160    23.4940   -30.6520 
  172.0000     2.2230    59.4860   277.3330   251.4630   131.3900    23.5560   -30.7490 
  172.1250     2.2090    59.3070   297.9700   267.4890   131.9950    23.5930   -30.8790 
  172.2500     2.1970    60.2100   301.6160   268.9910   128.5690    23.6500   -30.8780 
  172.3750     2.1880    58.7640   287.9580   256.0670   123.2820    23.7420   -30.9490 
  172.5000     2.1860    55.9820   261.9950   232.8820   119.0390    23.8020   -30.9810 
  172.6250     2.1940    55.0870   232.3690   206.3640   118.7080    23.8190   -31.0300 
  172.7500     2.2090    57.9370   208.0130   184.0110   116.6640    23.8150   -31.1250 
  172.8750     2.2220    63.0470   194.3840   170.7870   114.9210    23.7970   -31.2100 
  173.0000     2.2260    66.0960   196.3000   171.2940   116.5630    23.7580   -31.3230 
  173.1250     2.2150    63.4770   222.1410   193.4140   121.7390    23.7380   -31.4590 
  173.2500     2.1950    58.2630   269.7260   235.5470   136.1860    23.7310   -31.5890 
  173.3750     2.1740    54.0930   332.4930   292.1260   166.9620    23.7310   -31.7050 
  173.5000     2.1580    53.7700   394.8280   349.4290   208.0870    23.7310   -31.7990 
  173.6250     2.1530    58.3670   427.6080   381.9280   234.6910    23.7310   -31.8860 
  173.7500     2.1560    62.6280   416.4130   376.4640   233.7770    23.7360   -31.9150 
  173.8750     2.1660    64.0740   366.3330   335.7520   215.8260    23.7530   -31.9440 
  174.0000     2.1800    65.8990   302.1350   279.0850   191.2860    23.7930   -31.8910 
  174.1250     2.1950    70.3010   251.2760   230.6760   170.8190    23.7960   -31.8180 
  174.2500     2.2110    74.0980   219.3760   198.7190   165.0140    23.7450   -31.7380 
  174.3750     2.2270    74.3670   204.2340   182.4750   161.8410    23.6580   -31.6860 
  174.5000     2.2420    71.3900   202.7800   179.3200   156.2680    23.6120   -31.5670 
  174.6250     2.2520    67.2890   214.3370   188.5060   154.1960    23.6330   -31.4180 
  174.7500     2.2560    63.2160   235.2080   206.3340   161.5990    23.6600   -31.2960 
  174.8750     2.2510    61.6920   263.7910   231.0960   170.0150    23.7010   -31.0770 
