~V
VERS. 2.00: Ver 2.00
~W
STRT.M 66.0000:
STOP.M 262.0000:
STEP.M 0.1250:
NULL. -999.2500:
UWI. DF3009:
~C
DEPT.M :
GR.API :
RML.OHMM :
RI. :
RXO.OHMM :
CALI.CM :
DEN.GM/CC :
SP.MV :
~A
# ...
   99.7500    70.0950     9.6780     8.2150    10.1320    23.7230  -999.2500   -24.9720 
   99.8750    75.5680     8.6970     7.4710     9.7540    23.8540  -999.2500   -24.3960 
  100.0000    82.5130     7.6950     6.6770     8.7760    24.0880  -999.2500   -23.8890 
  100.1250    88.2990     6.9980     6.0500     7.1350    24.1740  -999.2500   -23.2970 
  100.2500    92.4060     6.7020     5.6870     5.6230    24.2010  -999.2500   -22.8970 
  100.3750    93.7060     6.7810     5.6050     5.2780    24.0860  -999.2500   -22.7680 
  100.5000    90.2670     7.1250     5.7690     5.8100    24.0130  -999.2500   -22.7420 
  100.6250    85.5730     7.6080     6.1280     6.6490    23.8630  -999.2500   -22.9770 
  100.7500    83.8270     8.1090     6.5780     7.3560    23.6060  -999.2500   -23.4070 
  100.8750    83.9730     8.6040     7.0720     7.9450    23.4130  -999.2500   -23.9100 
  101.0000    83.4870     9.1040     7.5890     8.2800    23.2670  -999.2500   -24.6220 
  101.1250    81.4370     9.6250     8.1200     8.8480    23.3120  -999.2500   -25.4900 
  101.2500    77.7310    10.1270     8.6340     9.6730    23.3300  -999.2500   -26.2080 
  101.3750    73.8960    10.5410     9.0830    10.6460    23.3550  -999.2500   -26.9040 
  101.5000    71.9970    10.7970     9.4080    11.2830    23.4270  -999.2500   -27.6370 
  101.6250    72.6350    10.8420     9.5480    11.4230    23.4200  -999.2500   -28.1280 
  101.7500    72.2190    10.7620     9.5440    11.3920    23.4670  -999.2500   -28.5670 
  101.8750    69.2740    10.6450     9.4530    11.3410    23.3890  -999.2500   -29.0250 
  102.0000    65.0490    10.5800     9.3410    11.3410    23.3240  -999.2500   -29.3210 
  102.1250    61.2950    10.6280     9.2660    11.3720    23.3160  -999.2500   -29.4250 
  102.2500    59.9190    10.7530     9.2400    11.4060    23.3870  -999.2500   -29.5410 
  102.3750    60.7080    10.8940     9.2470    11.3940    23.5270  -999.2500   -29.6200 
  102.5000    63.1140    10.9870     9.2590    11.4500    23.5590  -999.2500   -29.5230 
  102.6250    67.8110    10.9650     9.2380    11.6390    23.6240  -999.2500   -29.5240 
  102.7500    71.8150    10.8400     9.1700    11.8140    23.5320  -999.2500   -29.5290 
  102.8750    72.5070    10.6490     9.0600    11.9110    23.4780  -999.2500   -29.3690 
  103.0000    72.3200    10.4430     8.9320    11.8250    23.4790  -999.2500   -29.2360 
  103.1250    75.5380    10.2810     8.8200    11.6290    23.4260  -999.2500   -29.2560 
  103.2500    78.0880    10.1820     8.7460    11.4240    23.4430  -999.2500   -29.2080 
  103.3750    76.2700    10.1430     8.7170    11.3120    23.3830  -999.2500   -29.1240 
  103.5000    72.2210    10.1440     8.7210    11.3000    23.4380  -999.2500   -29.1690 
  103.6250    70.1490    10.1550     8.7400    11.3600    23.3520  -999.2500   -29.0950 
  103.7500    69.7130    10.1560     8.7570    11.2940    23.3190  -999.2500   -29.0710 
  103.8750    69.0150    10.1460     8.7660    11.0830    23.2990  -999.2500   -29.1430 
  104.0000    67.8500    10.1350     8.7700    10.7200    23.1540  -999.2500   -29.0710 
  104.1250    66.4160    10.1460     8.7790    10.4830    23.2060  -999.2500   -28.9520 
  104.2500    66.4560    10.1900     8.7980    10.4770    23.1890  -999.2500   -28.8880 
  104.3750    68.3280    10.2610     8.8270    10.5830    23.2630  -999.2500   -28.7180 
  104.5000    71.3200    10.3410     8.8570    10.6120    23.3650  -999.2500   -28.5090 
  104.6250    73.4040    10.3740     8.8550    10.6020    23.3860  -999.2500   -28.3030 
  104.7500    72.1500    10.3040     8.7810    10.5360    23.4230  -999.2500   -27.9200 
  104.8750    68.3680    10.0870     8.6020    10.5070    23.3420  -999.2500   -27.4870 
  105.0000    67.0810     9.7180     8.3070    10.3070    23.3390  -999.2500   -27.1670 
  105.1250    69.5250     9.2480     7.9210     9.8530    23.3110  -999.2500   -26.7550 
  105.2500    72.9120     8.7980     7.5290     9.2150    23.3290  -999.2500   -26.2390 
  105.3750    77.4310     8.4540     7.1960     8.4080    23.3480  -999.2500   -25.8380 
  105.5000    83.1080     8.2570     6.9670     7.7410    23.3630  -999.2500   -25.5490 
  105.6250    85.8680     8.2230     6.8810     7.4530    23.4030  -999.2500   -25.3510 
  105.7500    83.7090     8.2920     6.9040     7.6930    23.3810  -999.2500   -25.3570 
  105.8750    79.8980     8.4340     7.0140     7.8440    23.4750  -999.2500   -25.5320 
  106.0000    78.5920     8.6340     7.1820     7.8210    23.4830  -999.2500   -25.7020 
  106.1250    79.5880     8.8940     7.3900     7.9030    23.5140  -999.2500   -26.0160 
  106.2500    81.6120     9.1940     7.6170     8.1600    23.4460  -999.2500   -26.5380 
  106.3750    81.8020     9.4990     7.8460     8.6460    23.4480  -999.2500   -27.0140 
  106.5000    78.6560     9.7500     8.0500     9.1600    23.6200     0.0000   -27.4110 
  106.6250    74.7100     9.8320     8.1570     9.3490    23.7310     0.0000   -27.7760 
  106.7500    72.9240     9.7030     8.1300     9.3900    23.8910     0.0000   -27.9880 
  106.8750    73.0250     9.3780     7.9590     9.4480    23.9290     0.0000   -28.1080 
  107.0000    72.9650     8.9550     7.6950     9.6300    23.9910     2.1840   -28.2290 
  107.1250    73.0790     8.6260     7.4480     9.9500    24.1500     2.2030   -28.1800 
  107.2500    75.7650     8.5380     7.3300    10.4310    24.2030     2.2240   -28.0880 
  107.3750    78.0390     8.7510     7.3990    10.9480    24.2260     2.2380   -28.1570 
  107.5000    75.1100     9.2240     7.6570    11.5440    24.0430     2.2390   -28.1740 
  107.6250    69.5640     9.8310     8.0560    11.0870    23.9670     2.2330   -28.2380 
  107.7500    66.9030    10.3570     8.4600    11.1380    23.8680     2.2280   -28.4090 
  107.8750    67.1270    10.6520     8.7620    11.4270    23.7880     2.2280   -28.4330 
  108.0000    66.8500    10.6380     8.8850    11.5330    23.8230     2.2280   -28.3750 
  108.1250    64.6690    10.3080     8.7880    11.1260    23.8290     2.2220   -28.4420 
  108.2500    63.3790     9.8570     8.5740    10.7970    23.9280     2.2080   -28.3450 
  108.3750    62.6460     9.4560     8.3460    10.5190    23.9430     2.1910   -27.9270 
  108.5000    61.9880     9.2460     8.1990    10.1970    24.0200     2.1780   -27.4110 
  108.6250    62.8780     9.3070     8.1980     9.7100    24.0480     2.1740   -26.6830 
  108.7500    66.6510     9.4940     8.2740     9.1930    24.0420     2.1800   -25.6900 
  108.8750    74.8860     9.6340     8.3260     8.9070    24.0440     2.1980   -24.6690 
  109.0000    86.0790     9.5700     8.2450     9.8060    23.8950     2.2290   -23.6570 
  109.1250    93.9940     9.2000     7.9440    10.2240    23.9460     2.2660   -22.4150 
  109.2500    95.9730     8.6610     7.4920     9.3170    23.9090     2.2990   -21.1730 
  109.3750    93.1290     8.1060     6.9920     7.3480    24.0290     2.3200   -20.1740 
  109.5000    90.8520     7.6520     6.5400     6.4440    24.2170     2.3260   -19.2200 
  109.6250    93.2050     7.3420     6.2080     6.4340    24.3220     2.3220   -18.4160 
  109.7500    99.4110     7.1110     5.9820     6.3630    24.3900     2.3150   -17.8890 
  109.8750   106.9070     6.9380     5.8470     5.9920    24.2920     2.3070   -17.4320 
  110.0000   111.2860     6.8560     5.8060     5.5820    24.2030     2.2990   -17.0780 
  110.1250   109.2080     6.9730     5.9020     5.4750    23.9460     2.3020   -17.0120 
  110.2500   104.7050     7.2960     6.1240     5.8410    24.0110     2.3220   -17.0750 
  110.3750   101.0070     7.7580     6.4410     6.6670    24.1340     2.3590   -17.2290 
  110.5000    99.2620     8.2120     6.7710     8.3780    24.0680     2.3980   -17.4990 
  110.6250    98.2670     8.4530     6.9910    10.1420    24.2230     2.4130   -17.9140 
  110.7500    98.7860     8.4420     7.0520     9.8160    24.2190     2.3960   -18.4360 
  110.8750   100.2080     8.2520     6.9760     8.0820    24.1310     2.3570   -19.0350 
