~V
VERS. 2.00: Ver 2.00
~W
STRT.M 58.0000:
STOP.M 259.0000:
STEP.M 0.1250:
NULL. -999.2500:
UWI. DF3010:
~C
DEPT.M :
GR.API :
RML.OHMM :
RI. :
RXO.OHMM :
CALI.CM :
DEN.GM/CC :
SP.MV :
~A
# ...
  114.2500    84.6110    11.8920     9.5930    14.2280    23.9700     2.4020   -24.5540 
  114.3750    87.4430    11.6380     9.5130    14.4660    23.8700     2.4290   -25.1850 
  114.5000    90.8100    10.8970     9.0020    11.2650    23.7720     2.4330   -25.6840 
  114.6250    92.7550    10.0300     8.3020     8.9480    23.7310     2.4040   -26.2180 
  114.7500    93.6550     9.4090     7.7310     8.0240    23.6920     2.3570   -26.8800 
  114.8750    92.1700     9.1730     7.4280     7.9020    23.6180     2.3060   -27.4870 
  115.0000    89.3990     9.3050     7.4170     8.0500    23.5540     2.2610   -27.9600 
  115.1250    88.9520     9.7010     7.6560     8.6000    23.5420     2.2250   -28.3660 
  115.2500    89.6050    10.1380     7.9790     9.0300    23.5670     2.2030   -28.6930 
  115.3750    88.2300    10.4740     8.2670     9.2140    23.6020     2.1980   -28.7900 
  115.5000    85.3120    10.6180     8.4270     9.2180    23.6260     2.2120   -28.6930 
  115.6250    84.5230    10.5130     8.3820     9.1140    23.6490     2.2370   -28.4740 
  115.7500    86.8830    10.2410     8.1770     8.9060    23.6800     2.2560   -27.9330 
  115.8750    91.2560     9.8740     7.8670     8.4590    23.7120     2.2640   -27.1670 
  116.0000    96.3060     9.4760     7.5100     7.8630    23.7260     2.2610   -26.4590 
  116.1250    98.9310     9.1020     7.1650     7.4020    23.7310     2.2560   -25.7520 
  116.2500    97.2610     8.7970     6.8760     7.1910    23.7660     2.2570   -24.9360 
  116.3750    95.2450     8.6000     6.6750     7.0130    23.8750     2.2620   -24.2250 
  116.5000    97.5060     8.5310     6.5760     6.8410    24.0150     2.2660   -23.5960 
  116.6250   103.0690     8.5860     6.5830     6.3490    24.0380     2.2680   -22.9890 
  116.7500   104.9790     8.6750     6.6370     6.3880    23.9030     2.2690   -22.5550 
  116.8750   103.6110     8.7070     6.6770     6.8130    23.8260     2.2720   -22.1310 
  117.0000   102.3010     8.6130     6.6500     6.9850    23.8630     2.2780   -21.5820 
  117.1250   100.3270     8.3720     6.5180     6.6900    23.9840     2.2830   -21.1300 
  117.2500    99.1050     8.0880     6.3340     6.2770    24.1500     2.2830   -20.8040 
  117.3750   103.7340     7.8600     6.1640     5.9960    24.3590     2.2810   -20.3810 
  117.5000   111.9310     7.7580     6.0650     5.7600    24.5330     2.2850   -20.0070 
  117.6250   113.5010     7.8030     6.0700     5.7940    24.5810     2.3040   -19.7840 
  117.7500   108.6940     7.9140     6.1360     6.2510    24.5960     2.3350   -19.6040 
  117.8750   104.2010     8.0270     6.2210     6.9570    24.6040     2.3650   -19.4980 
  118.0000   103.0380     8.1040     6.2960     7.3960    24.5980     2.3800   -19.5010 
  118.1250   103.1490     8.1320     6.3390     6.4700    24.4860     2.3720   -19.5800 
  118.2500   102.0090     8.1330     6.3580     6.0740    24.3090     2.3500   -19.6200 
  118.3750    99.8000     8.1180     6.3550     6.1830    24.1850     2.3250   -19.6410 
  118.5000    99.2390     8.0960     6.3360     6.5740    24.1810     2.3050   -19.7140 
  118.6250   100.3700     8.0680     6.3060     6.6510    24.2870     2.2920   -19.5920 
  118.7500   100.2580     8.0380     6.2740     6.2710    24.3750     2.2850   -19.3540 
  118.8750    98.2380     8.0110     6.2460     5.9230    24.4060     2.2820   -19.2440 
  119.0000    97.7180     7.9880     6.2270     5.8340    24.4050     2.2830   -19.1340 
  119.1250    99.9870     7.9600     6.2170     5.8800    24.4180     2.2890   -18.8290 
  119.2500   101.5940     7.9160     6.2080     5.8620    24.4160     2.2960   -18.5700 
  119.3750   102.2760     7.8500     6.1960     5.8440    24.3690     2.3030   -18.4520 
  119.5000   103.2880     7.7750     6.1820     5.9180    24.3510     2.3070   -18.2560 
  119.6250   105.8310     7.7270     6.1840     6.0520    24.4400     2.3100   -18.2130 
  119.7500   106.5790     7.7370     6.2210     6.0380    24.5210     2.3120   -18.2490 
  119.8750   104.2760     7.8210     6.3070     6.0130    24.4760     2.3150   -18.1490 
  120.0000   101.2090     7.9630     6.4410     6.0690    24.3810     2.3200   -18.1400 
  120.1250    99.9740     8.1100     6.5970     6.2020    24.3210     2.3280   -18.3260 
  120.2500   101.3440     8.1900     6.7200     6.2950    24.3030     2.3360   -18.4140 
  120.3750   103.7230     8.1520     6.7590     6.3400    24.3000     2.3380   -18.5070 
  120.5000   105.9610     7.9770     6.6800     6.3640    24.3860     2.3290   -18.7380 
  120.6250   107.6720     7.6710     6.4610     6.1970    24.7010     2.3110   -18.8350 
  120.7500   110.8250     7.3170     6.1650     5.7480    25.0600     2.2910   -18.9730 
  120.8750   116.1510     6.9780     5.8460     5.3170    25.1630     2.2800   -19.3110 
  121.0000   117.5390     6.7060     5.5580     5.0380    25.0190     2.2860   -19.6720 
  121.1250   109.3730     6.5530     5.3590     4.9180    24.7340     2.3120   -19.9540 
  121.2500   101.9430     6.5210     5.2640     4.9680    24.4300     2.3450   -20.3550 
  121.3750   101.3040     6.6070     5.2750     5.1950    24.2130     2.3740   -20.8890 
  121.5000   102.5730     6.7850     5.3810     5.5410    24.0730     2.3900   -21.5150 
  121.6250    98.3980     7.0180     5.5620     5.8430    23.9260     2.3860   -22.2670 
  121.7500    93.4540     7.2550     5.7770     6.3750    23.7960     2.3720   -23.1080 
  121.8750    91.6970     7.4930     6.0180     6.9300    23.7320     2.3510   -23.9070 
  122.0000    89.4490     7.7800     6.3100     7.3310    23.7140     2.3300   -24.6460 
  122.1250    85.1380     8.2310     6.7240     7.7500    23.6830     2.3110   -25.5510 
  122.2500    83.0640     8.8750     7.2840     8.1810    23.6060     2.2960   -26.5230 
  122.3750    82.5490     9.6650     7.9670     8.7950    23.5210     2.2900   -27.3250 
  122.5000    80.5350    10.4670     8.6870     9.6980    23.5290     2.2960   -28.1010 
  122.6250    77.2610    11.0500     9.2700    10.7230    23.6620     2.3150   -28.8970 
  122.7500    74.9020    11.3040     9.5990    11.5480    23.7960     2.3340   -29.5680 
  122.8750    73.7780    11.2370     9.6430    11.8740    23.8790     2.3370   -30.2490 
  123.0000    73.0460    10.9750     9.4790    11.3240    23.9430     2.3170   -30.9020 
  123.1250    71.2050    10.7210     9.2600    10.7640    23.9340     2.2750   -31.2940 
  123.2500    67.6270    10.6190     9.1330    10.6550    23.8190     2.2310   -31.5760 
  123.3750    65.2220    10.6980     9.1480    10.8770    23.6100     2.1960   -31.9180 
  123.5000    67.3220    10.9180     9.2910    11.7940    23.4430     2.1760   -32.0740 
  123.6250    72.7750    11.1890     9.5100    12.7990    23.3710     2.1720   -32.1610 
  123.7500    75.2450    11.4180     9.7210    12.3920    23.3530     2.1780   -32.3180 
  123.8750    74.1670    11.5710     9.8870    10.6520    23.3530     2.1890   -32.3380 
  124.0000    72.6700    11.6580    10.0040     9.7200    23.3520     2.2010   -32.2940 
  124.1250    73.2040    11.7140    10.0890     9.7760    23.3570     2.2080   -32.4030 
  124.2500    73.9510    11.7730    10.1670     9.9170    23.3720     2.2150   -32.5960 
  124.3750    73.8130    11.8270    10.2310    10.0460    23.3910     2.2280   -32.7100 
  124.5000    73.6770    11.8370    10.2540    10.0670    23.3880     2.2580   -32.8860 
  124.6250    73.1560    11.7470    10.1950     9.9510    23.3320     2.3030   -33.2080 
  124.7500    72.2160    11.5750    10.0670     9.9600    23.2540     2.3440   -33.4840 
  124.8750    72.5720    11.3750     9.9080    10.0700    23.2310     2.3600   -33.7780 
  125.0000    74.3820    11.2160     9.7710    10.1980    23.3110     2.3450   -34.2220 
  125.1250    73.7900    11.1700     9.7120    10.3880    23.4390     2.3100   -34.6680 
  125.2500    69.1570    11.2130     9.7250    10.6690    23.4610     2.2790   -34.9790 
  125.3750    66.4250    11.2920     9.7810    10.9930    23.4480     2.2600   -35.3320 
