~V
VERS. 2.00: Ver 2.00
~W
STRT.M 70.0000:
STOP.M 278.0000:
STEP.M 0.1250:
NULL. -999.2500:
UWI. DF3060:
~C
DEPT.M :
SP.MV :
GR.API :
RML.OHMM :
RI. :
RXO.OHMM :
CALI.CM :
DEN.GM/CC :
~A
# ...
  272.5000    -8.2080    88.6210     7.8040     6.6910     6.0380    22.4880     2.1020 
  272.6250    -8.2510    88.6210     7.8780     6.6680     6.0250    21.6320     2.0910 
  272.7500    -8.2720    88.6210     7.8990     6.6550     5.8320    20.9540     2.0790 
  272.8750    -8.2440    88.6210     7.8800     6.6520     6.1310    20.3540     2.0680 
  273.0000    -8.2260    88.6210     7.8340     6.6570     6.7430    19.6410     2.0610 
  273.1250    -8.2770    88.6210     7.7730     6.6640     7.3920    18.6750     2.0580 
  273.2500    -8.3760    88.6210     7.7170     6.6710     8.0700    17.7510     2.0570 
  273.3750    -8.4930    88.6210     7.6810     6.6790     8.4430    17.0430     2.0570 
  273.5000    -8.5920    88.6210     7.6640     6.6870     8.5440    16.5450     2.0570 
  273.6250    -8.6870    88.6210     7.6610     6.6950     8.9180    16.1580     2.0560 
  273.7500    -8.7420    88.6210     7.6620     6.6970     9.0730    15.7960     2.0540 
  273.8750    -8.8440    88.6210     7.6620     6.6970     8.8740    15.4390     2.0490 
  274.0000    -8.9680    88.6210     7.6620     6.6970     8.9550    15.0970     2.0410 
  274.1250    -9.0040    88.6210     7.6620     6.6970     9.6620    14.7670     2.0300 
  274.2500    -9.0040    88.6210     7.6620     6.6970    10.8590    14.4480     2.0130 
  274.3750  -999.2500    88.6210     7.6620     6.6970    12.1930    14.1290     1.9900 
  274.5000  -999.2500    88.6210     7.6620     6.6970    13.6130    13.7920     1.9630 
  274.6250  -999.2500    88.6210     7.6620     6.6970    13.7830    13.3530     1.9370 
  274.7500  -999.2500    88.6210     7.6620     6.6970    11.8570    12.6970     1.9160 
  274.8750  -999.2500    88.6210     7.6620     6.6970     9.8780    11.9430     1.9030 
  275.0000  -999.2500    88.6210     7.6620     6.6970     9.5350    11.4160     1.8960 
  275.1250  -999.2500    88.6210     7.6620     6.6970     9.8210    11.2510     1.8940 
  275.2500  -999.2500    88.6210     7.6620     6.6970     9.9150    11.2160     1.8930 
  275.3750  -999.2500    88.6210     7.6620     6.6970     9.9140    11.1970     1.8920 
  275.5000  -999.2500    88.6210     7.6620     6.6970     9.9150    11.1780     1.8910 
  275.6250  -999.2500    88.6210     7.6620     6.6970     9.9150    11.1700     1.8900 
  275.7500  -999.2500    88.6210     7.6620     6.6970     9.9150    11.1660     1.8890 
  275.8750  -999.2500    88.6210     7.6620     6.6970     9.9130    11.1630     1.8900 
  276.0000  -999.2500    88.6210     7.6620     6.6970     9.9100    11.1600     1.8920 
  276.1250  -999.2500    88.6210     7.6620     6.6970     9.9060    11.1570     1.8930 
  276.2500  -999.2500    88.6210     7.6620     6.6970     9.9030    11.1540     1.8950 
  276.3750  -999.2500    88.6210     7.6620     6.6970     9.9020    11.1520     1.8960 
  276.5000  -999.2500    88.6210     7.6620     6.6970     9.9000    11.1510     1.8960 
  276.6250  -999.2500    88.6210     7.6620     6.6970     9.8980    11.1510     1.8960 
  276.7500  -999.2500    88.6210     7.6620     6.6970     9.8980    11.1510     1.8950 
  276.8750  -999.2500    88.6210     7.6620     6.6970     9.8990    11.1510     1.8930 
  277.0000  -999.2500    88.6210     7.6620     6.6970     9.9000    11.1510     1.8900 
  277.1250  -999.2500    88.6210     7.6620     6.6970     9.8980    11.1510     1.8880 
  277.2500  -999.2500    88.6210     7.6620     6.6970     9.8960    11.1510     1.8860 
  277.3750  -999.2500    88.6210     7.6620     6.6970     9.8940    11.1510     1.8860 
  277.5000  -999.2500    88.6210     7.6620     6.6970     9.8930    11.1510     1.8870 
  277.6250  -999.2500    88.6210     7.6620     6.6970     9.8920    11.1510     1.8880 
  277.7500  -999.2500    88.6210     7.6620     6.6970     9.8890    11.1510  -999.2500 
  277.8750  -999.2500    88.6210     7.6620     6.6970     9.8850    11.1510  -999.2500 
  278.0000  -999.2500    88.6210     7.6620     6.6970     9.8810    11.1510  -999.2500 
