~V
VERS. 2.00: Ver 2.00
~W
STRT.M 67.0000:
STOP.M 264.0000:
STEP.M 0.1250:
NULL. -999.2500:
UWI. DF3014:
~C
DEPT.M :
GR.API :
CALI.CM :
RXO.OHMM :
RI. :
RML.OHMM :
DEN.GM/CC :
SP.MV :
~A
# ...
  235.7500    68.9860    22.4960    17.7830    19.6930    21.8500     2.3650   -26.6140 
  235.8750    66.3530    22.4600    18.0060    19.3080    21.3750     2.3610   -26.6100 
  236.0000    66.9700    22.5580    17.5000    18.8160    20.7590     2.3490   -26.5590 
  236.1250    66.2680    22.5270    15.9050    18.1600    19.9360     2.3380   -26.4450 
  236.2500    66.6550    22.4590    14.8910    17.4510    19.0650     2.3330   -26.2910 
  236.3750    69.1760    22.4690    14.4140    16.8140    18.3160     2.3370   -26.1370 
  236.5000    71.4050    22.5550    13.9280    16.3300    17.7890     2.3410   -26.0530 
  236.6250    71.8280    22.5600    13.2780    16.0630    17.5710     2.3390   -26.0380 
  236.7500    71.3660    22.5090    13.2310    15.9800    17.5760     2.3340   -26.0130 
  236.8750    70.9380    22.4570    13.4000    15.9930    17.6570     2.3340   -25.9430 
  237.0000    70.8190    22.5510    14.6090    15.9980    17.6900     2.3350   -25.8090 
  237.1250    72.0290    22.5640    16.1490    15.9480    17.6180     2.3330   -25.6230 
  237.2500    74.6560    22.5430    16.3750    15.8370    17.4690     2.3290   -25.4950 
  237.3750    77.4540    22.5440    14.6700    15.7040    17.2990     2.3320   -25.4680 
  237.5000    79.6600    22.5660    12.6650    15.6770    17.2780     2.3420   -25.4610 
  237.6250    79.5750    22.5700    12.6990    15.8700    17.5520     2.3470   -25.4020 
  237.7500    77.0770    22.6430    14.3270    16.2410    18.0470     2.3400   -25.2540 
  237.8750    73.7600    22.8070    16.1180    16.7470    18.6950     2.3280   -25.0470 
  238.0000    70.8740    22.8380    16.1010    17.3310    19.4000     2.3190   -24.8820 
  238.1250    69.6040    22.7540    16.7550    17.8820    19.9910     2.3080   -24.8590 
  238.2500    71.1940    22.6390    17.9310    18.3260    20.4310     2.2900   -24.8850 
  238.3750    73.7850    22.6940    18.0510    18.6750    20.7680     2.2750   -24.8470 
  238.5000    74.7840    22.7490    17.1560    18.9840    21.1220     2.2690   -24.7110 
  238.6250    74.7130    22.9280    17.5660    19.5170    21.8470     2.2660   -24.5200 
  238.7500    75.3020    22.8930    18.4350    20.3430    22.9440     2.2630   -24.3880 
  238.8750    74.4090    22.8600    19.6100    21.1650    24.0010     2.2700   -24.3370 
  239.0000    70.6840    22.9260    20.7510    21.5840    24.5430     2.3040   -24.3450 
  239.1250    67.5890    23.0100    22.1280    21.2760    24.2220     2.3680   -24.3100 
  239.2500    67.3590    23.1080    24.2010    20.3270    23.1140     2.4410   -24.2110 
  239.3750    67.6320    23.0710    30.1170    18.9400    21.4580     2.4840   -24.0750 
  239.5000    67.5440    23.1900    31.3590    17.5430    19.8380     2.4830   -23.9550 
  239.6250    69.2680    23.1660    23.2770    16.6670    19.0040     2.4540   -23.9380 
  239.7500    71.8960    23.1170    14.1700    16.5700    19.2430     2.4150   -23.9880 
  239.8750    72.1690    23.2100    15.0030    17.4480    20.7180     2.3770   -24.0390 
  240.0000    68.7750    23.2680    20.0250    19.3560    23.3000     2.3350   -24.0100 
  240.1250    64.0510    23.4490    28.3520    22.2100    26.6360     2.2890   -23.8970 
  240.2500    62.4110    23.4150    34.6130    25.5330    30.1210     2.2470   -23.7690 
  240.3750    64.8060    23.4210    37.0360    29.0000    33.4420     2.2230   -23.7180 
  240.5000    66.0220    23.4740    35.7340    32.0810    36.1040     2.2230   -23.7720 
  240.6250    62.4340    23.2810    34.1690    33.7250    37.1690     2.2480   -23.7900 
  240.7500    58.8270    23.3030    34.7310    33.6220    36.5470     2.2960   -23.6860 
  240.8750    58.6320    23.3740    38.7400    31.8180    34.4010     2.3670   -23.4870 
  241.0000    58.6480    23.2580    41.7170    28.5790    30.9360     2.4470   -23.2900 
  241.1250    55.8990    23.1490    41.7200    24.3110    26.4110     2.5120   -23.1880 
  241.2500    55.7080    22.9980    40.7730    19.9930    21.6930     2.5400   -23.1890 
  241.3750    59.4280    23.0140    33.5440    16.1990    17.4170     2.5240   -23.1820 
  241.5000    62.7550    23.1750    19.2580    13.2130    14.0380     2.4910   -23.0700 
  241.6250    64.6760    23.1010     9.9200    11.2840    11.9700     2.4610   -22.8980 
  241.7500    67.9030    22.8790     8.0380    10.1670    10.8970     2.4420   -22.7800 
  241.8750    71.7400    22.8870     7.3500     9.6790    10.5620     2.4390   -22.7910 
  242.0000    73.3920    22.9330     7.0260     9.6750    10.7320     2.4470   -22.8750 
  242.1250    73.0340    22.9570     7.4490    10.0460    11.1930     2.4590   -22.9150 
  242.2500    74.3920    23.0170     7.9620    10.5660    11.7050     2.4640   -22.8260 
  242.3750    76.8220    23.0230     8.2910    11.0930    12.1440     2.4590   -22.6650 
  242.5000    76.8740    23.0240     8.4620    11.5520    12.4660     2.4490   -22.5330 
  242.6250    74.0240    23.0410     9.2140    11.8930    12.6810     2.4390   -22.4830 
  242.7500    71.9980    23.0650    10.2070    12.1270    12.8540     2.4340   -22.4690 
  242.8750    70.3720    23.0340    10.8350    12.2990    13.0390     2.4350   -22.3920 
  243.0000    66.4450    23.0290    11.8400    12.4700    13.2980     2.4400   -22.1800 
  243.1250    63.3850    23.0680    12.9800    12.6880    13.6640     2.4550   -21.8760 
  243.2500    65.7890    23.1420    13.3860    12.9520    14.1010     2.4860   -21.6430 
  243.3750    70.0750    23.0680    13.0390    13.2270    14.5450     2.5310   -21.5100 
  243.5000    72.9320    23.0360    13.1310    13.4460    14.9170     2.5700   -21.4420 
  243.6250    75.1210    23.0760    13.6160    13.5530    15.1220     2.5900   -21.3240 
  243.7500    74.9990    23.1650    13.6760    13.5410    15.1590     2.5920   -21.1030 
  243.8750    71.7770    23.0790    13.0010    13.4100    15.0430     2.5880   -20.8680 
  244.0000    68.9400    23.0380    12.9540    13.1970    14.8350     2.5810   -20.7770 
  244.1250    70.9180    23.0730    13.8600    12.9780    14.6380     2.5650   -20.8280 
  244.2500    73.2670    23.1490    13.6670    12.8230    14.5310     2.5420   -20.8410 
  244.3750    73.6930    23.0690    12.7300    12.7570    14.5270     2.5260   -20.7480 
  244.5000    71.7080    23.0350    12.2870    12.7980    14.6410     2.5240   -20.6120 
  244.6250    68.3440    23.0660    12.8040    12.9750    14.8860     2.5260   -20.5710 
  244.7500    66.7770    23.1190    13.6300    13.2290    15.1870     2.5270   -20.6210 
  244.8750    68.6370    23.0180    14.3920    13.5510    15.5300     2.5360   -20.6440 
  245.0000    72.3160    22.7730    14.9570    13.9200    15.8900     2.5570   -20.5570 
  245.1250    74.5900    22.7750    14.6590    14.2910    16.2200     2.5790   -20.4270 
  245.2500    73.8830    22.8430    14.3030    14.6500    16.5350     2.5920   -20.4080 
  245.3750    71.3670    22.8670    14.6790    15.0080    16.8550     2.5960   -20.4790 
  245.5000    68.1500    22.8790    15.8670    15.3350    17.1350     2.5990   -20.5020 
  245.6250    65.1040    22.8730    16.5000    15.5710    17.3090     2.6020   -20.3890 
  245.7500    61.8200    22.8650    16.9620    15.7070    17.3740     2.6060   -20.2370 
  245.8750    58.7060    22.9020    17.4420    15.7350    17.3140     2.6090   -20.1800 
  246.0000    57.9600    22.9140    17.6230    15.6440    17.1220     2.6110   -20.2340 
  246.1250    62.1860    22.8820    17.2070    15.5050    16.8960     2.6030   -20.2370 
  246.2500    71.0880    22.8060    15.5260    15.4090    16.7490     2.5820   -20.1030 
  246.3750    79.4920    22.8610    14.2370    15.4120    16.7540     2.5590   -19.9640 
  246.5000    80.8070    22.9040    14.2870    15.5690    16.9590     2.5560   -19.9170 
  246.6250    74.7310    22.8730    15.0370    15.9280    17.3940     2.5750   -19.9410 
  246.7500    70.4020    22.8000    15.8850    16.4320    17.9540     2.6000   -19.9070 
  246.8750    70.9330    22.8740    16.8120    17.0250    18.5650     2.6080   -19.7730 
