~V
VERS. 2.00: Ver 2.00
~W
STRT.M 57.0000:
STOP.M 272.0000:
STEP.M 0.1250:
NULL. -999.2500:
UWI. DF3050:
~C
DEPT.M :
SP.MV :
GR.API :
CALI.CM :
RXO.OHMM :
RI. :
RML.OHMM :
DEN.GM/CC :
~A
# ...
  192.0000   -24.7020    66.8000    24.6560   300.0560   255.2330   343.7420     2.2100 
  192.1250   -24.4370    67.5750    24.7440   271.7810   237.0150   318.0980     2.1980 
  192.2500   -24.2320    71.7980    24.6600   242.6920   222.4400   298.5130     2.1970 
  192.3750   -24.1320    74.6030    24.3740   211.1980   211.7520   284.2320     2.2080 
  192.5000   -24.1360    71.0260    24.1410   193.8990   204.2770   273.9170     2.2190 
  192.6250   -24.2110    63.1410    24.0120   203.0790   199.0600   265.9180     2.2200 
  192.7500   -24.3100    59.8250    23.9550   232.9090   194.8980   258.2740     2.2200 
  192.8750   -24.4090    61.3040    23.9830   244.9320   190.1620   249.0800     2.2290 
  193.0000   -24.4950    63.1230    24.3620   237.3870   184.1320   237.9260     2.2420 
  193.1250   -24.5220    64.7100    24.7370   213.5960   176.9320   225.5230     2.2460 
  193.2500   -24.4820    67.4230    24.5530   186.4670   169.1530   212.7260     2.2390 
  193.3750   -24.3510    69.4350    24.5540   171.0430   161.4290   200.7370     2.2320 
  193.5000   -24.1880    70.5120    24.7080   169.8440   154.2390   190.0430     2.2270 
  193.6250   -24.0460    73.9220    24.8510   172.0730   147.6750   180.5740     2.2220 
  193.7500   -23.9880    77.1020    24.8390   160.7940   141.5540   171.8690     2.2210 
  193.8750   -24.0250    74.9250    24.8600   151.7560   135.5280   163.3290     2.2270 
  194.0000   -24.1300    70.5500    24.8930   145.2130   129.1020   154.2620     2.2350 
  194.1250   -24.2840    68.6960    24.9220   138.4590   121.7880   144.0890     2.2360 
  194.2500   -24.4000    70.5150    25.0440   132.9890   113.4850   133.1170     2.2300 
  194.3750   -24.4700    74.3870    24.9830   124.4480   105.2970   122.7640     2.2240 
  194.5000   -24.4760    79.2020    24.9120   117.6300    98.0390   114.0180     2.2260 
  194.6250   -24.4430    80.6370    24.9350   109.8730    92.5540   107.9000     2.2350 
  194.7500   -24.3470    75.6660    25.1220    93.7240    90.1270   105.8750     2.2490 
  194.8750   -24.2320    71.9920    25.1930    79.4250    90.6430   107.3240     2.2610 
  195.0000   -24.1180    72.5080    25.0290    76.6400    93.6820   111.4220     2.2700 
  195.1250   -24.0520    73.2720    25.0740    93.4810    98.3860   116.9640     2.2740 
  195.2500   -24.0870    71.8030    25.0300   131.3590   103.1310   121.9010     2.2680 
  195.3750   -24.1960    71.8940    24.9350   154.9180   105.8710   123.8570     2.2500 
  195.5000   -24.3410    74.8670    25.0340   154.8600   105.6480   122.0120     2.2320 
  195.6250   -24.4430    77.3150    25.0650   138.6800   102.4920   116.8110     2.2260 
  195.7500   -24.4560    75.9620    25.0100   112.6800    97.0470   109.2950     2.2370 
  195.8750   -24.3880    74.5740    24.9080    94.5170    91.1000   101.7090     2.2500 
  196.0000   -24.2780    75.6660    25.0050    90.4560    85.8220    95.2960     2.2570 
  196.1250   -24.1190    77.1530    25.0350    88.9660    81.8010    90.4420     2.2550 
  196.2500   -23.9680    74.6100    24.9100    82.3380    79.1210    87.0100     2.2480 
  196.3750   -23.8720    72.1880    24.9060    79.2350    77.1770    84.3640     2.2440 
  196.5000   -23.8360    73.5680    25.0010    81.8170    75.4350    82.0730     2.2460 
  196.6250   -23.8570    78.7970    25.0160    82.1920    73.7000    79.8670     2.2500 
  196.7500   -23.9360    80.9820    24.8950    77.1830    72.0100    77.8890     2.2540 
  196.8750   -24.0190    78.2930    24.9700    74.5150    70.3780    76.2590     2.2550 
  197.0000   -24.0690    74.3850    25.0160    74.2050    69.0190    75.0910     2.2580 
  197.1250   -24.0830    72.6810    24.8350    71.2630    68.1110    74.5350     2.2630 
  197.2500   -24.0250    73.8760    24.8790    66.3300    67.9820    74.9120     2.2680 
  197.3750   -23.8970    75.1850    24.9760    65.8560    68.8010    76.4090     2.2700 
  197.5000   -23.7410    75.8780    25.0390    68.5890    70.7180    79.3050     2.2730 
  197.6250   -23.6310    75.6890    24.9250    70.1230    73.7650    83.7480     2.2820 
  197.7500   -23.5660    73.6620    24.9620    71.4410    78.6370    90.8400     2.2910 
  197.8750   -23.5670    72.2410    25.0620    76.7860    86.0800   101.1240     2.2890 
  198.0000   -23.6280    72.3650    24.9610    86.9840    97.1190   115.6250     2.2780 
  198.1250   -23.7230    75.0360    24.9310   104.1330   113.1120   135.8580     2.2640 
  198.2500   -23.7880    78.0020    25.0550   125.7600   138.2180   165.9760     2.2550 
  198.3750   -23.7960    76.8930    25.0520   148.5010   174.6510   208.2190     2.2460 
  198.5000   -23.7400    71.7120    24.9560   176.9810   224.9210   266.1140     2.2340 
  198.6250   -23.5830    65.0590    24.9280   268.6250   288.8180   342.3490     2.2190 
  198.7500   -23.3460    59.0560    25.0300   410.6530   358.0420   431.3780     2.2150 
  198.8750   -23.0730    55.3820    24.9480   570.4070   409.0670   499.6070     2.2210 
  199.0000   -22.7910    55.5180    24.7300   678.7220   422.8820   513.6930     2.2270 
  199.1250   -22.5210    58.8400    24.5650   722.3780   395.8900   468.1240     2.2250 
  199.2500   -22.3200    62.7370    24.7640   629.6090   340.8570   393.5540     2.2210 
  199.3750   -22.1830    65.1700    24.8350   491.1990   283.6370   326.8510     2.2230 
  199.5000   -22.0770    65.1630    24.8930   334.1690   238.2750   280.2220     2.2290 
  199.6250   -21.9910    62.2240    24.9990   213.7450   209.7730   253.4470     2.2340 
  199.7500   -21.8840    61.3860    24.7410   158.7250   197.7600   242.9880     2.2330 
  199.8750   -21.7310    63.6460    24.6120   195.9830   195.5490   241.5860     2.2270 
  200.0000   -21.5280    65.5450    24.6720   265.1710   198.8140   245.3030     2.2170 
  200.1250   -21.2590    65.4770    24.8060   289.9220   204.1570   251.0270     2.2100 
  200.2500   -20.9600    64.0800    24.9580   259.5730   208.9160   254.8560     2.2120 
  200.3750   -20.6640    61.7920    24.8160   222.6620   209.2880   251.9760     2.2190 
  200.5000   -20.4320    59.1150    24.7650   184.9530   202.5150   239.6090     2.2240 
  200.6250   -20.2830    58.1330    24.5910   161.8640   189.0480   219.5160     2.2230 
  200.7500   -20.1970    57.9010    24.9130   166.5210   171.5230   195.5520     2.2190 
  200.8750   -20.1390    58.0240    24.7880   178.2190   152.4150   171.2110     2.2160 
  201.0000   -20.0860    61.4960    24.5510   159.2890   133.6880   149.0600     2.2190 
  201.1250   -20.0320    66.5620    24.3820   108.7840   117.2580   130.8370     2.2260 
  201.2500   -19.9390    69.6880    23.9160    72.2000   104.5430   117.5790     2.2380 
  201.3750   -19.7850    70.8840    24.0280    69.0870    95.0220   107.7850     2.2550 
  201.5000   -19.5540    70.6220    24.1410    88.3210    88.1550   100.4850     2.2720 
  201.6250   -19.2580    69.5970    24.1510   102.8120    82.9400    94.8280     2.2760 
  201.7500   -18.9530    70.7190    24.0790   104.2930    79.6180    91.4360     2.2580 
  201.8750   -18.7060    74.1990    24.2650    94.4650    78.5060    90.7320     2.2340 
  202.0000   -18.5500    75.5620    24.4590    76.7320    79.7660    92.6620     2.2210 
  202.1250   -18.4830    73.0410    24.5670    65.1630    82.3100    96.1080     2.2250 
  202.2500   -18.4480    69.9710    24.7290    64.4960    84.2110    98.7210     2.2440 
  202.3750   -18.4250    68.2080    24.7410    89.8060    83.3960    97.7260     2.2790 
  202.5000   -18.3790    67.9420    24.6270   165.0850    78.4270    91.3830     2.3360 
  202.6250   -18.3060    68.1230    24.5200   249.8970    69.5560    80.0990     2.4070 
  202.7500   -18.1950    66.7790    24.4770   219.6780    58.5930    66.5740     2.4700 
  202.8750   -18.0190    63.6870    24.4500   130.5480    48.3770    54.5240     2.5100 
  203.0000   -17.8170    62.0390    24.4630    63.3720    40.0570    45.3580     2.5320 
  203.1250   -17.6230    61.4110    24.4720    29.5980    34.0730    39.1140     2.5470 
