~V
VERS. 2.00: Ver 2.00
~W
STRT.M 125.0000:
STOP.M 269.0000:
STEP.M 0.1250:
NULL. -999.2500:
UWI. DF3036:
~C
DEPT.M :
GR.API :
RML.OHMM :
RI. :
RXO.OHMM :
CALI.CM :
DEN.GM/CC :
SP.MV :
~A
  125.0000    85.5960    11.1350     9.3850    10.1230    23.1200     2.3140   -25.3780 
  125.1250    82.3670    14.3760    11.6230    12.9890    23.7460     2.3690   -25.7290 
  125.2500    75.8530    17.4050    13.9270    17.4940    24.0900     2.4180   -26.0620 
  125.3750    70.4630    19.2610    15.8270    22.2220    24.0060     2.4370   -26.3760 
  125.5000    67.4630    20.0720    16.9070    22.0830    23.5890     2.4140   -26.6840 
  125.6250    65.8920    19.6530    16.8790    17.0930    23.1820     2.3610   -26.9500 
  125.7500    66.1000    18.5620    16.1600    13.7450    23.0040     2.3060   -27.1850 
  125.8750    67.1710    17.2280    15.1140    13.0230    22.9680     2.2610   -27.4340 
  126.0000    69.2320    15.9650    14.0340    13.3650    22.9860     2.2260   -27.5880 
  126.1250    71.0250    14.9940    13.1290    13.1270    23.0010     2.2010   -27.8120 
  126.2500    71.7320    14.3430    12.4570    12.0540    23.0420     2.1820   -27.8930 
  126.3750    71.1220    14.0240    12.0470    11.5670    23.0890     2.1690   -27.9510 
  126.5000    69.3210    14.0090    11.8950    11.5720    23.1170     2.1640   -27.9050 
  126.6250    68.1870    14.2330    11.9750    11.6610    23.1230     2.1650   -27.8520 
  126.7500    68.9320    14.5020    12.1380    11.6930    23.1230     2.1680   -27.8080 
  126.8750    70.5370    14.6750    12.2630    11.6830    23.1230     2.1700   -27.7180 
  127.0000    70.4400    14.6410    12.2440    11.7240    23.1230     2.1730   -27.6550 
  127.1250    69.9050    14.2910    11.9770    11.8160    23.1230     2.1780   -27.4870 
  127.2500    71.2430    13.6820    11.4940    11.6390    23.1230     2.1830   -27.3680 
  127.3750    73.5140    12.9150    10.8680    11.2080    23.1240     2.1870   -27.1990 
  127.5000    73.9550    12.1850    10.2420    10.6590    23.1420     2.1870   -27.0390 
  127.6250    72.5090    11.8330     9.8660    10.1990    23.2020     2.1840   -26.8360 
  127.7500    71.6680    12.0490     9.9050     9.7670    23.2680     2.1850   -26.6270 
  127.8750    72.1300    12.8980    10.4460     9.4820    23.2840     2.2000   -26.4400 
  128.0000    73.1720    14.2400    11.4380     9.8310    23.3840     2.2410   -26.2880 
  128.1250    72.8000    15.6610    12.6440    12.0870    23.7440     2.3170   -26.1690 
  128.2500    70.7810    16.6280    13.6260    14.7380    24.1790     2.4110   -26.1230 
  128.3750    70.5010    16.8210    14.0640    17.2650    24.4350     2.4950   -26.1370 
  128.5000    72.8040    16.2310    13.8430    18.3740    24.4240     2.5360   -26.2390 
  128.6250    77.0900    15.1790    13.1050    16.6940    24.0930     2.5060   -26.3990 
  128.7500    80.4850    14.2450    12.3160    13.4270    23.5710     2.4310   -26.5650 
  128.8750    79.3170    13.6760    11.7150    11.1120    23.0720     2.3390   -26.6950 
  129.0000    74.3360    13.4210    11.3300    10.6270    22.7710     2.2550   -26.7880 
  129.1250    70.5340    13.1780    11.0070    10.7730    22.7340     2.2010   -26.7760 
  129.2500    71.6240    12.6450    10.5360    10.9070    22.8170     2.1750   -26.6750 
  129.3750    75.2110    11.7560     9.8410    10.9590    22.9160     2.1730   -26.5520 
  129.5000    78.8820    10.6820     9.0060    10.6680    23.0120     2.1860   -26.3060 
  129.6250    84.3600     9.8150     8.2780     9.6780    23.1670     2.2050   -26.1550 
  129.7500    90.2410     9.4150     7.8550     8.3950    23.3240     2.2210   -25.9550 
  129.8750    94.4170     9.5380     7.8070     7.4980    23.3940     2.2310   -25.8420 
  130.0000    94.3960    10.0570     8.0890     7.8120    23.2950     2.2360   -25.7140 
  130.1250    89.5100    10.6850     8.5440     8.7930    23.2000     2.2380   -25.7000 
  130.2500    83.4260    11.0730     8.8990     9.5660    23.1960     2.2420   -25.6870 
  130.3750    78.4220    11.0310     8.9700     9.3720    23.2670     2.2490   -25.7000 
  130.5000    77.8990    10.5510     8.6910     8.6120    23.3520     2.2560   -25.7510 
  130.6250    83.4270     9.8040     8.1410     8.3470    23.4360     2.2620   -25.7570 
  130.7500    88.9850     9.1160     7.5670     8.0930    23.5770     2.2630   -25.8570 
  130.8750    90.8040     8.6690     7.1240     7.3480    23.7490     2.2610   -26.0130 
  131.0000    88.6630     8.5260     6.8910     7.0210    23.8800     2.2570   -26.2820 
  131.1250    86.9890     8.6760     6.9030     7.3800    23.8710     2.2520   -26.6510 
  131.2500    87.8750     8.9610     7.0660     7.8880    23.8370     2.2460   -27.1090 
  131.3750    88.5200     9.2770     7.3130     8.2190    23.8060     2.2380   -27.6120 
  131.5000    86.3140     9.5610     7.5850     8.6150    23.6630     2.2270   -28.1620 
  131.6250    82.5130     9.8160     7.8670     9.0780    23.4080     2.2110   -28.6670 
  131.7500    81.4640    10.1240     8.2020     9.3320    23.1240     2.1930   -29.0980 
  131.8750    80.0190    10.5600     8.6460     9.6160    22.8970     2.1770   -29.3650 
  132.0000    75.9840    11.1500     9.2320    10.3150    22.7150     2.1730   -29.5100 
  132.1250    73.4400    11.8520     9.9410    11.6060    22.6040     2.1890   -29.4590 
  132.2500    74.2660    12.5190    10.6440    13.1820    22.6750     2.2240   -29.3120 
  132.3750    75.4310    13.0070    11.2040    15.1750    22.8700     2.2640   -28.9780 
  132.5000    75.7690    13.1830    11.4830    17.3130    22.9510     2.2920   -28.5890 
  132.6250    76.6060    12.9020    11.3250    16.1340    22.8290     2.2880   -28.1360 
  132.7500    77.6410    12.2510    10.7980    12.8190    22.6850     2.2590   -27.5880 
  132.8750    78.0890    11.3360     9.9990    10.6500    22.5990     2.2220   -27.0720 
  133.0000    79.0330    10.3090     9.0620     9.5820    22.6550     2.1990   -26.4890 
  133.1250    82.8600     9.3400     8.1350     8.6820    23.0250     2.2060   -26.0310 
  133.2500    88.5610     8.5210     7.3190     7.7230    23.6330     2.2350   -25.5920 
  133.3750    92.2860     7.8800     6.6540     6.8810    24.2030     2.2720   -25.3490 
  133.5000    92.2450     7.4040     6.1540     6.5250    24.5790     2.3030   -25.1650 
  133.6250    90.4300     7.1060     5.8470     6.4730    24.7460     2.3190   -25.1970 
  133.7500    89.8940     6.9770     5.7150     6.2450    24.8150     2.3240   -25.4450 
  133.8750    92.1400     7.0620     5.7770     6.0840    24.8410     2.3230   -25.8640 
  134.0000    95.9810     7.4060     6.0590     6.1430    24.8380     2.3200   -26.4830 
  134.1250    98.4400     8.0490     6.5970     6.4230    24.6260     2.3120   -27.2110 
  134.2500    95.4790     8.8490     7.2900     6.9470    24.0580     2.2990   -28.0030 
  134.3750    87.5160     9.6350     8.0150     7.8270    23.3590     2.2820   -28.7670 
  134.5000    80.6070    10.2160     8.6110     8.7790    22.8970     2.2630   -29.4740 
  134.6250    79.6490    10.3890     8.8780     9.0910    22.7930     2.2500   -30.0140 
  134.7500    83.5510    10.2210     8.8200     8.9590    22.8820     2.2440   -30.4050 
  134.8750    88.1770     9.8400     8.5200     8.6490    23.1360     2.2460   -30.6620 
  135.0000    90.1960     9.4220     8.1190     8.2710    23.5050     2.2530   -30.8470 
  135.1250    90.2830     9.1400     7.7800     8.0100    23.8300     2.2620   -31.0040 
  135.2500    90.0420     9.0460     7.5830     7.8920    23.9650     2.2680   -31.1830 
  135.3750    89.8270     9.1640     7.5680     8.0310    23.9040     2.2670   -31.3840 
  135.5000    87.3160     9.5340     7.7680     8.3790    23.7380     2.2560   -31.6280 
  135.6250    83.1260    10.2930     8.2950     8.9040    23.6190     2.2360   -31.8600 
  135.7500    82.0320    11.4480     9.1600     9.4800    23.5820     2.2130   -32.1750 
  135.8750    82.6040    12.9460    10.3490    10.1030    23.5850     2.1930   -32.4290 
  136.0000    80.7250    14.5880    11.7400    10.7510    23.5890     2.1800   -32.6960 
  136.1250    73.7740    15.9560    13.0330    11.8730    23.5380     2.1760   -32.8340 
