~V
VERS. 2.00: Ver 2.00
~W
STRT.M 125.0000:
STOP.M 269.0000:
STEP.M 0.1250:
NULL. -999.2500:
UWI. DF3036:
~C
DEPT.M :
GR.API :
RML.OHMM :
RI. :
RXO.OHMM :
CALI.CM :
DEN.GM/CC :
SP.MV :
~A
# ...
  170.0000    77.0790    52.2150    46.9020    50.9410    25.0190     2.2850   -41.4670 
  170.1250    76.8750    57.6540    52.1460    58.2710    25.0050     2.2800   -41.6930 
  170.2500    74.3570    62.9390    57.4650    65.8340    25.0070     2.2750   -41.8490 
  170.3750    71.4180    67.5930    62.3390    70.9830    25.0370     2.2690   -41.9040 
  170.5000    71.5090    71.1450    66.2730    73.0690    25.0590     2.2640   -41.8150 
  170.6250    73.4410    72.7800    68.6820    77.7010    25.0540     2.2600   -41.5710 
  170.7500    72.8090    73.2690    69.9010    81.0890    25.0360     2.2580   -41.2050 
  170.8750    70.3540    73.5920    70.7260    81.9020    25.0070     2.2600   -40.7930 
  171.0000    70.2870    76.4140    72.6150    81.4660    24.9760     2.2650   -40.3620 
  171.1250    73.9290    84.3910    78.2850    77.7990    24.9250     2.2680   -40.0150 
  171.2500    77.8720    99.7730    89.0700    73.4120    24.8640     2.2640   -39.6970 
  171.3750    78.1640   121.9200   105.2900    78.5780    24.8460     2.2500   -39.4900 
  171.5000    73.5090   145.3090   125.2610    98.5980    24.8590     2.2250   -39.3490 
  171.6250    69.3650   166.2040   144.4230   137.5650    24.8840     2.1980   -39.3860 
  171.7500    69.6520   179.4460   157.5830   170.1030    24.9060     2.1780   -39.4930 
  171.8750    69.9910   181.9110   161.8320   181.4270    24.9010     2.1720   -39.6590 
  172.0000    66.9860   174.8410   157.6930   169.6480    24.8820     2.1790   -39.8250 
  172.1250    64.2280   163.2930   148.7390   141.9270    24.7850     2.1950   -39.9900 
  172.2500    66.1630   153.1460   140.1880   116.1550    24.6160     2.2100   -40.1490 
  172.3750    69.9920   146.0000   133.8820    98.2330    24.3330     2.2210   -40.2710 
  172.5000    70.8820   141.2820   129.6980    91.4210    24.1450     2.2250   -40.3990 
  172.6250    70.1150   137.3730   126.3890    93.7040    24.0960     2.2270   -40.4720 
  172.7500    70.7990   132.7030   122.4810    97.5050    24.1090     2.2290   -40.4970 
  172.8750    71.3610   127.0900   117.6550    96.6230    24.1390     2.2300   -40.4390 
  173.0000    69.1750   121.5460   112.6560    93.9870    24.2250     2.2300   -40.3380 
  173.1250    66.6670   118.5130   109.5660    92.2160    24.3570     2.2270   -40.1230 
  173.2500    67.6580   119.8250   110.1650    85.9070    24.4470     2.2240   -39.8680 
  173.3750    70.7400   126.9770   115.9120    78.7830    24.4760     2.2230   -39.5630 
  173.5000    72.7100   140.7390   127.5530    75.6270    24.5050     2.2250   -39.3250 
  173.6250    71.3460   161.5510   145.3590    82.8060    24.5270     2.2270   -39.0960 
  173.7500    69.4600   186.0060   166.1130    93.1190    24.5430     2.2260   -38.9740 
  173.8750    69.1270   210.5400   186.5570   101.8010    24.5610     2.2190   -38.9340 
  174.0000    68.9670   231.1640   203.2360   113.3050    24.6000     2.2070   -38.9830 
  174.1250    68.0530   243.6780   212.6550   127.3430    24.6150     2.1950   -39.1230 
  174.2500    66.8410   249.3500   216.0560   132.3150    24.6030     2.1870   -39.3190 
  174.3750    65.4810   250.6520   215.5450   129.6890    24.5660     2.1840   -39.5460 
  174.5000    63.7040   250.4320   213.5570   128.3230    24.5410     2.1870   -39.7150 
  174.6250    62.7370   250.6710   211.8980   130.0180    24.4660     2.1910   -39.8360 
  174.7500    61.9060   251.5120   210.8850   136.4020    24.3100     2.1920   -39.9020 
  174.8750    60.5930   252.0130   209.8830   145.1820    24.1790     2.1880   -39.8530 
  175.0000    62.5570   250.8560   207.9210   145.4100    24.1480     2.1810   -39.6850 
  175.1250    67.7310   246.5870   203.9660   139.8750    24.1530     2.1780   -39.3740 
  175.2500    69.7130   239.8090   198.4210   138.0320    24.0960     2.1810   -39.0170 
  175.3750    68.3130   231.7350   192.1840   134.5390    24.1140     2.1920   -38.6090 
  175.5000    67.3530   224.1210   186.5770   125.3980    24.1650     2.2050   -38.2200 
  175.6250    67.7910   219.1630   183.3610   117.3970    24.2170     2.2160   -37.8450 
  175.7500    68.0010   217.2320   182.8360   112.8590    24.2400     2.2240   -37.4570 
  175.8750    68.8700   217.5420   184.4530   110.9340    24.2280     2.2290   -37.1200 
  176.0000    70.7770   218.0340   186.6240   108.5570    24.1100     2.2310   -36.7980 
  176.1250    72.0100   214.9470   186.3380    99.5860    23.8990     2.2300   -36.5900 
  176.2500    72.7030   205.8840   181.3330    89.2700    23.6710     2.2250   -36.3890 
  176.3750    74.2910   189.7600   170.2780    79.7610    23.4650     2.2200   -36.2110 
  176.5000    76.5360   167.5200   153.3790    70.8800    23.2700     2.2170   -36.0110 
  176.6250    77.3960   142.0680   132.3530    63.1950    23.1000     2.2220   -35.8280 
  176.7500    77.2010   117.9080   111.2020    56.4980    22.9580     2.2340   -35.6320 
  176.8750    78.9740    97.7370    92.6550    49.4810    22.8110     2.2500   -35.4600 
  177.0000    84.2600    83.0230    78.5080    41.3010    22.7180     2.2650   -35.3640 
  177.1250    87.0520    75.0650    70.3230    35.8120    22.6540     2.2750   -35.2340 
  177.2500    83.0680    72.1790    66.8230    34.0670    22.5320     2.2790   -35.1470 
  177.3750    77.2730    73.0420    66.9200    32.5690    22.3300     2.2800   -35.0550 
  177.5000    74.8570    76.0230    69.2170    30.3010    22.0890     2.2780   -34.9970 
  177.6250    76.0840    79.5750    72.3600    31.2830    21.8330     2.2750   -34.9410 
  177.7500    76.7710    82.8370    75.4090    35.9060    21.5580     2.2750   -34.9390 
  177.8750    75.8590    85.9940    78.3910    38.0970    21.5150     2.2750   -34.9330 
  178.0000    76.2600    89.4930    81.6230    35.0070    21.9490     2.2720   -34.9790 
  178.1250    78.3690    93.1080    84.9390    35.9350    22.7590     2.2630   -35.0070 
  178.2500    78.7110    95.4250    87.1750    46.8900    23.4520     2.2490   -35.0710 
  178.3750    74.1990    94.9070    86.9680    68.0540    23.8430     2.2330   -35.1530 
  178.5000    67.3030    90.8350    83.5740    90.2910    23.9880     2.2220   -35.2600 
  178.6250    66.3450    83.8290    77.2990    85.1330    24.0120     2.2180   -35.3090 
  178.7500    70.5620    76.6400    70.4890    63.2320    23.9760     2.2190   -35.3610 
  178.8750    75.4880    71.0730    64.8030    47.5860    23.8860     2.2200   -35.4130 
  179.0000    78.3160    67.8280    61.0360    41.9940    23.8090     2.2190   -35.3940 
  179.1250    80.2360    66.7900    59.2730    43.3140    23.7470     2.2150   -35.4280 
  179.2500    79.8320    66.8170    58.5690    44.2340    23.6450     2.2100   -35.3970 
  179.3750    76.7470    67.5050    58.5180    43.2880    23.5440     2.2080   -35.3990 
  179.5000    75.0770    69.2140    59.0980    41.6810    23.5440     2.2090   -35.3580 
  179.6250    76.4830    72.4600    60.8100    41.3980    23.6430     2.2160   -35.3620 
  179.7500    75.8390    77.3360    63.8770    42.7180    23.7730     2.2250   -35.3270 
  179.8750    72.4320    83.0190    68.3850    45.2880    23.8890     2.2320   -35.2920 
  180.0000    71.0390    89.4160    74.0990    49.2090    23.9270     2.2370   -35.2290 
  180.1250    73.9970    94.2190    80.5100    54.4830    23.9150     2.2390   -35.2030 
  180.2500    76.5850    98.1690    86.7640    60.2650    23.8940     2.2390   -35.1780 
  180.3750    77.7100   103.2850    92.2450    64.9810    23.8800     2.2390   -35.1060 
  180.5000    76.4240   108.9110    96.4510    68.3160    23.8480     2.2370   -35.0710 
  180.6250    72.9910   112.3370    98.6810    72.1180    23.7770     2.2320   -35.0200 
  180.7500    70.9200   113.5830    99.0410    77.0910    23.7160     2.2260   -34.9760 
  180.8750    70.5550   112.8780    97.7540    81.4850    23.6870     2.2220   -34.9500 
  181.0000    70.4890   110.9170    95.4050    82.2100    23.6580     2.2220   -34.9790 
  181.1250    70.4320   108.6970    92.8340    76.8780    23.5940     2.2250   -34.9910 
