~V
VERS. 2.00: Ver 2.00
~W
STRT.M 85.0000:
STOP.M 235.0000:
STEP.M 0.1250:
NULL. -999.2500:
UWI. DF305:
~C
DEPT.M :
DEN.GM/CC :
SP.MV :
AC.US/MT :
GR.API :
CALI.CM :
RXO.OHMM :
RI. :
RML.OHMM :
~A
# ...
  145.0000     2.4080   -22.6190   352.4710    79.9790    24.5540    15.1160    15.2350    18.1110 
  145.1250     2.3490   -23.1100   373.5370    78.2530    24.5540    17.2330    18.1550    21.7710 
  145.2500     2.3010   -23.6160   392.7590    75.0610    24.5540    20.9760    22.2950    26.9240 
  145.3750     2.2740   -24.1320   405.8450    69.9860    24.5540    27.9340    28.0140    33.9880 
  145.5000     2.2690   -24.6500   412.4700    65.2320    24.5540    38.4040    35.4120    43.1220 
  145.6250     2.2810   -25.1500   414.9110    63.2690    24.5540    48.4680    44.0840    53.9530 
  145.7500     2.2950   -25.6290   416.1330    64.3530    24.5540    55.4320    52.5930    64.6210 
  145.8750     2.2990   -26.0850   416.6090    67.2480    24.5540    59.1280    59.9030    73.5210 
  146.0000     2.2910   -26.4980   416.4570    69.7230    24.5540    59.9560    65.7780    80.1360 
  146.1250     2.2740   -26.8640   416.2630    70.2160    24.5860    58.4320    70.9380    85.4710 
  146.2500     2.2590   -27.1820   416.5130    70.0430    24.6830    57.4770    76.5450    91.3670 
  146.3750     2.2510   -27.4480   416.8630    69.1190    24.8260    60.5640    82.8190    98.2700 
  146.5000     2.2500   -27.6700   416.6320    68.6090    24.9140    68.1050    88.9980   105.8600 
  146.6250     2.2560   -27.8540   415.5090    73.3920    24.9350    78.6950    93.0880   110.0700 
  146.7500     2.2670   -27.9990   414.1910    78.8860    24.9350    85.6970    93.9000   109.8420 
  146.8750     2.2790   -28.1030   413.1380    78.8880    24.9350    83.4930    91.1700   105.0290 
  147.0000     2.2890   -28.1940   412.3160    73.2210    24.9350    72.6460    85.6750    97.0220 
  147.1250     2.2930   -28.2630   411.7320    67.7650    24.9350    61.7990    78.7560    87.8500 
  147.2500     2.2990   -28.3380   411.9950    67.4630    24.9310    56.3630    72.0340    79.3760 
  147.3750     2.3130   -28.4210   413.5890    69.3010    24.9090    53.1750    66.3120    72.3930 
  147.5000     2.3310   -28.5110   415.8620    70.3980    24.8550    49.1850    62.1640    67.4010 
  147.6250     2.3380   -28.5970   416.7520    69.9670    24.7770    44.6390    60.5450    65.3230 
  147.7500     2.3290   -28.6940   415.4380    70.4570    24.6900    43.9580    61.5720    66.1560 
  147.8750     2.3130   -28.8060   412.8250    71.5330    24.5400    47.2970    65.5380    70.1240 
  148.0000     2.2990   -28.9320   410.5900    69.6420    24.3600    52.4320    72.7600    77.4340 
  148.1250     2.2930   -29.0850   409.9990    65.7950    24.2550    60.3190    83.8200    88.6610 
  148.2500     2.2850   -29.2340   410.3580    64.0130    24.2810    67.2070    96.9160   102.1700 
  148.3750     2.2720   -29.3750   410.7790    62.9110    24.3710    71.3110   109.3410   115.2050 
  148.5000     2.2570   -29.5120   410.8200    61.4400    24.4310    84.1560   117.5190   123.5960 
  148.6250     2.2520   -29.6520   410.7190    60.7440    24.4510   111.5040   117.1400   122.0480 
  148.7500     2.2610   -29.7800   411.0630    62.4910    24.4720   118.5060   109.6190   112.5410 
  148.8750     2.2750   -29.9270   412.0870    67.4770    24.5090    93.8360    98.4180    99.7230 
  149.0000     2.2850   -30.0730   413.3980    72.4870    24.5330    63.4520    87.9280    88.5960 
  149.1250     2.2840   -30.2100   413.7780    72.0510    24.5350    50.4540    82.3230    83.0780 
  149.2500     2.2780   -30.3510   412.5320    69.0050    24.5330    48.5650    82.7750    83.6100 
  149.3750     2.2730   -30.5090   409.6700    67.6960    24.5330    54.8590    90.2370    90.8530 
  149.5000     2.2690   -30.6650   405.7540    67.5010    24.5350    71.9530   105.0480   105.4040 
  149.6250     2.2610   -30.8140   401.9620    63.8180    24.5360   102.8920   127.0900   128.3800 
  149.7500     2.2510   -30.9790   399.8580    59.8410    24.5350   134.7010   151.9840   156.2120 
  149.8750     2.2410   -31.1300   400.3760    59.1410    24.5450   156.3620   175.4920   184.1690 
  150.0000     2.2360   -31.2500   403.0970    60.2740    24.5740   163.1660   194.4040   207.2710 
  150.1250     2.2380   -31.3540   406.2270    59.5670    24.6210   159.6200   208.3100   223.6750 
  150.2500     2.2450   -31.4360   408.1110    59.1050    24.6700   160.4250   221.1540   238.3160 
  150.3750     2.2510   -31.4960   408.6290    59.7780    24.7530   172.0550   234.9060   254.2300 
  150.5000     2.2530   -31.5430   408.5530    60.7990    24.8530   191.7010   248.6180   270.7070 
  150.6250     2.2500   -31.5860   408.8420    64.6620    24.8990   211.4450   258.0050   282.2180 
  150.7500     2.2470   -31.6070   409.7970    69.1710    24.9010   219.9070   260.7040   284.9840 
  150.8750     2.2450   -31.6060   411.2680    68.9440    24.8820   212.5000   256.4560   278.5360 
  151.0000     2.2430   -31.5860   412.9090    63.7870    24.8740   195.9310   246.2320   264.4540 
  151.1250     2.2440   -31.5290   414.1230    60.0400    24.8940   187.2390   229.6600   242.6830 
  151.2500     2.2530   -31.4610   414.5040    63.8080    24.9080   198.7580   207.6890   214.9500 
  151.3750     2.2710   -31.3970   413.8440    70.1390    24.9120   210.9810   181.5830   183.6040 
  151.5000     2.2890   -31.3600   412.2590    70.0880    24.9020   190.5680   154.5190   152.9070 
  151.6250     2.2970   -31.3070   410.4710    64.3650    24.8300   137.1110   131.4730   128.2650 
  151.7500     2.2980   -31.2500   409.6920    64.3510    24.6950    91.9540   114.6080   110.8020 
  151.8750     2.3040   -31.1890   410.4840    69.8250    24.5880    69.1850   104.3180   100.2750 
  152.0000     2.3160   -31.1530   412.2520    70.8750    24.5860    61.9020    99.9420    95.6690 
  152.1250     2.3180   -31.1500   413.2810    64.6100    24.7250    66.1250   100.9630    96.3080 
  152.2500     2.3020   -31.1710   412.6650    62.0910    24.9060    75.6720   105.0300    99.8660 
  152.3750     2.2800   -31.1880   410.8620    63.4080    25.0480    85.2630   110.5260   104.7740 
  152.5000     2.2730   -31.1770   409.0780    64.1050    25.1070    91.1160   115.8140   109.4670 
  152.6250     2.2840   -31.1850   408.5850    65.4770    25.1130    94.9950   119.2080   112.4110 
  152.7500     2.2930   -31.2050   409.0040    68.3320    25.1140   100.0270   120.3290   113.3790 
  152.8750     2.2910   -31.2380   409.4990    68.9260    25.1160   103.2560   119.3460   112.6200 
  153.0000     2.2830   -31.2630   410.4260    65.5710    25.1240   100.3310   116.9990   110.8260 
  153.1250     2.2770   -31.2790   411.0950    62.5510    25.1560    92.6580   114.5860   109.1790 
  153.2500     2.2770   -31.2690   411.4420    62.5120    25.2100    88.4610   113.4520   108.8480 
  153.3750     2.2790   -31.2580   411.5150    62.7180    25.2640    89.2580   114.4140   110.5840 
  153.5000     2.2810   -31.2500   411.1850    61.9490    25.2990    94.9050   117.7590   114.6970 
  153.6250     2.2790   -31.2440   410.4160    62.1480    25.3050   106.6150   123.2890   121.1280 
  153.7500     2.2760   -31.2410   409.5970    62.4560    25.2980   120.9020   129.4350   128.4020 
  153.8750     2.2740   -31.2470   408.9200    61.2320    25.2940   131.2080   134.9610   135.2460 
  154.0000     2.2770   -31.2750   408.3020    59.9890    25.2930   133.5430   139.1890   140.8180 
  154.1250     2.2860   -31.3020   407.5150    61.4180    25.2930   130.9360   142.3060   145.1030 
  154.2500     2.2980   -31.3480   406.6580    63.1270    25.2930   130.3530   145.6000   149.3530 
  154.3750     2.3050   -31.3980   406.0260    61.5970    25.2930   133.6670   150.0780   154.6520 
  154.5000     2.2970   -31.4520   405.8300    59.7170    25.2930   140.1920   156.2610   161.6570 
  154.6250     2.2750   -31.5200   406.0800    62.8320    25.2930   150.0960   164.1360   170.4920 
  154.7500     2.2600   -31.5890   406.6360    66.6330    25.2930   161.7590   172.5630   180.0120 
  154.8750     2.2590   -31.6570   407.5890    65.7810    25.2930   173.5500   180.5180   189.1720 
