~V
VERS. 2.00: Ver 2.00
~W
STRT.M 64.0000:
STOP.M 278.0000:
STEP.M 0.1250:
NULL. -999.2500:
UWI. DF3056:
~C
DEPT.M :
SP.MV :
GR.API :
CALI.CM :
RXO.OHMM :
RI. :
RML.OHMM :
DEN.GM/CC :
~A
# ...
  199.0000   -42.8770    58.5320    24.2570   235.4930   181.1340   198.8840     2.2090 
  199.1250   -42.3490    60.1970    24.5800   194.9260   167.4410   181.4390     2.2120 
  199.2500   -41.8190    59.6980    25.1270   165.5720   150.6230   161.1230     2.2210 
  199.3750   -41.3110    61.2950    25.4090   151.1120   132.1600   140.0170     2.2290 
  199.5000   -40.8150    63.5580    25.3700   143.7380   113.8700   120.1840     2.2330 
  199.6250   -40.3840    62.7760    25.3450   118.4330    98.5400   104.7320     2.2400 
  199.7500   -40.0530    61.0650    25.3270    94.7900    87.5410    94.4480     2.2480 
  199.8750   -39.7990    61.6100    25.3100    69.7710    81.2190    89.2150     2.2510 
  200.0000   -39.6070    62.0350    25.2870    56.9310    79.4980    88.5520     2.2450 
  200.1250   -39.4620    60.1240    25.3470    63.5020    82.2130    92.3140     2.2370 
  200.2500   -39.3660    59.6420    25.3650    76.7370    87.4220    98.8910     2.2330 
  200.3750   -39.2980    61.1380    25.3180    85.3270    94.4450   107.5390     2.2320 
  200.5000   -39.2350    62.3360    25.1390    94.2050   102.3850   117.2040     2.2290 
  200.6250   -39.1620    61.0950    25.0640   101.2290   109.4250   125.7360     2.2240 
  200.7500   -39.0670    57.7570    25.0290   108.4430   114.0530   131.3970     2.2220 
  200.8750   -38.9550    55.3650    25.0580   109.9070   115.9780   134.0360     2.2270 
  201.0000   -38.8140    56.6570    25.2670   110.5010   115.5650   134.1710     2.2300 
  201.1250   -38.6150    58.3410    25.2990   121.5780   112.7710   131.6220     2.2220 
  201.2500   -38.3450    56.6150    25.2810   131.3610   109.0700   128.0750     2.2100 
  201.3750   -37.9830    54.1900    25.1240   120.5620   105.4660   124.9080     2.2030 
  201.5000   -37.5640    53.2710    25.0310    95.7780   102.7210   122.7880     2.2050 
  201.6250   -37.1080    52.8920    24.9270    82.5350   101.4510   122.0230     2.2060 
  201.7500   -36.6030    52.7340    24.7730    87.1960   101.3780   122.2450     2.2030 
  201.8750   -36.0430    54.6160    24.8670    99.7050   102.0520   122.8040     2.1980 
  202.0000   -35.4590    57.0770    24.9310   110.1290   102.9310   123.1000     2.1980 
  202.1250   -34.8720    58.2550    25.0420   114.4820   103.6210   122.5140     2.2060 
  202.2500   -34.2970    59.8090    25.0910   117.4600   103.6010   120.6820     2.2150 
  202.3750   -33.7640    60.6410    25.0540   115.9240   102.3980   117.2360     2.2170 
  202.5000   -33.2450    60.1530    25.0340   110.8510   100.1940   112.4420     2.2120 
  202.6250   -32.7200    60.5710    25.0550   105.5020    96.0740   105.1450     2.2100 
  202.7500   -32.2200    61.2270    25.1030    99.6570    88.1770    94.0820     2.2220 
  202.8750   -31.7520    60.5280    25.0740    96.7070    75.8250    79.5170     2.2510 
  203.0000   -31.2690    57.8710    25.0810    92.2720    61.0860    63.6540     2.2950 
  203.1250   -30.8080    58.9150    25.1390    89.2330    46.9760    48.9610     2.3460 
  203.2500   -30.3810    66.4140    25.0500    82.9600    35.2100    36.6850     2.3860 
  203.3750   -30.0040    76.5000    24.7390    73.3890    26.4930    27.5220     2.4050 
  203.5000   -29.6700    84.0290    24.1580    52.0760    20.6530    21.4780     2.4080 
  203.6250   -29.4050    85.8490    23.8410    29.5580    17.3400    18.3880     2.4100 
  203.7500   -29.1790    84.6600    23.6620    17.9090    15.5810    17.0270     2.4150 
  203.8750   -28.9670    82.8650    23.5450    18.5910    14.7590    16.6470     2.4110 
  204.0000   -28.7980    81.5760    23.5340    19.5310    14.3620    16.6200     2.3960 
  204.1250   -28.6460    81.8000    23.5410    16.0520    14.1090    16.6020     2.3890 
  204.2500   -28.4840    83.5890    23.5750    13.4820    13.9520    16.5810     2.3990 
  204.3750   -28.2900    87.2250    23.5910    13.0620    13.9290    16.6870     2.4140 
  204.5000   -28.0780    88.0130    23.8350    14.2110    14.3000    17.4310     2.4150 
  204.6250   -27.7790    81.4580    24.1770    14.5730    15.8550    20.0780     2.3960 
  204.7500   -27.4010    74.1910    24.4600    16.2440    19.0990    25.0710     2.3780 
  204.8750   -26.9910    70.3420    24.4630    23.5580    24.3200    32.5120     2.3900 
  205.0000   -26.5290    66.6370    24.4390    37.6590    31.5120    42.1070     2.4510 
  205.1250   -26.0180    59.3820    24.5770    58.6010    39.9570    52.5180     2.5530 
  205.2500   -25.4980    53.6900    24.7300    88.5720    46.4000    59.9490     2.6410 
  205.3750   -24.9460    51.7160    24.7360   125.3820    47.4220    60.8580     2.6820 
  205.5000   -24.3880    52.8780    24.7400   141.6880    42.2600    54.3210     2.6700 
  205.6250   -23.8860    59.5070    24.7930   110.0960    33.8050    43.2150     2.6140 
  205.7500   -23.4300    67.6490    24.8830    63.8870    26.0100    32.8030     2.5500 
  205.8750   -23.0200    72.8980    24.8570    32.5700    20.1280    25.1640     2.5060 
  206.0000   -22.6980    76.9170    24.8690    19.2980    16.3130    20.5360     2.4940 
  206.1250   -22.4600    83.0410    24.8440    14.9790    14.3060    18.4430     2.5120 
  206.2500   -22.2740    86.8120    24.7640    14.7050    13.2730    17.6320     2.5340 
  206.3750   -22.1660    83.0790    24.7350    18.7360    12.7580    17.3810     2.5450 
  206.5000   -22.0940    76.5530    24.7260    23.3080    12.3880    17.1240     2.5350 
  206.6250   -22.0910    77.7720    24.7630    22.9200    11.8930    16.5070     2.5080 
  206.7500   -22.1550    84.2100    24.7680    17.8080    11.2420    15.5930     2.4850 
  206.8750   -22.2600    89.8910    24.7690    13.2940    10.5680    14.6140     2.4810 
  207.0000   -22.3560    92.0520    24.7560    11.7180    10.0250    13.8630     2.4950 
  207.1250   -22.4310    91.5400    24.7330    11.3640     9.8000    13.6560     2.5130 
  207.2500   -22.4880    90.5130    24.8240    12.2110     9.8640    13.8870     2.5250 
  207.3750   -22.5170    87.6400    24.7910    13.6350    10.1370    14.3830     2.5250 
  207.5000   -22.5460    84.3500    24.7700    14.9950    10.4970    14.9180     2.5100 
  207.6250   -22.5180    80.9940    24.7640    15.0940    10.7890    15.2780     2.4840 
  207.7500   -22.4140    78.1740    24.7630    15.1450    10.9750    15.4550     2.4690 
  207.8750   -22.2240    76.8420    24.7380    14.6890    11.0920    15.5560     2.4750 
  208.0000   -21.9780    77.1000    24.7170    13.3400    11.2110    15.6940     2.4980 
  208.1250   -21.6980    78.7380    24.7720    11.9450    11.3480    15.8720     2.5260 
  208.2500   -21.3870    81.3630    24.7380    12.5680    11.4560    15.9920     2.5500 
  208.3750   -21.0480    84.4690    24.7240    14.2640    11.4080    15.8830     2.5650 
  208.5000   -20.6670    86.7500    24.7080    14.7470    11.0660    15.3610     2.5660 
  208.6250   -20.2600    87.3470    24.6520    13.4570    10.3200    14.3170     2.5530 
  208.7500   -19.8430    86.9860    24.4660    12.4190     9.3290    12.9580     2.5350 
  208.8750   -19.4590    84.2570    24.5320    11.8100     8.2810    11.5260     2.5170 
  209.0000   -19.1240    78.0820    24.4420    10.6570     7.3500    10.2890     2.5030 
  209.1250   -18.8430    69.5900    24.1370     9.0210     6.6970     9.5120     2.4930 
  209.2500   -18.6140    63.3460    23.8330     8.1530     6.3190     9.1490     2.4880 
  209.3750   -18.4450    60.6630    23.7830     8.4160     6.1980     9.1080     2.4830 
  209.5000   -18.3490    62.3930    23.7920     8.8400     6.2890     9.2870     2.4700 
  209.6250   -18.3230    67.2600    23.8930     8.1600     6.5120     9.5800     2.4480 
  209.7500   -18.3730    73.2990    23.9000     6.7210     6.7780     9.8730     2.4260 
  209.8750   -18.4880    79.1100    23.8760     6.2350     7.0520    10.1310     2.4180 
  210.0000   -18.6170    82.8600    23.8040     7.3700     7.2890    10.3020     2.4320 
  210.1250   -18.7420    84.1590    23.8830     9.1600     7.4540    10.3770     2.4610 
