~V
VERS. 2.00: Ver 2.00
~W
STRT.M 62.0000:
STOP.M 265.0000:
STEP.M 0.1250:
NULL. -999.2500:
UWI. DF3071:
~C
DEPT.M :
GR.API :
CALI.CM :
RXO.OHMM :
RI. :
RML.OHMM :
DEN.GM/CC :
SP.MV :
~A
# ...
  242.0000    52.5980    25.2540    74.5690    47.4880    45.6000     2.6580   -14.7280 
  242.1250    46.0840    25.2440    43.1870    30.4440    29.5930     2.6340   -14.4420 
  242.2500    47.0320    25.1050    21.6500    19.7980    18.8170     2.6150   -14.2790 
  242.3750    54.3950    24.8440    11.6180    13.7790    12.7200     2.5880   -14.2120 
  242.5000    62.9930    24.5690     8.3820    10.5320     9.8320     2.5440   -14.2650 
  242.6250    68.5480    24.4030     7.8400     9.0270     8.6860     2.4980   -14.4470 
  242.7500    71.2340    24.3100     7.9760     8.3990     8.2610     2.4740   -14.6980 
  242.8750    71.8200    24.2320     8.6390     8.3510     8.3180     2.4800   -14.9850 
  243.0000    70.6620    24.1760     9.9250     8.6430     8.6060     2.5060   -15.2850 
  243.1250    70.3110    24.1600    11.0860     9.0540     8.9430     2.5300   -15.5440 
  243.2500    72.8260    24.1360    11.5200     9.3910     9.2000     2.5280   -15.7520 
  243.3750    76.1200    24.0290    11.2420     9.5840     9.3330     2.5050   -15.9090 
  243.5000    77.2320    23.8430    10.6460     9.6280     9.3530     2.4770   -15.9700 
  243.6250    77.4850    23.7420    10.0550     9.5600     9.3130     2.4550   -15.9330 
  243.7500    78.4000    23.8120     9.6340     9.4600     9.2900     2.4420   -15.8960 
  243.8750    78.7280    23.9470     9.5650     9.3700     9.3240     2.4270   -15.8740 
  244.0000    77.1010    23.9670     9.9780     9.3140     9.4160     2.4120   -15.8360 
  244.1250    73.7570    23.8080    10.8760     9.2980     9.5460     2.4040   -15.8520 
  244.2500    71.8190    23.6160    11.5300     9.3090     9.6780     2.4060   -15.8830 
  244.3750    72.6440    23.4790    11.4750     9.3410     9.7940     2.4120   -15.8620 
  244.5000    74.3920    23.4210    11.0020     9.3920     9.8910     2.4160   -15.8760 
  244.6250    74.5680    23.5380    11.0560     9.4520     9.9700     2.4190   -15.9450 
  244.7500    74.1100    23.8650    11.6220     9.5020    10.0390     2.4200   -15.9600 
  244.8750    72.7030    24.3150    12.2000     9.5270    10.0990     2.4210   -15.9450 
  245.0000    70.0870    24.6860    12.3250     9.5190    10.1440     2.4280   -15.9700 
  245.1250    69.3310    24.8080    11.9030     9.4790    10.1650     2.4420   -15.9430 
  245.2500    71.7030    24.7900    11.6980     9.4260    10.1690     2.4580   -15.8860 
  245.3750    74.6350    24.7710    12.4490     9.3810    10.1680     2.4660   -15.8540 
  245.5000    73.8950    24.8480    14.3500     9.3550    10.1820     2.4640   -15.8150 
  245.6250    69.5650    25.0040    15.4780     9.3600    10.2290     2.4620   -15.7520 
  245.7500    65.9960    25.1310    15.1550     9.3970    10.3120     2.4640   -15.6510 
  245.8750    65.8740    25.1860    14.4220     9.4700    10.4320     2.4640   -15.4950 
  246.0000    69.1810    25.1920    13.9710     9.5840    10.5900     2.4570   -15.2850 
  246.1250    71.7040    25.2000    13.3700     9.7590    10.8020     2.4480   -15.1260 
  246.2500    71.5800    25.1880    12.5830     9.9950    11.0670     2.4480   -15.0400 
  246.3750    68.8660    25.1170    11.8250    10.2830    11.3770     2.4520   -14.9600 
  246.5000    67.5100    24.9990    11.2100    10.5980    11.7010     2.4520   -14.8760 
  246.6250    70.0970    24.9110    10.8240    10.8820    11.9750     2.4440   -14.7670 
  246.7500    72.8220    24.8950    10.3320    11.0900    12.1550     2.4360   -14.6920 
  246.8750    72.9360    24.9050     9.7880    11.2040    12.2300     2.4330   -14.6920 
  247.0000    70.6270    24.8740     9.5130    11.2330    12.2250     2.4350   -14.6750 
  247.1250    69.2670    24.8030     9.6360    11.2130    12.1980     2.4430   -14.5960 
  247.2500    70.1700    24.7510     9.8750    11.2050    12.2080     2.4590   -14.5100 
  247.3750    73.3700    24.7450    10.0920    11.2410    12.2770     2.4790   -14.4400 
  247.5000    76.5430    24.7730    10.2720    11.3240    12.3920     2.4960   -14.3590 
  247.6250    76.7690    24.7910    10.4590    11.4220    12.5100     2.5060   -14.3540 
  247.7500    75.4040    24.7580    10.6850    11.4810    12.5820     2.5070   -14.4130 
  247.8750    74.5910    24.6720    11.0170    11.4750    12.5870     2.5000   -14.4110 
  248.0000    73.9320    24.5780    11.3760    11.4150    12.5410     2.4890   -14.4270 
  248.1250    74.1720    24.5210    11.5710    11.3520    12.5070     2.4800   -14.4850 
  248.2500    75.7500    24.4870    11.7410    11.3540    12.5650     2.4830   -14.4840 
  248.3750    77.4530    24.4790    12.3770    11.4730    12.7740     2.4910   -14.4210 
  248.5000    77.3850    24.5210    13.7260    11.7420    13.1460     2.4930   -14.3390 
  248.6250    75.5740    24.6240    15.3240    12.1780    13.6510     2.4850   -14.2270 
  248.7500    74.4300    24.7740    16.7370    12.6850    14.1620     2.4670   -14.0780 
  248.8750    74.0540    24.9500    17.8870    13.1510    14.5730     2.4520   -13.9890 
  249.0000    74.2730    25.1060    18.2170    13.4570    14.8010     2.4520   -13.9030 
  249.1250    75.4640    25.2170    17.1140    13.4900    14.7820     2.4650   -13.7660 
  249.2500    75.8410    25.3150    15.4760    13.3270    14.6080     2.4800   -13.7420 
  249.3750    75.7020    25.4060    13.8920    13.0680    14.3770     2.4810   -13.8850 
  249.5000    77.3110    25.4400    12.7070    12.8200    14.1920     2.4680   -14.1650 
  249.6250    78.7480    25.3980    12.3420    12.6710    14.1420     2.4550   -14.4520 
  249.7500    77.6450    25.3670    12.6270    12.6170    14.1950     2.4500   -14.6920 
  249.8750    75.2430    25.3610    13.5080    12.6230    14.2930     2.4480   -14.8460 
  250.0000    73.4990    25.3420    14.8820    12.6500    14.3800     2.4490   -15.0040 
  250.1250    72.2850    25.2830    15.8370    12.6970    14.4460     2.4590   -15.1810 
  250.2500    71.0830    25.1810    15.8330    12.7910    14.5420     2.4740   -15.2650 
  250.3750    72.4930    25.0340    15.2010    12.9610    14.7140     2.4860   -15.2180 
  250.5000    76.1230    24.8710    15.0840    13.2080    14.9700     2.4950   -15.0300 
  250.6250    77.7660    24.7850    16.3620    13.5140    15.2780     2.5070   -14.7870 
  250.7500    76.4580    24.7760    17.8400    13.8320    15.5780     2.5160   -14.5710 
  250.8750    73.7020    24.7940    18.5030    14.1430    15.8580     2.5130   -14.4300 
  251.0000    72.1750    24.8180    18.2830    14.4530    16.1430     2.5000   -14.2650 
  251.1250    72.5460    24.8450    17.8980    14.7820    16.4850     2.4850   -14.0730 
  251.2500    73.8790    24.8550    17.4570    15.1300    16.8770     2.4700   -13.8660 
  251.3750    74.2640    24.8680    16.6950    15.4650    17.2590     2.4630   -13.6750 
  251.5000    73.0370    24.9400    15.7950    15.7200    17.5300     2.4720   -13.4870 
  251.6250    71.4840    25.0260    15.6080    15.7600    17.5350     2.4980   -13.2810 
  251.7500    71.1210    24.9920    16.0940    15.5260    17.2500     2.5250   -13.1050 
  251.8750    72.3380    24.8330    16.7280    14.9960    16.6870     2.5310   -12.8780 
  252.0000    72.8800    24.6590    16.9770    14.2230    15.9160     2.5220   -12.6820 
  252.1250    72.1050    24.5650    16.7170    13.3230    15.0550     2.5150   -12.5160 
  252.2500    72.0550    24.5140    16.7180    12.4720    14.2630     2.5200   -12.3260 
  252.3750    72.9080    24.5010    17.1080    11.7820    13.6530     2.5220   -12.1320 
  252.5000    73.2620    24.5490    18.0880    11.3190    13.2850     2.5100   -11.9170 
  252.6250    70.9180    24.6840    20.2040    11.1320    13.1830     2.4870   -11.7320 
  252.7500    67.9470    24.8670    23.6530    11.1300    13.2250     2.4600   -11.5010 
  252.8750    66.3820    25.0440    26.5790    11.2250    13.3130     2.4420   -11.2740 
  253.0000    66.5210    25.2020    26.1010    11.3230    13.3650     2.4390   -11.0180 
  253.1250    67.5790    25.3250    21.0760    11.3330    13.3240     2.4430   -10.7510 
