~V
VERS. 2.00: Ver 2.00
~W
STRT.M 115.0000:
STOP.M 288.0000:
STEP.M 0.1250:
NULL. -999.2500:
UWI. DF3049:
~C
DEPT.M :
GR.API :
CALI.CM :
RXO.OHMM :
RI. :
RML.OHMM :
SP.MV :
DEN.GM/CC :
AC.US/MT :
~A
  115.0000   104.7820    23.8000     4.7000     3.9750     4.6490   -16.8970     2.3540   409.1500 
  115.1250   109.1800    23.9820     4.5690     3.8090     4.4330   -17.0950     2.3560   419.7320 
  115.2500   109.5740    24.0330     4.5740     3.7660     4.3920   -17.3450     2.3630   424.9290 
  115.3750   105.2850    24.0080     4.7610     3.8640     4.5580   -17.6460     2.3600   424.1740 
  115.5000    96.0350    23.9740     5.3950     4.1370     4.9830   -17.9640     2.3480   416.9620 
  115.6250    85.5810    23.9590     6.8460     4.6230     5.7130   -18.2740     2.3380   404.6600 
  115.7500    80.6200    23.9600     8.2650     5.3430     6.7560   -18.5530     2.3350   391.1650 
  115.8750    79.7040    23.9740     9.4440     6.1350     7.8710   -18.7360     2.3390   377.9010 
  116.0000    79.0590    24.0200    11.2730     6.7740     8.7350   -18.8000     2.3580   361.3540 
  116.1250    80.1670    24.1030    13.5740     7.0140     8.9860   -18.7790     2.4060   340.8240 
  116.2500    85.3720    24.1430    13.0860     6.6790     8.3750   -18.6840     2.4590   326.5950 
  116.3750    91.0320    24.1510     9.7810     6.0410     7.3530   -18.5390     2.4730   329.4030 
  116.5000    93.8610    24.1320     6.7450     5.3590     6.3450   -18.3610     2.4360   349.9040 
  116.6250    95.1690    24.0910     5.5470     4.8140     5.6170   -18.1930     2.3750   379.7900 
  116.7500    98.2350    24.0580     5.5470     4.5490     5.3480   -18.0220     2.3320   403.4660 
  116.8750    99.8560    24.0030     5.6800     4.5500     5.4650   -17.8750     2.3070   415.0620 
  117.0000    99.1900    23.8930     5.7150     4.7780     5.8730   -17.7810     2.2960   417.5100 
  117.1250   101.0130    23.7680     5.8610     5.1330     6.4110   -17.7040     2.3040   413.9870 
  117.2500   105.6520    23.7060     6.6410     5.4600     6.8520   -17.6170     2.3440   403.0770 
  117.3750   104.7010    23.6890     7.4830     5.6120     7.0090   -17.5160     2.3860   387.6250 
  117.5000    98.5500    23.6850     7.3560     5.5200     6.8010   -17.3850     2.3970   374.9050 
  117.6250    96.5990    23.6900     6.2070     5.2140     6.2950   -17.2250     2.3730   373.2840 
  117.7500   102.6030    23.7430     5.4220     4.8050     5.6860   -17.0800     2.3450   385.8990 
  117.8750   108.2500    23.8420     5.0000     4.4380     5.1860   -16.9850     2.3390   401.9490 
  118.0000   110.5150    23.9200     4.8550     4.1940     4.8930   -16.9270     2.3460   413.1810 
  118.1250   108.4600    23.9480     4.8710     4.1030     4.8340   -16.9200     2.3510   417.3970 
  118.2500   102.2020    23.9530     4.8400     4.1770     4.9990   -16.9460     2.3500   417.4780 
  118.3750    96.2170    23.9850     4.8590     4.3440     5.2740   -16.9900     2.3460   416.6890 
  118.5000    93.7620    24.0690     5.0840     4.5550     5.5780   -17.0560     2.3380   414.3590 
  118.6250    95.4380    24.1860     5.4880     4.7540     5.8250   -17.1230     2.3230   408.7740 
  118.7500    98.5560    24.2390     5.7150     4.8690     5.9110   -17.1620     2.3040   400.0590 
  118.8750    99.0170    24.2530     5.6390     4.8870     5.8440   -17.1380     2.2950   393.7450 
  119.0000    99.0130    24.2550     5.4590     4.8290     5.6800   -17.0860     2.3060   393.6870 
  119.1250   100.2630    24.2640     5.4290     4.7420     5.5110   -17.0190     2.3370   398.7960 
  119.2500    99.9880    24.2710     5.4050     4.6820     5.4280   -16.9180     2.3650   404.4360 
  119.3750    95.4160    24.2480     5.3030     4.6670     5.4450   -16.7950     2.3670   408.2380 
  119.5000    89.7400    24.1980     5.2750     4.6900     5.5280   -16.6770     2.3410   410.5380 
  119.6250    87.7080    24.1730     5.4350     4.7230     5.6160   -16.5810     2.3050   411.1340 
  119.7500    89.8060    24.1870     5.6070     4.7330     5.6490   -16.5160     2.2870   410.0290 
  119.8750    92.3810    24.1840     5.5720     4.7100     5.6220   -16.4870     2.2930   409.0190 
  120.0000    94.6410    24.0990     5.4210     4.6540     5.5470   -16.4640     2.3130   409.3270 
  120.1250    95.5040    24.0090     5.2980     4.5670     5.4310   -16.4810     2.3320   410.7930 
  120.2500    92.9400    24.0300     5.3340     4.4530     5.2750   -16.5490     2.3350   411.7650 
  120.3750    94.5690    24.1360     5.4030     4.3320     5.1000   -16.6550     2.3280   411.2280 
  120.5000   107.1000    24.2370     5.4000     4.2350     4.9460   -16.7930     2.3230   410.1340 
  120.6250   121.5770    24.3100     5.2320     4.2100     4.8940   -17.0220     2.3280   410.5940 
  120.7500   117.8660    24.3320     5.0760     4.3490     5.0860   -17.3300     2.3360   413.7480 
  120.8750   100.9110    24.3400     5.1670     4.6660     5.5420   -17.6880     2.3350   416.6930 
  121.0000    86.0000    24.3400     5.6210     5.1340     6.2160   -18.0620     2.3230   416.5010 
  121.1250    78.8400    24.3400     6.4150     5.6520     6.9470   -18.3690     2.3040   412.7470 
  121.2500    76.9490    24.3400     7.2660     5.9920     7.3790   -18.5870     2.2860   408.5890 
  121.3750    79.2480    24.3400     7.4720     6.0080     7.2950   -18.7090     2.2750   407.5210 
  121.5000    84.2620    24.3360     6.8860     5.7050     6.7360   -18.7580     2.2750   409.5400 
  121.6250    89.1790    24.2920     6.0380     5.2350     5.9780   -18.7410     2.2880   412.3460 
  121.7500    91.4230    24.1680     5.4050     4.8130     5.3780   -18.6870     2.3080   413.7900 
  121.8750    90.4950    24.0200     5.1580     4.5630     5.0830   -18.6660     2.3260   414.1380 
  122.0000    86.4520    23.9570     5.3340     4.5200     5.1080   -18.7090     2.3380   413.7560 
  122.1250    79.8560    23.9480     5.7160     4.6630     5.3900   -18.8410     2.3390   412.3540 
  122.2500    73.6870    23.9480     5.9790     4.9480     5.8380   -19.0870     2.3280   409.5520 
  122.3750    72.0880    23.9480     6.0590     5.2770     6.3150   -19.4280     2.3130   405.9490 
  122.5000    73.7630    23.9480     6.1970     5.5880     6.7360   -19.8070     2.3000   401.5590 
  122.6250    76.6960    23.9480     6.3710     5.8250     7.0310   -20.1770     2.2930   396.2830 
  122.7500    80.2160    23.9480     6.4920     5.9310     7.1320   -20.5260     2.2880   390.7280 
  122.8750    81.1130    23.9480     6.5530     5.9240     7.0770   -20.8350     2.2820   386.2220 
  123.0000    77.2930    23.9640     6.5380     5.8320     6.9210   -21.0940     2.2810   383.6490 
  123.1250    71.9820    24.0420     6.4190     5.7090     6.7420   -21.3270     2.2910   383.0990 
  123.2500    71.1280    24.2920     6.5350     5.6360     6.6610   -21.5540     2.3120   384.1050 
  123.3750    73.1510    24.6290     7.1510     5.6950     6.7780   -21.8360     2.3290   384.7570 
  123.5000    73.7280    24.9290     7.8360     5.9650     7.1970   -22.2100     2.3300   383.0410 
  123.6250    74.0600    25.1490     8.0000     6.5090     8.0010   -22.6260     2.3150   377.2080 
  123.7500    75.8420    25.3360     7.7960     7.3790     9.2570   -23.0700     2.2950   364.6520 
  123.8750    75.6270    25.5120     8.8430     8.4100    10.7180   -23.5370     2.2800   345.4210 
  124.0000    72.5050    25.6280    11.6240     9.3720    12.0200   -24.0220     2.2700   322.3100 
  124.1250    67.0990    25.6670    14.5670     9.9880    12.7250   -24.4880     2.2580   304.0580 
  124.2500    61.5430    25.5530    14.0400    10.0230    12.4980   -24.9150     2.2410   305.7440 
  124.3750    59.3720    25.2340    11.3630     9.6900    11.7610   -25.2740     2.2270   325.9340 
  124.5000    61.6740    24.8140     9.3650     9.2340    10.9440   -25.5160     2.2220   353.2970 
  124.6250    67.6650    24.5730     8.7450     8.8510    10.3440   -25.6700     2.2220   377.0860 
  124.7500    72.0300    24.5240     8.7370     8.6640    10.1040   -25.7760     2.2210   389.8750 
  124.8750    72.4770    24.5240     8.7560     8.6190    10.0870   -25.7940     2.2220   396.0260 
