~V
VERS. 2.00: Ver 2.00
~W
STRT.M 60.0000:
STOP.M 264.0000:
STEP.M 0.1250:
NULL. -999.2500:
UWI. DF303:
~C
DEPT.M :
DEN.GM/CC :
SP.MV :
AC.US/MT :
GR.API :
CALI.CM :
RXO.OHMM :
RI. :
RML.OHMM :
~A
# ...
  190.0000     2.4050   -16.2320   418.8710    64.9390    24.0910     5.1830     4.6820     6.3930 
  190.1250     2.4100   -16.2290   420.9380    72.9630    24.0910     5.1850     4.7330     6.4300 
  190.2500     2.4200   -16.2560   418.8500    81.9390    24.0940     5.2010     4.8920     6.6420 
  190.3750     2.4370   -16.3110   410.6950    88.3190    24.1290     5.4320     5.1550     7.0230 
  190.5000     2.4620   -16.3720   398.3180    89.1760    24.2290     6.0490     5.4850     7.4950 
  190.6250     2.4830   -16.4300   389.4200    88.0730    24.4030     6.7840     5.7850     7.8780 
  190.7500     2.4860   -16.4640   389.3320    89.9580    24.4830     7.0250     5.9670     8.0180 
  190.8750     2.4770   -16.4610   396.2160    91.4330    24.5030     6.7730     5.9920     7.8810 
  191.0000     2.4700   -16.4390   403.8640    89.5630    24.5060     6.3840     5.8850     7.5590 
  191.1250     2.4720   -16.4360   407.3460    87.5140    24.5030     6.1330     5.6950     7.1940 
  191.2500     2.4670   -16.4150   408.6910    85.4040    24.5050     5.9640     5.4940     6.8910 
  191.3750     2.4490   -16.3980   410.5780    82.5880    24.5080     5.8590     5.3110     6.6700 
  191.5000     2.4290   -16.4030   413.4530    82.9610    24.5120     5.7410     5.1580     6.5200 
  191.6250     2.4230   -16.4550   415.4750    91.2030    24.5210     5.5700     5.0620     6.4610 
  191.7500     2.4240   -16.5770   415.4950   100.3680    24.5250     5.5000     5.0460     6.5250 
  191.8750     2.4200   -16.7310   413.9290   102.7910    24.5260     5.6320     5.1280     6.7370 
  192.0000     2.4060   -16.9270   412.1270    98.9530    24.5280     5.9620     5.2920     7.0640 
  192.1250     2.3900   -17.1780   411.3910    94.9770    24.5350     6.5010     5.5000     7.4110 
  192.2500     2.3840   -17.4640   411.3720    93.2370    24.5440     7.2030     5.7260     7.7170 
  192.3750     2.3890   -17.7830   410.8480    91.4540    24.5500     7.7770     6.0220     8.0600 
  192.5000     2.4030   -18.1170   407.9710    87.9700    24.5550     8.0540     6.5270     8.6670 
  192.6250     2.4150   -18.4450   400.2730    83.1240    24.5580     8.6240     7.5690    10.0300 
  192.7500     2.4200   -18.7820   388.6090    77.8850    24.5570    10.8520     9.4120    12.5030 
  192.8750     2.4190   -19.1370   375.0230    72.9660    24.5500    16.4790    12.4100    16.5590 
  193.0000     2.4160   -19.4770   361.6510    68.6850    24.5380    25.9500    16.8740    22.6740 
  193.1250     2.4140   -19.7820   350.8740    66.4130    24.5370    40.9860    22.9120    31.1490 
  193.2500     2.4110   -20.0870   345.4310    68.8110    24.5400    53.2980    29.2210    40.0190 
  193.3750     2.4000   -20.3790   348.0050    72.9440    24.5350    55.8700    34.3900    46.7960 
  193.5000     2.3800   -20.6480   357.9810    72.9920    24.5290    49.2230    37.8190    50.4380 
  193.6250     2.3560   -20.9110   370.1110    69.1140    24.5210    44.0690    40.1350    52.3950 
  193.7500     2.3370   -21.1360   378.8240    66.8190    24.5210    46.2600    42.6060    54.9880 
  193.8750     2.3270   -21.3300   383.7100    67.5380    24.5220    52.0290    45.6950    58.9380 
  194.0000     2.3190   -21.5090   387.1450    71.2090    24.5220    57.7520    49.3880    64.1330 
  194.1250     2.3020   -21.6610   391.4430    74.2480    24.5250    61.4370    53.2680    69.8080 
  194.2500     2.2800   -21.8110   396.4630    73.5150    24.5300    62.9620    56.6980    74.7480 
  194.3750     2.2650   -21.9420   401.0770    70.4170    24.5420    62.1740    59.3260    78.2780 
  194.5000     2.2570   -22.0640   404.2910    70.2070    24.5520    61.7540    61.1210    80.3540 
  194.6250     2.2500   -22.1830   405.6000    78.0040    24.5530    62.5400    62.2120    81.2370 
  194.7500     2.2420   -22.2890   406.0430    83.8750    24.5400    61.8890    62.9610    81.5160 
  194.8750     2.2390   -22.3920   406.5410    83.0920    24.5110    59.6690    63.5510    81.4550 
  195.0000     2.2400   -22.4970   407.6160    76.8730    24.4880    57.5200    64.1270    81.2840 
  195.1250     2.2340   -22.5900   409.3340    70.1190    24.4710    56.4220    64.8110    81.2240 
  195.2500     2.2250   -22.6610   411.1900    66.8310    24.4250    55.7220    65.6230    81.3570 
  195.3750     2.2220   -22.7420   412.6280    64.7630    24.3060    55.4920    66.4740    81.5950 
  195.5000     2.2260   -22.8080   413.2650    63.9350    24.1480    55.8680    67.0810    81.5830 
  195.6250     2.2300   -22.8610   413.2430    64.0710    24.0560    56.3200    66.7380    80.3940 
  195.7500     2.2330   -22.9090   413.1880    65.1390    23.9970    56.1980    65.0660    77.5020 
  195.8750     2.2390   -22.9470   413.1200    66.9220    23.9470    54.9180    62.0340    72.9280 
  196.0000     2.2470   -22.9730   412.6150    67.2510    23.9070    51.8130    58.1290    67.4020 
  196.1250     2.2540   -22.9910   411.4620    66.0170    23.8670    46.8910    54.2310    62.1280 
  196.2500     2.2580   -23.0120   410.4610    66.6920    23.8420    41.6360    51.1010    57.9680 
  196.3750     2.2620   -23.0240   410.3010    71.4030    23.8320    38.3510    49.0750    55.2660 
  196.5000     2.2670   -23.0580   410.9960    76.5050    23.8310    38.2300    48.1700    53.9700 
  196.6250     2.2670   -23.0760   411.9890    76.0310    23.8310    40.2150    48.2790    53.8680 
  196.7500     2.2630   -23.1250   412.8080    71.7840    23.8310    41.7080    48.9060    54.3020 
  196.8750     2.2560   -23.1970   413.2690    67.4560    23.8310    42.3220    49.7910    54.9510 
  197.0000     2.2520   -23.2780   412.6690    64.2420    23.8310    43.0330    50.8360    55.7380 
  197.1250     2.2570   -23.4060   409.6590    61.3130    23.8330    44.2480    52.2570    56.9780 
  197.2500     2.2700   -23.5280   405.2570    59.9630    23.8490    45.5010    54.2360    58.9340 
  197.3750     2.2800   -23.6590   401.9750    61.0410    23.8870    46.0960    56.6730    61.5290 
  197.5000     2.2770   -23.7960   402.0690    64.9720    23.9200    46.2330    59.0100    64.1110 
  197.6250     2.2640   -23.9490   405.2200    73.3870    23.9290    47.8980    60.2550    65.4570 
  197.7500     2.2580   -24.1010   407.9250    78.9100    23.9330    48.7290    60.2550    65.3240 
  197.8750     2.2660   -24.2670   408.7900    77.5360    23.9360    45.1790    59.5500    64.3550 
  198.0000     2.2790   -24.4550   408.9860    72.7100    23.9380    38.4400    59.1950    63.7900 
  198.1250     2.2810   -24.6560   410.9660    69.9400    23.9390    35.2250    60.6400    65.2900 
  198.2500     2.2680   -24.8790   414.6370    68.9980    23.9430    38.6280    64.2120    69.2800 
  198.3750     2.2490   -25.1060   418.3060    66.7780    23.9590    46.1120    69.6210    75.5570 
  198.5000     2.2330   -25.3270   420.1280    65.2330    23.9980    52.2260    75.9120    83.0600 
  198.6250     2.2290   -25.5710   418.8820    64.7890    24.0320    51.3830    81.5810    89.7610 
  198.7500     2.2360   -25.8210   415.8490    63.5680    24.0460    46.9820    85.8930    94.4630 
  198.8750     2.2450   -26.0940   412.6310    61.8880    24.0480    43.0440    89.2730    97.6830 
  199.0000     2.2460   -26.3760   410.7570    60.2570    24.0570    42.5340    92.8360   101.0010 
  199.1250     2.2350   -26.6710   411.1510    58.6440    24.0830    47.4220    97.4630   105.7160 
  199.2500     2.2280   -26.9890   412.4600    56.5880    24.1180    53.8860   102.3960   110.9110 
  199.3750     2.2290   -27.3400   412.9440    56.8330    24.1340    58.2340   106.3830   114.9380 
  199.5000     2.2320   -27.7120   411.6370    61.1740    24.1370    59.5220   108.3870   116.4510 
  199.6250     2.2320   -28.0740   409.8140    65.5610    24.1400    59.9170   107.7380   114.7760 
  199.7500     2.2280   -28.4320   410.2110    65.3160    24.1400    61.0530   105.3170   111.1840 
  199.8750     2.2250   -28.7400   413.7470    62.0770    24.1410    63.1520   101.8120   106.5710 
