~V
VERS. 2.00: Ver 2.00
~W
STRT.M 125.0000:
STOP.M 254.0000:
STEP.M 0.1250:
NULL. -999.2500:
UWI. DF3068:
~C
DEPT.M :
SP.MV :
GR.API :
CALI.CM :
RXO.OHMM :
RI. :
RML.OHMM :
DEN.GM/CC :
~A
# ...
  147.5000   -17.2890    68.4740    25.0530    12.0550    12.9330    14.0890     2.4900 
  147.6250   -17.4200    66.9640    24.9160    11.3470    12.6370    13.6830     2.5260 
  147.7500   -17.5290    65.6570    24.8760    10.7280    12.4470    13.4180     2.5570 
  147.8750   -17.6310    65.2650    24.9480    10.6790    12.3640    13.2900     2.5740 
  148.0000   -17.7460    65.7580    25.0090    11.1290    12.3660    13.2530     2.5740 
  148.1250   -17.8750    65.4130    24.9490    11.4530    12.4380    13.2580     2.5670 
  148.2500   -17.9740    63.9910    24.8220    11.5280    12.5480    13.2510     2.5640 
  148.3750   -18.0220    62.4500    24.6770    10.8990    12.6700    13.2020     2.5630 
  148.5000   -18.0400    60.3830    24.5360    10.2020    12.7560    13.0760     2.5600 
  148.6250   -18.0860    56.8430    24.3920    10.2250    12.6970    12.8030     2.5550 
  148.7500   -18.2140    52.9590    24.2520    10.2750    12.4380    12.3660     2.5530 
  148.8750   -18.4250    51.1010    24.1670     9.9280    11.9650    11.7800     2.5550 
  149.0000   -18.6570    51.4160    24.1880     9.3900    11.3250    11.1050     2.5530 
  149.1250   -18.8170    51.1940    24.2810     8.4790    10.6160    10.4460     2.5460 
  149.2500   -18.9240    49.8200    24.3370     7.8830     9.9520     9.8840     2.5360 
  149.3750   -19.0680    48.6830    24.3450     7.6680     9.3890     9.4480     2.5250 
  149.5000   -19.3190    49.0310    24.3300     7.5410     8.9510     9.1490     2.5140 
  149.6250   -19.6710    52.3500    24.3930     7.5770     8.7110     9.0920     2.5090 
  149.7500   -20.0170    58.6260    24.6550     7.9540     8.7690     9.4500     2.5100 
  149.8750   -20.2790    65.5940    25.0930     8.7060     9.3180    10.5210     2.5070 
  150.0000   -20.4690    69.6490    25.5230    10.8120    10.6670    12.6980     2.4860 
  150.1250   -20.6850    70.2930    25.7590    18.7560    13.6440    16.8240     2.4410 
  150.2500   -20.9880    71.9090    25.8650    36.6900    18.8850    23.2750     2.3860 
  150.3750   -21.3750    74.6310    25.9140    59.6170    27.1270    32.5560     2.3370 
  150.5000   -21.8100    76.5660    25.9290    76.2910    38.4650    44.7060     2.3010 
  150.6250   -22.2680    77.3320    25.9260    75.0880    51.8380    58.7670     2.2790 
  150.7500   -22.7280    77.1800    25.9260    70.5260    65.1050    72.5420     2.2660 
  150.8750   -23.1850    75.9460    25.9260    66.4150    78.2360    85.7650     2.2580 
  151.0000   -23.6430    72.9850    25.9240    74.2460    93.3410   100.4810     2.2510 
  151.1250   -24.0630    69.3610    25.9220   115.1110   114.4820   121.0110     2.2430 
  151.2500   -24.4330    67.2340    25.9210   174.0480   141.7650   148.2220     2.2370 
  151.3750   -24.7640    68.4200    25.9240   217.5930   171.0460   178.1320     2.2370 
  151.5000   -25.0780    71.2570    25.9260   231.8340   198.8230   192.6540     2.2400 
  151.6250   -25.4020    71.1070    25.9130   203.4220   192.9380   192.5470     2.2440 
  151.7500   -25.7100    68.1170    25.8830   169.5680   168.4950   174.2870     2.2460 
  151.8750   -25.9660    66.7700    25.8570   139.1210   139.3260   147.7650     2.2470 
  152.0000   -26.1460    69.0270    25.8530   105.0710   114.2450   122.2870     2.2510 
  152.1250   -26.2850    72.7320    25.8110    76.2380    96.5190   103.2410     2.2570 
  152.2500   -26.4630    74.7780    25.6740    66.1300    84.1080    89.8030     2.2590 
  152.3750   -26.6810    76.1810    25.4840    61.9030    75.7030    80.7530     2.2500 
  152.5000   -26.8800    79.2230    25.3470    55.8970    70.2270    74.9530     2.2320 
  152.6250   -26.9770    81.3720    25.3000    53.0640    67.1370    71.8240     2.2230 
  152.7500   -27.0150    79.7690    25.2020    52.7660    65.5680    70.3250     2.2290 
  152.8750   -27.0920    76.6720    25.0010    51.6080    65.4130    70.2450     2.2460 
  153.0000   -27.2680    76.0830    24.7930    50.1650    66.7880    71.7070     2.2600 
  153.1250   -27.5010    78.2460    24.8450    50.1650    69.9950    75.1500     2.2620 
  153.2500   -27.6720    77.9220    25.1970    53.7070    74.1420    79.7550     2.2580 
  153.3750   -27.7470    75.0850    25.6410    63.1070    77.7450    84.0220     2.2510 
  153.5000   -27.7760    73.9600    25.9290    75.6500    78.8730    85.9270     2.2420 
  153.6250   -27.8520    76.2710    25.9810    78.6870    76.0380    83.5770     2.2400 
  153.7500   -27.9950    79.1610    25.9650    74.8910    71.3950    78.6540     2.2540 
  153.8750   -28.1610    81.4680    25.9680    65.1170    67.5720    73.7200     2.2840 
  154.0000   -28.2980    82.8040    26.0290    46.7250    66.8550    71.5500     2.3170 
  154.1250   -28.3770    81.4030    26.1720    52.5540    71.5810    75.3170     2.3320 
  154.2500   -28.4550    77.4190    26.3430    68.4170    81.6820    85.1950     2.3220 
  154.3750   -28.5790    75.0820    26.4630    92.0940    96.9540   100.6780     2.2950 
  154.5000   -28.7370    74.9200    26.4900   120.5620   115.5600   119.4010     2.2690 
  154.6250   -28.8740    73.8860    26.4630   140.5350   131.9620   135.7970     2.2600 
  154.7500   -28.9600    71.1860    26.4530   135.4620   140.9490   145.2110     2.2620 
  154.8750   -29.0210    68.9000    26.4790   124.1430   142.3620   147.1960     2.2660 
  155.0000   -29.1170    69.1080    26.5000   121.2750   140.1820   144.9800     2.2680 
  155.1250   -29.3140    72.0710    26.4980   113.0330   138.7790   142.7340     2.2660 
  155.2500   -29.5480    74.3030    26.4950   103.9350   139.6010   142.4830     2.2640 
  155.3750   -29.6930    73.7110    26.5070   109.6110   142.0490   144.0200     2.2660 
  155.5000   -29.6650    70.9730    26.5560   131.4890   144.4870   145.9590     2.2670 
  155.6250   -29.5040    68.9330    26.6620   142.5470   144.9180   146.4110     2.2620 
  155.7500   -29.3760    68.6150    26.7920   137.4210   143.4810   145.1840     2.2520 
  155.8750   -29.3820    68.1480    26.9050   121.0810   141.3800   143.2000     2.2460 
  156.0000   -29.5100    67.1100    26.9590   105.1160   139.9930   141.7270     2.2500 
  156.1250   -29.6320    66.5820    26.9770   100.9650   140.3890   141.9170     2.2580 
  156.2500   -29.6640    65.7910    27.0900   101.4890   142.0650   143.5030     2.2590 
  156.3750   -29.6310    65.5480    27.3110   117.2910   143.8070   145.4560     2.2530 
  156.5000   -29.6130    67.0730    27.3960   131.5510   143.8590   146.1000     2.2480 
  156.6250   -29.6370    69.9790    27.1040   125.9220   140.2550   143.3520     2.2480 
  156.7500   -29.6490    71.6410    26.7220   116.0360   133.7810   137.5880     2.2480 
  156.8750   -29.6060    71.7480    26.5160   110.4740   126.0360   130.1290     2.2480 
  157.0000   -29.4930    72.4120    26.4870    97.3990   118.8910   122.8050     2.2500 
  157.1250   -29.3950    72.2180    26.4740    83.7340   114.2650   117.6610     2.2560 
  157.2500   -29.3860    69.1020    26.4560    82.1700   112.5780   115.3570     2.2630 
  157.3750   -29.4730    66.0640    26.4560    89.2390   113.9870   116.1840     2.2670 
  157.5000   -29.6130    66.3480    26.4590    99.5300   118.2210   120.0120     2.2670 
  157.6250   -29.7300    69.4970    26.4750   105.0400   124.4850   126.2560     2.2630 
  157.7500   -29.8110    70.2420    26.5020   110.8600   130.5650   132.7630     2.2590 
  157.8750   -29.8790    68.0840    26.5090   128.8500   134.4520   137.5450     2.2580 
  158.0000   -29.9940    66.5620    26.4300   150.8670   134.6320   138.9850     2.2610 
  158.1250   -30.1890    66.9700    26.2440   150.4770   130.3730   136.0080     2.2670 
  158.2500   -30.3830    67.4700    26.0530   126.2390   123.7670   130.3210     2.2730 
  158.3750   -30.5150    66.9370    25.9290   103.2650   116.5580   123.5130     2.2760 
  158.5000   -30.5910    66.7440    25.8770    93.3710   110.1040   117.0100     2.2770 
  158.6250   -30.6880    68.0070    25.8660    93.1040   105.3620   112.0170     2.2760 
