~V
VERS. 2.00: Ver 2.00
~W
STRT.M 120.0000:
STOP.M 271.0000:
STEP.M 0.1250:
NULL. -999.2500:
UWI. DF3037:
~C
DEPT.M :
GR.API :
RML.OHMM :
RI. :
RXO.OHMM :
CALI.CM :
SP.MV :
DEN.GM/CC :
AC.US/MT :
~A
# ...
  130.0000    83.8970     8.1610     7.4030     7.2710    24.0020   -24.3880     2.2940   411.6010 
  130.1250    80.7570     8.4760     7.7810     7.6130    23.9170   -24.4970     2.2870   412.2860 
  130.2500    77.9420     8.6110     8.0250     7.7520    23.8500   -24.6780     2.2820   413.5530 
  130.3750    75.5510     8.5710     8.1070     7.8740    23.7940   -24.7360     2.2810   414.8110 
  130.5000    73.0650     8.4100     8.0550     7.8680    23.7300   -24.7850     2.2820   415.8110 
  130.6250    71.1460     8.2240     7.9400     7.7610    23.7840   -24.6740     2.2780   416.4490 
  130.7500    70.4850     8.1280     7.8690     7.7090    23.9870   -24.5560     2.2670   416.4600 
  130.8750    71.5220     8.2210     7.9320     7.8740    24.1910   -24.4070     2.2550   415.0080 
  131.0000    74.8630     8.5650     8.1950     8.1110    24.2450   -24.1810     2.2510   410.5170 
  131.1250    78.3560     9.1390     8.6670     8.1140    24.0860   -24.0300     2.2780   399.7160 
  131.2500    77.7970     9.7100     9.1730     7.9150    23.8630   -23.7540     2.3380   382.6360 
  131.3750    74.8180    10.0300     9.5030     7.7290    23.8420   -23.5370     2.4190   362.3670 
  131.5000    73.6220     9.8980     9.4640     7.7050    24.2240   -23.3260     2.4910   345.9120 
  131.6250    77.3530     9.2060     8.9100     7.6060    24.8630   -23.1430     2.5150   344.1840 
  131.7500    82.4630     8.2400     8.0570     7.1340    25.4350   -22.9970     2.4920   358.3030 
  131.8750    87.2180     7.2790     7.1430     6.3780    25.7720   -22.8690     2.4420   383.4880 
  132.0000    92.5290     6.5390     6.3720     5.8490    25.9520   -22.8560     2.3940   410.6370 
  132.1250    97.6050     6.1520     5.8910     5.6930    26.0040   -22.7720     2.3650   429.7870 
  132.2500    99.4850     6.0220     5.6510     5.5190    25.8660   -22.7950     2.3510   439.6550 
  132.3750    97.0510     6.0650     5.5980     5.4370    25.5960   -22.8320     2.3410   442.9440 
  132.5000    94.1860     6.2060     5.6690     5.4820    25.4200   -22.8810     2.3310   443.0900 
  132.6250    93.6850     6.3980     5.8190     5.5710    25.6120   -22.9980     2.3160   441.5680 
  132.7500    92.3780     6.6100     6.0030     5.6420    25.8340   -23.1310     2.3000   438.4020 
  132.8750    88.4770     6.8150     6.1930     5.7890    25.8100   -23.2640     2.2840   433.4200 
  133.0000    85.0690     6.9750     6.3590     5.9760    25.5040   -23.3200     2.2700   427.2620 
  133.1250    84.3490     7.0470     6.4720     6.3180    25.0980   -23.4000     2.2570   421.1990 
  133.2500    84.3170     7.0920     6.5670     6.6940    24.8240   -23.4180     2.2470   415.8930 
  133.3750    83.7270     7.2420     6.7340     6.9490    24.6630   -23.4770     2.2480   410.6380 
  133.5000    81.8070     7.6890     7.1190     7.0070    24.5360   -23.4360     2.2670   403.4940 
  133.6250    79.4710     8.6790     7.9340     7.5220    24.4190   -23.4150     2.3150   391.2660 
  133.7500    77.9010    10.1190     9.1470     8.9840    24.3930   -23.3080     2.3830   373.6870 
  133.8750    78.0260    11.7670    10.5990    11.9980    24.5450   -23.2560     2.4510   352.7750 
  134.0000    78.4880    13.2250    11.9790    16.6280    24.7890   -23.2230     2.4970   333.4710 
  134.1250    78.0050    13.9300    12.7840    24.3360    24.8510   -23.1490     2.4940   324.3240 
  134.2500    78.8850    13.7910    12.8490    28.3160    24.7490   -23.1890     2.4530   328.3810 
  134.3750    79.6730    12.9950    12.2670    24.4460    24.5540   -23.1550     2.3930   344.2270 
  134.5000    77.6650    11.9510    11.3650    16.0250    24.3860   -23.2160     2.3350   365.9090 
  134.6250    73.4810    11.1260    10.5510    11.6890    24.3260   -23.3250     2.2950   384.5650 
  134.7500    72.2720    10.7100    10.0500    10.2780    24.3090   -23.4150     2.2760   395.0070 
  134.8750    75.5560    10.7170     9.9230    10.0030    24.2890   -23.4590     2.2760   396.2800 
  135.0000    78.1520    11.0540    10.1310    10.0290    24.2490   -23.4480     2.2910   389.4270 
  135.1250    75.3080    11.5550    10.5730    10.0940    24.2320   -23.5460     2.3150   375.5190 
  135.2500    71.6580    11.9850    11.0310    10.1630    24.2570   -23.5460     2.3360   358.9980 
  135.3750    71.1490    12.2020    11.3580    10.1630    24.3170   -23.5740     2.3420   344.9520 
  135.5000    73.9980    12.1620    11.4730    10.0240    24.3480   -23.5580     2.3300   339.2760 
  135.6250    75.9650    11.9320    11.3750     9.9130    24.3320   -23.4440     2.3010   347.1770 
  135.7500    74.3800    11.7040    11.2080     9.8960    24.3200   -23.3630     2.2710   363.8610 
  135.8750    70.7170    11.5600    11.0460     9.8940    24.3300   -23.2450     2.2500   383.0230 
  136.0000    66.6220    11.4530    10.8740     9.8780    24.3680   -23.1250     2.2430   398.8680 
  136.1250    64.5920    11.1630    10.5400     9.8790    24.4380   -22.8930     2.2510   408.4230 
  136.2500    66.3000    10.5280     9.9250     9.9080    24.5290   -22.7100     2.2700   414.8010 
  136.3750    71.2070     9.5250     9.0050     9.6930    24.6550   -22.5130     2.2950   420.9230 
  136.5000    77.3850     8.3140     7.9020     9.0860    24.8380   -22.3680     2.3160   428.2200 
  136.6250    83.8800     7.2360     6.8790     7.8790    25.1190   -22.1850     2.3250   435.8860 
  136.7500    91.1900     6.5480     6.1570     6.4690    25.4180   -22.1000     2.3230   441.6770 
  136.8750    96.9030     6.3390     5.8270     5.5150    25.5800   -22.0600     2.3130   443.8940 
  137.0000    96.7740     6.5590     5.8840     5.3820    25.4500   -22.1540     2.3020   442.0660 
  137.1250    88.1970     7.0720     6.2650     5.8460    25.1920   -22.2520     2.2940   437.0130 
  137.2500    79.6190     7.6160     6.7560     6.4740    24.9730   -22.3100     2.2900   431.3720 
  137.3750    76.7900     8.0280     7.2020     7.3160    24.8950   -22.4410     2.2910   426.5750 
  137.5000    79.6110     8.2340     7.4940     7.6640    24.9140   -22.4720     2.2920   423.1050 
  137.6250    83.5400     8.2480     7.5810     7.3220    24.9300   -22.6110     2.2900   420.8250 
  137.7500    87.4720     8.1960     7.5530     6.6230    24.9140   -22.6890     2.2820   419.1880 
  137.8750    91.7030     8.1270     7.4630     6.3380    24.8800   -22.7340     2.2680   418.2310 
  138.0000    92.8590     8.0230     7.3230     6.4390    24.8780   -22.7220     2.2570   418.2190 
  138.1250    90.2890     7.8150     7.0940     6.7120    24.9790   -22.7050     2.2580   419.6570 
  138.2500    89.5400     7.5060     6.7810     6.9640    25.0660   -22.7800     2.2720   422.2810 
  138.3750    92.1850     7.1670     6.4320     7.1690    25.1420   -22.7950     2.2960   425.4430 
  138.5000    97.2850     6.9250     6.1410     6.9100    25.2220   -22.9170     2.3200   428.0110 
  138.6250    99.6080     6.9610     6.0610     6.2330    25.2370   -22.9880     2.3290   428.4150 
  138.7500    95.5270     7.3020     6.2360     5.9950    25.1530   -23.0730     2.3230   426.7260 
  138.8750    87.0970     7.9070     6.6630     6.5040    24.9970   -23.1770     2.3060   423.9870 
  139.0000    79.1370     8.6620     7.2760     7.3930    24.8440   -23.2780     2.2830   421.8860 
  139.1250    73.2980     9.3850     7.9450     8.4280    24.7010   -23.3660     2.2590   422.1910 
  139.2500    67.4040     9.9200     8.5090     9.4640    24.5770   -23.3660     2.2350   424.5300 
  139.3750    62.8640    10.1990     8.8720     9.8110    24.5250   -23.3890     2.2140   427.8280 
  139.5000    62.7180    10.2370     9.0100     9.7010    24.5700   -23.3750     2.1980   430.8590 
  139.6250    67.2200    10.1040     8.9520     9.4670    24.6200   -23.3480     2.1920   432.6570 
  139.7500    72.2620     9.9370     8.8230     9.3400    24.6140   -23.2500     2.1940   433.3270 
  139.8750    74.9530     9.8170     8.7000     9.1420    24.6020   -23.1710     2.2010   433.1070 
