~V
VERS. 2.00: Ver 2.00
~W
STRT.M 65.0000:
STOP.M 267.0000:
STEP.M 0.1250:
NULL. -999.2500:
UWI. DF3007:
~C
DEPT.M :
GR.API :
RML.OHMM :
RI. :
RXO.OHMM :
CALI.CM :
DEN.GM/CC :
SP.MV :
~A
# ...
  166.2500    63.2740   158.5530   149.5770   131.7940    25.0930     2.2150   -22.7630 
  166.3750    65.5360   123.8460   121.5070   127.0350    25.1170     2.2050   -22.5810 
  166.5000    67.0140    85.7400    87.6760   113.6740    25.1120     2.2080   -22.3880 
  166.6250    70.4080    55.5350    58.3090    88.1420    25.0150     2.2360   -22.1890 
  166.7500    78.5090    35.7390    38.0340    40.5020    24.8400     2.2850   -22.0920 
  166.8750    87.0470    24.5220    26.1960    17.6010    24.7230     2.3390   -21.9340 
  167.0000    89.7770    18.9910    20.2080    11.2310    24.7340     2.3800   -21.7590 
  167.1250    88.1780    17.0720    17.9710    10.2370    24.8170     2.3930   -21.7480 
  167.2500    88.9900    16.6220    17.3190    10.5470    24.8890     2.3850   -21.7130 
  167.3750    93.4180    16.8050    17.4630    11.0750    24.9390     2.3690   -21.6510 
  167.5000    98.0360    17.1850    17.9260    12.4740    24.9310     2.3540   -21.7470 
  167.6250    98.3010    18.0020    18.5800    15.0800    24.8640     2.3490   -21.7270 
  167.7500    95.7990    19.6050    19.7400    17.1060    24.8140     2.3520   -21.6640 
  167.8750    92.5440    22.8910    22.2130    16.6190    24.8230     2.3560   -21.7710 
  168.0000    87.7990    28.3570    27.2240    19.3240    24.7570     2.3520   -21.8020 
  168.1250    80.7250    38.3020    37.0790    28.5470    24.7210     2.3350   -21.8200 
  168.2500    73.1040    52.2990    52.1650    45.2250    24.7050     2.3060   -21.9600 
  168.3750    65.0740    70.5030    72.0490    72.2610    24.7080     2.2710   -22.0460 
  168.5000    58.7680    93.4260    94.5090   106.1860    24.7220     2.2350   -22.0890 
  168.6250    58.8350   116.4750   115.0450   137.1280    24.7820     2.2080   -22.2030 
  168.7500    63.5130   135.2910   130.0810   144.9330    24.8790     2.1930   -22.4030 
  168.8750    67.2940   148.1430   138.6600   141.1250    24.9530     2.1930   -22.4840 
  169.0000    67.8220   155.9860   142.4270   136.7880    24.9730     2.2040   -22.6440 
  169.1250    67.4080   161.5580   144.3230   137.3810    24.9480     2.2210   -22.7800 
  169.2500    66.4450   167.3180   146.7380   139.0060    24.9120     2.2370   -22.8120 
  169.3750    63.6670   173.0590   149.7590   141.3960    24.8910     2.2500   -22.9220 
  169.5000    61.0710   177.2640   152.3450   146.2300    24.8810     2.2570   -23.0960 
  169.6250    60.8150   177.3480   152.5850   155.7220    24.8840     2.2610   -23.2020 
  169.7500    61.7640   172.8240   149.7300   168.8910    24.8760     2.2640   -23.2270 
  169.8750    62.1290   164.1380   143.7640   164.7930    24.8660     2.2650   -23.3930 
  170.0000    62.9950   152.9750   135.6230   145.6400    24.8880     2.2640   -23.4860 
  170.1250    66.8190   142.2100   127.2320   134.9660    24.9250     2.2610   -23.4300 
  170.2500    70.7070   134.1570   120.5510   125.7910    24.9730     2.2550   -23.5200 
  170.3750    70.5420   128.9820   116.1790   116.5190    25.0370     2.2470   -23.5410 
  170.5000    67.1060   125.2910   113.2290   112.1640    25.0990     2.2380   -23.3760 
  170.6250    65.8330   120.0870   109.2340   114.6880    25.1120     2.2270   -23.3860 
  170.7500    68.8200   111.6880   102.2650   128.1660    25.0930     2.2180   -23.3790 
  170.8750    74.0350   100.4090    92.1110   148.4690    25.0710     2.2140   -23.2090 
  171.0000    77.2850    89.3310    80.4010   141.4050    25.0640     2.2160   -23.1510 
  171.1250    77.3090    81.1350    70.2770    79.3580    25.0570     2.2240   -23.1290 
  171.2500    76.5530    76.0900    63.6050    39.6550    24.9910     2.2340   -23.0410 
  171.3750    75.9230    72.7280    60.7040    30.2070    24.8620     2.2420   -23.0250 
  171.5000    76.2380    72.8380    60.7470    37.3670    24.7430     2.2460   -23.0290 
  171.6250    77.5250    74.2390    62.2080    58.9910    24.6900     2.2510   -22.9900 
  171.7500    77.7200    74.6420    63.1350    81.0520    24.6810     2.2600   -22.9490 
  171.8750    75.9630    73.1310    62.5960    86.3710    24.6960     2.2760   -22.9860 
  172.0000    75.8940    69.7930    60.4600    75.9700    24.6950     2.2970   -22.9610 
  172.1250    79.3440    65.2480    57.0850    60.7370    24.6640     2.3140   -22.9140 
  172.2500    81.1960    60.4110    53.2890    49.7330    24.6440     2.3200   -22.9130 
  172.3750    79.6040    55.6930    49.4820    46.3890    24.7140     2.3150   -22.8700 
  172.5000    77.9900    51.4320    45.9870    52.5170    24.8700     2.3040   -22.8210 
  172.6250    78.0440    48.1630    43.2320    59.1300    24.9860     2.2940   -22.8180 
  172.7500    78.7590    46.0190    41.3420    47.9580    24.9770     2.2900   -22.8150 
  172.8750    80.5950    44.9760    40.3350    34.8200    24.8720     2.2910   -22.7610 
  173.0000    82.7530    44.7420    40.0320    34.0830    24.7650     2.2940   -22.7900 
  173.1250    83.0530    44.8560    40.1110    42.3040    24.7180     2.2950   -22.8790 
  173.2500    81.1390    44.7960    40.1180    44.1840    24.7080     2.2930   -22.8480 
  173.3750    79.9860    44.3120    39.7920    39.8330    24.7070     2.2900   -22.8820 
  173.5000    81.2030    43.3720    39.0390    36.3830    24.7070     2.2870   -22.9740 
  173.6250    80.8270    42.2250    37.9940    35.6620    24.6930     2.2890   -22.9200 
  173.7500    78.6440    41.4020    37.1040    35.3260    24.6590     2.2940   -22.9640 
  173.8750    77.9390    41.3670    36.7760    34.3980    24.6210     2.3010   -23.0640 
  174.0000    80.4730    42.4810    37.3390    32.9140    24.6020     2.3080   -22.9740 
  174.1250    82.3820    45.1410    39.1710    32.6970    24.6000     2.3090   -22.9980 
  174.2500    81.3710    48.9940    42.0560    34.8670    24.6010     2.3040   -23.1410 
  174.3750    79.8180    53.6550    45.7370    39.8260    24.6040     2.2950   -23.1610 
  174.5000    81.1150    58.6000    49.8000    48.3020    24.6130     2.2830   -23.2420 
  174.6250    84.1050    63.2410    53.7180    53.3390    24.6180     2.2740   -23.3500 
  174.7500    86.1190    67.3270    57.1650    56.0020    24.6190     2.2690   -23.3790 
  174.8750    86.7350    70.8710    60.0700    57.2800    24.6180     2.2680   -23.4400 
  175.0000    87.5700    74.0620    62.5530    58.9130    24.6150     2.2680   -23.5600 
  175.1250    88.0820    77.2710    64.9150    62.0570    24.6200     2.2660   -23.6970 
  175.2500    86.7470    81.0160    67.6410    67.0280    24.6430     2.2630   -23.7240 
  175.3750    84.8370    85.9460    71.2890    71.2420    24.6700     2.2570   -23.7840 
  175.5000    83.4040    92.9180    76.5670    73.7430    24.6860     2.2520   -23.8520 
  175.6250    80.2020   103.5860    84.8380    76.4420    24.6700     2.2480   -23.8630 
  175.7500    76.1350   118.2890    96.4440    83.5020    24.6430     2.2450   -23.8860 
  175.8750    73.2840   136.9830   111.4480    97.8580    24.6390     2.2430   -23.9640 
  176.0000    73.0450   158.4120   128.9480   117.3650    24.6460     2.2420   -24.0290 
  176.1250    73.2490   179.4280   146.5850   129.3530    24.6990     2.2410   -23.9350 
  176.2500    72.0740   196.1530   161.2070   141.9270    24.7500     2.2390   -23.9620 
  176.3750    70.4350   205.8760   170.5390   157.4050    24.7730     2.2360   -23.9620 
  176.5000    70.1490   207.9700   173.8100   171.4070    24.7750     2.2320   -23.8770 
  176.6250    70.9640   203.7870   171.6350   160.7340    24.7750     2.2310   -23.9530 
  176.7500    72.4280   197.8470   167.4750   144.6510    24.7750     2.2340   -23.9500 
  176.8750    73.7790   192.8460   163.6040   129.0390    24.7750     2.2400   -23.8010 
  177.0000    72.8510   190.3610   161.5690   127.1080    24.7780     2.2470   -23.7790 
  177.1250    72.2520   191.1400   162.3180   140.6270    24.7830     2.2500   -23.7550 
  177.2500    74.7500   193.6940   164.8180   153.1030    24.7840     2.2490   -23.6240 
  177.3750    77.1360   196.4010   167.7960   150.6910    24.7790     2.2450   -23.6160 
