~V
VERS. 2.00: Ver 2.00
~W
STRT.M 130.0000:
STOP.M 271.0000:
STEP.M 0.1250:
NULL. -999.2500:
UWI. DF3076:
~C
DEPT.M :
DEN.GM/CC :
GR.API :
CALI.CM :
RXO.OHMM :
RI. :
RML.OHMM :
SP.MV :
~A
  130.0000     2.2680    85.0780    22.3500     7.5600     6.7680     8.8700   -10.9430 
  130.1250     2.2800    80.0010    22.3270     7.9140     7.2560     9.1550   -11.1140 
  130.2500     2.2760    77.2510    22.3560     8.2550     7.6730     9.3210   -11.2120 
  130.3750     2.2580    76.9410    22.3740     8.5930     8.0200     9.4090   -11.2320 
  130.5000     2.2440    78.6570    22.3680     8.8760     8.2980     9.4380   -11.1750 
  130.6250     2.2470    78.9890    22.3500     9.0670     8.4630     9.3470   -11.0410 
  130.7500     2.2500    77.2060    22.3400     9.1620     8.4610     9.0660   -10.8310 
  130.8750     2.2480    77.2460    22.3370     9.0050     8.2220     8.5460   -10.5420 
  131.0000     2.2520    80.2430    22.3410     8.4450     7.7310     7.8180   -10.1930 
  131.1250     2.2760    84.6840    22.3940     7.4560     7.0470     7.0110    -9.8030 
  131.2500     2.3110    88.8890    22.5820     6.5510     6.3570     6.3040    -9.4060 
  131.3750     2.3360    92.3430    22.8970     6.0170     5.7840     5.7940    -9.0280 
  131.5000     2.3390    95.2150    23.1770     5.8390     5.3940     5.5070    -8.6860 
  131.6250     2.3290    96.8690    23.2730     5.9740     5.2130     5.4300    -8.3880 
  131.7500     2.3240    97.4830    23.3070     6.1020     5.1580     5.4510    -8.1370 
  131.8750     2.3300    94.2710    23.3700     6.2400     5.1670     5.5000    -7.9650 
  132.0000     2.3410    88.4080    23.5350     6.2260     5.1850     5.5290    -7.8750 
  132.1250     2.3490    87.5600    23.7450     6.0400     5.1690     5.5160    -7.8660 
  132.2500     2.3500    90.9290    23.8860     5.8080     5.1180     5.4690    -7.8900 
  132.3750     2.3440    93.3390    23.8540     5.7280     5.0260     5.3780    -7.9330 
  132.5000     2.3410    92.0400    23.7190     5.6750     4.8810     5.2200    -7.9970 
  132.6250     2.3510    90.7340    23.6860     5.5290     4.6570     4.9710    -8.1250 
  132.7500     2.3670    92.3900    23.7990     5.3760     4.3850     4.6870    -8.3330 
  132.8750     2.3730    95.8150    23.9640     5.2340     4.1190     4.4510    -8.6180 
  133.0000     2.3650    96.9730    24.0540     5.0390     3.9280     4.3540    -8.9910 
  133.1250     2.3510    92.6560    24.0610     4.9280     3.9160     4.5010    -9.4630 
  133.2500     2.3370    87.9340    23.9900     5.1500     4.1010     4.8770   -10.0130 
  133.3750     2.3210    87.2340    23.7740     5.8070     4.4860     5.4530   -10.6230 
  133.5000     2.2990    86.3720    23.4010     6.7780     5.0460     6.1760   -11.2670 
  133.6250     2.2810    81.9780    23.1100     7.5860     5.7420     6.9850   -11.9060 
  133.7500     2.2730    80.8300    22.9390     8.1180     6.4880     7.8070   -12.5260 
  133.8750     2.2710    86.0980    22.8510     8.6340     7.2380     8.6060   -13.1060 
  134.0000     2.2680    92.8780    22.8190     9.9870     7.9680     9.3580   -13.6210 
  134.1250     2.2580    93.9650    22.8170    13.4370     8.6360     9.9920   -14.0510 
  134.2500     2.2460    88.9040    22.8640    16.9830     9.1860    10.4340   -14.4110 
  134.3750     2.2350    80.0820    22.9580    17.2590     9.5500    10.6130   -14.7160 
  134.5000     2.2230    70.6540    23.0420    14.2590     9.6910    10.5390   -14.9750 
  134.6250     2.2090    65.8980    23.0730    11.8770     9.6150    10.3330   -15.1860 
  134.7500     2.1980    65.5570    23.0670    10.7080     9.4510    10.2120   -15.3410 
  134.8750     2.1910    66.3320    23.0360    10.2260     9.2820    10.2820   -15.4560 
  135.0000     2.1840    65.9730    23.0070    10.1900     9.1530    10.5370   -15.5310 
  135.1250     2.1810    66.6380    23.0610    10.6250     9.0750    10.8760   -15.5640 
  135.2500     2.1850    70.2920    23.1860    11.2490     9.0210    11.1410   -15.5700 
  135.3750     2.1960    73.4360    23.3170    11.5430     8.9650    11.2500   -15.5580 
  135.5000     2.2030    72.4300    23.3790    11.2900     8.8910    11.2060   -15.5430 
  135.6250     2.1980    69.5760    23.3290    10.8390     8.8010    11.0740   -15.5290 
  135.7500     2.1890    69.2780    23.2900    10.5840     8.7150    10.9470   -15.5210 
  135.8750     2.1840    69.4300    23.2990    10.5380     8.6560    10.8680   -15.5050 
  136.0000     2.1870    68.4830    23.3520    10.6000     8.6390    10.8550   -15.4700 
  136.1250     2.2000    67.4420    23.4170    10.6690     8.6810    10.9070   -15.4130 
  136.2500     2.2190    68.2280    23.4480    10.7880     8.7600    10.9820   -15.3380 
  136.3750     2.2410    70.7380    23.4590    11.0070     8.8590    11.0470   -15.2410 
  136.5000     2.2580    73.2100    23.4550    11.3630     8.9620    11.0910   -15.1160 
  136.6250     2.2560    74.5040    23.4610    11.4370     9.0780    11.1520   -14.9480 
  136.7500     2.2370    74.7510    23.4800    11.2690     9.2380    11.2950   -14.7320 
  136.8750     2.2160    73.6500    23.4980    11.0280     9.4670    11.5430   -14.4690 
  137.0000     2.2070    72.0140    23.5010    10.9270     9.7320    11.8270   -14.1640 
  137.1250     2.2110    73.5310    23.4850    11.1250     9.8560    11.8890   -13.7950 
  137.2500     2.2190    79.4410    23.4700    11.3790     9.6350    11.4870   -13.3680 
  137.3750     2.2310    86.4370    23.4820    11.1050     8.9510    10.5140   -12.9090 
  137.5000     2.2560    90.6400    23.5140     9.8090     7.8730     9.1060   -12.4500 
  137.6250     2.2970    92.5200    23.5590     7.8900     6.6610     7.6370   -12.0550 
  137.7500     2.3370    94.7510    23.6290     6.3920     5.6180     6.4840   -11.7670 
  137.8750     2.3630   100.0510    23.7290     5.7000     4.8950     5.8260   -11.6070 
  138.0000     2.3730   107.1310    23.8800     5.6590     4.5670     5.7410   -11.6080 
  138.1250     2.3660   107.1690    23.9640     6.2810     4.7620     6.3770   -11.8030 
  138.2500     2.3360    97.2040    23.8600     7.3750     5.4590     7.6530   -12.1540 
  138.3750     2.2820    82.2260    23.5710     9.0750     6.6930     9.5220   -12.6100 
  138.5000     2.2220    71.7090    23.3060    11.7220     8.4000    11.7740   -13.1210 
  138.6250     2.1860    69.7880    23.2120    14.3530    10.2240    13.7680   -13.6170 
  138.7500     2.1800    70.3210    23.1980    15.6300    11.4560    14.7030   -14.0640 
  138.8750     2.1920    70.8270    23.1970    14.7880    11.6210    14.2190   -14.4460 
  139.0000     2.2060    72.0460    23.1970    12.5600    10.8160    12.7290   -14.7380 
  139.1250     2.2140    75.3930    23.1980    10.4480     9.6280    11.1630   -14.9330 
  139.2500     2.2170    77.1380    23.1960     9.1970     8.6700    10.1530   -15.0670 
  139.3750     2.2200    78.6990    23.1950     8.7390     8.1430     9.8320   -15.1740 
  139.5000     2.2220    81.8240    23.1950     9.0410     8.0830    10.1370   -15.2680 
  139.6250     2.2260    82.4770    23.1950    10.1900     8.4930    10.9600   -15.3750 
  139.7500     2.2290    78.1580    23.1950    11.2740     9.1690    11.9780   -15.4790 
  139.8750     2.2250    72.3330    23.1950    11.6500     9.9390    12.9450   -15.5730 
  140.0000     2.2120    69.6710    23.1940    11.6750    10.6220    13.6480   -15.6460 
  140.1250     2.1900    69.6670    23.1930    12.2280    11.0190    13.8840   -15.6660 
  140.2500     2.1720    68.7870    23.1930    12.8590    11.1130    13.7180   -15.6250 
  140.3750     2.1640    67.3530    23.1940    13.0460    10.9490    13.2610   -15.5200 
  140.5000     2.1650    67.9710    23.1960    12.7810    10.6320    12.7130   -15.3420 
  140.6250     2.1770    72.2170    23.1990    12.6340    10.3710    12.4410   -15.0590 
  140.7500     2.1950    75.1290    23.2180    13.4280    10.4330    12.7560   -14.6860 
  140.8750     2.2220    74.2640    23.2910    15.5760    11.0280    13.8140   -14.2210 
  141.0000     2.2680    71.3490    23.4690    18.6860    12.2130    15.5010   -13.6640 
  141.1250     2.3450    70.4800    23.6590    25.6860    13.7050    17.1740   -13.0050 
