~V
VERS. 2.00: Ver 2.00
~W
STRT.M 125.0000:
STOP.M 255.0000:
STEP.M 0.1250:
NULL. -999.2500:
UWI. DF3006:
~C
DEPT.M :
GR.API :
RML.OHMM :
RI. :
RXO.OHMM :
CALI.CM :
DEN.GM/CC :
SP.MV :
~A
# ...
  215.0000    67.5890   107.0780    91.1160    86.2090    24.5580     2.1440   -26.4760 
  215.1250    65.4700   104.6990    88.5560    81.2330    24.4930     2.1330   -26.7850 
  215.2500    63.3080   104.7000    88.0170    83.5490    24.3490     2.1440   -26.9400 
  215.3750    64.4610   106.3830    89.0200    87.8970    24.2520     2.1690   -27.0620 
  215.5000    68.2900   108.9120    90.9120    90.5040    24.3070     2.1970   -27.0740 
  215.6250    69.8410   111.4930    93.0600    95.3680    24.3640     2.2170   -26.8690 
  215.7500    70.5960   113.6440    95.0060    99.9640    24.4680     2.2230   -26.7380 
  215.8750    73.8540   115.2010    96.6120   102.2840    24.5160     2.2210   -26.4970 
  216.0000    77.0530   116.1000    97.8440   102.4100    24.3620     2.2190   -26.2870 
  216.1250    74.1750   116.2320    98.6850   102.3110    24.3400     2.2180   -25.9250 
  216.2500    70.2430   116.3200    99.6150   103.8180    24.3330     2.2160   -25.5510 
  216.3750    68.7560   118.3260   101.9230   106.7060    24.3330     2.2120   -25.1270 
  216.5000    67.9040   125.1170   107.6350   109.3030    24.3330     2.2060   -24.6750 
  216.6250    66.6520   139.2720   118.8740   112.1640    24.3330     2.1990   -24.2130 
  216.7500    66.2730   156.3790   132.6740   116.7740    24.3350     2.2010   -23.5980 
  216.8750    65.8590   168.3270   142.9230   128.1480    24.3420     2.2250   -23.0060 
  217.0000    63.0040   164.8390   141.5000   143.4190    24.3890     2.2860   -22.2700 
  217.1250    60.1370   135.6510   119.7730   167.6530    24.4030     2.3860   -21.6600 
  217.2500    60.6320    93.0180    85.5920   204.1530    24.4400     2.5050   -21.0470 
  217.3750    63.2090    54.2980    51.7190   181.8170    24.5090     2.5920   -20.4740 
  217.5000    66.5360    28.7680    27.7800    62.0600    24.5440     2.6140   -20.0490 
  217.6250    69.2740    16.2910    15.8130    19.7420    24.6130     2.5740   -19.7850 
  217.7500    69.8720    10.3320     9.9920     8.4690    24.6580     2.5050   -19.7440 
  217.8750    67.7590     8.2650     7.4340     6.2350    24.6680     2.4470   -19.8350 
  218.0000    66.1030     7.8640     6.5830     6.1700    24.6770     2.4140   -20.0240 
  218.1250    69.4430     8.4820     6.8410     6.6390    24.7310     2.4050   -20.2760 
  218.2500    75.4220     9.4940     7.6630     7.2530    24.7790     2.4150   -20.5520 
  218.3750    82.5870    10.5880     8.7730     8.1980    24.8840     2.4330   -20.8930 
  218.5000    90.1400    11.5180     9.8990     9.3950    24.9270     2.4530   -21.1530 
  218.6250    95.8420    12.0590    10.7570    10.1220    24.9330     2.4720   -21.3810 
  218.7500    99.3820    12.2360    11.2580    10.4820    24.9330     2.4820   -21.5230 
  218.8750   101.6860    12.1280    11.4110    10.6110    24.9330     2.4790   -21.5690 
  219.0000   104.6660    11.8650    11.3070    10.5810    24.9330     2.4680   -21.6780 
  219.1250   106.3270    11.5960    11.0550    10.4610    24.9320     2.4530   -21.6300 
  219.2500   106.2500    11.4060    10.7750    10.3840    24.9160     2.4400   -21.5960 
  219.3750   107.6060    11.3110    10.5080    10.3970    24.8210     2.4310   -21.5170 
  219.5000   111.4770    11.2910    10.2740    10.4040    24.6700     2.4250   -21.5260 
  219.6250   115.3490    11.3270    10.0910    10.3100    24.4950     2.4210   -21.4920 
  219.7500   119.4880    11.3880     9.9590    10.1840    24.2230     2.4210   -21.4620 
  219.8750   126.9250    11.4540     9.8710    10.1180    23.9030     2.4230   -21.4360 
  220.0000   137.0380    11.5000     9.8080    10.1790    23.8100     2.4280   -21.3550 
  220.1250   138.3600    11.4780     9.7260    10.2530    23.7740     2.4310   -21.3950 
  220.2500   128.2780    11.3580     9.5890    10.2580    23.6330     2.4320   -21.4130 
  220.3750   116.4760    11.1380     9.3850    10.1320    23.4920     2.4300   -21.5410 
  220.5000   111.5680    10.8650     9.1430     9.9800    23.4670     2.4260   -21.5750 
  220.6250   112.8730    10.6750     8.9590     9.7450    23.4730     2.4210   -21.6130 
  220.7500   114.9320    10.6870     8.9290     9.5310    23.5140     2.4160   -21.7300 
  220.8750   117.9800    10.9440     9.1010     9.4650    23.6180     2.4120   -21.8390 
  221.0000   120.2640    11.3720     9.4490     9.6660    23.6600     2.4090   -22.0020 
  221.1250   117.3980    11.7690     9.8620    10.4380    23.6670     2.4080   -22.1180 
  221.2500   109.9270    11.9610    10.1910    11.6690    23.6630     2.4070   -22.2000 
  221.3750   102.9990    11.9600    10.4030    12.9630    23.6540     2.4060   -22.2000 
  221.5000   102.0380    11.9790    10.6040    13.5150    23.5760     2.4040   -22.1730 
  221.6250   108.2370    12.4400    11.0800    13.2020    23.6630     2.4030   -22.2860 
  221.7500   112.4430    13.5100    12.0000    12.9290    23.7240     2.4020   -22.3440 
  221.8750   109.2970    15.0870    13.3510    13.8810    23.9100     2.3960   -22.4470 
  222.0000   103.6270    16.7710    14.8820    16.9020    23.9970     2.3870   -22.5510 
  222.1250   100.8190    17.8310    16.0110    21.2070    24.0660     2.3760   -22.5790 
  222.2500   100.5860    17.8690    16.2870    21.6480    24.1210     2.3720   -22.6640 
  222.3750   100.3750    16.8480    15.5620    19.9300    24.2730     2.3770   -22.7310 
  222.5000    99.0020    15.0970    14.0560    17.7060    24.4580     2.3900   -22.9170 
  222.6250    99.8260    13.1560    12.2460    14.3610    24.4700     2.4030   -23.0070 
  222.7500   104.6720    11.5120    10.6360    11.9650    24.4730     2.4120   -23.1860 
  222.8750   109.8070    10.4040     9.4510    11.4900    24.4730     2.4160   -23.4290 
  223.0000   110.6430     9.9090     8.8280    11.5650    24.4730     2.4180   -23.7290 
  223.1250   107.9820    10.5220     9.0890    11.3470    24.4710     2.4170   -24.2200 
  223.2500   104.7670    12.5460    10.4800    13.0270    24.4520     2.4110   -24.7880 
  223.3750   100.9780    16.7410    13.5100    17.6300    24.4040     2.4010   -25.4880 
  223.5000    96.1240    23.4430    18.7500    26.7860    24.3530     2.3890   -26.1520 
  223.6250    88.8390    33.7870    27.0010    41.7070    24.3450     2.3780   -26.9530 
  223.7500    79.9480    46.3680    37.5390    59.0890    24.3680     2.3650   -27.6900 
  223.8750    71.3540    59.2770    49.3780    78.6950    24.4120     2.3480   -28.3400 
  224.0000    65.8860    71.2080    61.1400    99.8040    24.4540     2.3270   -29.0090 
  224.1250    64.8610    81.5520    71.3070   106.9690    24.4700     2.3040   -29.5950 
  224.2500    67.5920    90.3380    79.6560   110.5050    24.4730     2.2840   -30.1230 
  224.3750    71.5260    97.8440    86.3590   118.3700    24.4730     2.2710   -30.5540 
  224.5000    70.4290   104.3310    91.6950   126.4490    24.4730     2.2640   -30.8890 
  224.6250    64.9080   109.8010    95.7680   133.9690    24.4730     2.2640   -31.1540 
  224.7500    62.9950   114.6320    99.1200   136.8400    24.4680     2.2680   -31.3620 
  224.8750    66.1710   119.2880   102.2500   131.9960    24.4540     2.2720   -31.6190 
  225.0000    69.3500   124.4380   105.7960   122.4780    24.4320     2.2730   -31.7860 
  225.1250    68.6260   130.9270   110.5960   128.1910    24.4200     2.2690   -31.8880 
  225.2500    69.6500   138.6690   116.7150   140.1290    24.4200     2.2620   -31.9900 
  225.3750    71.9170   147.1500   123.8550   153.6760    24.4240     2.2560   -32.0740 
  225.5000    69.5590   155.4870   131.3540   166.8440    24.4400     2.2560   -32.2980 
  225.6250    62.7360   162.4070   138.1840   173.0160    24.4590     2.2630   -32.3900 
  225.7500    58.7670   167.3570   143.6570   173.0670    24.4500     2.2780   -32.5180 
  225.8750    59.7470   170.1080   147.3850   172.5780    24.4190     2.2940   -32.6010 
  226.0000    62.0130   170.7000   149.2210   172.7320    24.4050     2.3040   -32.5910 
  226.1250    62.7260   168.9600   148.8460   179.1420    24.4170     2.3040   -32.6430 
