~V
VERS. 2.00: Ver 2.00
~W
STRT.M 60.0000:
STOP.M 282.0000:
STEP.M 0.1250:
NULL. -999.2500:
UWI. DF3058:
~C
DEPT.M :
GR.API :
RML.OHMM :
RI. :
RXO.OHMM :
CALI.CM :
DEN.GM/CC :
SP.MV :
~A
# ...
  262.5000    76.3520     9.8980     8.9710     9.1000    23.4790     2.3110   -18.5210 
  262.6250    72.8440     9.9480     9.0170     9.0970    23.2740     2.3090   -18.6480 
  262.7500    71.9920    10.0520     9.1140     9.3700    23.2550     2.3050   -18.7260 
  262.8750    75.1470    10.2250     9.2760     9.9170    23.4680     2.3010   -18.7500 
  263.0000    78.3640    10.4780     9.5120    10.5650    23.7360     2.2980   -18.7190 
  263.1250    78.1060    10.8120     9.8250    11.1590    23.8470     2.2960   -18.6250 
  263.2500    78.7700    11.1750    10.1640    11.6480    23.8530     2.2960   -18.4940 
  263.3750    83.5290    11.5150    10.4810    12.0640    23.8150     2.2980   -18.2830 
  263.5000    89.1600    11.7810    10.7260    12.4560    23.7790     2.2990   -18.0050 
  263.6250    90.8400    11.9350    10.8700    12.5460    23.7490     2.2990   -17.6360 
  263.7500    90.0420    12.0150    10.9530    12.0480    23.7340     2.2970   -17.2180 
  263.8750    88.2950    12.0640    11.0160    11.5700    23.7270     2.2970   -16.7300 
  264.0000    86.1380    12.1050    11.0750    11.2210    23.7040     2.3000   -16.1960 
  264.1250    82.8500    12.1010    11.0870    11.0470    23.6540     2.3060   -15.6200 
  264.2500    80.6630    11.9980    10.9750    10.9480    23.5900     2.3120   -14.9540 
  264.3750    80.0030    11.7340    10.6680    10.6450    23.5650     2.3180   -14.2470 
  264.5000    76.1420    11.2070    10.1390    10.0460    23.5130     2.3260   -13.5310 
  264.6250    65.5470    10.4250     9.4120     9.1270    23.3960     2.3380   -12.8300 
  264.7500    54.0360     9.5360     8.6320     7.9380    23.2450     2.3500   -12.1090 
  264.8750    48.1560     8.7640     7.9100     6.9210    23.1920     2.3590   -11.4210 
  265.0000    48.0470     8.1440     7.3310     6.4910    23.1750     2.3600   -10.8030 
  265.1250    50.0010     7.7550     6.9680     6.4040    23.1760     2.3550   -10.2490 
  265.2500    52.5390     7.5560     6.7810     6.2650    23.1940     2.3480    -9.8270 
  265.3750    53.7500     7.5030     6.7320     6.2340    23.2180     2.3440    -9.4990 
  265.5000    52.8140     7.5430     6.7690     6.2870    23.2280     2.3420    -9.2530 
  265.6250    50.6720     7.6150     6.8360     6.3770    23.2130     2.3400    -9.0710 
  265.7500    49.5220     7.6650     6.8830     6.4400    23.1620     2.3360    -8.9720 
  265.8750    49.1030     7.6700     6.8870     6.4710    23.0700     2.3290    -8.9140 
  266.0000    48.7890     7.6240     6.8450     6.4360    22.9660     2.3230    -8.8500 
  266.1250    49.7000     7.5330     6.7590     6.2930    22.9240     2.3170    -8.8040 
  266.2500    50.6010     7.4230     6.6570     6.1080    22.9120     2.3140    -8.7340 
  266.3750    50.4040     7.3130     6.5540     5.9670    22.9120     2.3120    -8.6290 
  266.5000    50.4930     7.2190     6.4660     5.8950    22.9120     2.3130    -8.4990 
  266.6250    51.6470     7.1500     6.4020     5.9140    22.9120     2.3160    -8.3330 
  266.7500    53.1560     7.1020     6.3570     6.0290    22.9150     2.3220    -8.1660 
  266.8750    53.6200     7.0660     6.3230     6.2320    22.9410     2.3320    -8.0440 
  267.0000    52.7850     7.0340     6.2920     6.4700    23.0080     2.3420    -7.9280 
  267.1250    51.6910     7.0000     6.2590     6.6390    23.1180     2.3510    -7.8120 
  267.2500    51.6710     6.9590     6.2240     6.7210    23.1830     2.3580    -7.7030 
  267.3750    52.6130     6.9050     6.1880     6.6510    23.2120     2.3630    -7.6140 
  267.5000    52.4280     6.8350     6.1530     6.4240    23.2060     2.3660    -7.5410 
  267.6250    51.0690     6.7440     6.1160     6.2600    23.1880     2.3680    -7.4860 
  267.7500    51.4510     6.6580     6.0750     6.1110    23.2170     2.3690    -7.4520 
  267.8750    53.5220     6.5850     6.0270     5.9920    23.2700     2.3670    -7.3880 
  268.0000    54.6910     6.5450     5.9720     5.9280    23.2940     2.3630    -7.3490 
  268.1250    53.2250     6.5480     5.9120     5.9040    23.2760     2.3570    -7.3180 
  268.2500    51.4620     6.5400     5.8520     5.8820    23.2450     2.3510    -7.3120 
  268.3750    50.9200     6.5010     5.7950     5.8450    23.2310     2.3460    -7.3330 
  268.5000    50.9910     6.4490     5.7470     5.7920    23.2290     2.3440    -7.3580 
  268.6250    51.2670     6.4080     5.7090     5.7210    23.2290     2.3430    -7.4050 
  268.7500    51.5100     6.3780     5.6800     5.6520    23.2330     2.3420    -7.4460 
  268.8750    51.8670     6.3560     5.6590     5.5970    23.2490     2.3380    -7.5210 
  269.0000    52.3100     6.3370     5.6420     5.5530    23.2840     2.3320    -7.5740 
  269.1250    52.7140     6.3150     5.6250     5.4680    23.3020     2.3230    -7.6050 
  269.2500    52.9610     6.2910     5.6060     5.3640    23.3080     2.3130    -7.6230 
  269.3750    52.3840     6.2730     5.5850     5.2830    23.3080     2.3050    -7.6130 
  269.5000    51.4700     6.2720     5.5660     5.2640    23.3080     2.3010    -7.6140 
  269.6250    51.7200     6.3130     5.5540     5.2940    23.3050     2.3010    -7.5970 
  269.7500    51.6240     6.3950     5.5530     5.3260    23.2800     2.3040    -7.5740 
  269.8750    49.9650     6.4930     5.5630     5.3530    23.2020     2.3110    -7.5490 
  270.0000    47.6560     6.5810     5.5850     5.3980    23.0800     2.3180    -7.5500 
  270.1250    48.0340     6.6510     5.6280     5.5240    22.9860     2.3240    -7.5840 
  270.2500    50.5000     6.7220     5.6970     5.6930    22.9570     2.3260    -7.6480 
  270.3750    52.0680     6.7900     5.7950     5.8670    22.9720     2.3250    -7.7300 
  270.5000    51.4220     6.8710     5.9100     6.0040    22.9720     2.3220    -7.8090 
  270.6250    50.5620     6.9540     6.0070     6.0990    22.9050     2.3210    -7.8890 
  270.7500    51.1270     6.9970     6.0500     6.1100    22.7890     2.3220    -7.9470 
  270.8750    51.8190     6.9620     6.0200     5.9890    22.7170     2.3240    -7.9910 
  271.0000    52.1450     6.8550     5.9290     5.7990    22.7220     2.3240    -8.0020 
  271.1250    52.4800     6.7290     5.8200     5.6600    22.7280     2.3210    -8.0440 
  271.2500    52.6230     6.6540     5.7440     5.5850    22.7060     2.3160    -8.0930 
  271.3750    51.5100     6.6590     5.7180     5.5470    22.6780     2.3110    -8.1100 
  271.5000    50.2530     6.7320     5.7320     5.5170    22.6580     2.3080    -8.1420 
  271.6250    50.2530     6.8180     5.7580     5.5000    22.6270     2.3070    -8.1920 
  271.7500    50.2530     6.8520     5.7640     5.5090    22.5820     2.3080    -8.2340 
  271.8750    50.2530     6.8100     5.7420     5.5410    22.5780     2.3090    -8.2630 
  272.0000    50.2530     6.7030     5.7040     5.5820    22.6380     2.3090    -8.3160 
  272.1250    50.2530     6.5800     5.6710     5.6200    22.7080     2.3080    -8.3470 
  272.2500    50.2530     6.5010     5.6530     5.6480    22.7360     2.3050    -8.3620 
  272.3750    50.2530     6.4940     5.6480     5.6600    22.7300     2.3020    -8.4440 
  272.5000    50.2530     6.5480     5.6440     5.6610    22.7020     2.2980    -8.5330 
  272.6250    50.2530     6.6150     5.6230     5.6150    22.6920     2.2940    -8.6120 
  272.7500    50.2530     6.6390     5.5820     5.5140    22.7180     2.2900    -8.7400 
  272.8750    50.2530     6.6000     5.5290     5.4670    22.7920     2.2890    -8.8930 
  273.0000    50.2530     6.5170     5.4810     5.5350    22.8640     2.2910    -9.0360 
  273.1250    50.2530     6.4500     5.4630     5.7420    22.8960     2.2950    -9.1840 
  273.2500    50.2530     6.4500     5.4890     6.0410    22.9120     2.3030    -9.3510 
  273.3750    50.2530     6.5380     5.5650     6.3820    22.9300     2.3170    -9.5310 
  273.5000    50.2530     6.6860     5.6870     6.7330    22.9150     2.3360    -9.7380 
  273.6250    50.2530     6.8690     5.8420     7.1630    22.9400     2.3580    -9.9500 
