~V
VERS. 2.00: Ver 2.00
~W
STRT.M 60.0000:
STOP.M 268.0000:
STEP.M 0.1250:
NULL. -999.2500:
UWI. DF3035:
~C
DEPT.M :
GR.API :
CALI.CM :
RXO.OHMM :
RI. :
RML.OHMM :
SP.MV :
DEN.GM/CC :
AC.US/MT :
~A
# ...
  210.0000    90.3660    25.0610     8.5250     6.5000     8.5060   -15.9000     2.4290   363.8640 
  210.1250    89.8340    25.0560     8.2510     6.5350     8.5170   -16.0310     2.4290   368.5120 
  210.2500    87.9480    25.0470     8.4450     6.6460     8.7270   -16.1740     2.4300   371.3540 
  210.3750    84.7140    25.0430     8.8210     6.9110     9.2370   -16.3330     2.4320   372.3230 
  210.5000    81.9840    25.0440     9.6220     7.3730    10.0820   -16.5110     2.4280   371.7430 
  210.6250    82.0330    25.0440    10.9100     8.0790    11.3050   -16.7110     2.4170   370.3970 
  210.7500    82.5800    25.0440    12.4500     9.0140    12.8840   -16.9210     2.4050   369.7330 
  210.8750    82.9450    25.0520    14.5880    10.2370    14.9060   -17.1510     2.3970   371.0020 
  211.0000    83.5110    25.0710    17.4780    11.8170    17.4540   -17.4080     2.3870   374.8090 
  211.1250    82.9240    25.0880    20.7190    13.8680    20.6380   -17.6610     2.3680   380.4700 
  211.2500    80.9060    25.0950    24.4160    16.2940    24.2830   -17.9240     2.3420   385.4280 
  211.3750    80.6480    25.1000    29.1020    18.9690    28.1710   -18.1950     2.3220   387.5680 
  211.5000    82.0230    25.1070    33.6170    21.6480    31.9300   -18.4710     2.3150   385.7930 
  211.6250    80.5010    25.1140    35.5050    23.9360    34.9810   -18.7440     2.3160   380.3710 
  211.7500    76.3740    25.1140    35.6880    25.5980    37.0340   -19.0220     2.3160   374.3600 
  211.8750    73.0260    25.1040    36.1010    26.4750    37.9060   -19.2870     2.3150   370.1000 
  212.0000    72.6940    25.0700    37.2270    26.6100    37.7570   -19.5300     2.3190   368.5480 
  212.1250    73.0180    25.0170    37.6060    26.3550    37.2480   -19.7810     2.3340   368.9730 
  212.2500    72.8290    24.9750    35.7560    26.3780    37.3840   -20.0360     2.3550   369.3350 
  212.3750    73.5210    24.9610    32.8730    27.2590    38.9830   -20.3010     2.3700   369.0140 
  212.5000    75.5410    24.9630    33.1470    29.6100    42.8170   -20.5630     2.3610   368.6950 
  212.6250    76.5710    24.9930    42.6300    34.4170    50.1270   -20.8220     2.3270   370.1600 
  212.7500    74.4570    25.0590    57.3610    41.6100    60.7590   -21.0630     2.2910   374.0270 
  212.8750    71.7900    25.1410    68.6940    50.7680    74.1430   -21.2980     2.2640   379.8270 
  213.0000    70.0760    25.1930    72.8280    60.6370    88.3250   -21.5200     2.2490   386.3580 
  213.1250    68.6130    25.1860    75.3360    68.8370    99.2200   -21.7010     2.2460   392.1660 
  213.2500    65.9250    25.1560    80.3600    73.9160   104.6730   -21.8510     2.2470   396.5080 
  213.3750    62.7530    25.1250    86.0060    75.5740   104.8360   -21.9780     2.2480   399.0040 
  213.5000    62.1940    25.0860    89.3110    74.3500   101.1780   -22.1010     2.2450   399.4400 
  213.6250    65.4770    25.0390    85.8780    70.9610    95.2280   -22.2120     2.2440   397.4680 
  213.7500    69.4450    24.9870    77.0450    66.9170    89.0580   -22.3120     2.2430   393.8150 
  213.8750    71.2070    24.9200    67.7380    63.1230    83.7290   -22.4030     2.2370   389.4210 
  214.0000    70.1220    24.8280    62.4450    60.0170    79.5750   -22.5150     2.2270   385.7150 
  214.1250    66.3360    24.7420    61.4650    57.6620    76.4590   -22.6580     2.2220   384.2710 
  214.2500    62.7120    24.7190    59.9230    55.7160    73.8270   -22.8260     2.2290   384.5040 
  214.3750    62.4330    24.7580    55.6180    54.1510    71.6770   -23.0140     2.2420   385.1160 
  214.5000    65.2190    24.8260    50.3400    53.2500    70.4680   -23.2190     2.2520   384.9880 
  214.6250    67.8570    24.9190    48.2910    53.8340    71.3560   -23.4680     2.2530   383.7270 
  214.7500    69.6700    25.0290    50.9330    56.3190    74.8470   -23.7740     2.2460   381.8190 
  214.8750    70.8010    25.1290    59.0110    61.0350    81.3380   -24.1350     2.2340   380.6140 
  215.0000    71.1840    25.1840    72.1600    67.9010    90.7090   -24.5220     2.2210   381.2650 
  215.1250    70.2980    25.2070    84.6050    76.2940   102.0910   -24.9410     2.2130   383.9470 
  215.2500    69.7390    25.2160    89.5180    84.4840   112.9590   -25.3780     2.2110   387.0530 
  215.3750    68.6390    25.1780    87.8250    91.0010   121.0610   -25.8140     2.2110   389.5000 
  215.5000    65.6970    25.0720    85.2570    94.8070   124.9140   -26.2170     2.2120   390.9140 
  215.6250    63.8910    24.9370    84.5370    95.0850   123.6310   -26.5420     2.2050   391.3980 
  215.7500    63.1040    24.8420    82.8830    92.7120   118.8150   -26.7680     2.1940   391.4130 
  215.8750    63.0840    24.7860    78.6390    88.3100   111.5770   -26.8840     2.1900   391.0800 
  216.0000    64.6240    24.7290    72.9040    82.6770   103.2360   -26.8910     2.2000   390.4530 
  216.1250    68.2890    24.6660    67.9980    76.9260    95.5110   -26.7820     2.2100   389.5790 
  216.2500    71.8300    24.6440    64.3750    72.2010    89.6450   -26.5970     2.2100   388.4600 
  216.3750    72.0150    24.6720    61.8640    69.2790    86.3840   -26.3740     2.2100   386.8240 
  216.5000    69.5390    24.7160    60.9170    68.7320    86.2250   -26.1530     2.2230   384.4210 
  216.6250    68.9530    24.7450    63.3240    71.5230    90.2040   -25.9650     2.2450   381.4870 
  216.7500    69.7810    24.7760    71.0410    77.5610    98.1490   -25.8330     2.2580   379.0600 
  216.8750    69.8070    24.8180    86.7330    86.9910   110.2930   -25.7640     2.2550   377.9220 
  217.0000    67.1840    24.8630   111.0950    99.4920   126.3550   -25.7940     2.2440   378.1540 
  217.1250    63.0660    24.9110   138.6600   113.8890   144.8570   -25.9210     2.2340   378.9890 
  217.2500    61.0110    24.9430   160.4020   127.3110   161.7320   -26.0990     2.2300   379.4210 
  217.3750    61.5420    24.9420   171.7350   137.2230   173.2720   -26.3000     2.2310   379.4610 
  217.5000    63.6530    24.9400   170.1710   142.0810   177.5650   -26.4990     2.2410   379.8540 
  217.6250    64.5970    25.0010   156.5230   141.6240   175.1370   -26.6990     2.2540   381.5170 
  217.7500    64.3560    25.1020   141.3950   138.8740   170.5610   -26.8870     2.2580   384.0580 
  217.8750    64.9880    25.1760   131.6250   136.1250   166.7450   -27.0460     2.2470   386.5700 
  218.0000    65.9740    25.1880   129.2270   135.1070   165.4810   -27.1390     2.2280   388.1910 
  218.1250    67.9420    25.1580   134.4560   137.1560   167.8960   -27.1690     2.2170   388.6180 
  218.2500    70.8870    25.1280   142.5160   141.6490   172.8260   -27.1520     2.2200   388.9370 
  218.3750    70.8220    25.1190   148.9880   147.6490   178.8760   -27.0930     2.2320   390.2260 
  218.5000    66.5430    25.1420   150.8060   153.8730   184.3190   -26.9900     2.2460   392.9240 
  218.6250    64.6890    25.1720   147.7860   158.6110   186.7640   -26.8110     2.2540   396.5250 
  218.7500    69.0120    25.1720   143.9930   160.2600   184.1890   -26.5900     2.2570   399.7200 
  218.8750    73.1290    25.1400   142.1990   156.4340   173.7210   -26.3500     2.2550   401.7720 
  219.0000    70.7860    25.1070   143.1500   144.8030   153.7570   -26.1140     2.2500   402.5720 
  219.1250    67.4560    25.1010   140.8650   124.6030   126.6910   -25.8500     2.2480   402.3670 
  219.2500    68.7880    25.1090   125.1820   101.7030   100.4040   -25.5660     2.2500   401.6500 
  219.3750    72.5880    25.1090    96.0880    81.0360    79.2200   -25.2720     2.2550   400.4980 
  219.5000    74.5600    25.0850    66.8290    65.4910    64.4050   -25.0080     2.2640   399.0190 
  219.6250    73.9020    25.0420    52.7280    56.3080    56.0430   -24.7960     2.2700   397.6460 
  219.7500    73.5400    25.0140    50.8850    51.3650    51.7280   -24.6260     2.2670   396.8250 
  219.8750    73.8220    25.0150    54.6630    49.4120    50.2830   -24.4950     2.2550   396.6400 
