~V
VERS. 2.00: Ver 2.00
~W
STRT.M 130.0000:
STOP.M 280.0000:
STEP.M 0.1250:
NULL. -999.2500:
UWI. DF3042:
~C
DEPT.M :
DEN.GM/CC :
GR.API :
RML.OHMM :
RI. :
RXO.OHMM :
CALI.CM :
SP.MV :
~A
# ...
  231.2500     2.4060   111.5120    11.0060    10.5890     9.2680    24.8920   -18.6190 
  231.3750     2.4020   113.6840    10.8600    10.6510     9.4020    25.0120   -18.7820 
  231.5000     2.3910   111.8620    10.6900    10.6210     9.5520    25.2200   -18.9880 
  231.6250     2.3770   111.2690    10.5470    10.5350     9.7160    25.3500   -19.1560 
  231.7500     2.3630   114.0660    10.4640    10.4310     9.9310    25.4020   -19.3910 
  231.8750     2.3540   115.5450    10.4530    10.3280    10.0210    25.4020   -19.6440 
  232.0000     2.3490   111.8710    10.5130    10.2400     9.9810    25.3630   -19.9340 
  232.1250     2.3460   110.1460    10.6390    10.1940     9.8770    25.2890   -20.2150 
  232.2500     2.3440   114.5500    10.7990    10.2010     9.9750    25.2420   -20.4280 
  232.3750     2.3450   120.7240    10.9720    10.2650    10.1510    25.2250   -20.6280 
  232.5000     2.3500   122.8680    11.1370    10.3760    10.3740    25.2210   -20.7520 
  232.6250     2.3590   117.8750    11.2640    10.5080    10.4910    25.2240   -20.9040 
  232.7500     2.3680   111.0600    11.3500    10.6270    10.6180    25.2250   -20.8980 
  232.8750     2.3740   108.9280    11.4150    10.7150    10.7570    25.2190   -20.8920 
  233.0000     2.3750   112.4890    11.4940    10.7730    10.8440    25.2020   -20.7760 
  233.1250     2.3760   117.1090    11.6310    10.8090    10.8490    25.1670   -20.7030 
  233.2500     2.3780   118.5830    11.8170    10.8280    10.7510    25.1510   -20.6240 
  233.3750     2.3820   117.9380    12.0030    10.8090    10.6750    25.1470   -20.5630 
  233.5000     2.3870   115.5310    12.0990    10.7040    10.7830    25.1470   -20.4960 
  233.6250     2.3900   110.4370    11.9590    10.4260    10.9900    25.1460   -20.4510 
  233.7500     2.3880   107.4580    11.5600     9.9680    10.9910    25.1440   -20.4680 
  233.8750     2.3830   107.1550    10.8950     9.3680    10.9410    25.1500   -20.5260 
  234.0000     2.3760   107.5540    10.1640     8.7480    10.6260    25.1970   -20.6360 
  234.1250     2.3700   108.1720     9.9550     8.4220    10.4590    25.2270   -20.7600 
  234.2500     2.3640   107.4940    11.0690     8.8570    10.6630    25.2320   -20.9620 
  234.3750     2.3570   102.9320    14.6230    10.8610    12.4420    25.2060   -21.2250 
  234.5000     2.3440    93.9800    22.1050    15.5840    17.8690    25.1590   -21.5510 
  234.6250     2.3260    84.6070    35.0910    24.8690    31.7140    25.1290   -21.9100 
  234.7500     2.3020    77.1750    51.9730    38.1290    55.9500    25.1280   -22.2810 
  234.8750     2.2770    71.9090    69.7450    53.6450    92.5310    25.1390   -22.6240 
  235.0000     2.2550    69.8310    85.2430    68.1430   128.0990    25.1450   -22.9980 
  235.1250     2.2390    69.7700    93.1570    76.8470   118.5890    25.1460   -23.2940 
  235.2500     2.2290    69.8140    93.5670    79.1460   100.7890    25.1440   -23.5930 
  235.3750     2.2220    70.3640    89.3160    76.8370    84.0670    25.1450   -23.7590 
  235.5000     2.2160    71.7520    84.1500    72.7740    77.7110    25.1450   -23.9200 
  235.6250     2.2100    72.3100    80.5900    69.2390    73.7740    25.1450   -24.0170 
  235.7500     2.2040    69.8600    78.6880    66.8810    67.7920    25.1440   -24.0940 
  235.8750     2.2020    66.4720    77.9450    65.5810    64.2340    25.1460   -24.1840 
  236.0000     2.2020    65.4380    77.8350    65.0470    65.8580    25.1470   -24.2250 
  236.1250     2.2060    67.7310    78.2020    65.2160    70.1520    25.1470   -24.3220 
  236.2500     2.2110    70.0620    79.2660    66.1740    74.3960    25.1470   -24.3380 
  236.3750     2.2140    70.4640    81.6260    68.3730    76.7240    25.1470   -24.4030 
  236.5000     2.2150    70.1060    86.0210    72.4040    74.0910    25.1470   -24.4510 
  236.6250     2.2130    70.2900    93.5340    79.1920    75.0640    25.1590   -24.4920 
  236.7500     2.2100    69.8090   103.5950    88.2440    87.4690    25.1860   -24.5390 
  236.8750     2.2060    67.3330   114.7000    98.5450   100.0730    25.2140   -24.5500 
  237.0000     2.2020    62.8770   124.5850   108.1920   109.3220    25.2260   -24.5670 
  237.1250     2.2010    59.0360   129.4700   113.8660   118.4420    25.2390   -24.5640 
  237.2500     2.2050    58.4200   128.2300   114.0140   129.8870    25.2740   -24.5270 
  237.3750     2.2240    60.5940   121.4500   108.5130   135.5220    25.3210   -24.5130 
  237.5000     2.2600    64.8410   112.5520    99.0590   129.5750    25.3550   -24.4570 
  237.6250     2.3060    70.1830   103.8190    88.3780   110.2900    25.3630   -24.4220 
  237.7500     2.3480    73.8490    95.7550    78.8920    87.4890    25.3300   -24.3620 
  237.8750     2.3640    73.0460    87.2660    71.5150    70.8520    25.2330   -24.3480 
  238.0000     2.3500    70.4830    81.5700    66.4910    68.2440    25.1240   -24.3160 
  238.1250     2.3160    71.0160    78.9790    64.1520    77.5740    25.1090   -24.3420 
  238.2500     2.2750    74.5580    78.9900    64.0190    76.7770    25.1260   -24.4200 
  238.3750     2.2420    76.4830    81.4060    65.9180    63.7640    25.1360   -24.5210 
  238.5000     2.2230    73.7260    85.6380    69.4030    59.7660    25.1370   -24.6460 
  238.6250     2.2140    66.9310    90.5930    73.6540    73.9580    25.1300   -24.7510 
  238.7500     2.2140    61.6010    94.8700    77.4940    84.3910    25.1080   -24.9300 
  238.8750     2.2180    62.5160    97.8120    80.3040    85.4090    25.0750   -25.0080 
  239.0000     2.2220    68.7350    99.6150    82.1100    82.1830    25.0480   -25.1530 
  239.1250     2.2220    73.3660   101.6000    83.8240    80.4700    25.0220   -25.1770 
  239.2500     2.2190    72.8430   105.3940    86.7880    79.1850    24.9950   -25.2260 
  239.3750     2.2140    69.2780   111.9280    91.8420    79.1920    24.9830   -25.1880 
  239.5000     2.2070    65.5150   121.2350    99.1130    86.2010    24.9810   -25.1220 
  239.6250     2.2010    64.3850   132.4040   107.9860   103.5340    24.9810   -25.0410 
  239.7500     2.1980    65.5050   142.9330   116.5730   119.3370    24.9790   -24.9020 
  239.8750     2.1980    67.0420   150.2500   122.9650   121.4420    24.9760   -24.8230 
  240.0000     2.2030    67.8040   151.7960   125.2120   119.1770    24.9750   -24.6460 
  240.1250     2.2180    66.7600   144.8420   121.0460   120.2820    24.9760   -24.5300 
  240.2500     2.2430    66.2920   131.9400   111.9690   120.3790    24.9530   -24.3470 
  240.3750     2.2740    68.1360   116.6850   100.3360   117.9110    24.9100   -24.2320 
  240.5000     2.3020    73.4560   103.0990    89.1850   106.4420    24.8920   -24.1450 
  240.6250     2.3170    80.9290    94.8280    81.7530    77.0940    24.9940   -24.1010 
  240.7500     2.3160    87.8220    91.7270    78.5940    58.2850    25.0330   -24.0140 
  240.8750     2.3010    93.0560    92.8240    79.2540    59.6910    25.0230   -23.9320 
  241.0000     2.2820    94.8670    96.3870    82.4170    71.9260    24.9850   -23.8220 
  241.1250     2.2650    90.3950   100.1200    86.1860    80.9670    24.9930   -23.7290 
  241.2500     2.2510    82.4460   102.0730    88.6750    78.7450    25.0280   -23.6420 
  241.3750     2.2410    75.8170   101.7060    89.1730    75.3880    25.0470   -23.5140 
  241.5000     2.2330    72.3890   100.0010    88.2510    77.1220    25.0510   -23.4070 
  241.6250     2.2260    71.4640    99.7090    88.0620    81.9370    25.0540   -23.2180 
  241.7500     2.2210    70.1880   103.2820    90.9130    85.0760    25.0550   -23.1350 
  241.8750     2.2160    67.5550   112.1820    98.3270    84.4380    25.0520   -23.0030 
  242.0000     2.2080    65.8120   126.6500   110.7840    92.4240    25.0500   -22.9980 
  242.1250     2.1970    66.5390   145.5250   127.5770   122.1200    25.0370   -22.9190 
  242.2500     2.1870    66.3340   164.1370   144.7060   161.4030    25.0050   -22.8880 
  242.3750     2.1850    63.2390   177.6410   157.9940   180.0980    24.9600   -22.8620 
