~V
VERS. 2.00: Ver 2.00
~W
STRT.M 120.0000:
STOP.M 272.0000:
STEP.M 0.1250:
NULL. -999.2500:
UWI. DF3038:
~C
DEPT.M :
GR.API :
RML.OHMM :
RI. :
RXO.OHMM :
CALI.CM :
DEN.GM/CC :
SP.MV :
~A
  120.0000    82.6410     9.5070     8.5790    10.4570    24.2840     2.2710   -26.6680 
  120.1250    78.1170     9.9730     9.0740    12.8220    24.3510     2.2880   -26.6630 
  120.2500    78.7710    10.0300     9.1890    13.8450    24.4280     2.3310   -26.6370 
  120.3750    84.5420     9.6420     8.8340    12.1460    24.5860     2.3810   -26.4650 
  120.5000    91.1540     9.0470     8.1030     9.6270    24.7860     2.4090   -26.3260 
  120.6250    96.2980     8.4720     7.2640     7.6390    24.9490     2.3930   -26.1980 
  120.7500   100.1740     8.0670     6.6110     6.6550    24.9920     2.3510   -26.0970 
  120.8750   101.0180     7.7760     6.2670     6.4740    24.9320     2.3060   -26.1700 
  121.0000    97.9110     7.8790     6.2440     6.6810    24.7810     2.2750   -26.2770 
  121.1250    91.5450     8.2840     6.5210     7.0040    24.6450     2.2650   -26.5380 
  121.2500    88.3950     8.7840     6.9450     7.2340    24.6440     2.2700   -26.7560 
  121.3750    89.7150     9.2420     7.3970     7.2970    24.7210     2.2820   -27.0110 
  121.5000    91.6380     9.5360     7.7570     7.1900    24.7200     2.2920   -27.2780 
  121.6250    89.9710     9.5290     7.8860     7.2380    24.6260     2.2940   -27.4450 
  121.7500    88.2860     9.2410     7.7650     7.3770    24.6360     2.2940   -27.5710 
  121.8750    91.6520     8.7270     7.4140     7.2790    24.8140     2.2980   -27.5470 
  122.0000    99.0890     8.0950     6.9090     6.4240    25.0030     2.3130   -27.4060 
  122.1250   104.7430     7.4770     6.3550     5.7810    25.0690     2.3430   -27.2970 
  122.2500   106.9540     6.9640     5.8540     5.4510    25.0760     2.3790   -27.2230 
  122.3750   106.1330     6.5870     5.4540     5.3170    25.0890     2.4120   -27.2230 
  122.5000   103.3520     6.3540     5.1790     5.2630    25.0990     2.4370   -27.2840 
  122.6250   100.9490     6.3000     5.0730     5.2830    25.1000     2.4450   -27.4610 
  122.7500    99.6790     6.4170     5.1300     5.4890    25.1000     2.4350   -27.8000 
  122.8750    95.5020     6.7260     5.3660     6.1680    25.0940     2.4090   -28.2350 
  123.0000    86.1600     7.2530     5.8040     7.2930    25.0360     2.3770   -28.8650 
  123.1250    77.8140     8.0770     6.5090     9.3850    24.8140     2.3570   -29.5370 
  123.2500    75.6770     9.1650     7.4540    12.2510    24.4650     2.3590   -30.2200 
  123.3750    77.2590    10.4660     8.5950    13.0630    24.2340     2.3860   -30.9040 
  123.5000    78.1170    11.8390     9.8210    12.1260    24.3440     2.4290   -31.4410 
  123.6250    76.3560    13.0040    10.9110    13.1200    24.5860     2.4610   -32.0300 
  123.7500    74.1090    13.7330    11.6730    16.0240    24.6570     2.4630   -32.5060 
  123.8750    73.6830    13.9250    12.0030    17.0540    24.5120     2.4320   -32.9220 
  124.0000    75.4740    13.6600    11.9350    14.2410    24.2280     2.3770   -33.1990 
  124.1250    73.4870    13.1680    11.6170    11.6430    23.9930     2.3110   -33.2320 
  124.2500    69.3920    12.7500    11.2940    10.9070    23.8520     2.2490   -33.1960 
  124.3750    69.4040    12.5360    11.0920    10.7950    23.8200     2.1950   -32.9250 
  124.5000    74.1610    12.5380    11.0520    10.7240    23.8600     2.1560   -32.6430 
  124.6250    74.2960    12.6950    11.1530    10.6130    23.8650     2.1430   -32.2980 
  124.7500    68.0060    12.8820    11.2970    10.5410    23.8240     2.1520   -31.8710 
  124.8750    63.7660    13.0330    11.4260    10.5210    23.7540     2.1750   -31.4850 
  125.0000    66.1820    13.1060    11.5030    10.5550    23.6430     2.1980   -31.1420 
  125.1250    70.6150    13.0560    11.4900    10.5010    23.5690     2.2110   -30.8210 
  125.2500    71.6100    12.9030    11.3930    10.2710    23.5420     2.2160   -30.6050 
  125.3750    68.5080    12.6870    11.2340     9.9590    23.5550     2.2200   -30.5530 
  125.5000    65.3300    12.4710    11.0560     9.9930    23.6200     2.2250   -30.4950 
  125.6250    66.5980    12.3370    10.9250    10.1510    23.7780     2.2320   -30.5100 
  125.7500    71.2050    12.3130    10.8730    10.2800    23.9960     2.2380   -30.5590 
  125.8750    73.6070    12.3930    10.9090    10.5150    24.1930     2.2390   -30.5480 
  126.0000    71.1360    12.5410    11.0120    11.0030    24.2850     2.2380   -30.5130 
  126.1250    68.1000    12.7050    11.1470    11.5120    24.2840     2.2370   -30.5570 
  126.2500    67.3770    12.8410    11.2730    11.7280    24.2500     2.2380   -30.5830 
  126.3750    68.1500    12.9310    11.3680    11.6950    24.2220     2.2430   -30.5820 
  126.5000    68.5720    12.9810    11.4290    11.6490    24.1760     2.2490   -30.6960 
  126.6250    68.1540    13.0060    11.4580    11.6580    24.0910     2.2550   -30.7050 
  126.7500    67.6810    13.0270    11.4730    11.6360    23.9350     2.2580   -30.7540 
  126.8750    66.9280    13.0450    11.4810    11.6800    23.7930     2.2570   -30.8670 
  127.0000    67.8250    13.0520    11.4790    11.9090    23.8230     2.2530   -30.9770 
  127.1250    70.1310    13.0350    11.4610    12.1720    24.0150     2.2490   -31.2090 
  127.2500    71.0170    12.9960    11.4310    11.6160    24.1590     2.2460   -31.3890 
  127.3750    70.0770    12.9430    11.3950    11.2950    24.1720     2.2450   -31.6060 
  127.5000    70.5210    12.8910    11.3640    11.2440    24.1240     2.2420   -31.7830 
  127.6250    74.4980    12.8590    11.3550    11.2150    24.0920     2.2390   -31.8990 
  127.7500    77.9930    12.8520    11.3700    11.1680    24.1490     2.2370   -32.0540 
  127.8750    78.6760    12.8640    11.4040    11.2400    24.2080     2.2430   -32.1320 
  128.0000    76.5300    12.8800    11.4390    11.4310    24.2070     2.2590   -32.2400 
  128.1250    71.6970    12.8680    11.4430    11.5790    24.1090     2.2810   -32.2910 
  128.2500    67.1340    12.7930    11.3910    11.5370    23.9760     2.2950   -32.2710 
  128.3750    65.4460    12.6300    11.2630    11.4040    23.8880     2.2910   -32.2560 
  128.5000    67.4530    12.3760    11.0600    11.2520    23.8750     2.2640   -32.2340 
  128.6250    70.0550    12.0930    10.8240    11.2070    23.9020     2.2170   -32.1610 
  128.7500    69.9130    11.9240    10.6620    11.2050    23.9550     2.1690   -31.9660 
  128.8750    68.9910    12.0230    10.6940    11.2320    24.0240     2.1360   -31.7150 
  129.0000    69.9250    12.4790    11.0070    11.3000    24.0650     2.1320   -31.2330 
  129.1250    71.7740    13.2180    11.5890    11.8230    24.0780     2.1700   -30.5090 
  129.2500    71.7980    13.8510    12.1600    12.9310    24.1230     2.2370   -29.6400 
  129.3750    69.8880    14.0090    12.4140    14.6650    24.2510     2.3160   -28.6670 
  129.5000    68.4650    13.4560    12.1120    17.5370    24.4250     2.3820   -27.6510 
  129.6250    70.7070    12.1700    11.1420    19.5670    24.4480     2.4070   -26.7030 
  129.7500    76.8320    10.6560     9.8790    15.1870    24.4130     2.3920   -25.8530 
  129.8750    83.9770     9.3120     8.6580     9.6140    24.3920     2.3540   -25.0260 
  130.0000    86.8080     8.3760     7.7220     7.5100    24.3740     2.3170   -24.4520 
  130.1250    85.9320     7.9560     7.2170     7.3370    24.3400     2.3010   -24.0160 
  130.2500    87.2900     7.8740     7.0370     7.2390    24.3730     2.3050   -23.8270 
  130.3750    91.9700     7.9930     7.0860     7.1020    24.5080     2.3170   -23.7470 
  130.5000    96.2190     8.1720     7.2430     6.8680    24.6730     2.3260   -23.6650 
  130.6250    97.2910     8.2710     7.3780     6.8890    24.6940     2.3230   -23.7500 
  130.7500    96.4300     8.2270     7.4080     7.0140    24.6330     2.3120   -23.7840 
  130.8750    94.5720     8.0310     7.3070     7.1090    24.6330     2.2980   -23.8820 
  131.0000    91.9230     7.7210     7.0910     7.0160    24.7570     2.2900   -23.9580 
  131.1250    91.7780     7.3720     6.8140     6.5330    24.8890     2.2900   -24.0480 
