~V
VERS. 2.00: Ver 2.00
~W
STRT.M 66.0000:
STOP.M 262.0000:
STEP.M 0.1250:
NULL. -999.2500:
UWI. DF3009:
~C
DEPT.M :
GR.API :
RML.OHMM :
RI. :
RXO.OHMM :
CALI.CM :
DEN.GM/CC :
SP.MV :
~A
# ...
  178.5000    82.0910    35.5490    32.8000    28.1310    24.2850     2.3140   -26.9530 
  178.6250    79.8350    33.3940    30.3880    27.3270    24.2870     2.3250   -27.1190 
  178.7500    79.8660    33.4940    29.7860    26.3370    24.2400     2.3310   -27.3830 
  178.8750    82.0660    35.8190    30.9610    25.7650    24.3090     2.3300   -27.5420 
  179.0000    83.9990    40.1050    33.8970    28.9930    24.4750     2.3220   -27.7590 
  179.1250    83.6860    46.4720    38.8970    35.2220    24.5410     2.3070   -28.0170 
  179.2500    82.0700    53.8880    45.6590    46.3060    24.6090     2.2910   -28.1890 
  179.3750    79.4990    62.0890    54.0370    62.0390    24.5490     2.2760   -28.4030 
  179.5000    76.9910    70.8620    63.6420    73.0670    24.5420     2.2630   -28.6070 
  179.6250    75.2030    79.8110    73.7090    74.5640    24.5220     2.2540   -28.7580 
  179.7500    74.7290    90.3510    82.9710    81.8840    24.5220     2.2490   -28.9060 
  179.8750    73.7110    98.8800    90.2480    97.4430    24.5620     2.2470   -29.1320 
  180.0000    70.0540   104.3750    94.6690   110.3330    24.4680     2.2480   -29.2600 
  180.1250    67.0390   106.2680    95.7650   112.3720    24.5020     2.2520   -29.3780 
  180.2500    67.5870   106.3380    95.1300   106.9190    24.4380     2.2550   -29.5750 
  180.3750    69.0960   106.3890    94.3210    97.2890    24.4240     2.2560   -29.6840 
  180.5000    67.5810   108.1800    94.8680    88.3700    24.4510     2.2560   -29.7670 
  180.6250    63.9180   113.4260    98.2920    89.3410    24.4960     2.2550   -29.8540 
  180.7500    63.2720   121.7180   104.3450   105.4760    24.5990     2.2560   -29.9220 
  180.8750    64.3950   132.1220   112.3440   123.2480    24.5740     2.2560   -29.9270 
  181.0000    64.6930   142.9230   120.9990   134.0460    24.5830     2.2540   -30.0410 
  181.1250    64.9310   151.1900   128.1560   146.5160    24.3970     2.2450   -30.1440 
  181.2500    65.5890   154.9650   132.2050   157.6650    24.2640     2.2310   -30.1880 
  181.3750    67.0240   153.4410   132.3520   158.6680    24.3230     2.2140   -30.3560 
  181.5000    68.8810   147.5280   128.9720   150.4480    24.3180     2.2030   -30.4750 
  181.6250    70.5220   139.7640   123.5510   135.5440    24.4600     2.2030   -30.6620 
  181.7500    70.4640   133.4940   118.6410   119.2390    24.4350     2.2110   -30.8230 
  181.8750    70.1500   130.4010   115.7430   106.3930    24.5080     2.2210   -30.9550 
  182.0000    70.7470   130.8800   115.4860   102.5220    24.5110     2.2270   -31.1280 
  182.1250    68.8710   134.6190   117.9310   109.7830    24.4190     2.2300   -31.1720 
  182.2500    65.4750   139.8390   121.7610   127.0670    24.3630     2.2330   -31.2870 
  182.3750    65.2900   145.4500   126.0630   144.5700    24.3670     2.2360   -31.3230 
  182.5000    67.9980   150.7480   130.1530   143.9400    24.5260     2.2380   -31.3600 
  182.6250    69.0180   155.4750   133.6760   141.6910    24.6310     2.2330   -31.4540 
  182.7500    67.3960   160.0570   136.9420   151.8470    24.6450     2.2220   -31.4570 
  182.8750    65.5700   164.9770   140.3820   157.3500    24.6220     2.2100   -31.5290 
  183.0000    64.5140   170.5860   144.3610   144.6250    24.4570     2.2030   -31.6280 
  183.1250    64.1360   176.9810   149.0710   129.1950    24.5420     2.2060   -31.7320 
  183.2500    64.6500   183.6650   154.1860   129.7660    24.5740     2.2150   -31.7140 
  183.3750    65.5600   190.2090   159.4180   154.1610    24.6510     2.2260   -31.7600 
  183.5000    66.9920   196.3930   164.5840   191.0660    24.7070     2.2340   -31.7750 
  183.6250    68.0980   202.5310   169.7950   207.6650    24.6280     2.2340   -31.7050 
  183.7500    66.4880   209.3190   175.3590   211.1610    24.6150     2.2260   -31.6950 
  183.8750    63.0860   216.7210   181.2230   210.2780    24.5900     2.2130   -31.6270 
  184.0000    61.0230   222.7700   186.3940   210.8360    24.6540     2.2000   -31.5250 
  184.1250    61.3440   222.7630   187.6430   224.1480    24.6200     2.1940   -31.3840 
  184.2500    62.5920   212.8440   182.1580   233.9080    24.5590     2.1940   -31.3380 
  184.3750    64.1910   192.1640   168.1660   240.7790    24.3720     2.2000   -31.1640 
  184.5000    65.5620   162.9410   146.7310   225.0760    24.0380     2.2070   -31.0490 
  184.6250    66.6560   135.3420   122.4490   182.9620    23.9360     2.2140   -30.8820 
  184.7500    68.6810   115.0760   101.8800   132.3690    23.8310     2.2220   -30.6790 
  184.8750    71.0950   102.1710    88.7230    89.9630    23.7640     2.2320   -30.5680 
  185.0000    69.6710    98.3650    84.4540    69.0510    23.7170     2.2440   -30.3040 
  185.1250    65.1500   106.8360    90.0200    75.7790    23.5870     2.2560   -30.2060 
  185.2500    63.4570   122.8300   101.8680    99.7880    23.5190     2.2630   -30.1450 
  185.3750    64.6460   142.1270   116.6820   138.8540    23.3810     2.2620   -30.1120 
  185.5000    66.2510   159.3920   130.2870   164.6610    23.4090     2.2540   -30.1570 
  185.6250    66.9120   167.9550   137.5930   169.5280    23.5400     2.2420   -30.2030 
  185.7500    67.1150   167.3090   138.0080   167.3380    23.7390     2.2320   -30.3220 
  185.8750    67.4890   160.3360   133.3240   153.7750    23.9130     2.2260   -30.4640 
  186.0000    68.0280   151.8500   126.8370   120.8730    24.0350     2.2250   -30.6030 
  186.1250    67.5360   146.0740   121.7630   112.1250    24.2570     2.2230   -30.6940 
  186.2500    65.0040   143.5230   118.9830   119.8100    24.3940     2.2190   -30.7830 
  186.3750    63.1760   143.4650   118.2020   129.9300    24.2560     2.2140   -30.7850 
  186.5000    64.2970   144.8770   118.7680   133.0550    24.1530     2.2120   -30.7190 
  186.6250    66.1590   146.8760   120.0950   130.6330    24.0160     2.2150   -30.7200 
  186.7500    67.2800   148.7130   121.5750   128.7980    24.0740     2.2240   -30.6460 
  186.8750    68.2840   149.9320   122.8660   130.3470    24.0820     2.2340   -30.5570 
  187.0000    69.7370   149.9860   123.5580   135.8610    24.2000     2.2440   -30.4930 
  187.1250    70.8980   147.8170   122.8550   142.6120    24.2070     2.2520   -30.4550 
  187.2500    72.8780   143.2480   120.4690   149.0560    24.1140     2.2580   -30.4110 
  187.3750    76.2520   136.3980   116.3410   152.6650    24.2610     2.2630   -30.4030 
  187.5000    78.7430   127.8550   110.7710   142.7020    24.2900     2.2690   -30.4200 
  187.6250    77.8550   118.3560   104.2090   125.0370    24.3990     2.2770   -30.3790 
  187.7500    74.5660   108.9100    97.4790   110.8230    24.4390     2.2860   -30.4170 
  187.8750    70.2840   100.4010    91.2950   104.4850    24.1460     2.2970   -30.3860 
  188.0000    65.7140    93.7790    86.4260   102.7680    23.9100     2.3070   -30.4020 
  188.1250    63.2410    90.0080    83.6580    93.7420    23.8600     2.3100   -30.4430 
  188.2500    64.6160    88.0200    82.2560    76.0680    24.1530     2.3020   -30.3800 
  188.3750    66.8040    86.0970    80.8930    67.8910    24.4350     2.2810   -30.4370 
  188.5000    66.5780    82.1510    77.8460    79.4390    24.4140     2.2520   -30.4200 
  188.6250    64.6160    74.2520    71.3470   106.2520    24.1180     2.2270   -30.4870 
  188.7500    63.6450    63.6880    62.3050   118.8190    23.9200     2.2200   -30.5450 
  188.8750    64.6570    52.5770    52.4340    94.5460    23.9420     2.2350   -30.5480 
  189.0000    68.0510    43.0380    43.6220    59.1490    24.2400     2.2660   -30.6520 
  189.1250    72.8140    36.6790    37.4540    37.4130    24.4410     2.3000   -30.7220 
  189.2500    76.9360    33.0080    33.7160    30.0540    24.4740     2.3250   -30.8380 
  189.3750    78.6920    31.7420    32.1130    30.3020    24.2930     2.3380   -30.9770 
  189.5000    78.4110    32.5520    32.3810    32.4070    24.1040     2.3390   -31.2070 
  189.6250    78.2640    35.5250    34.7080    33.6480    24.4010     2.3300   -31.3660 
