~V
VERS. 2.00: Ver 2.00
~W
STRT.M 125.0000:
STOP.M 255.0000:
STEP.M 0.1250:
NULL. -999.2500:
UWI. DF3006:
~C
DEPT.M :
GR.API :
RML.OHMM :
RI. :
RXO.OHMM :
CALI.CM :
DEN.GM/CC :
SP.MV :
~A
# ...
  158.7500    73.6540   181.3050   161.6530   192.1230    23.9950     2.2610   -26.5310 
  158.8750    71.7700   183.7010   165.2960   189.3590    23.9610     2.2640   -26.5050 
  159.0000    70.0340   174.7480   158.6820   180.3840    23.9600     2.2730   -26.3840 
  159.1250    71.0020   158.2480   144.4810   158.9610    23.9630     2.2770   -26.3670 
  159.2500    72.9580   141.4310   129.1450   137.6760    24.0300     2.2710   -26.3260 
  159.3750    74.7990   127.5870   115.9780   122.0570    24.1870     2.2560   -26.2300 
  159.5000    76.3360   117.9880   106.5010   105.5730    24.3380     2.2370   -26.1890 
  159.6250    76.2060   113.7160   101.9090    96.9770    24.3710     2.2200   -26.1660 
  159.7500    75.1620   113.9160   101.4840    95.9770    24.3750     2.2100   -26.2070 
  159.8750    74.5320   118.0220   104.7570    99.9710    24.3990     2.2040   -26.2580 
  160.0000    74.9930   124.6980   110.6030   105.0470    24.4040     2.2000   -26.4270 
  160.1250    73.4360   131.3010   116.8190   111.9540    24.3190     2.1950   -26.5960 
  160.2500    70.0870   134.8280   120.6730   122.0360    24.1470     2.1910   -26.6990 
  160.3750    68.0190   133.6100   120.5260   136.3170    23.9950     2.1910   -26.9340 
  160.5000    67.8770   127.9290   116.3120   146.8370    23.9100     2.1970   -27.0560 
  160.6250    69.1710   120.1430   109.6680   119.8610    23.8810     2.2100   -27.0360 
  160.7500    72.6070   113.7130   103.6460    93.8170    23.8720     2.2250   -27.0220 
  160.8750    77.0960   110.1320    99.7990    81.6180    23.8610     2.2380   -27.0270 
  161.0000    78.4150   109.3230    98.3900    82.8910    23.8500     2.2480   -27.0680 
  161.1250    75.1050   110.3220    98.8510    88.2030    23.8690     2.2540   -27.0370 
  161.2500    73.0830   111.6660    99.8880    92.1480    23.9670     2.2550   -27.0860 
  161.3750    72.8320   112.9820   101.0550    88.1980    24.1440     2.2530   -27.1210 
  161.5000    73.0110   114.6150   102.4910    81.1490    24.3470     2.2470   -27.2330 
  161.6250    73.6990   117.5830   104.9580    78.5410    24.4720     2.2350   -27.4890 
  161.7500    73.8410   122.1920   108.7740    85.3630    24.4990     2.2210   -27.7150 
  161.8750    73.6870   128.1440   113.7630    98.9480    24.4680     2.2120   -27.9910 
  162.0000    74.6640   134.5580   119.1910   113.2460    24.4020     2.2090   -28.1850 
  162.1250    76.8510   140.0350   123.7980   118.6140    24.4250     2.2150   -28.3220 
  162.2500    77.0140   143.6670   126.7350   121.5610    24.4660     2.2240   -28.4650 
  162.3750    75.6030   145.0190   127.6160   125.0170    24.4770     2.2310   -28.5170 
  162.5000    75.6250   144.1470   126.5520   127.5800    24.4450     2.2360   -28.4840 
  162.6250    75.8980   141.3010   123.9100   129.4310    24.3940     2.2380   -28.4030 
  162.7500    76.1060   137.5500   120.7370   133.6180    24.3340     2.2390   -28.2920 
  162.8750    74.1590   133.6310   117.7740   135.7780    24.2620     2.2410   -28.1530 
  163.0000    69.8570   130.0660   115.5610   124.7160    24.1670     2.2450   -28.0630 
  163.1250    68.6850   127.0440   114.3740   111.4120    24.1070     2.2540   -27.9970 
  163.2500    71.1870   124.3610   113.8550   103.9520    24.0940     2.2660   -27.8670 
  163.3750    73.9310   122.2020   113.9530   100.1080    24.1230     2.2800   -27.7380 
  163.5000    75.5700   121.4020   115.1360    95.9240    24.2080     2.2920   -27.6900 
  163.6250    77.7500   123.9930   118.9060    85.7710    24.3440     2.2980   -27.6550 
  163.7500    77.2290   130.3120   125.5980    78.7120    24.4380     2.2960   -27.6230 
  163.8750    71.2350   138.9310   134.0890    90.7770    24.4180     2.2870   -27.6000 
  164.0000    64.8970   145.8100   140.9270   115.2220    24.2470     2.2720   -27.4520 
  164.1250    63.6410   143.0990   139.0320   131.4300    24.0480     2.2550   -27.3790 
  164.2500    65.0170   127.6920   125.3570   133.8330    23.9850     2.2410   -27.2810 
  164.3750    66.5760   101.4980   101.1980   129.0250    24.0510     2.2340   -27.2250 
  164.5000    67.1040    72.1870    73.1850   113.9850    24.2330     2.2390   -27.2140 
  164.6250    68.8450    49.7960    50.7250    67.6800    24.2970     2.2600   -27.0950 
  164.7500    74.9290    36.6160    36.6710    34.0670    24.3050     2.2920   -27.0620 
  164.8750    82.2550    31.8900    30.5040    23.2730    24.3150     2.3230   -26.9550 
  165.0000    84.4880    34.8330    31.5640    26.7550    24.3670     2.3420   -26.9460 
  165.1250    79.5390    47.2220    41.9330    41.1160    24.4470     2.3340   -26.9240 
  165.2500    72.7460    68.4080    61.4620    68.2860    24.5160     2.3070   -26.9850 
  165.3750    66.7290    97.4210    89.4360   107.5030    24.5500     2.2710   -27.0330 
  165.5000    62.8900   130.5780   122.0320   151.6420    24.5070     2.2370   -27.0490 
  165.6250    62.0610   160.1080   150.9380   188.1430    24.3480     2.2150   -27.0830 
  165.7500    62.3810   179.5200   169.3750   227.1160    24.1720     2.2050   -27.0400 
  165.8750    62.3700   187.3410   175.9500   245.0150    24.1230     2.2080   -27.0530 
  166.0000    62.0590   187.9170   174.7770   210.7070    24.2010     2.2200   -26.9580 
  166.1250    61.1620   188.4910   172.4200   151.7390    24.4040     2.2320   -27.0040 
  166.2500    60.2560   192.3560   172.4950   132.2780    24.5380     2.2370   -27.0890 
  166.3750    61.2140   197.8560   174.0890   151.2610    24.5680     2.2300   -27.1930 
  166.5000    63.8200   201.2030   174.3500   194.2810    24.4670     2.2130   -27.3730 
  166.6250    65.1820   197.5770   169.5940   210.8950    24.3000     2.1950   -27.5510 
  166.7500    64.0410   187.1260   159.8070   171.1520    24.1720     2.1870   -27.7970 
  166.8750    63.5030   172.2010   146.6220   121.6910    24.0960     2.1890   -28.0700 
  167.0000    65.9180   156.4900   132.7350    95.7570    24.0520     2.2000   -28.3920 
  167.1250    68.7480   143.4470   120.9010   104.2980    24.0250     2.2130   -28.6530 
  167.2500    68.9520   133.6420   111.7690   108.4570    23.9810     2.2210   -28.7800 
  167.3750    67.9010   127.2550   105.5500   106.7990    23.9580     2.2260   -28.8840 
  167.5000    67.6540   125.2820   102.9730   110.2830    23.9550     2.2280   -28.7710 
  167.6250    67.8040   131.2210   106.7470   124.8410    23.9960     2.2300   -28.7220 
  167.7500    68.2220   145.8360   117.6040   111.3650    24.1150     2.2320   -28.6670 
  167.8750    68.5100   168.0520   135.0880   105.2600    24.3130     2.2310   -28.5940 
  168.0000    67.1490   192.8200   155.6810   138.8180    24.4070     2.2260   -28.5270 
  168.1250    64.3160   209.0610   171.0910   222.0860    24.3020     2.2150   -28.3110 
  168.2500    62.2740   208.8660   174.5350   339.0310    24.0950     2.2040   -28.1540 
  168.3750    61.4980   191.2810   164.2030   373.8290    23.9850     2.1990   -27.9650 
  168.5000    61.4500   164.5170   144.9860   253.1110    23.9460     2.2050   -27.9100 
  168.6250    61.7210   142.5560   126.9860   124.4610    24.0210     2.2200   -27.7150 
  168.7500    63.5210   131.3060   116.6070    74.6060    24.0130     2.2360   -27.5380 
  168.8750    65.8600   128.7770   113.5540    65.5970    23.8940     2.2450   -27.3150 
  169.0000    66.3870   128.9530   113.3800    71.3500    23.8730     2.2450   -27.0190 
  169.1250    65.4460   123.1560   108.7280    77.7220    23.9160     2.2360   -26.7550 
  169.2500    66.2600   107.5000    95.7950    77.7970    24.0190     2.2290   -26.4150 
  169.3750    69.0040    83.6270    75.5240    72.4700    24.0600     2.2310   -26.1890 
  169.5000    70.9640    58.0820    53.2950    51.6530    24.0700     2.2490   -25.9450 
  169.6250    74.9200    39.1150    36.4070    26.9300    24.1070     2.2840   -25.7660 
  169.7500    81.6120    28.0250    26.2830    13.8400    24.2470     2.3230   -25.6820 
  169.8750    86.8870    23.5210    21.8310     9.6880    24.4510     2.3530   -25.6670 
