~V
VERS. 2.00: Ver 2.00
~W
STRT.M 60.0000:
STOP.M 254.0000:
STEP.M 0.1250:
NULL. -999.2500:
UWI. DF3029:
~C
DEPT.M :
SP.MV :
GR.API :
RML.OHMM :
RI. :
RXO.OHMM :
CALI.CM :
DEN.GM/CC :
~A
# ...
  105.0000   -35.2970    83.0900     9.5400     7.8700     8.6460    23.8330     2.2390 
  105.1250   -35.5410    79.9950     9.6790     7.9480     8.2930    23.7760     2.2380 
  105.2500   -35.8790    77.9590     9.8800     8.0960     8.8020    23.7330     2.2290 
  105.3750   -36.3140    75.9560    10.0870     8.2770     9.3340    23.7140     2.2160 
  105.5000   -36.7920    72.7460    10.2500     8.4470     9.5100    23.7480     2.2040 
  105.6250   -37.2530    69.3440    10.3280     8.5650     9.4010    23.8320     2.1970 
  105.7500   -37.5910    67.0090    10.3350     8.6270     9.3530    23.9110     2.1930 
  105.8750   -37.8890    65.9100    10.2910     8.6440     9.3380    23.9230     2.1910 
  106.0000   -38.0980    67.0960    10.2230     8.6380     9.4440    23.8710     2.1880 
  106.1250   -38.0660    69.0520    10.1600     8.6320     9.5700    23.8040     2.1860 
  106.2500   -38.0250    68.3410    10.1290     8.6430     9.7400    23.7700     2.1840 
  106.3750   -37.8100    66.2280    10.1520     8.6810     9.8490    23.7470     2.1830 
  106.5000   -37.5430    66.1510    10.2340     8.7460     9.9350    23.7120     2.1840 
  106.6250   -37.1580    70.5290    10.3490     8.8230    10.0660    23.6930     2.1870 
  106.7500   -36.7190    74.9200    10.4230     8.8690    10.1380    23.7010     2.1900 
  106.8750   -36.1790    74.9180    10.3770     8.8310    10.1530    23.7690     2.1930 
  107.0000   -35.4250    71.1410    10.1460     8.6590    10.0390    23.9430     2.1960 
  107.1250   -34.6100    70.5030     9.6910     8.3130     9.7330    24.1120     2.2050 
  107.2500   -33.5780    76.8600     9.1240     7.8670     9.2780    24.2810     2.2210 
  107.3750   -32.5560    84.9980     8.5740     7.4120     8.6840    24.4180     2.2430 
  107.5000   -31.5310    90.7520     8.1870     7.0610     7.9100    24.4660     2.2670 
  107.6250   -30.6060    93.8060     8.1350     6.9560     6.6950    24.3080     2.2820 
  107.7500   -29.7940    94.1620     8.3690     7.0930     6.3720    24.0420     2.2860 
  107.8750   -29.0280    90.9190     8.7580     7.3970     6.5250    23.7600     2.2850 
  108.0000   -28.3750    87.9560     9.0880     7.7190     6.8880    23.4980     2.2890 
  108.1250   -27.7820    89.9680     9.0880     7.8330     7.4220    23.2610     2.3060 
  108.2500   -27.2890    91.6370     8.7240     7.6530     8.2180    23.0560     2.3310 
  108.3750   -26.8600    91.5840     8.1050     7.2190     8.3390    22.9720     2.3540 
  108.5000   -26.4400    93.7370     7.4520     6.6830     6.6960    23.0310     2.3670 
  108.6250   -26.0240   100.2940     7.0120     6.2510     5.4660    23.1210     2.3650 
  108.7500   -25.6160   104.5690     6.8230     6.0080     5.2910    23.1830     2.3530 
  108.8750   -25.2460   104.8720     6.8310     5.9480     5.7130    23.2600     2.3390 
  109.0000   -25.0490   103.4630     6.9350     6.0140     6.2190    23.4370     2.3290 
  109.1250   -24.9760   104.9020     7.0400     6.1340     6.2140    23.7910     2.3240 
  109.2500   -24.9940   108.7690     7.1150     6.2510     6.2460    24.1760     2.3220 
  109.3750   -25.0530   111.5250     7.1970     6.3760     6.1750    24.4150     2.3210 
  109.5000   -25.1220   110.0640     7.3390     6.5430     6.1580    24.5010     2.3180 
  109.6250   -25.3040   106.3680     7.5650     6.7860     6.3750    24.5270     2.3180 
  109.7500   -25.4580   105.3760     7.8150     7.0610     6.8070    24.5540     2.3280 
  109.8750   -25.7720   105.6570     8.0140     7.3020     7.3330    24.5830     2.3500 
  110.0000   -26.0440   104.1260     8.1050     7.4420     8.4190    24.6190     2.3790 
  110.1250   -26.2770   101.2170     8.0580     7.4220     9.4010    24.6720     2.3970 
  110.2500   -26.6300   101.3080     7.9500     7.2900     8.7620    24.7210     2.3910 
  110.3750   -26.9680   104.0620     7.8390     7.1020     7.1730    24.7190     2.3610 
  110.5000   -27.3930   105.3040     7.7400     6.8990     6.5910    24.6290     2.3220 
  110.6250   -27.7190   101.2030     7.5910     6.6790     6.6930    24.4770     2.2900 
  110.7500   -28.1160    97.5680     7.3290     6.4150     6.6770    24.4100     2.2740 
  110.8750   -28.4300    99.1620     6.9590     6.1040     6.6910    24.3900     2.2700 
  111.0000   -28.6250   103.1650     6.6170     5.8180     6.8310    24.3700     2.2720 
  111.1250   -28.8040   104.7290     6.7220     5.8230     7.0460    24.3350     2.2790 
  111.2500   -28.9310   102.7110     7.6520     6.4220     7.4370    24.3280     2.2950 
  111.3750   -29.0890    96.9310     9.6560     7.8900     8.5410    24.3490     2.3330 
  111.5000   -29.3400    89.3050    12.6420    10.2980    11.4000    24.4010     2.4010 
  111.6250   -29.6780    81.6760    15.9730    13.3370    17.4520    24.4750     2.4950 
  111.7500   -30.1150    74.9510    18.4730    16.0090    26.7970    24.5550     2.5810 
  111.8750   -30.7070    70.6620    19.2230    17.3640    34.6840    24.5510     2.6240 
  112.0000   -31.4210    70.8670    17.9460    16.8650    33.4090    24.4250     2.6030 
  112.1250   -32.3180    73.5280    15.2630    14.7700    23.6880    24.1310     2.5190 
  112.2500   -33.2300    74.4840    12.6780    12.4550    15.6370    23.8320     2.4170 
  112.3750   -34.1340    75.8250    10.8840    10.6290    11.3260    23.6600     2.3240 
  112.5000   -34.8880    79.6400     9.9820     9.4820     9.9040    23.6100     2.2550 
  112.6250   -35.5560    82.9650     9.7980     8.9750     9.4720    23.6380     2.2170 
  112.7500   -36.1240    82.7220     9.8840     8.7910     9.2000    23.7260     2.1990 
  112.8750   -36.4850    78.8480    10.0000     8.7510     9.0640    23.8530     2.1920 
  113.0000   -36.8470    74.9090    10.0070     8.7220     9.0650    23.9230     2.1890 
  113.1250   -37.0480    74.4490     9.8840     8.6470     9.1190    23.9070     2.1880 
  113.2500   -37.1610    75.3830     9.7830     8.5910     9.1700    23.8290     2.1870 
  113.3750   -37.2420    76.5560     9.8710     8.6680     9.1870    23.6820     2.1880 
  113.5000   -37.2800    79.1620    10.2600     8.9710     9.2110    23.4840     2.1910 
  113.6250   -37.4300    84.0460    10.9490     9.5290     9.2570    23.3480     2.1960 
  113.7500   -37.5490    87.3440    11.6680    10.1490     9.2650    23.2930     2.2010 
  113.8750   -37.7960    87.0280    12.1460    10.6130     9.3740    23.2410     2.2020 
  114.0000   -38.1160    82.7150    12.1730    10.7220     9.6290    23.2010     2.1960 
  114.1250   -38.4510    78.8580    11.6570    10.3440     9.8360    23.3290     2.1830 
  114.2500   -38.8790    78.6510    10.9000     9.6960     9.6280    23.6640     2.1660 
  114.3750   -39.2530    78.1520    10.1790     9.0050     9.2670    24.0570     2.1510 
  114.5000   -39.6910    73.9690     9.6890     8.4560     9.0910    24.3650     2.1420 
  114.6250   -40.0940    70.3360     9.5190     8.1630     9.0610    24.5260     2.1410 
  114.7500   -40.3870    70.4930     9.5350     8.0610     9.0390    24.5780     2.1490 
  114.8750   -40.5330    71.8010     9.6220     8.0730     9.0430    24.5610     2.1590 
  115.0000   -40.5640    71.5970     9.6970     8.1250     9.0530    24.5460     2.1670 
  115.1250   -40.4310    71.6560     9.7270     8.1670     9.0090    24.4640     2.1610 
  115.2500   -40.1790    72.8320     9.7320     8.1920     8.9760    24.3280     2.1430 
  115.3750   -39.8680    75.2910     9.7220     8.2020     9.0270    24.1500     2.1180 
  115.5000   -39.4470    78.0310     9.6870     8.1910     9.1010    23.9510     2.0980 
  115.6250   -38.8370    80.7460     9.5980     8.1390     9.0760    23.7610     2.0940 
  115.7500   -38.1500    82.5880     9.4580     8.0420     9.0690    23.5730     2.1060 
  115.8750   -37.4680    81.6190     9.3000     7.9150     9.0850    23.4740     2.1290 
  116.0000   -36.6520    80.3200     9.1780     7.7940     9.0970    23.4760     2.1580 
  116.1250   -35.8750    83.1160     9.1540     7.7300     8.9490    23.5310     2.1880 
