~V
VERS. 2.00: Ver 2.00
~W
STRT.M 140.0000:
STOP.M 286.0000:
STEP.M 0.1250:
NULL. -999.2500:
UWI. DF3059:
~C
DEPT.M :
SP.MV :
GR.API :
RML.OHMM :
RI. :
RXO.OHMM :
CALI.CM :
DEN.GM/CC :
~A
# ...
  162.5000   -16.7600    70.3020    24.5540    22.3160    24.6860    24.4890     2.5690 
  162.6250   -16.8320    66.5130    24.5800    22.4140    25.8730    24.5300     2.5750 
  162.7500   -16.9680    61.4120    24.1870    22.1440    25.7340    24.5480     2.5750 
  162.8750   -17.0120    59.1460    23.5660    21.6400    23.1000    24.5600     2.5660 
  163.0000   -17.0780    62.3060    22.9660    21.1070    20.5180    24.5750     2.5510 
  163.1250   -17.1020    66.2580    22.5910    20.7310    19.5040    24.5950     2.5380 
  163.2500   -17.1230    65.6140    22.3830    20.5070    19.6750    24.6250     2.5320 
  163.3750   -17.1950    63.0310    22.1980    20.3370    20.6650    24.6680     2.5340 
  163.5000   -17.1870    64.2510    21.8850    20.0970    21.7690    24.7290     2.5400 
  163.6250   -17.1600    69.7390    21.3440    19.6820    21.1550    24.8000     2.5430 
  163.7500   -17.0560    73.7250    20.6610    19.1280    19.7450    24.8330     2.5410 
  163.8750   -17.0120    73.9330    19.9170    18.4900    18.3620    24.8240     2.5350 
  164.0000   -16.9370    71.3130    19.1610    17.8090    17.6810    24.7940     2.5330 
  164.1250   -16.9130    68.5220    18.4040    17.1050    17.8720    24.7900     2.5370 
  164.2500   -16.8980    67.0460    17.6600    16.4010    17.5210    24.7520     2.5460 
  164.3750   -16.8140    66.1970    16.9820    15.7430    16.7620    24.6920     2.5550 
  164.5000   -16.7240    64.6760    16.4650    15.2060    15.6860    24.6440     2.5600 
  164.6250   -16.6090    64.2570    16.2650    14.9250    14.4090    24.6280     2.5600 
  164.7500   -16.5740    65.5480    16.3680    14.9120    14.1350    24.6220     2.5590 
  164.8750   -16.5890    64.6520    16.7060    15.1360    14.4620    24.6190     2.5600 
  165.0000   -16.6260    60.7490    17.1410    15.5010    15.5060    24.6180     2.5630 
  165.1250   -16.6380    58.1370    17.5050    15.8700    16.8380    24.6210     2.5680 
  165.2500   -16.6600    59.9250    17.7390    16.1510    17.8370    24.6250     2.5720 
  165.3750   -16.6760    64.2810    17.8930    16.3560    18.4290    24.6270     2.5760 
  165.5000   -16.7790    66.1200    18.0680    16.5540    18.5850    24.6270     2.5800 
  165.6250   -16.8870    63.5660    18.3250    16.8080    18.0270    24.6390     2.5850 
  165.7500   -17.0040    60.0100    18.5620    17.0630    17.4020    24.6670     2.5910 
  165.8750   -17.0670    57.9770    18.6080    17.1920    17.6880    24.6960     2.6000 
  166.0000   -17.1870    57.9880    18.3000    17.0520    18.5280    24.7120     2.6080 
  166.1250   -17.3510    60.4880    17.5360    16.5280    18.7780    24.7140     2.6090 
  166.2500   -17.4960    65.2960    16.5470    15.7810    17.2370    24.7150     2.6010 
  166.3750   -17.7690    68.5280    15.6030    15.0270    15.8670    24.7150     2.5850 
  166.5000   -17.9990    67.0280    14.9500    14.4840    15.0900    24.7170     2.5650 
  166.6250   -18.2400    63.3570    14.7650    14.3420    14.9610    24.7310     2.5450 
  166.7500   -18.5120    63.6310    14.8760    14.4980    14.1410    24.7630     2.5260 
  166.8750   -18.8840    68.3500    15.0600    14.7850    13.9400    24.7910     2.5070 
  167.0000   -19.2930    73.2440    15.0860    14.9910    14.4100    24.7860     2.4850 
  167.1250   -19.7190    77.1390    14.7640    14.8900    14.4080    24.7550     2.4620 
  167.2500   -20.2210    82.7380    14.1830    14.4900    13.6430    24.7820     2.4430 
  167.3750   -20.6270    89.8250    13.4810    13.8830    12.4910    24.8670     2.4300 
  167.5000   -21.0940    94.6860    12.8090    13.2070    11.5190    24.9540     2.4250 
  167.6250   -21.5450    95.9920    12.2880    12.5990    11.2120    24.9770     2.4260 
  167.7500   -21.9630    96.2400    11.9190    12.1090    11.2270    24.9650     2.4280 
  167.8750   -22.2810    96.6100    11.7000    11.7500    11.3490    24.9350     2.4300 
  168.0000   -22.5400    98.8510    11.6360    11.5400    11.4330    24.8940     2.4330 
  168.1250   -22.7770   102.8380    11.7290    11.5510    11.4720    24.8760     2.4350 
  168.2500   -23.0160   104.2580    12.0900    11.8100    11.7370    24.9180     2.4360 
  168.3750   -23.2510   101.2510    12.7950    12.3780    12.3390    25.0070     2.4310 
  168.5000   -23.4370    96.1060    14.2300    13.3320    13.4530    25.1130     2.4210 
  168.6250   -23.6650    92.9710    16.6090    14.9110    15.5290    25.2160     2.4080 
  168.7500   -23.8950    91.1350    20.3740    17.2560    18.7290    25.2700     2.3940 
  168.8750   -24.2030    89.0680    25.5720    20.6170    22.3760    25.2410     2.3800 
  169.0000   -24.4690    84.9730    31.4230    25.2090    25.3780    25.0820     2.3650 
  169.1250   -24.7270    78.6910    38.5680    31.3130    31.3740    24.9520     2.3470 
  169.2500   -24.9270    72.8260    46.7210    38.5250    42.4080    25.1100     2.3300 
  169.3750   -25.2270    70.9840    55.5830    46.5170    58.0120    25.3280     2.3180 
  169.5000   -25.4880    73.7070    64.9000    54.9270    68.3170    25.3160     2.3090 
  169.6250   -25.7090    78.7420    74.2540    63.2670    67.2370    25.0340     2.3030 
  169.7500   -25.9800    81.7590    82.6500    70.7460    66.0320    24.8350     2.2950 
  169.8750   -26.1720    81.1940    88.4960    76.1770    70.9980    24.7210     2.2840 
  170.0000   -26.3980    76.8970    89.8880    78.0980    81.8230    24.6550     2.2740 
  170.1250   -26.5580    73.9960    84.6340    74.6280    99.7040    24.6390     2.2710 
  170.2500   -26.7270    76.6680    74.7850    67.1000   100.4870    24.6750     2.2810 
  170.3750   -26.7780    81.9040    63.4120    57.7440    79.0130    24.7710     2.3020 
  170.5000   -26.8620    85.2090    54.0090    49.4230    52.7460    24.8550     2.3280 
  170.6250   -26.9380    86.4420    49.9390    45.2020    40.5260    24.8880     2.3480 
  170.7500   -26.9130    88.0080    51.3500    45.6400    35.9930    24.9020     2.3510 
  170.8750   -26.9350    87.7960    57.9770    50.7790    38.1010    24.9230     2.3370 
  171.0000   -26.9470    83.1030    68.7520    59.8970    46.7900    24.9500     2.3130 
  171.1250   -26.9910    77.0050    81.7080    71.4540    67.3670    24.9500     2.2890 
  171.2500   -27.0320    74.6500    93.5890    82.4470    90.9670    24.9770     2.2750 
  171.3750   -27.0510    76.5000   102.1970    90.7680    99.4030    24.9960     2.2710 
  171.5000   -27.0080    78.3470   106.8050    95.5710    88.5610    25.0210     2.2720 
  171.6250   -27.0100    76.4800   108.5140    97.5830    78.0160    25.0710     2.2720 
  171.7500   -27.0230    74.6950   110.2220    99.3380    74.8630    25.1310     2.2690 
  171.8750   -27.0370    75.5950   113.1880   102.0930    75.6490    25.1590     2.2630 
  172.0000   -26.9650    75.5670   117.1800   105.8650    74.6170    25.1640     2.2550 
  172.1250   -26.8870    74.3690   120.4940   109.3600    72.5750    25.1640     2.2480 
  172.2500   -26.7790    74.5200   121.3660   110.9730    71.4360    25.1640     2.2460 
  172.3750   -26.7760    76.8490   118.6810   109.7300    70.1770    25.1550     2.2490 
  172.5000   -26.7760    78.5730   112.4650   105.4150    67.1460    25.1240     2.2580 
  172.6250   -26.7410    76.2600   103.1340    98.0340    62.8900    25.0410     2.2700 
  172.7500   -26.7240    72.5030    92.3550    88.7200    61.1050    24.9600     2.2790 
  172.8750   -26.6340    71.0970    81.1050    78.1810    59.5110    24.9170     2.2850 
  173.0000   -26.6420    74.5310    70.7570    67.2130    57.6170    24.9140     2.2890 
  173.1250   -26.6330    80.1060    61.6910    56.9360    50.9370    24.9490     2.2940 
  173.2500   -26.7060    84.6130    53.6950    48.2420    43.0950    24.9670     2.3030 
  173.3750   -26.7330    88.8720    46.3900    41.7220    35.5350    24.9930     2.3140 
  173.5000   -26.8620    92.9490    42.0280    37.6180    32.9640    25.0070     2.3280 
  173.6250   -26.9820    94.4930    41.0120    36.3240    31.3070    25.0050     2.3400 
