~V
VERS. 2.00: Ver 2.00
~W
STRT.M 120.0000:
STOP.M 272.0000:
STEP.M 0.1250:
NULL. -999.2500:
UWI. DF3038:
~C
DEPT.M :
GR.API :
RML.OHMM :
RI. :
RXO.OHMM :
CALI.CM :
DEN.GM/CC :
SP.MV :
~A
# ...
  153.7500    67.4250    18.2590    18.2750    16.8020    24.4270     2.5500   -14.5520 
  153.8750    67.6540    17.9270    17.9190    16.2750    24.3820     2.5500   -14.5770 
  154.0000    67.2110    17.8340    17.7660    16.0990    24.3950     2.5480   -14.4910 
  154.1250    68.5910    18.0450    17.9050    16.7710    24.4630     2.5470   -14.4980 
  154.2500    70.2440    18.4030    18.2180    18.2910    24.5600     2.5480   -14.4730 
  154.3750    69.3050    18.7430    18.5600    20.0460    24.6110     2.5520   -14.4170 
  154.5000    66.0770    18.9270    18.7870    19.9920    24.5910     2.5600   -14.4180 
  154.6250    63.9740    18.8790    18.7910    18.9370    24.5760     2.5680   -14.3420 
  154.7500    64.0130    18.7060    18.6430    18.3690    24.5900     2.5720   -14.2720 
  154.8750    65.0260    18.5080    18.4390    18.3500    24.6210     2.5730   -14.2430 
  155.0000    64.5870    18.3450    18.2480    17.9580    24.6210     2.5720   -14.2350 
  155.1250    61.0850    18.1940    18.0720    17.6110    24.5470     2.5720   -14.1830 
  155.2500    58.0250    17.9800    17.8530    17.8520    24.4840     2.5710   -14.1190 
  155.3750    57.8720    17.6740    17.5580    18.3510    24.5010     2.5670   -14.1010 
  155.5000    59.1900    17.3220    17.2130    17.6040    24.6500     2.5560   -14.0150 
  155.6250    59.0870    17.0450    16.9070    16.1340    24.7850     2.5370   -13.9380 
  155.7500    59.8730    16.9140    16.7050    14.9660    24.8270     2.5120   -13.9360 
  155.8750    62.7150    16.9230    16.6120    14.7360    24.8230     2.4860   -13.8610 
  156.0000    65.0830    16.9970    16.5830    15.7970    24.8180     2.4680   -13.8810 
  156.1250    63.4270    16.9970    16.5240    16.9430    24.8050     2.4650   -13.8610 
  156.2500    59.8520    16.8520    16.3680    16.8040    24.7780     2.4750   -13.8990 
  156.3750    58.3680    16.5890    16.1260    15.4800    24.7550     2.4920   -13.8960 
  156.5000    59.4960    16.3370    15.8890    14.9550    24.7360     2.5100   -13.9360 
  156.6250    60.1950    16.3200    15.8310    14.9580    24.7450     2.5200   -14.0020 
  156.7500    59.6380    16.6330    16.0430    15.1940    24.7740     2.5210   -14.0090 
  156.8750    60.4440    17.2730    16.5350    15.4240    24.7510     2.5100   -14.0760 
  157.0000    63.1550    18.1280    17.2290    16.2760    24.7360     2.4870   -14.0640 
  157.1250    65.4940    18.9810    17.9520    18.3420    24.7560     2.4560   -14.1360 
  157.2500    67.6310    19.6260    18.5170    19.8830    24.8200     2.4290   -14.1160 
  157.3750    69.3460    19.9700    18.8320    19.7630    24.8530     2.4140   -14.1690 
  157.5000    70.4310    20.0290    18.9000    19.1150    24.8650     2.4180   -14.2660 
  157.6250    72.3300    19.9130    18.8030    18.7430    24.8550     2.4420   -14.3170 
  157.7500    74.4820    19.8290    18.7120    18.5420    24.7590     2.4770   -14.4090 
  157.8750    74.6440    19.8950    18.7270    18.4470    24.5440     2.5160   -14.4270 
  158.0000    72.0170    20.1370    18.8750    18.7460    24.3800     2.5460   -14.4670 
  158.1250    69.1520    20.4600    19.0870    18.8470    24.3660     2.5560   -14.5010 
  158.2500    68.8710    20.6560    19.2030    18.3190    24.4470     2.5440   -14.5520 
  158.3750    69.6180    20.5460    19.0800    18.2840    24.5350     2.5160   -14.6180 
  158.5000    68.7930    20.0340    18.6290    18.5330    24.6050     2.4830   -14.5710 
  158.6250    66.2040    19.1270    17.8360    18.1770    24.5440     2.4560   -14.6150 
  158.7500    67.3930    18.0880    16.9060    16.8390    24.5020     2.4440   -14.6070 
  158.8750    73.5630    17.1320    16.0090    15.0180    24.4660     2.4460   -14.6130 
  159.0000    78.3460    16.4060    15.2810    13.7910    24.3620     2.4620   -14.6620 
  159.1250    77.3390    16.0050    14.8240    13.5680    24.2430     2.4900   -14.6290 
  159.2500    75.9470    15.8360    14.5890    13.5290    24.1640     2.5230   -14.6710 
  159.3750    76.2270    15.8290    14.5320    13.4070    24.1710     2.5550   -14.6180 
  159.5000    75.6350    15.9300    14.6040    13.4520    24.2000     2.5820   -14.6200 
  159.6250    72.5520    16.1210    14.7770    13.4460    24.2010     2.5950   -14.5310 
  159.7500    70.6120    16.3760    15.0080    13.8750    24.2510     2.5960   -14.5070 
  159.8750    69.2020    16.6700    15.2690    14.9400    24.4230     2.5850   -14.4870 
  160.0000    65.9290    16.9470    15.5130    15.9350    24.6490     2.5660   -14.4490 
  160.1250    61.5360    17.0990    15.6530    15.7530    24.7490     2.5420   -14.4620 
  160.2500    60.0040    17.0720    15.6380    15.3720    24.7950     2.5170   -14.3720 
  160.3750    62.3970    16.8460    15.4430    15.4180    24.8310     2.4950   -14.3330 
  160.5000    65.1250    16.4590    15.0850    15.3630    24.8600     2.4840   -14.2170 
  160.6250    65.2280    15.9990    14.6270    14.7410    24.8540     2.4890   -14.2240 
  160.7500    63.2290    15.5920    14.1860    14.2430    24.8180     2.5070   -14.1800 
  160.8750    60.3600    15.3100    13.8370    13.7370    24.7760     2.5290   -14.1270 
  161.0000    59.7140    15.1770    13.6170    13.2740    24.7470     2.5430   -14.0950 
  161.1250    62.1710    15.1780    13.5400    13.2000    24.7440     2.5470   -13.9790 
  161.2500    64.1030    15.2190    13.5320    13.3960    24.7440     2.5440   -13.9730 
  161.3750    63.1400    15.2300    13.5360    13.4130    24.7340     2.5410   -13.9440 
  161.5000    60.6100    15.1720    13.5070    13.2980    24.7140     2.5390   -14.0280 
  161.6250    57.8830    15.0390    13.4230    12.9210    24.7130     2.5350   -14.0280 
  161.7500    55.2770    14.8870    13.3110    12.8350    24.6800     2.5260   -14.0280 
  161.8750    54.2930    14.7580    13.2010    12.8600    24.6210     2.5110   -14.0230 
  162.0000    55.6770    14.6860    13.1140    12.8640    24.5850     2.4920   -14.0150 
  162.1250    56.8730    14.6840    13.0650    12.4510    24.5690     2.4730   -14.0600 
  162.2500    55.2910    14.7230    13.0390    12.2510    24.5250     2.4590   -14.0950 
  162.3750    52.9440    14.7790    13.0260    12.2880    24.3950     2.4540   -14.1250 
  162.5000    53.2740    14.8400    13.0240    12.3830    24.2440     2.4570   -14.1130 
  162.6250    57.1660    14.9190    13.0480    12.6310    24.2350     2.4650   -14.0410 
  162.7500    59.6960    15.0360    13.1110    12.8680    24.4730     2.4720   -13.9880 
  162.8750    58.3880    15.2010    13.2220    12.8780    24.6360     2.4760   -13.9340 
  163.0000    56.5560    15.4100    13.3780    12.9020    24.6770     2.4760   -13.8750 
  163.1250    58.9520    15.6350    13.5590    13.3000    24.6750     2.4780   -13.8090 
  163.2500    63.1540    15.8390    13.7310    13.8900    24.6890     2.4830   -13.7250 
  163.3750    64.5750    16.0030    13.8770    14.3180    24.7010     2.4910   -13.6410 
  163.5000    61.8760    16.1290    13.9910    14.6350    24.6900     2.5020   -13.5880 
  163.6250    59.4860    16.2170    14.0640    14.7780    24.6940     2.5160   -13.5990 
  163.7500    60.3010    16.2630    14.0960    14.4260    24.7060     2.5300   -13.6400 
  163.8750    61.7980    16.2430    14.0740    14.0760    24.6930     2.5410   -13.7040 
  164.0000    61.5320    16.1390    13.9850    13.9960    24.6440     2.5460   -13.7830 
  164.1250    60.2240    15.9600    13.8340    14.0830    24.5960     2.5420   -13.9220 
  164.2500    59.5140    15.8010    13.6900    13.7000    24.6130     2.5350   -14.0370 
  164.3750    60.8040    15.7660    13.6290    13.1450    24.6530     2.5290   -14.2290 
  164.5000    63.5910    15.9300    13.7180    13.1060    24.6760     2.5250   -14.3390 
  164.6250    64.0070    16.3030    13.9890    13.5220    24.6800     2.5220   -14.5310 
  164.7500    61.3810    16.7340    14.3420    14.2560    24.6760     2.5130   -14.6780 
  164.8750    58.7020    17.0750    14.6640    15.1340    24.6830     2.4940   -14.8380 
