~V
VERS. 2.00: Ver 2.00
~W
STRT.M 130.0000:
STOP.M 279.0000:
STEP.M 0.1250:
NULL. -999.2500:
UWI. DF307:
~C
DEPT.M :
DEN.GM/CC :
AC.US/MT :
GR.API :
CALI.CM :
RXO.OHMM :
RI. :
RML.OHMM :
SP.MV :
~A
# ...
  150.0000     2.2990   346.3940    88.6580    24.9260     6.7250     6.3840     7.7110   -16.0410 
  150.1250     2.3610   342.0310    84.7400    25.3270     7.2150     6.4370     7.8820   -15.1750 
  150.2500     2.3900   349.7680    85.4520    25.6120     8.0220     6.5000     8.0040   -14.4680 
  150.3750     2.3790   366.3740    93.5400    25.7500     8.0580     6.4510     7.8630   -13.9440 
  150.5000     2.3390   384.5910   103.0330    25.7910     7.0920     6.2230     7.3900   -13.5950 
  150.6250     2.2930   395.6280   105.1460    25.7790     6.0630     5.8420     6.7100   -13.4280 
  150.7500     2.2610   397.8500   102.7890    25.7510     5.6300     5.4400     6.0800   -13.3680 
  150.8750     2.2490   393.6150   101.1030    25.7370     5.5970     5.1050     5.6230   -13.3660 
  151.0000     2.2540   386.8760   101.7820    25.7430     5.6250     4.8770     5.3550   -13.3810 
  151.1250     2.2660   381.3260   102.1960    25.7600     5.5390     4.7610     5.2400   -13.3690 
  151.2500     2.2770   378.7100   103.1610    25.7650     5.3820     4.7080     5.1950   -13.3170 
  151.3750     2.2860   379.8260   106.0560    25.7510     5.2410     4.6920     5.1940   -13.2200 
  151.5000     2.2910   384.8150   108.3460    25.7520     5.1840     4.6960     5.2130   -13.0870 
  151.6250     2.2950   393.2210   108.3130    25.8070     5.2050     4.6910     5.2070   -12.9080 
  151.7500     2.3000   402.7340   107.7240    25.8950     5.1780     4.6440     5.1270   -12.6920 
  151.8750     2.3040   411.6600   107.9070    25.9900     5.0240     4.5360     4.9520   -12.4650 
  152.0000     2.2960   418.8550   106.8100    26.0700     4.7800     4.3700     4.7000   -12.2540 
  152.1250     2.2780   423.6190   103.5280    26.1280     4.5950     4.1760     4.4340   -12.0720 
  152.2500     2.2690   426.2800    99.9450    26.1250     4.5380     4.0020     4.2270   -11.9250 
  152.3750     2.2810   426.3080    98.3180    26.0030     4.5790     3.8810     4.1150   -11.8230 
  152.5000     2.3020   422.7360    99.9420    25.7850     4.6520     3.8260     4.1060   -11.7800 
  152.6250     2.3050   414.4860   103.7110    25.6200     4.7110     3.8530     4.2030   -11.8610 
  152.7500     2.2890   403.6330   107.2270    25.5800     4.7660     3.9420     4.3760   -12.0700 
  152.8750     2.2710   392.8040   109.3530    25.5830     4.8480     4.0920     4.6240   -12.3790 
  153.0000     2.2620   384.5650   109.9750    25.4820     5.0010     4.3020     4.9480   -12.7710 
  153.1250     2.2570   380.6680   105.7130    25.1260     5.2590     4.5790     5.3590   -13.2700 
  153.2500     2.2460   379.5530    97.4680    24.6080     5.5570     4.9040     5.8230   -13.8440 
  153.3750     2.2320   379.6400    89.6680    24.1340     5.8270     5.2540     6.3010   -14.4670 
  153.5000     2.2220   379.8650    87.3290    23.8910     6.0480     5.5940     6.7380   -15.1190 
  153.6250     2.2070   380.2710    91.4580    23.9770     6.2370     5.8650     7.0550   -15.7450 
  153.7500     2.1870   381.6010    94.7290    24.2700     6.4020     6.0430     7.2290   -16.3150 
  153.8750     2.1730   384.3310    94.5310    24.6560     6.5350     6.1240     7.2680   -16.8370 
  154.0000     2.1740   388.1990    93.7460    24.9940     6.6370     6.1320     7.2140   -17.3050 
  154.1250     2.1790   392.1000    94.0290    25.1660     6.6780     6.1050     7.1320   -17.6730 
  154.2500     2.1750   394.8980    93.4990    25.2350     6.6680     6.0900     7.0860   -17.9420 
  154.3750     2.1670   396.3400    92.1780    25.2610     6.6730     6.1090     7.1090   -18.1270 
  154.5000     2.1640   396.9280    92.9230    25.2590     6.7460     6.1730     7.2080   -18.2320 
  154.6250     2.1700   397.0190    95.7210    25.2090     6.8390     6.2730     7.3580   -18.2230 
  154.7500     2.1770   395.9370    96.3590    25.1500     6.8730     6.3670     7.4800   -18.1000 
  154.8750     2.1860   392.4500    95.4200    25.1170     6.8540     6.4130     7.5110   -17.8760 
  155.0000     2.1960   386.2380    96.0100    25.1200     6.8070     6.3880     7.4250   -17.5870 
  155.1250     2.2080   379.0560    98.2560    25.2150     6.6690     6.2950     7.2550   -17.2770 
  155.2500     2.2230   374.1750   100.0450    25.4430     6.4250     6.1920     7.1050   -16.9960 
  155.3750     2.2370   373.3250   100.5230    25.7240     6.2180     6.1260     7.0550   -16.7600 
  155.5000     2.2420   375.9690    98.9040    25.8410     6.2530     6.1290     7.1390   -16.5670 
  155.6250     2.2270   379.3520    95.7890    25.6710     6.5390     6.2100     7.3420   -16.4350 
  155.7500     2.2030   380.3650    93.0240    25.4640     6.7860     6.3260     7.5730   -16.3700 
  155.8750     2.1860   377.3610    92.1140    25.4050     6.9120     6.4550     7.7850   -16.3240 
  156.0000     2.1880   369.2660    91.0760    25.4740     7.0350     6.6090     8.0000   -16.2550 
  156.1250     2.2130   353.9340    87.8600    25.5630     7.4120     6.8680     8.3630   -16.1410 
  156.2500     2.2610   332.0220    85.5190    25.6770     8.4000     7.3290     9.0390   -15.9860 
  156.3750     2.3340   305.2920    83.7170    25.8420    10.4980     8.1160    10.2120   -15.7960 
  156.5000     2.4270   278.3440    82.6170    25.9930    13.7470     9.3680    12.0540   -15.5930 
  156.6250     2.5200   260.2540    82.1990    25.9140    17.1560    11.3500    14.8760   -15.4370 
  156.7500     2.5860   256.3950    81.3550    25.5430    19.8610    14.0750    18.6410   -15.3430 
  156.8750     2.6020   267.8510    79.9370    25.0430    22.0420    17.5250    23.2760   -15.3230 
  157.0000     2.5560   290.4090    78.1540    24.6620    23.7310    21.4350    28.3860   -15.3800 
  157.1250     2.4560   316.0230    75.5370    24.5530    24.6620    25.1260    32.9580   -15.5110 
  157.2500     2.3490   337.1570    73.7220    24.6440    25.7280    27.8910    36.0500   -15.6810 
  157.3750     2.2730   351.6560    74.5760    24.9060    27.0570    29.3600    37.2640   -15.8570 
  157.5000     2.2460   360.6220    77.0830    25.2440    27.3020    29.5270    36.7890   -16.0200 
  157.6250     2.2550   366.1810    77.4900    25.4980    25.6870    28.5750    35.1050   -16.1440 
  157.7500     2.2680   370.6870    77.1570    25.6970    23.7740    27.1150    33.0330   -16.2460 
  157.8750     2.2710   374.8180    79.3260    25.9250    22.0770    25.4740    30.9470   -16.3360 
  158.0000     2.2650   378.6680    83.1590    26.1440    20.3830    23.8890    29.0790   -16.4170 
  158.1250     2.2470   381.4920    83.0770    26.2380    19.1480    22.5910    27.6480   -16.4930 
  158.2500     2.2190   382.3900    78.7870    26.2470    18.7720    21.6340    26.6290   -16.5470 
  158.3750     2.1880   380.9160    73.6940    26.2420    18.9330    20.9930    25.9230   -16.5990 
  158.5000     2.1670   377.8820    70.4150    26.2420    19.0670    20.5840    25.3870   -16.6650 
  158.6250     2.1660   375.6470    71.4510    26.2420    18.9640    20.3910    25.0110   -16.7270 
  158.7500     2.1760   376.0110    75.8890    26.2420    18.8160    20.4820    24.9830   -16.7440 
  158.8750     2.1840   379.0180    79.3850    26.2420    18.8690    21.0500    25.6280   -16.7320 
  159.0000     2.1840   383.0890    77.1680    26.2420    19.6940    22.3420    27.2930   -16.7030 
  159.1250     2.1730   385.2360    71.2740    26.2420    22.4390    24.7790    30.4500   -16.6350 
  159.2500     2.1590   383.8570    68.3790    26.2440    26.6210    28.0440    34.5400   -16.5350 
  159.3750     2.1470   379.1720    69.0350    26.2440    30.4650    31.0940    37.9440   -16.3930 
  159.5000     2.1500   372.8200    71.2660    26.2460    32.4030    31.9980    37.8290   -16.2040 
  159.6250     2.1790   366.2390    74.4570    26.2310    30.7030    28.6870    32.0900   -15.9610 
  159.7500     2.2310   358.4950    77.8950    26.0980    24.9160    23.0980    24.5020   -15.7040 
  159.8750     2.2940   347.1770    82.0180    25.7330    16.9180    17.5980    18.0930   -15.4340 
