~V
VERS. 2.00: Ver 2.00
~W
STRT.M 63.0000:
STOP.M 257.0000:
STEP.M 0.1250:
NULL. -999.2500:
UWI. DF3070:
~C
DEPT.M :
DEN.GM/CC :
GR.API :
RML.OHMM :
RI. :
RXO.OHMM :
CALI.CM :
SP.MV :
~A
# ...
  108.0000  -999.2500    85.7210     8.3110     6.8850     7.1910    24.9880   -21.5700 
  108.1250  -999.2500    87.5580     8.2200     6.8010     6.9380    24.6230   -21.3560 
  108.2500  -999.2500    92.0680     8.0070     6.6120     6.6290    23.7940   -21.1580 
  108.3750  -999.2500    98.0380     7.6890     6.3340     6.2480    23.1870   -20.8630 
  108.5000  -999.2500   102.3350     7.3060     5.9990     5.8410    23.2290   -20.5990 
  108.6250  -999.2500   104.1080     6.9440     5.6720     5.6690    24.0610   -20.2500 
  108.7500  -999.2500   104.7900     6.7060     5.4340     5.7750    24.7670   -20.0440 
  108.8750  -999.2500   104.3520     6.6900     5.3620     5.9660    24.7580   -19.9390 
  109.0000  -999.2500   105.0470     6.9650     5.5210     6.1090    24.5010   -19.9100 
  109.1250  -999.2500   106.2280     7.5740     5.9700     6.4950    24.7310   -20.0850 
  109.2500  -999.2500   103.9180     8.3430     6.5990     7.3470    25.0310   -20.2210 
  109.3750  -999.2500    98.6130     9.0660     7.2590     8.4280    24.8190   -20.3340 
  109.5000  -999.2500    94.6760     9.5150     7.7610     9.3030    24.3560   -20.3980 
  109.6250  -999.2500    96.0930     9.4620     7.8800     9.7090    24.1720   -20.4350 
  109.7500  -999.2500    99.8690     9.0270     7.6490     9.4270    24.1590   -20.4250 
  109.8750  -999.2500   103.7360     8.4220     7.1910     8.3330    24.0960   -20.3020 
  110.0000     0.0000   106.0830     7.8770     6.6870     7.0120    23.9200   -20.1540 
  110.1250     0.0000   104.3410     7.5580     6.3020     6.3890    23.8710   -19.8810 
  110.2500     0.0000    98.5030     7.4130     6.0620     6.3130    24.0470   -19.5950 
  110.3750     0.0000    94.8830     7.3630     5.9370     6.3690    24.2420   -19.3560 
  110.5000     2.2720    99.8510     7.3320     5.8750     6.3400    24.3350   -19.1100 
  110.6250     2.2920   109.2970     7.2840     5.8370     6.1530    24.4450   -19.0380 
  110.7500     2.3120   111.9820     7.2390     5.8090     5.9520    24.5290   -18.9150 
  110.8750     2.3310   107.2050     7.2330     5.8040     5.9440    24.5350   -18.9100 
  111.0000     2.3450   102.4430     7.2870     5.8410     6.1600    24.4810   -19.0060 
  111.1250     2.3480   104.1040     7.4100     5.9350     6.6300    24.3340   -19.2440 
  111.2500     2.3360   106.7080     7.5740     6.0720     7.1570    24.3860   -19.6750 
  111.3750     2.3090   106.4080     7.7560     6.2380     7.4370    24.6860   -20.2060 
  111.5000     2.2750   102.6460     7.9410     6.4180     7.4120    24.7170   -20.8860 
  111.6250     2.2460    97.0670     8.1340     6.6110     7.4110    23.9510   -21.5160 
  111.7500     2.2300    93.1460     8.3530     6.8260     7.5320    23.0340   -22.2230 
  111.8750     2.2240    90.7260     8.6160     7.0710     7.5850    22.6380   -22.8510 
  112.0000     2.2210    88.9420     8.9230     7.3470     7.6600    22.7570   -23.4740 
  112.1250     2.2170    87.8880     9.2380     7.6280     8.1230    22.9200   -23.8970 
  112.2500     2.2130    86.3660     9.4850     7.8590     8.7350    22.9890   -24.1120 
  112.3750     2.2130    84.1650     9.5840     7.9800     9.0940    23.0020   -24.1900 
  112.5000     2.2190    81.8120     9.4770     7.9440     9.0070    22.9980   -24.0110 
  112.6250     2.2330    80.8980     9.1430     7.7220     8.7940    22.9800   -23.7700 
  112.7500     2.2490    82.5980     8.7120     7.4020     8.5430    22.9850   -23.4040 
  112.8750     2.2600    86.8780     8.3100     7.0760     8.0430    23.0350   -22.9280 
  113.0000     2.2640    92.0640     8.0330     6.8240     7.3370    23.0500   -22.3750 
  113.1250     2.2590    94.6640     7.9280     6.7040     6.8620    22.9810   -21.8220 
  113.2500     2.2500    94.1240     7.9060     6.6680     6.7960    22.9330   -21.3440 
  113.3750     2.2420    92.5980     7.8760     6.6570     6.9500    22.9210   -20.8390 
  113.5000     2.2390    92.4610     7.7710     6.6150     7.0750    22.8640   -20.3800 
  113.6250     2.2450    96.2010     7.5680     6.5030     6.8960    22.9570   -19.8760 
  113.7500     2.2600   102.7370     7.3400     6.3580     6.5010    23.4120   -19.3730 
  113.8750     2.2840   108.9670     7.1550     6.2220     6.1180    24.0200   -18.9700 
  114.0000     2.3150   111.5640     7.0360     6.1210     5.8440    24.4000   -18.4940 
  114.1250     2.3490   106.7650     6.9560     6.0420     5.8390    24.4580   -18.1520 
  114.2500     2.3790    98.9090     6.8490     5.9420     6.0630    24.4750   -17.8070 
  114.3750     2.3980    96.6950     6.6870     5.7920     6.1590    24.5130   -17.5810 
  114.5000     2.4040   103.1510     6.4820     5.5940     5.8330    24.5200   -17.4560 
  114.6250     2.3980   108.3300     6.2800     5.3770     5.3730    24.5690   -17.4420 
  114.7500     2.3890   105.7270     6.1120     5.1830     5.2200    24.6000   -17.5690 
  114.8750     2.3790   101.2500     5.9830     5.0340     5.4150    24.6060   -17.7280 
  115.0000     2.3670    99.8310     5.8920     4.9460     5.7480    24.6640   -18.0720 
  115.1250     2.3460    98.3790     5.9050     4.9810     6.1110    24.6900   -18.4080 
  115.2500     2.3170    95.0630     6.1540     5.2300     6.6010    24.5370   -18.8810 
  115.3750     2.2920    91.5840     6.8390     5.8540     7.5060    24.2770   -19.3540 
  115.5000     2.2880    89.3280     8.1390     7.0180     9.1630    24.1480   -19.8490 
  115.6250     2.3260    87.1360    10.1550     8.8650    11.9790    24.2210   -20.4040 
  115.7500     2.3960    83.0340    12.4480    11.0670    15.8860    24.2720   -20.9010 
  115.8750     2.4730    78.7790    14.4440    13.1420    20.5150    24.2180   -21.5220 
  116.0000     2.5200    77.2470    15.5070    14.5020    22.9040    24.2320   -22.1130 
  116.1250     2.5030    79.6620    15.0830    14.5360    19.0790    24.5150   -22.6790 
  116.2500     2.4410    81.9560    13.7580    13.6120    14.3380    24.8210   -23.2270 
  116.3750     2.3630    82.7810    12.2610    12.3100    11.8330    24.9560   -23.7330 
  116.5000     2.2910    82.1480    11.1580    11.1740    11.1490    24.9720   -24.2430 
  116.6250     2.2370    78.4240    10.7490    10.5630    10.9940    25.0190   -24.6400 
  116.7500     2.1990    72.9730    10.8330    10.3970    10.8240    25.0750   -25.0030 
  116.8750     2.1750    69.3380    11.1930    10.5310    10.7570    25.2730   -25.2650 
  117.0000     2.1620    71.6400    11.5630    10.7510    10.7210    25.5400   -25.3720 
  117.1250     2.1600    75.8200    11.5990    10.7700    10.6860    25.3310   -25.4360 
  117.2500     2.1650    76.4860    11.1750    10.4370    10.7010    24.7150   -25.3230 
  117.3750     2.1760    74.9260    10.3310     9.7440    10.6560    24.1820   -25.2060 
  117.5000     2.1910    75.3370     9.2870     8.8380    10.3770    23.9890   -24.9880 
  117.6250     2.2110    79.8820     8.4080     7.9950     9.5590    23.9880   -24.7940 
  117.7500     2.2320    83.6600     7.9270     7.4370     8.5140    24.0570   -24.6950 
  117.8750     2.2490    83.5740     7.9210     7.2680     7.9590    24.1320   -24.6550 
  118.0000     2.2580    79.1020     8.3530     7.5000     8.3680    24.0350   -24.7500 
  118.1250     2.2540    74.0200     9.1400     8.1200     9.6310    23.8400   -24.8460 
  118.2500     2.2430    72.5460    10.0590     8.9500    10.8280    23.8320   -25.0550 
  118.3750     2.2310    73.0120    10.9600     9.8550    11.3940    24.0030   -25.2320 
  118.5000     2.2250    72.0650    11.7220    10.6980    11.4270    24.1060   -25.4940 
  118.6250     2.2310    69.8570    12.2180    11.3220    11.2200    24.0150   -25.6560 
  118.7500     2.2440    68.5160    12.4350    11.6750    10.9870    24.0950   -25.7480 
  118.8750     2.2550    69.8610    12.3680    11.7370    10.7760    24.3990   -25.7710 
  119.0000     2.2580    73.1510    12.0690    11.5430    10.6850    24.4980   -25.6470 
  119.1250     2.2490    74.9690    11.6710    11.1850    10.7020    24.0890   -25.5430 
