~V
VERS. 2.00: Ver 2.00
~W
STRT.M 65.0000:
STOP.M 270.0000:
STEP.M 0.1250:
NULL. -999.2500:
UWI. DF3062:
~C
DEPT.M :
SP.MV :
GR.API :
CALI.CM :
RXO.OHMM :
RI. :
RML.OHMM :
DEN.GM/CC :
~A
# ...
  222.5000   -35.2150    70.7230    24.0370    42.6200    44.9730    45.8810     2.3090 
  222.6250   -35.3430    73.3300    24.1240    30.0430    39.1090    40.1880     2.3280 
  222.7500   -35.5050    73.7700    24.1270    22.3640    36.4820    37.9960     2.3270 
  222.8750   -35.6940    74.4190    24.0750    20.0530    36.4360    38.6110     2.3010 
  223.0000   -35.9170    75.9800    24.0660    22.6640    38.3550    41.3290     2.2700 
  223.1250   -36.1650    76.2860    24.0600    30.3180    41.9220    45.6900     2.2450 
  223.2500   -36.3900    74.5830    24.0550    39.0680    46.5530    51.0160     2.2250 
  223.3750   -36.5820    71.7710    24.0470    41.3560    51.9480    57.0590     2.2100 
  223.5000   -36.7650    70.1660    24.0550    41.5410    57.8870    63.9740     2.2050 
  223.6250   -36.9490    70.3780    24.0320    41.2960    65.1950    72.9900     2.2110 
  223.7500   -37.0970    70.2170    24.0360    43.3670    74.8140    84.9170     2.2260 
  223.8750   -37.2180    68.2000    24.1450    47.5470    87.5660   100.5450     2.2410 
  224.0000   -37.3080    64.9790    23.9160    69.0880   103.7950   120.2510     2.2480 
  224.1250   -37.3670    62.1050    24.1630   103.1360   123.3640   144.1100     2.2390 
  224.2500   -37.4200    60.8130    24.0900   123.0960   143.7570   169.4110     2.2190 
  224.3750   -37.4740    60.5920    24.0500   133.8670   162.1070   192.6310     2.2000 
  224.5000   -37.5030    61.0370    24.0740   146.5040   175.8140   210.0190     2.1910 
  224.6250   -37.4920    60.0540    24.2920   143.7890   182.0520   217.0420     2.1940 
  224.7500   -37.4630    57.4120    24.2150   136.9090   182.5840   216.3340     2.2030 
  224.8750   -37.4200    56.1630    24.0970   122.9570   179.2670   210.8380     2.2130 
  225.0000   -37.3870    58.9060    24.1570   106.3710   173.0580   201.6770     2.2210 
  225.1250   -37.3900    63.1650    24.0490   103.0660   163.3910   188.0890     2.2320 
  225.2500   -37.4050    64.2080    24.0140   113.7130   150.8130   171.1090     2.2480 
  225.3750   -37.4200    61.6680    23.8480   127.2730   136.0080   152.2200     2.2620 
  225.5000   -37.4360    58.4140    23.7600   130.2800   120.4560   133.5060     2.2590 
  225.6250   -37.4620    56.8930    23.7650   110.8810   106.4430   117.8590     2.2360 
  225.7500   -37.5060    58.5060    23.9070    81.0900    95.4590   106.1240     2.2030 
  225.8750   -37.5640    62.3360    24.0310    59.5420    88.1110    98.5400     2.1800 
  226.0000   -37.6310    64.8470    23.9780    52.9060    84.4240    94.9530     2.1710 
  226.1250   -37.6920    64.2450    23.7940    54.7410    84.1410    94.9230     2.1690 
  226.2500   -37.7530    62.4120    23.7520    60.4930    85.7160    96.7180     2.1710 
  226.3750   -37.8050    59.9190    23.8020    65.7480    87.9180    99.0680     2.1780 
  226.5000   -37.8440    56.4440    23.8430    67.9510    89.6610   101.0150     2.1840 
  226.6250   -37.8410    56.5500    23.8020    69.1790    90.1490   101.9130     2.1880 
  226.7500   -37.8230    59.5160    23.7070    69.2140    89.3550   101.6920     2.1900 
  226.8750   -37.7730    59.3750    23.6960    71.5190    87.5890   100.7550     2.1840 
  227.0000   -37.6740    56.3210    23.7380    72.5520    85.7940    99.9290     2.1700 
  227.1250   -37.5390    56.8420    23.7460    64.9070    84.6680    99.7440     2.1580 
  227.2500   -37.3840    60.9280    23.6910    54.9790    84.0050    99.8860     2.1560 
  227.3750   -37.2240    63.6040    23.4040    52.8450    83.7240   100.2950     2.1650 
  227.5000   -37.0580    63.8980    22.8610    56.9910    83.7220   100.7930     2.1710 
  227.6250   -36.9030    63.5330    22.6650    58.3680    83.2160   100.6390     2.1670 
  227.7500   -36.7370    60.6230    22.2870    54.8590    82.0980    99.4920     2.1620 
  227.8750   -36.5660    56.3820    22.0190    45.7920    80.5890    97.3330     2.1710 
  228.0000   -36.4170    55.2980    22.0920    41.6980    78.6320    93.9750     2.1900 
  228.1250   -36.2900    58.8080    22.2560    48.3190    76.4770    89.8800     2.2020 
  228.2500   -36.1880    63.5420    22.6380    55.8510    74.8310    86.1710     2.1970 
  228.3750   -36.1090    66.1610    23.1820    59.2430    73.8650    83.2400     2.1890 
  228.5000   -36.0450    66.1180    23.5900    59.6900    73.3790    81.1330     2.1910 
  228.6250   -35.9900    64.1740    23.6320    58.2100    72.8790    79.7010     2.2000 
  228.7500   -35.9230    62.1890    23.5190    57.3250    71.8210    78.3240     2.2040 
  228.8750   -35.8420    62.1200    23.4070    57.1260    69.8210    76.5060     2.1930 
  229.0000   -35.7340    63.7680    23.4090    58.0590    66.9110    73.9440     2.1750 
  229.1250   -35.5740    64.3090    23.5890    58.1620    63.1790    70.4040     2.1580 
  229.2500   -35.3620    63.0770    23.6460    56.3970    59.1330    66.3660     2.1530 
  229.3750   -35.0900    63.6430    23.6500    52.0800    55.4050    62.5500     2.1660 
  229.5000   -34.7580    67.9670    23.6290    43.6450    52.4430    59.5160     2.1870 
  229.6250   -34.3840    71.4740    23.4800    38.9970    50.7090    57.9440     2.2080 
  229.7500   -34.0200    69.9840    23.5520    39.6890    50.3500    58.0800     2.2210 
  229.8750   -33.6690    65.3900    23.6160    41.1810    51.4820    60.0600     2.2220 
  230.0000   -33.3120    62.5210    23.5150    40.0510    54.1840    63.9110     2.2140 
  230.1250   -32.9720    62.1730    23.3510    38.4560    58.5700    69.6580     2.2020 
  230.2500   -32.6500    61.8550    23.1320    42.4030    64.1290    76.5530     2.1850 
  230.3750   -32.3610    58.8390    22.9500    51.4890    70.0180    83.5950     2.1640 
  230.5000   -32.1230    54.1340    23.0070    64.3330    75.3430    89.8170     2.1500 
  230.6250   -31.9090    54.6340    22.6980    76.1410    79.0740    94.1200     2.1570 
  230.7500   -31.6900    59.7660    22.1000    84.8910    80.8520    96.2510     2.1850 
  230.8750   -31.4610    66.3780    22.1410    84.4910    81.1160    96.9230     2.2160 
  231.0000   -31.2440    70.0750    22.2060    74.3980    81.1970    97.8640     2.2320 
  231.1250   -31.0260    66.9480    22.2850    65.7780    83.5240   101.7730     2.2250 
  231.2500   -30.8230    60.9340    22.4500    63.5320    89.3100   109.5340     2.2110 
  231.3750   -30.6160    56.9150    22.7310    72.3920    98.7230   121.0850     2.2260 
  231.5000   -30.3900    56.6550    22.9530    86.4450   110.8910   135.5730     2.2920 
  231.6250   -30.1600    57.8600    22.8380    91.5280   124.2380   150.7040     2.4000 
  231.7500   -29.9140    57.6960    22.8770   131.5060   135.9070   162.6170     2.5140 
  231.8750   -29.6460    56.0000    23.1590   206.0730   143.1030   167.4640     2.5790 
  232.0000   -29.3530    54.3040    23.5060   262.6850   143.7470   163.0720     2.5930 
  232.1250   -29.0330    56.5090    23.5120   199.8970   133.6230   146.0610     2.5800 
  232.2500   -28.6700    59.7410    23.4610   126.3290   113.0580   120.1930     2.5760 
  232.3750   -28.2800    59.4230    23.4360    92.6510    86.7520    91.4870     2.6110 
  232.5000   -27.8590    57.0130    23.3790   108.1390    61.4510    64.9930     2.6620 
  232.6250   -27.4130    57.0900    23.0930   107.2380    41.9260    44.0560     2.6810 
  232.7500   -26.9530    58.2970    22.8560    71.3330    27.9830    28.8920     2.6320 
  232.8750   -26.5010    58.1140    22.8150    30.2630    18.8230    18.8370     2.5330 
  233.0000   -26.0780    57.5900    22.8130     9.8360    13.1650    12.6640     2.4470 
  233.1250   -25.7070    56.9530    22.7720     6.7130    10.2010     9.6640     2.3990 
  233.2500   -25.4000    55.9160    22.5160     6.8030     8.6960     8.4070     2.3740 
  233.3750   -25.1670    54.9630    22.2670     6.8770     7.9920     8.0940     2.3590 
  233.5000   -25.0280    54.4340    22.0750     6.4060     7.7470     8.2570     2.3510 
  233.6250   -24.9780    55.0190    21.7620     5.2950     7.7410     8.5970     2.3490 
