~V
VERS. 2.00: Ver 2.00
~W
STRT.M 125.0000:
STOP.M 247.0000:
STEP.M 0.1250:
NULL. -999.2500:
UWI. DF3017:
~C
DEPT.M :
DEN.GM/CC :
GR.API :
RML.OHMM :
RI. :
RXO.OHMM :
CALI.CM :
SP.MV :
~A
# ...
  181.2500     2.2420    64.8460   125.3800   135.4150   111.3220    24.1330    -7.7640 
  181.3750     2.2240    66.8250   169.0960   183.8510   176.9060    24.0770    -7.9440 
  181.5000     2.2060    65.2120   234.9520   249.6850   266.4410    24.0670    -8.2760 
  181.6250     2.1950    61.7410   318.7170   324.7520   293.8970    24.0670    -8.8240 
  181.7500     2.1920    59.3640   402.7930   392.6940   315.1680    24.0670    -9.4790 
  181.8750     2.1910    57.9510   470.3780   441.0360   328.9090    24.0670   -10.2660 
  182.0000     2.1870    56.4600   509.1780   464.3690   345.5100    24.0670   -11.0960 
  182.1250     2.1750    54.2530   515.6370   462.9990   356.9830    24.0670   -11.9160 
  182.2500     2.1620    51.4780   504.1610   447.7500   362.3300    24.0670   -12.6310 
  182.3750     2.1580    51.1500   481.5460   424.0450   356.9180    24.0690   -13.2190 
  182.5000     2.1730    52.9630   453.0650   396.3290   349.0020    24.0770   -13.6350 
  182.6250     2.2100    52.9540   422.8570   368.2640   346.7970    24.1300   -13.8640 
  182.7500     2.2520    52.0550   394.1910   342.2940   327.3410    24.1670   -13.9740 
  182.8750     2.2800    52.7750   368.5550   319.4690   303.0630    24.2060   -13.9830 
  183.0000     2.2880    53.6520   346.1200   299.8540   287.5400    24.2670   -13.9400 
  183.1250     2.2850    53.2980   325.6180   282.6960   268.8440    24.3320   -13.8920 
  183.2500     2.2980    53.5000   303.9340   265.5850   253.6470    24.3980   -13.8790 
  183.3750     2.3410    53.3950   278.1990   246.1730   248.0840    24.4610   -13.9270 
  183.5000     2.4120    50.4260   246.4120   222.3230   242.9260    24.4880   -14.0140 
  183.6250     2.4860    46.7820   208.7830   192.6850   228.0300    24.5830   -14.1230 
  183.7500     2.5320    46.4590   170.6770   160.3880   201.5550    24.6050   -14.2180 
  183.8750     2.5440    50.1640   136.0170   128.7840   172.6230    24.6530   -14.2720 
  184.0000     2.5410    56.0010   106.4460   100.4540   141.5200    24.7230   -14.2880 
  184.1250     2.5540    61.4980    81.5500    77.0010   105.6290    24.7530   -14.2670 
  184.2500     2.5870    64.7830    60.2320    57.4380    78.9650    24.7920   -14.2430 
  184.3750     2.6190    66.2130    42.4430    41.5180    64.8400    24.7740   -14.2000 
  184.5000     2.6180    66.8080    28.6540    29.2810    48.0910    24.7700   -14.2090 
  184.6250     2.5600    64.5530    21.3670    21.2200    26.9680    24.8890   -14.2330 
  184.7500     2.4740    59.8560    16.8050    16.1190    14.2130    25.1740   -14.2730 
  184.8750     2.3970    55.6480    14.2280    13.1800     9.6620    25.4240   -14.3220 
  185.0000     2.3540    52.2750    13.0060    11.6970     9.1480    25.2360   -14.3980 
  185.1250     2.3620    49.0510    12.7650    11.2730    10.6730    25.0010   -14.4760 
  185.2500     2.4050    47.2940    13.0410    11.4220    12.2210    24.9040   -14.5200 
  185.3750     2.4660    48.0050    13.6610    11.9600    12.9400    24.9150   -14.5460 
  185.5000     2.5290    50.0250    14.4890    12.7280    12.6610    24.9400   -14.5200 
  185.6250     2.5830    51.5020    15.3280    13.5060    12.3560    24.9510   -14.4780 
  185.7500     2.6220    53.0570    15.7960    13.9840    13.0760    24.9530   -14.4130 
  185.8750     2.6370    53.6130    15.5750    13.8780    14.4140    24.9530   -14.3220 
  186.0000     2.6210    52.8170    14.3830    13.0210    14.8490    24.9530   -14.2030 
  186.1250     2.5660    52.1210    12.3950    11.4410    12.7810    25.0440   -14.0850 
  186.2500     2.4960    51.0690    10.1240     9.6600    10.1350    25.5240   -13.9890 
  186.3750     2.4340    49.3730     8.1300     8.0630     7.2280    26.6400   -13.9020 
  186.5000     2.4010    47.0490     7.0370     6.8540     5.3380    27.7360   -13.8550 
  186.6250     2.3980    46.4870     6.5280     6.0900     4.7120    27.5360   -13.8290 
  186.7500     2.3980    49.7130     6.2360     5.5760     4.5670    26.1810   -13.8120 
  186.8750     2.3720    56.1150     6.0060     5.1870     4.4790    25.4100   -13.8090 
  187.0000     2.3000    61.4170     5.7550     4.8430     4.2760    26.2630   -13.8180 
  187.1250     2.1840    61.2990     5.4870     4.5310     4.0550    28.8410   -13.8500 
  187.2500     2.0640    58.9010     5.2710     4.2800     4.0540    31.3290   -13.8890 
  187.3750     1.9690    57.3820     5.1600     4.1300     4.1040    32.3950   -13.9400 
  187.5000     1.9180    56.5340     5.1690     4.0990     4.1850    31.9920   -13.9460 
  187.6250     1.9200    54.2940     5.2930     4.1980     4.3120    31.2520   -13.9740 
  187.7500     1.9500    51.8800     5.4740     4.3760     4.5370    31.0480   -14.0170 
  187.8750     1.9810    51.1210     5.6800     4.5950     4.6410    31.4880   -14.0960 
  188.0000     1.9950    50.7130     5.8910     4.8230     4.7330    32.2160   -14.1720 
  188.1250     1.9960    47.7190     6.0980     5.0340     4.9460    32.3420   -14.2550 
  188.2500     2.0080    44.6550     6.3080     5.2260     5.1660    32.1740   -14.3400 
  188.3750     2.0490    44.2570     6.5300     5.4110     5.3160    32.1860   -14.4350 
  188.5000     2.1240    46.5100     6.7760     5.6010     5.4800    32.2330   -14.5690 
  188.6250     2.2220    51.8330     7.0500     5.8020     5.6600    31.8360   -14.7290 
  188.7500     2.3120    59.7230     7.3260     6.0010     5.8970    30.8170   -14.9230 
  188.8750     2.3720    69.1090     7.5710     6.1700     6.1950    29.2460   -15.1490 
  189.0000     2.3850    77.4200     7.7520     6.2850     6.6400    28.0080   -15.4240 
  189.1250     2.3460    83.2730     7.8620     6.3440     7.2000    28.0080   -15.7590 
  189.2500     2.2870    88.2150     7.9790     6.4070     7.5410    28.4590   -16.1900 
  189.3750     2.2420    94.3790     8.1920     6.5430     7.4040    28.6080   -16.7070 
  189.5000     2.2340   102.1810     8.5770     6.8090     7.2970    28.1820   -17.2970 
  189.6250     2.2740   106.8600     9.1680     7.2410     7.4710    27.0480   -17.9180 
  189.7500     2.3370   105.8940     9.8480     7.7630     8.1680    25.7470   -18.5640 
  189.8750     2.3940   101.8450    10.4840     8.2820     9.1180    25.0970   -19.2140 
  190.0000     2.4270   100.4630    10.9450     8.6980    10.1590    24.9530   -19.8610 
  190.1250     2.4300   102.2900    11.1000     8.9010    10.7840    24.9670   -20.4500 
  190.2500     2.4230   100.2540    11.0080     8.9100    11.6640    25.0080   -20.9690 
  190.3750     2.4160    93.1180    10.7540     8.7740    12.1360    25.0660   -21.3870 
  190.5000     2.4120    87.0790    10.4450     8.5660    12.2390    25.1090   -21.7040 
  190.6250     2.4090    87.8270    10.1830     8.3690    12.3560    25.1580   -21.9070 
  190.7500     2.4050    89.0730    10.0160     8.2400    12.1790    25.2050   -22.0550 
  190.8750     2.4010    88.0950     9.9650     8.2070    11.6960    25.1580   -22.1390 
  191.0000     2.3990    89.1380    10.0340     8.2820    11.6180    24.9490   -22.1800 
  191.1250     2.4000    93.2090    10.2260     8.4730    12.0890    24.8350   -22.1910 
  191.2500     2.4050    96.1000    10.4880     8.7370    12.3090    24.7970   -22.1530 
  191.3750     2.4120    97.7170    10.7710     9.0370    12.6510    24.7970   -22.1050 
  191.5000     2.4180    99.2050    11.0240     9.3300    13.1840    24.7970   -22.0460 
  191.6250     2.4250    98.8390    11.1990     9.5660    13.7650    24.7970   -21.9700 
  191.7500     2.4310    97.8990    11.3030     9.7290    13.8070    24.7970   -21.8290 
  191.8750     2.4370    99.4400    11.3460     9.8150    13.6340    24.8030   -21.6380 
  192.0000     2.4450   103.7360    11.3350     9.8210    13.1840    24.8300   -21.4110 
  192.1250     2.4590   107.4460    11.2450     9.7230    12.9510    24.8920   -21.1210 
  192.2500     2.4750   109.5670    11.0580     9.5200    12.9540    24.9550   -20.7760 
  192.3750     2.4860   109.7490    10.7500     9.2040    13.3820    25.0190   -20.3400 
