~V
VERS. 2.00: Ver 2.00
~W
STRT.M 60.0000:
STOP.M 250.0000:
STEP.M 0.1250:
NULL. -999.2500:
UWI. DF3018:
~C
DEPT.M :
DEN.GM/CC :
GR.API :
RML.OHMM :
RI. :
RXO.OHMM :
CALI.CM :
SP.MV :
~A
# ...
  161.2500     2.1610    67.2230   161.0880   148.8400   140.0610    25.5450   -23.8590 
  161.3750     2.1470    66.9750   144.2640   135.3930   135.1690    25.6870   -23.8830 
  161.5000     2.1500    66.3610   125.8440   119.6520   117.2820    25.7170   -23.8520 
  161.6250     2.1700    69.1200   110.0550   105.1670    98.4230    25.5490   -23.8650 
  161.7500     2.1950    73.4670    98.8920    94.2830    85.0380    25.3360   -23.8620 
  161.8750     2.2160    77.4170    92.8770    87.9510    76.8290    25.1420   -23.8810 
  162.0000     2.2260    78.3140    91.4670    86.0200    75.3960    25.0490   -23.9010 
  162.1250     2.2230    73.4080    93.6370    87.7580    81.6400    25.0350   -23.9350 
  162.2500     2.2150    66.4650    96.9090    90.8100    94.9950    25.0370   -23.9810 
  162.3750     2.2100    62.2650    99.7810    93.6920   109.3400    25.0310   -24.0490 
  162.5000     2.2110    63.8470   101.5430    95.6060   114.4840    24.9880   -24.1520 
  162.6250     2.2190    68.1520   102.6820    96.7680   105.1180    24.9000   -24.2580 
  162.7500     2.2280    69.9350   104.7470    98.4680    93.4420    24.8220   -24.3650 
  162.8750     2.2340    68.6760   108.7270   101.6300    89.8190    24.8190   -24.4490 
  163.0000     2.2340    65.9730   114.4950   106.2850    95.3210    24.8920   -24.4810 
  163.1250     2.2270    63.6560   120.3480   111.0780   108.0180    24.9870   -24.4610 
  163.2500     2.2200    62.1580   123.8050   113.8600   121.6580    25.0260   -24.4320 
  163.3750     2.2170    62.3470   123.2850   113.1830   128.3070    25.0350   -24.3990 
  163.5000     2.2200    65.7870   118.7880   108.8840   120.3640    25.0350   -24.3900 
  163.6250     2.2290    71.9600   112.1780   102.3080   101.6160    25.0350   -24.3380 
  163.7500     2.2420    73.8680   106.7400    96.3740    86.8440    25.0350   -24.2860 
  163.8750     2.2520    70.0580   104.4650    93.0510    80.4570    25.0360   -24.2250 
  164.0000     2.2580    66.5390   106.4200    93.5130    75.3570    25.0390   -24.2000 
  164.1250     2.2560    69.5510   113.7240    98.8390    75.7420    25.0420   -24.1330 
  164.2500     2.2500    73.7050   125.2840   107.9530    85.9520    25.0410   -24.0510 
  164.3750     2.2430    72.2880   140.0710   119.8590   103.7850    25.0420   -23.8810 
  164.5000     2.2350    65.8340   156.1750   132.8980   120.7560    25.0390   -23.6750 
  164.6250     2.2280    60.7240   169.9940   144.1910   138.1790    25.0390   -23.3610 
  164.7500     2.2210    60.1630   178.2230   151.1750   152.2790    25.0410   -23.0680 
  164.8750     2.2130    61.8140   178.6190   152.1140   159.3260    25.0400   -22.7110 
  165.0000     2.2030    62.1600   170.9480   146.7110   158.2110    25.0370   -22.3750 
  165.1250     2.1940    61.6590   157.0340   136.0230   150.7560    25.0020   -22.0210 
  165.2500     2.1890    63.0930   142.1350   123.9870   139.1350    24.8650   -21.6920 
  165.3750     2.1900    66.7990   129.5860   113.3280   123.8070    24.5790   -21.3670 
  165.5000     2.1950    70.1400   121.1490   105.7620   108.5690    24.2540   -21.0690 
  165.6250     2.2010    69.6090   117.3580   102.1010    98.2340    24.2700   -20.8050 
  165.7500     2.2060    67.6130   115.7580   100.5230    94.4900    24.5560   -20.5440 
  165.8750     2.2080    68.8620   114.0230    99.1380    95.1770    24.8170   -20.3020 
  166.0000     2.2080    73.8120   110.0050    96.0840    96.3310    24.8750   -20.0560 
  166.1250     2.2090    75.7750   102.0100    89.7540    94.7820    24.7320   -19.8170 
  166.2500     2.2130    74.7330    91.2920    80.9470    93.3560    24.5900   -19.5800 
  166.3750     2.2220    76.6590    79.5950    71.0030    86.6130    24.5630   -19.3940 
  166.5000     2.2350    81.0390    68.8620    61.5660    71.4740    24.6510   -19.2320 
  166.6250     2.2510    81.1360    61.1710    54.4450    56.0090    24.7040   -19.1440 
  166.7500     2.2660    77.9220    56.8560    50.0620    49.3100    24.6670   -19.0490 
  166.8750     2.2770    76.3310    55.9300    48.5220    45.7120    24.6100   -18.9730 
  167.0000     2.2820    78.6280    58.0030    49.5950    43.9840    24.5860   -18.9090 
  167.1250     2.2770    80.4200    62.6240    53.0230    47.4690    24.5780   -18.9240 
  167.2500     2.2680    79.1860    68.3330    57.6040    56.1150    24.5500   -18.8990 
  167.3750     2.2600    76.0370    74.0640    62.4550    64.5030    24.4700   -18.8430 
  167.5000     2.2570    73.5280    78.8870    66.7590    68.2490    24.3430   -18.7260 
  167.6250     2.2590    75.0830    81.9500    69.6990    68.4560    24.2370   -18.5990 
  167.7500     2.2620    76.6200    83.4360    71.2790    69.8370    24.1870   -18.4300 
  167.8750     2.2630    77.7030    83.5420    71.6110    71.6510    24.2120   -18.2880 
  168.0000     2.2630    80.2420    82.4550    70.8720    72.6640    24.3050   -18.1150 
  168.1250     2.2650    82.1590    80.1330    69.0790    73.0740    24.4850   -17.9490 
  168.2500     2.2700    80.3300    76.9630    66.5840    72.0490    24.6720   -17.7700 
  168.3750     2.2770    77.0600    73.3000    63.6660    69.9410    24.8050   -17.6010 
  168.5000     2.2810    77.8880    69.5450    60.6380    65.0680    24.8600   -17.4560 
  168.6250     2.2820    80.7140    66.0040    57.7370    58.6510    24.8680   -17.3280 
  168.7500     2.2790    78.9320    62.6300    54.9420    53.5330    24.8640   -17.2120 
  168.8750     2.2760    74.3570    59.2640    52.1310    49.5270    24.8470   -17.1100 
  169.0000     2.2790    71.3150    55.8110    49.2110    45.1900    24.8090   -17.0230 
  169.1250     2.2900    70.6170    52.3750    46.2280    42.2060    24.7910   -16.9430 
  169.2500     2.3080    70.4220    49.1850    43.3800    38.6580    24.7820   -16.9040 
  169.3750     2.3240    70.3300    46.4180    40.8380    37.2170    24.7810   -16.9140 
  169.5000     2.3340    70.1430    44.1560    38.7280    36.5760    24.7800   -16.9620 
  169.6250     2.3320    71.7100    42.7090    37.2840    36.5570    24.7800   -17.0670 
  169.7500     2.3240    76.8570    42.3850    36.6350    39.8340    24.7750   -17.2300 
  169.8750     2.3160    83.0810    43.4350    37.1180    42.5140    24.7670   -17.4440 
  170.0000     2.3090    85.0960    46.4250    39.1910    40.5750    24.7730   -17.7430 
  170.1250     2.3020    80.2440    51.2980    43.6950    39.1560    24.7780   -18.0740 
  170.2500     2.2910    74.6700    58.0060    50.4020    45.3820    24.7800   -18.4660 
  170.3750     2.2780    71.8480    65.4220    58.7270    54.9190    24.7750   -18.8770 
  170.5000     2.2650    72.1790    72.1740    67.3210    66.3360    24.7570   -19.2690 
  170.6250     2.2540    72.9820    78.9320    73.7250    73.9300    24.7040   -19.6460 
  170.7500     2.2470    73.5620    81.6530    76.4540    78.9390    24.6200   -20.0040 
  170.8750     2.2440    74.9520    80.0560    75.1690    80.7010    24.4350   -20.3540 
  171.0000     2.2440    76.4980    75.4140    70.8930    71.8180    24.0610   -20.6360 
  171.1250     2.2470    77.8310    70.0860    65.6010    54.5880    23.6630   -20.9110 
  171.2500     2.2520    77.9810    66.2250    61.3630    46.0760    23.5040   -21.1330 
  171.3750     2.2580    77.4190    64.7060    59.1160    47.9290    23.7040   -21.3520 
  171.5000     2.2620    77.0460    65.6680    59.1220    53.2430    24.1500   -21.5580 
  171.6250     2.2600    75.9400    68.9720    61.3730    60.8040    24.6160   -21.7440 
  171.7500     2.2560    73.4710    73.4350    64.8260    69.0440    24.8040   -21.8900 
  171.8750     2.2530    70.5170    78.2280    68.7300    75.5930    24.7470   -21.9910 
  172.0000     2.2560    70.2360    82.6750    72.4480    79.0630    24.5580   -22.0890 
  172.1250     2.2620    72.1680    86.3090    75.5200    80.5220    24.4250   -22.1480 
  172.2500     2.2670    72.2010    89.3640    78.0770    80.5480    24.4470   -22.2010 
  172.3750     2.2660    70.6880    92.2240    80.3790    79.4930    24.5570   -22.2270 
