~V
VERS. 2.00: Ver 2.00
~W
STRT.M 140.0000:
STOP.M 286.0000:
STEP.M 0.1250:
NULL. -999.2500:
UWI. DF3059:
~C
DEPT.M :
SP.MV :
GR.API :
RML.OHMM :
RI. :
RXO.OHMM :
CALI.CM :
DEN.GM/CC :
~A
# ...
  185.0000   -32.0800    64.5720   309.2920   240.4400   127.0000    25.3260     2.1990 
  185.1250   -32.1610    67.8280   314.1400   245.2120   140.1780    25.3220     2.1980 
  185.2500   -32.1620    64.8680   304.8880   240.1320   150.6590    25.3340     2.2000 
  185.3750   -32.2420    59.5900   281.8920   224.9620   155.4690    25.3620     2.2070 
  185.5000   -32.2510    59.7810   249.9080   202.4280   153.0720    25.3900     2.2170 
  185.6250   -32.1730    66.2200   217.2490   177.9710   138.8060    25.3580     2.2280 
  185.7500   -32.1810    71.1110   190.8810   157.3180   121.1040    25.4820     2.2380 
  185.8750   -32.1430    72.4830   173.4550   143.1800   109.6050    25.6630     2.2450 
  186.0000   -32.1290    72.8610   165.1450   136.2790   105.4260    25.7530     2.2480 
  186.1250   -32.0270    73.8950   165.7710   136.8630   108.5490    25.6890     2.2470 
  186.2500   -31.9850    74.0180   171.8300   142.1660   117.0180    25.5570     2.2440 
  186.3750   -31.8390    72.5720   180.8970   150.2060   120.3920    25.4640     2.2420 
  186.5000   -31.8110    71.3380   190.1730   158.6440   125.3270    25.4380     2.2440 
  186.6250   -31.8600    71.2230   195.9410   164.3220   135.6450    25.4820     2.2480 
  186.7500   -31.8330    71.1840   196.4360   165.5900   140.0420    25.4930     2.2540 
  186.8750   -31.7690    71.6710   191.4230   162.0610   138.6050    25.4900     2.2600 
  187.0000   -31.6710    73.0380   182.4940   154.8800   137.3310    25.4780     2.2650 
  187.1250   -31.6120    73.4590   172.7160   146.4320   135.5540    25.5000     2.2710 
  187.2500   -31.5800    73.5900   165.0400   139.3620   128.1710    25.5400     2.2770 
  187.3750   -31.5700    75.1530   160.5470   134.7890   111.9160    25.5750     2.2830 
  187.5000   -31.5310    77.6510   159.1000   132.8000    95.7650    25.4780     2.2880 
  187.6250   -31.4890    76.3370   160.2030   133.1490    95.7380    25.3470     2.2920 
  187.7500   -31.4420    73.0280   162.6830   134.8720   105.0200    25.2850     2.2960 
  187.8750   -31.5000    71.2900   166.0940   137.5870   117.9410    25.2890     2.2960 
  188.0000   -31.5730    70.8240   170.0850   140.9790   121.5900    25.3200     2.2910 
  188.1250   -31.7020    69.1430   174.0540   144.5760   118.6580    25.3960     2.2790 
  188.2500   -31.7720    67.1400   177.0670   147.5790   119.2920    25.5310     2.2650 
  188.3750   -31.9340    66.1450   178.2330   149.2130   126.3150    25.6230     2.2560 
  188.5000   -32.0370    66.0780   177.0740   148.9610   130.2260    25.6220     2.2550 
  188.6250   -32.1670    65.9640   173.6010   146.6110   127.6300    25.4740     2.2600 
  188.7500   -32.2840    66.9940   169.0410   143.0920   121.6380    25.3430     2.2630 
  188.8750   -32.3420    68.6090   163.9180   138.9040   113.7250    25.2360     2.2610 
  189.0000   -32.4340    69.8910   158.0540   134.0640   107.0830    25.2710     2.2530 
  189.1250   -32.4800    71.1850   150.6060   128.0050   110.1190    25.4740     2.2450 
  189.2500   -32.5930    71.3470   141.9330   120.9280   113.2750    25.7490     2.2430 
  189.3750   -32.5870    71.0240   133.4700   113.8320   112.8600    25.8570     2.2500 
  189.5000   -32.6600    72.2920   127.5560   108.5080   106.3330    25.8530     2.2640 
  189.6250   -32.6740    75.2910   127.8090   107.9180    94.1250    25.8160     2.2770 
  189.7500   -32.7330    74.7760   135.1390   113.0660    85.2290    25.7960     2.2840 
  189.8750   -32.7420    70.2610   149.7120   124.3010    88.6010    25.7350     2.2830 
  190.0000   -32.7090    66.0700   170.1420   140.6500   103.6160    25.5750     2.2730 
  190.1250   -32.6600    65.4480   193.1190   159.5780   125.7580    25.3100     2.2600 
  190.2500   -32.6350    65.8550   213.1300   176.5210   146.1250    25.1920     2.2460 
  190.3750   -32.6570    65.5530   225.8630   187.8550   150.7380    25.1640     2.2340 
  190.5000   -32.6840    63.3150   229.0620   191.5080   142.6960    25.1640     2.2240 
  190.6250   -32.7090    59.8620   222.7440   187.0830   139.4730    25.1640     2.2190 
  190.7500   -32.7180    59.5270   212.2510   178.7500   144.3380    25.1640     2.2190 
  190.8750   -32.7450    63.2190   200.7710   169.1860   142.5730    25.1640     2.2210 
  191.0000   -32.7880    67.1080   189.7610   159.8150   129.7030    25.1640     2.2280 
  191.1250   -32.8060    65.6930   179.1600   150.8090   118.4530    25.1640     2.2370 
  191.2500   -32.7670    62.4220   168.5160   141.8340   120.6820    25.1640     2.2480 
  191.3750   -32.6720    61.9700   158.3040   133.2060   126.4170    25.1640     2.2610 
  191.5000   -32.5560    66.0380   149.8630   125.9360   125.3220    25.1640     2.2730 
  191.6250   -32.5670    72.7800   145.6920   122.0180   108.4450    25.1640     2.2810 
  191.7500   -32.5160    76.7260   146.5610   122.1420    97.1960    25.1640     2.2840 
  191.8750   -32.5940    75.4300   152.7540   126.6210    95.9660    25.1640     2.2820 
  192.0000   -32.6170    70.6700   163.5840   134.9500   102.2760    25.1640     2.2780 
  192.1250   -32.6340    67.1150   177.6060   145.9520   115.0980    25.1640     2.2750 
  192.2500   -32.6600    66.2020   191.8540   157.1070   127.0870    25.1640     2.2750 
  192.3750   -32.7220    67.0000   204.3030   166.6690   133.5900    25.1640     2.2770 
  192.5000   -32.8060    69.5090   213.7030   173.5560   134.1890    25.1640     2.2790 
  192.6250   -32.7710    72.1430   219.3420   177.1620   134.4730    25.1640     2.2760 
  192.7500   -32.8030    72.8160   222.4820   178.6030   136.3020    25.1640     2.2690 
  192.8750   -32.7030    71.4760   223.9930   178.6570   138.9170    25.1640     2.2580 
  193.0000   -32.6230    70.0540   224.6320   178.0100   139.8760    25.1640     2.2470 
  193.1250   -32.5350    71.2910   225.0220   177.2700   137.7040    25.1640     2.2400 
  193.2500   -32.4610    72.2570   225.7210   176.9690   135.4570    25.1640     2.2370 
  193.3750   -32.3610    70.0440   227.0820   177.4690   137.0800    25.1640     2.2390 
  193.5000   -32.2330    66.0230   229.2940   178.9620   141.0010    25.1640     2.2440 
  193.6250   -32.0570    64.5850   232.3940   181.5130   144.1330    25.1640     2.2490 
  193.7500   -31.8970    67.0760   235.8060   184.5690   145.7340    25.1640     2.2520 
  193.8750   -31.7280    70.6370   238.8620   187.5710   149.0660    25.1640     2.2510 
  194.0000   -31.5730    71.6390   240.7360   189.8620   152.5300    25.1640     2.2460 
  194.1250   -31.4070    69.1770   240.1160   190.4130   153.8410    25.1660     2.2400 
  194.2500   -31.2130    65.8530   236.6400   188.8120   153.1000    25.1750     2.2370 
  194.3750   -31.0200    64.3480   230.1010   184.7650   151.5460    25.1930     2.2380 
  194.5000   -30.8410    64.9520   220.7800   178.4030   150.7650    25.2120     2.2440 
  194.6250   -30.7510    66.7250   209.2240   170.2410   147.4940    25.2330     2.2510 
  194.7500   -30.6150    68.9530   197.0070   161.8130   138.2610    25.2710     2.2560 
  194.8750   -30.5660    71.1200   185.2750   154.3500   123.7200    25.3710     2.2580 
  195.0000   -30.4810    72.2520   174.9100   148.6380   114.5400    25.5470     2.2560 
  195.1250   -30.5540    71.7130   166.6740   144.6380   111.4100    25.6220     2.2530 
  195.2500   -30.5570    69.3850   159.8610   140.7400   110.3720    25.5860     2.2480 
  195.3750   -30.6200    66.8780   153.6010   135.6670   110.3540    25.4450     2.2450 
  195.5000   -30.6400    66.6360   147.2490   129.0430   113.7030    25.4090     2.2450 
  195.6250   -30.6900    69.3690   141.2200   122.0440   120.3790    25.4990     2.2510 
  195.7500   -30.8260    71.7140   137.0530   116.9940   114.2360    25.4780     2.2570 
  195.8750   -30.9110    70.3200   136.2400   115.5240    91.7010    25.3090     2.2590 
  196.0000   -31.0360    65.8300   139.0940   117.8810    82.5680    25.3120     2.2540 
  196.1250   -31.0550    62.8980   143.7780   122.4710    85.4190    25.4730     2.2420 
