~V
VERS. 2.00: Ver 2.00
~W
STRT.M 60.0000:
STOP.M 270.0000:
STEP.M 0.1250:
NULL. -999.2500:
UWI. DF3075:
~C
DEPT.M :
GR.API :
RML.OHMM :
RI. :
RXO.OHMM :
CALI.CM :
DEN.GM/CC :
SP.MV :
~A
# ...
  262.5000    64.5170     8.2800     7.0800     7.8110    19.2870     2.2900   -16.7890 
  262.6250    64.5170     8.2920     7.0920     7.9550    19.4390     2.2890   -16.7670 
  262.7500    64.5170     8.2710     7.0710     8.0420    19.5550     2.2790   -16.6190 
  262.8750    64.5170     8.2440     7.0440     7.9700    19.5990     2.2630   -16.4160 
  263.0000    64.5170     8.2150     7.0150     7.8430    19.5560     2.2500   -16.1850 
  263.1250    64.5170     8.1840     6.9840     7.7040    19.4580     2.2440   -15.8160 
  263.2500    64.5170     8.1440     6.9440     7.6530    19.3570     2.2490   -15.3090 
  263.3750    64.5170     8.0980     6.8980     7.7400    19.2840     2.2620   -14.7200 
  263.5000    64.5170     8.0590     6.8590     7.8210    19.2400     2.2770   -14.0190 
  263.6250    64.5170     8.0330     6.8330     7.6970    19.2480     2.2890   -13.1810 
  263.7500    64.5170     8.0260     6.8260     7.5980    19.2960     2.2940   -12.2390 
  263.8750    64.5170     8.0410     6.8410     7.6300    19.3810     2.2930   -11.2110 
  264.0000    64.5170     8.0800     6.8800     7.6070    19.5000     2.2920   -10.1860 
  264.1250    64.5170     8.1350     6.9350     7.4850    19.6290     2.2930    -9.3310 
  264.2500    64.5170     8.1840     6.9840     7.4160    19.7610     2.3000    -8.6690 
  264.3750    64.5170     8.2160     7.0160     7.2770    19.8770     2.3090    -8.0890 
  264.5000    64.5170     8.2210     7.0210     7.3280    19.9850     2.3150    -7.5850 
  264.6250    64.5170     8.2210     7.0210     7.7980    20.0030     2.3140    -7.2300 
  264.7500    64.5170     8.2210     7.0210     8.1730    19.8750     2.3020    -7.0570 
  264.8750    64.5170     8.2210     7.0210     8.3760    19.6770     2.2870    -7.0640 
  265.0000    64.5170     8.2210     7.0210     8.7010    19.4870     2.2760    -7.1520 
  265.1250    64.5170     8.2210     7.0210     8.4170    19.2930     2.2750    -7.1430 
  265.2500    64.5170     8.2210     7.0210     8.1590    19.1270     2.2870    -7.0420 
  265.3750    64.5170     8.2210     7.0210     8.1860    19.0180     2.3040    -7.0060 
  265.5000    64.5170     8.2210     7.0210     8.6390    18.9700     2.3190    -7.0540 
  265.6250    64.5170     8.2210     7.0210     9.0580    18.9590     2.3250    -7.1640 
  265.7500    64.5170     8.2210     7.0210     9.0750    18.9540     2.3170    -7.3380 
  265.8750    64.5170     8.2210     7.0210     9.1870    18.9460     2.2980    -7.4110 
  266.0000    64.5170     8.2210     7.0210     9.5770    18.9170     2.2750    -7.3900 
  266.1250    64.5170     8.2210     7.0210    10.1000    18.8410     2.2540    -7.4800 
  266.2500    64.5170     8.2210     7.0210    10.3090    18.7020     2.2390    -7.5550 
  266.3750    64.5170     8.2210     7.0210    10.3770    18.4930     2.2310    -7.5470 
  266.5000    64.5170     8.2210     7.0210    10.3280    18.2220     2.2290    -7.5430 
  266.6250    64.5170     8.2210     7.0210    10.0540    17.8160     2.2260    -7.5430 
  266.7500    64.5170     8.2210     7.0210     9.7100    17.2730     2.2150  -999.2500 
  266.8750    64.5170     8.2210     7.0210     9.4000    16.5790     2.1900  -999.2500 
  267.0000    64.5170     8.2210     7.0210     9.0910    15.7660     2.1510  -999.2500 
  267.1250    64.5170     8.2210     7.0210     8.7520    14.9870     2.1050  -999.2500 
  267.2500    64.5170     8.2210     7.0210     8.5230    14.4650     2.0620  -999.2500 
  267.3750    64.5170     8.2210     7.0210     8.4420    14.2750     2.0290  -999.2500 
  267.5000    64.5170     8.2210     7.0210     8.4310    14.2470     2.0100  -999.2500 
  267.6250    64.5170     8.2210     7.0210     8.4310    14.2440     2.0020  -999.2500 
  267.7500    64.5170     8.2210     7.0210     8.4300    14.2430     1.9990  -999.2500 
  267.8750    64.5170     8.2210     7.0210     8.4300    14.2410     1.9980  -999.2500 
  268.0000    64.5170     8.2210     7.0210     8.4280    14.2380     1.9970  -999.2500 
  268.1250    64.5170     8.2210     7.0210     8.4290    14.2370     1.9960  -999.2500 
  268.2500    64.5170     8.2350     7.0210     8.4320    14.2390     1.9960  -999.2500 
  268.3750    64.5170     8.2330     7.0210     8.4330    14.2420     1.9960  -999.2500 
  268.5000    64.5170     8.1470     7.0210     8.4340    14.2450     1.9950  -999.2500 
  268.6250    64.5170     8.0910     7.0210     8.4350    14.2450     1.9930  -999.2500 
  268.7500    64.5170     8.0540     7.0210     8.4330    14.2430     1.9890  -999.2500 
  268.8750    64.5170     8.5680     7.0210     8.4300    14.2430     1.9860  -999.2500 
  269.0000    64.5170     9.3890     7.0210     8.4280    14.2400     1.9850  -999.2500 
  269.1250    64.5170    10.6690     7.0210     8.4280    14.2350     1.9850  -999.2500 
  269.2500    64.5170    12.2080     6.9960     8.4270    14.2320     1.9870  -999.2500 
  269.3750  -999.2500  -999.2500  -999.2500  -999.2500  -999.2500     1.9900  -999.2500 
  269.5000  -999.2500  -999.2500  -999.2500  -999.2500  -999.2500     1.9930  -999.2500 
  269.6250  -999.2500  -999.2500  -999.2500  -999.2500  -999.2500     1.9940  -999.2500 
  269.7500  -999.2500  -999.2500  -999.2500  -999.2500  -999.2500     1.9930  -999.2500 
  269.8750  -999.2500  -999.2500  -999.2500  -999.2500  -999.2500     1.9900  -999.2500 
  270.0000  -999.2500  -999.2500  -999.2500  -999.2500  -999.2500     1.9870  -999.2500 
