~V
VERS. 2.00: Ver 2.00
~W
STRT.M 125.0000:
STOP.M 265.0000:
STEP.M 0.1250:
NULL. -999.2500:
UWI. DF3008:
~C
DEPT.M :
DEN.GM/CC :
GR.API :
CALI.CM :
RXO.OHMM :
RI. :
RML.OHMM :
SP.MV :
~A
# ...
  248.7500     2.4600    54.2060    24.6920     7.4000     7.5610    10.0200   -13.8480 
  248.8750     2.4540    52.4100    24.6900     7.5750     7.6620    10.1740   -13.9320 
  249.0000     2.4390    50.5170    24.6900     7.8990     7.7580    10.3270   -14.0280 
  249.1250     2.4260    49.8650    24.6910     8.2340     7.8590    10.4530   -14.1420 
  249.2500     2.4250    50.8430    24.6930     8.4140     7.9710    10.5300   -14.2600 
  249.3750     2.4340    53.5490    24.6920     8.3090     8.0960    10.5620   -14.3820 
  249.5000     2.4460    55.9550    24.6910     8.0210     8.2380    10.6030   -14.5100 
  249.6250     2.4500    54.0360    24.6900     7.7970     8.4020    10.7230   -14.6380 
  249.7500     2.4470    49.0900    24.6900     7.7180     8.5730    10.9110   -14.7570 
  249.8750     2.4420    46.7640    24.6900     7.7200     8.7280    11.1090   -14.8710 
  250.0000     2.4420    49.7640    24.6900     7.7680     8.8400    11.2440   -14.9920 
  250.1250     2.4440    52.5730    24.6900     7.8830     8.8820    11.2710   -15.0890 
  250.2500     2.4450    54.0560    24.6900     7.9540     8.8780    11.2510   -15.1780 
  250.3750     2.4460    56.2540    24.6900     8.1230     8.8670    11.2610   -15.2520 
  250.5000     2.4490    58.9960    24.6900     8.6210     8.8930    11.3580   -15.3150 
  250.6250     2.4540    58.3120    24.6880     9.3550     8.9890    11.5540   -15.3590 
  250.7500     2.4580    54.7390    24.6820    10.2020     9.1390    11.7940   -15.3970 
  250.8750     2.4570    52.4740    24.6710    11.4380     9.3240    12.0420   -15.4400 
  251.0000     2.4530    54.2760    24.6620    13.1990     9.5230    12.2790   -15.4610 
  251.1250     2.4530    57.7380    24.6540    15.1040     9.7260    12.4950   -15.4810 
  251.2500     2.4610    59.4890    24.6470    16.2900     9.9430    12.7170   -15.5190 
  251.3750     2.4730    58.8090    24.6430    16.1350    10.1950    12.9840   -15.5570 
  251.5000     2.4880    58.0900    24.6430    14.4340    10.5020    13.3190   -15.6020 
  251.6250     2.5050    58.4360    24.6430    12.3200    10.8740    13.7190   -15.6670 
  251.7500     2.5250    59.8620    24.6430    10.9270    11.2770    14.1350   -15.7570 
  251.8750     2.5430    61.2780    24.6400    10.3200    11.6670    14.5100   -15.8560 
  252.0000     2.5550    61.5030    24.6330    10.0160    12.0020    14.7900   -15.9860 
  252.1250     2.5550    61.2080    24.6170     9.6170    12.2630    14.9650   -16.1440 
  252.2500     2.5460    60.6230    24.6110     9.1500    12.5070    15.1340   -16.3000 
  252.3750     2.5330    59.8970    24.6100     8.9530    12.7980    15.3890   -16.4690 
  252.5000     2.5230    58.6410    24.6080     9.4520    13.1900    15.7960   -16.6450 
  252.6250     2.5250    57.7120    24.6080    11.1330    13.7200    16.4000   -16.8120 
  252.7500     2.5360    57.6230    24.6090    13.4940    14.3370    17.1130   -16.9830 
  252.8750     2.5470    58.1270    24.6100    15.6730    14.9840    17.8360   -17.1680 
  253.0000     2.5490    59.5050    24.6070    17.1130    15.6060    18.4870   -17.3460 
  253.1250     2.5440    60.0960    24.6060    17.6680    16.1770    19.0120   -17.5170 
  253.2500     2.5400    59.6600    24.6050    17.7800    16.7200    19.4640   -17.7060 
  253.3750     2.5290    59.0990    24.6050    17.7290    17.2610    19.9010   -17.9130 
  253.5000     2.5030    60.3110    24.6050    17.6870    17.8120    20.3600   -18.1450 
  253.6250     2.4730    61.8510    24.6050    17.8300    18.3530    20.8310   -18.3950 
  253.7500     2.4680    61.4320    24.6050    17.7990    18.8420    21.2600   -18.6420 
  253.8750     2.4900    61.1700    24.6050    17.7380    19.2260    21.5850   -18.9080 
  254.0000     2.5210    61.1700    24.6050    18.4960    19.4480    21.7450   -19.2130 
  254.1250     2.5420    61.1700    24.6030    22.5520    19.4280    21.6410   -19.5420 
  254.2500     2.5570    61.1700    24.5900    31.6230    19.2080    21.3080   -19.8780 
  254.3750     2.5650    61.1700    24.5600    38.5360    18.8520    20.8250   -20.2220 
  254.5000     2.5540    61.1700    24.5370    35.3490    18.4580    20.3150   -20.5910 
  254.6250     2.5090    61.1700    24.5300    25.2030    18.1290    19.9060   -20.9970 
  254.7500     2.4600    61.1700    24.5300    19.8580    17.8800    19.6060   -21.4420 
  254.8750     2.4390    61.1700    24.5230    18.6830    17.6890    19.3700   -21.8970 
  255.0000     2.4530    61.1700    24.5020    19.4810    17.5390    19.1520   -22.3730 
  255.1250     2.4850    61.1700    24.4600    21.1750    17.4800    18.9880   -22.8800 
  255.2500     2.5080    61.1700    24.4440    22.3680    17.5860    18.9840   -23.4160 
  255.3750     2.5200    61.1700    24.4400    22.7190    17.9240    19.2500   -23.9740 
  255.5000     2.5230    61.1700    24.4400    22.9420    18.5020    19.8200   -24.5500 
  255.6250     2.5190    61.1700    24.4360    23.0120    19.2370    20.6070   -25.1530 
  255.7500     2.5130    61.1700    24.4240    22.2000    19.8900    21.3080   -25.7610 
  255.8750     2.5050    61.1700    24.3910    21.0370    20.2510    21.6560   -26.3740 
  256.0000     2.4850    61.1700    24.3460    20.1430    20.1910    21.5050   -26.9720 
  256.1250     2.4500    61.1700    24.2690    19.7070    19.6830    20.8630   -27.5760 
  256.2500     2.4130    61.1700    24.1370    19.5560    18.9610    20.0250   -28.1370 
  256.3750     2.3870    61.1700    23.8870    19.5340    18.1940    19.1830   -28.6210 
  256.5000     2.3700    61.1700    23.5250    19.4840    17.5000    18.4650   -28.9420 
  256.6250     2.3580    61.1700    23.1420    19.4760    16.9690    17.9750   -28.9710 
  256.7500     2.3540    61.1700    22.8330    19.0990    16.6110    17.7100   -28.6560 
  256.8750     2.3620    61.1700    22.6710    18.8850    16.4410    17.6610   -27.9790 
  257.0000     2.3810    61.1700    22.6140    19.4090    16.4460    17.7770   -26.9290 
  257.1250     2.4020    61.1700    22.5670    19.9330    16.5840    17.9840   -25.4030 
  257.2500     2.4170    61.1700    22.4760    20.3110    16.7520    18.1920   -23.5130 
  257.3750     2.4190    61.1700    22.3360    20.1390    16.8880    18.3570   -21.3360 
  257.5000     2.4050    61.1700    22.1500    19.5870    16.9640    18.4650   -19.0050 
  257.6250     2.3760    61.1700    21.9400    19.0890    16.9860    18.5200   -16.6430 
  257.7500     2.3390    61.1700    21.7840    18.8250    16.9860    18.5460   -14.4180 
  257.8750     2.3050    61.1700    21.5990    18.8550    16.9780    18.5590   -12.4270 
  258.0000     2.2780    61.1700    21.3550    18.9790    16.9660    18.5700   -10.7280 
  258.1250     2.2510    61.1700    21.1340    18.4440    16.9600    18.5820    -9.4130 
  258.2500     2.2180    61.1700    20.7930    16.9820    16.9640    18.5850    -8.4430 
  258.3750     2.1780    61.1700    20.1620    15.1880    16.9770    18.5770    -7.7840 
  258.5000     2.1400    61.1700    19.3640    13.9150    16.9890    18.5600    -7.3730 
  258.6250     2.1090    61.1700    18.6820    13.6450    16.9910    18.5450    -7.2020 
  258.7500     2.0840    61.1700    18.2120    13.7660    16.9860    18.5350    -7.1710 
  258.8750     2.0640    61.1700    17.9940    13.8510    16.9840    18.5330    -7.2100 
  259.0000     2.0510    61.1700    17.9040    13.6460    16.9920    18.5380    -7.2870 
  259.1250     2.0470    61.1700    17.7730    13.2570    17.0060    18.5510    -7.3830 
  259.2500     2.0480    61.1700    17.5580    12.7280    17.0100    18.5700    -7.4670 
  259.3750     2.0520    61.1700    17.3670    12.3810    17.0030    18.5880    -7.5560 
  259.5000     2.0570    61.1700    17.2220    12.2210    16.9890    18.5940    -7.6470 
  259.6250     2.0610    61.1700    17.1490    11.9210    16.9790    18.5820    -7.7420 
  259.7500     2.0630    61.1700    17.1250    11.5540    16.9800    18.5590    -7.8520 
  259.8750     2.0640    61.1700    17.1180    11.3080    16.9880    18.5350    -7.9570 
