~V
VERS. 2.00: Ver 2.00
~W
STRT.M 100.0000:
STOP.M 258.0000:
STEP.M 0.1250:
NULL. -999.2500:
UWI. DF3025:
~C
DEPT.M :
AC.US/MT :
DEN.GM/CC :
GR.API :
CALI.CM :
RXO.OHMM :
RI. :
RML.OHMM :
SP.MV :
~A
# ...
  150.0000   402.3880     2.4040    90.2050    23.5830    12.2590    12.0370    12.0210   -27.1250 
  150.1250   402.8900     2.4200    94.1730    23.5970    12.4710    11.6730    11.6550   -27.2990 
  150.2500   402.2360     2.4340    98.7570    23.6200    11.6610    11.2870    11.3170   -27.5040 
  150.3750   400.2080     2.4420    99.9100    23.6400    10.5060    10.9810    11.1180   -27.7640 
  150.5000   397.4380     2.4400    99.5190    23.6650    10.6550    10.8420    11.1570   -28.0740 
  150.6250   393.4820     2.4320    99.7350    23.7300    12.1550    11.0520    11.6630   -28.4030 
  150.7500   387.4320     2.4210    98.5520    23.8260    12.7210    11.7940    12.8720   -28.7400 
  150.8750   380.6880     2.4010    95.6490    23.9220    12.2870    13.4400    15.2150   -29.1020 
  151.0000   377.6560     2.3720    91.9970    23.9950    15.1570    16.6560    19.3120   -29.5080 
  151.1250   382.8880     2.3400    86.8960    24.0830    20.8360    23.6070    26.7830   -29.9590 
  151.2500   391.9620     2.3140    80.1630    24.2320    41.2530    36.6580    39.0760   -30.4300 
  151.3750   399.5250     2.2940    74.1130    24.4120    83.6210    59.1760    58.9600   -30.8970 
  151.5000   402.8710     2.2790    71.2900    24.5600   133.2270    93.8030    89.9820   -31.3550 
  151.6250   402.4110     2.2690    71.0790    24.6390   159.3660   140.0510   135.5610   -31.8350 
  151.7500   400.5090     2.2650    68.4760    24.6850   171.0610   186.3660   184.9650   -32.3620 
  151.8750   397.6460     2.2660    64.0110    24.7060   184.8570   222.6820   223.9250   -32.9280 
  152.0000   394.0880     2.2650    62.8910    24.6880   184.7160   246.0300   247.1490   -33.4870 
  152.1250   390.5110     2.2560    67.1830    24.6710   178.3890   260.3130   261.2940   -33.9690 
  152.2500   388.5030     2.2400    70.0670    24.6940   162.4060   272.6330   274.9740   -34.3760 
  152.3750   389.4000     2.2290    68.7290    24.7420   158.1510   285.7280   290.2350   -34.7270 
  152.5000   392.9200     2.2260    66.1970    24.7780   154.3540   301.6320   308.2560   -35.0350 
  152.6250   397.3580     2.2250    64.9300    24.7850   153.9720   323.2400   331.2970   -35.3280 
  152.7500   400.9470     2.2180    63.4880    24.7850   159.4090   350.8750   359.7880   -35.6220 
  152.8750   402.9990     2.2090    61.8740    24.7860   184.9400   383.7840   393.2090   -35.8760 
  153.0000   402.8660     2.2030    60.5620    24.7740   220.8850   419.1920   429.0170   -36.0670 
  153.1250   400.5790     2.2020    58.8550    24.7350   233.8760   451.8600   461.7370   -36.2050 
  153.2500   398.4440     2.2050    56.8810    24.6990   228.5470   477.9020   487.0590   -36.3050 
  153.3750   397.7420     2.2070    56.5120    24.7160   225.8000   496.3890   503.9660   -36.3800 
  153.5000   398.5330     2.2050    57.7020    24.7980   237.7220   509.7640   515.5830   -36.4680 
  153.6250   399.8300     2.1950    57.0510    24.8830   266.0550   523.6430   526.1690   -36.5550 
  153.7500   400.6630     2.1810    54.8900    24.9200   287.7550   541.8610   536.3270   -36.5940 
  153.8750   400.8380     2.1700    54.7110    24.9220   306.3330   555.7170   550.1110   -36.5920 
  154.0000   400.5440     2.1680    58.2790    24.9210   319.1170   564.1320   560.0580   -36.5870 
  154.1250   399.9340     2.1750    61.8620    24.9200   322.5920   562.1360   561.8320   -36.6090 
  154.2500   399.5570     2.1840    62.8490    24.9090   261.3890   551.9580   556.3790   -36.6750 
  154.3750   399.8890     2.1920    62.2430    24.8870   219.8210   536.5360   545.7630   -36.7530 
  154.5000   400.8910     2.1970    61.7280    24.8680   215.4390   518.7840   532.6620   -36.7960 
  154.6250   402.5750     2.1990    61.9560    24.8620   278.5630   499.9990   518.9420   -36.8070 
  154.7500   404.7820     2.2000    61.7390    24.8630   323.6210   479.5680   504.2150   -36.8070 
  154.8750   407.2070     2.2020    60.9620    24.8650   343.0510   455.6720   486.1090   -36.8000 
  155.0000   409.2940     2.2020    60.8890    24.8590   334.9120   426.3740   461.9280   -36.7970 
  155.1250   410.5940     2.1970    61.7900    24.8090   331.0490   390.2310   429.1810   -36.7790 
  155.2500   411.4900     2.1930    63.4250    24.7130   317.4020   350.9990   391.2140   -36.7310 
  155.3750   412.2640     2.1950    64.9910    24.5880   281.4080   313.3170   352.5160   -36.6870 
  155.5000   412.9790     2.2050    66.6690    24.4460   234.2580   281.2850   317.8240   -36.6760 
  155.6250   413.2760     2.2150    68.5020    24.3000   191.6430   257.8110   291.3360   -36.6640 
  155.7500   413.3820     2.2220    69.3190    24.1920   183.9560   240.7460   271.9150   -36.6250 
  155.8750   413.9310     2.2240    70.1780    24.1530   194.9970   228.4420   258.1320   -36.5790 
  156.0000   414.6040     2.2220    70.4930    24.1680   184.1490   219.6440   248.6000   -36.5430 
  156.1250   414.2680     2.2130    68.9300    24.1990   135.1320   214.3370   243.1720   -36.4960 
  156.2500   413.8070     2.2040    65.9430    24.2270    97.0170   212.2010   241.3630   -36.4420 
  156.3750   414.0830     2.1980    63.3010    24.2300    85.2860   213.4370   243.3900   -36.3770 
  156.5000   414.4630     2.1980    63.5700    24.1810    96.3960   217.5300   248.7140   -36.2640 
  156.6250   413.2370     2.2070    65.5070    24.1090    98.4190   222.3530   255.0020   -36.1230 
  156.7500   411.0910     2.2230    66.2260    24.0970   101.2250   223.9350   257.8240   -36.0330 
  156.8750   410.3390     2.2380    65.5140    24.1530    99.0080   218.9310   253.2730   -36.0030 
  157.0000   411.7200     2.2440    63.4510    24.2080    91.0550   206.8730   240.0220   -35.9860 
  157.1250   413.3570     2.2420    62.1470    24.1510    79.2360   191.9340   221.3310   -35.9480 
  157.2500   413.8100     2.2430    62.8810    23.9830    71.7730   180.8990   205.2840   -35.8970 
  157.3750   413.8450     2.2480    64.7610    23.7940    71.6590   177.6520   197.3040   -35.8130 
  157.5000   414.7650     2.2510    64.5950    23.7780    77.7850   184.2410   200.5010   -35.7060 
  157.6250   416.6000     2.2420    61.3890    24.1240   124.3290   203.5150   218.1590   -35.6360 
  157.7500   417.8120     2.2270    59.0230    24.6090   202.4190   233.1150   246.9400   -35.5870 
  157.8750   417.4820     2.2180    58.9350    24.9560   289.0170   269.4610   282.2900   -35.5020 
  158.0000   415.9280     2.2210    59.2550    25.0490   306.7500   304.9410   316.2080   -35.3780 
  158.1250   414.8840     2.2290    58.8790    24.9800   264.6050   326.7420   336.6400   -35.2160 
  158.2500   415.3660     2.2340    58.4830    24.9070   238.8480   330.1210   339.5460   -35.0300 
  158.3750   416.8620     2.2330    58.7620    24.8700   213.4920   315.9040   325.5460   -34.8740 
  158.5000   418.6840     2.2330    58.9990    24.9230   185.7430   289.3830   299.1930   -34.7710 
  158.6250   420.5230     2.2350    59.3000    25.0670   169.7930   257.3200   266.1900   -34.6520 
  158.7500   422.4410     2.2400    59.7570    25.1380   144.7450   227.1830   233.7150   -34.4630 
  158.8750   425.0890     2.2470    60.6520    25.0630   112.1210   203.2900   206.5170   -34.2030 
  159.0000   429.0800     2.2490    63.2930    24.9460    95.9070   187.9640   187.8890   -33.9030 
  159.1250   435.9840     2.2380    66.6080    24.9320   107.5030   182.7230   180.2600   -33.6400 
  159.2500   445.3340     2.2230    68.7970    24.9590   135.9240   184.2050   180.2870   -33.4240 
  159.3750   454.4150     2.2180    68.5270    24.9750   201.8550   189.1950   184.6880   -33.2140 
  159.5000   458.3640     2.2230    67.1670    25.0480   287.1040   193.1780   188.9700   -32.9760 
  159.6250   451.9020     2.2270    65.5450    25.2560   243.7790   190.4510   187.4830   -32.7020 
  159.7500   438.9670     2.2270    63.4190    25.4260   167.0120   181.3730   179.8490   -32.4240 
  159.8750   425.0800     2.2250    62.6690    25.3940   130.8870   169.5320   168.9650   -32.1940 
