~V
VERS. 2.00: Ver 2.00
~W
STRT.M 130.0000:
STOP.M 271.0000:
STEP.M 0.1250:
NULL. -999.2500:
UWI. DF3076:
~C
DEPT.M :
DEN.GM/CC :
GR.API :
CALI.CM :
RXO.OHMM :
RI. :
RML.OHMM :
SP.MV :
~A
# ...
  141.2500     2.4250    72.0130    23.8380    34.0060    14.6150    17.7030   -12.2180 
  141.3750     2.4710    76.9970    23.9650    35.1400    14.1240    16.3120   -11.2580 
  141.5000     2.4630    85.1210    24.0040    25.0920    12.1780    13.3350   -10.2910 
  141.6250     2.4150    92.1440    23.9850    13.3870     9.6790    10.1620    -9.6350 
  141.7500     2.3690    95.0390    23.9320     8.0320     7.5970     7.8170    -9.1230 
  141.8750     2.3440    95.8640    23.8700     6.4960     6.1710     6.4350    -8.6880 
  142.0000     2.3410    97.5410    23.8580     6.0240     5.3640     5.8300    -8.3690 
  142.1250     2.3520    99.6050    23.9060     5.7640     5.0910     5.7670    -8.2080 
  142.2500     2.3560    99.9150    23.9100     5.6600     5.0840     5.8840    -8.2350 
  142.3750     2.3460    99.1850    23.8280     5.6950     5.1890     6.0160    -8.4820 
  142.5000     2.3260    98.5660    23.6380     5.7980     5.3100     6.0960    -8.7840 
  142.6250     2.3100    99.0350    23.4000     5.8470     5.4060     6.1250    -8.8420 
  142.7500     2.3060   100.9550    23.2440     5.7880     5.4760     6.1350    -8.8330 
  142.8750     2.3080   103.5330    23.1800     5.7380     5.5220     6.1410    -8.8330 
  143.0000     2.3100   103.1970    23.1520     5.7790     5.5440     6.1480    -8.8080 
  143.1250     2.3080    98.1640    23.1400     5.8080     5.5290     6.1470    -8.7580 
  143.2500     2.3060    95.1550    23.1560     5.7920     5.4700     6.1210    -8.6890 
  143.3750     2.3080    98.4730    23.2140     5.7920     5.3570     6.0460    -8.6350 
  143.5000     2.3190   105.6580    23.2750     5.8390     5.1820     5.9030    -8.6010 
  143.6250     2.3420   110.7180    23.3450     5.8100     4.9320     5.6630    -8.6060 
  143.7500     2.3680   112.2160    23.4440     5.5870     4.6300     5.3470    -8.6380 
  143.8750     2.3840   110.9600    23.6010     5.2390     4.2960     4.9940    -8.6970 
  144.0000     2.3900   108.6540    23.8450     4.9300     3.9780     4.6860    -8.8020 
  144.1250     2.4000   107.6410    24.1570     4.7520     3.7790     4.5780    -8.9720 
  144.2500     2.4220   107.2240    24.3120     4.7470     3.7630     4.7440    -9.1930 
  144.3750     2.4440   104.1640    24.3520     5.1350     3.9720     5.2270    -9.4500 
  144.5000     2.4490    97.5270    24.3100     6.2770     4.4140     5.9990    -9.7420 
  144.6250     2.4240    91.8580    24.1550     8.2390     5.0610     6.9330   -10.0670 
  144.7500     2.3840    90.7840    23.9070     9.2550     5.7290     7.7450   -10.4190 
  144.8750     2.3480    91.1740    23.6610     8.9700     6.2480     8.2160   -10.7890 
  145.0000     2.3190    90.3920    23.4650     8.3150     6.5060     8.2800   -11.1570 
  145.1250     2.2900    90.2550    23.2570     7.9110     6.4950     8.0550   -11.4970 
  145.2500     2.2570    92.3500    23.0720     7.7140     6.3880     7.8210   -11.8100 
  145.3750     2.2320    94.5450    22.9120     7.6090     6.2940     7.7070   -12.0860 
  145.5000     2.2240    95.0260    22.8910     7.5360     6.2640     7.7310   -12.3280 
  145.6250     2.2340    92.7500    23.0470     7.4950     6.2960     7.8480   -12.5170 
  145.7500     2.2450    87.1380    23.2180     7.5360     6.3520     7.9900   -12.6570 
  145.8750     2.2480    81.8850    23.3070     7.6320     6.4160     8.1370   -12.7660 
  146.0000     2.2440    82.0170    23.3440     7.7220     6.4820     8.2840   -12.8590 
  146.1250     2.2400    88.4910    23.3980     7.7920     6.5500     8.4300   -12.9560 
  146.2500     2.2390    93.1260    23.4640     7.8920     6.6320     8.5900   -13.0450 
  146.3750     2.2360    92.1270    23.4630     8.0270     6.7440     8.7860   -13.1200 
  146.5000     2.2300    87.8910    23.3610     8.1410     6.9000     9.0390   -13.1820 
  146.6250     2.2200    84.8870    23.2320     8.2360     7.1160     9.3660   -13.2260 
  146.7500     2.2140    84.8310    23.0800     8.4700     7.3810     9.7390   -13.2520 
  146.8750     2.2160    85.3110    22.9130     8.8660     7.6920    10.1380   -13.2320 
  147.0000     2.2210    83.7720    22.8190     9.3550     8.0470    10.5580   -13.1520 
  147.1250     2.2180    80.5430    22.8150     9.7890     8.4580    11.0330   -12.9880 
  147.2500     2.2050    80.8700    22.8210    10.2080     8.9340    11.6070   -12.7670 
  147.3750     2.1890    85.9480    22.7580    10.7150     9.4990    12.2940   -12.4960 
  147.5000     2.1800    90.8270    22.6460    11.3670    10.1270    13.0070   -12.1700 
  147.6250     2.1840    91.4870    22.6350    11.9930    10.6440    13.4350   -11.8100 
  147.7500     2.2030    88.5310    22.7980    12.6090    10.7980    13.2820   -11.4410 
  147.8750     2.2380    84.7120    23.1110    12.8400    10.4100    12.4120   -11.0810 
  148.0000     2.2750    83.3330    23.4260    11.7310     9.5070    10.9840   -10.7480 
  148.1250     2.2960    87.6080    23.5930     9.4180     8.3450     9.4310   -10.4660 
  148.2500     2.2960    92.8680    23.6790     7.5750     7.2910     8.1810   -10.2300 
  148.3750     2.2870    94.8530    23.7220     6.8100     6.5090     7.3820   -10.0440 
  148.5000     2.2790    91.5810    23.7320     6.6280     6.0460     7.0290    -9.9060 
  148.6250     2.2730    85.8550    23.6630     6.6840     5.9150     7.0570    -9.8090 
  148.7500     2.2680    83.4680    23.5930     6.7470     5.9740     7.2480    -9.7300 
  148.8750     2.2670    86.1140    23.5530     6.8570     6.1150     7.4590    -9.6730 
  149.0000     2.2700    88.5620    23.5420     7.1330     6.2460     7.6040    -9.6260 
  149.1250     2.2740    87.8720    23.5370     7.2040     6.3150     7.6540    -9.5710 
  149.2500     2.2800    89.3960    23.5210     7.0320     6.3290     7.6460    -9.5100 
  149.3750     2.2850    92.7620    23.4870     6.8880     6.3010     7.6130    -9.4490 
  149.5000     2.2820    92.3120    23.4580     7.1100     6.2550     7.5960    -9.3880 
  149.6250     2.2680    88.2830    23.4570     7.5060     6.2470     7.6750    -9.3220 
  149.7500     2.2500    88.0510    23.4720     7.6220     6.3270     7.9040    -9.2690 
  149.8750     2.2350    89.5530    23.4830     7.5990     6.5400     8.3260    -9.2200 
  150.0000     2.2240    86.9480    23.4860     8.1760     6.9180     8.9680    -9.1810 
  150.1250     2.2190    81.6640    23.4960     9.7700     7.5190     9.8790    -9.1440 
  150.2500     2.2300    77.2550    23.5400    11.6020     8.3450    11.0440    -9.1070 
  150.3750     2.2730    75.8650    23.6400    13.3500     9.4470    12.5030    -9.0620 
  150.5000     2.3620    76.8940    23.7480    15.3420    10.8800    14.2950    -9.0220 
  150.6250     2.4900    75.7530    23.7450    17.6940    12.7120    16.4260    -9.0080 
  150.7500     2.5980    68.5790    23.6720    20.4310    14.7770    18.6460    -9.0010 
  150.8750     2.6350    59.5510    23.5860    23.5870    16.8420    20.6150    -8.9930 
  151.0000     2.5980    56.1300    23.5060    26.3530    18.5550    21.8950    -8.9850 
  151.1250     2.5320    58.2230    23.4390    25.7460    19.3800    21.9360    -8.9930 
  151.2500     2.4770    60.4850    23.4610    23.4490    19.2880    20.9530    -9.0100 
  151.3750     2.4350    62.0620    23.5900    21.0900    18.3910    19.2520    -9.0400 
  151.5000     2.3990    62.4550    23.7240    18.8160    16.8600    17.1150    -9.0770 
  151.6250     2.3720    64.0110    23.7400    16.6030    14.8270    14.7310    -9.1150 
  151.7500     2.3510    70.6840    23.7060    14.0860    12.6410    12.3610    -9.1530 
  151.8750     2.3330    81.1440    23.6750    11.7640    10.5640    10.2200    -9.1960 
  152.0000     2.3190    88.8600    23.6260     9.4400     8.8020     8.4900    -9.2480 
  152.1250     2.3130    90.2720    23.5000     7.4810     7.5440     7.3540    -9.3010 
  152.2500     2.3130    89.6150    23.3440     6.6710     6.7130     6.6840    -9.3480 
  152.3750     2.3100    88.9600    23.2500     6.5110     6.2350     6.3650    -9.3910 
