~V
VERS. 2.00: Ver 2.00
~W
STRT.M 120.0000:
STOP.M 268.0000:
STEP.M 0.1250:
NULL. -999.2500:
UWI. DF3028:
~C
DEPT.M :
DEN.GM/CC :
GR.API :
CALI.CM :
RXO.OHMM :
RI. :
RML.OHMM :
SP.MV :
~A
# ...
  221.2500     2.5490    90.2770    27.3470    48.8820    26.7860    29.2750   -23.7690 
  221.3750     2.5640   102.2130    27.2200    27.1970    18.2930    19.2870   -23.4590 
  221.5000     2.5500   106.6670    26.9610    12.4580    12.4550    12.5110   -23.2590 
  221.6250     2.5060   101.9660    26.7100     7.1500     9.3380     9.0350   -23.2060 
  221.7500     2.4610    94.3380    26.7170     6.0190     7.7840     7.4780   -23.2760 
  221.8750     2.4300    88.6710    26.9670     6.4940     7.2540     7.1430   -23.4280 
  222.0000     2.4090    86.8500    27.2100     7.1020     7.3790     7.5090   -23.6340 
  222.1250     2.3850    90.8180    27.2680     7.3210     7.8750     8.1450   -23.8580 
  222.2500     2.3620    98.2070    27.2640     7.3750     8.3720     8.6460   -24.0680 
  222.3750     2.3510   103.4650    27.2610     7.3910     8.6790     8.8640   -24.2370 
  222.5000     2.3550   104.4690    27.2640     7.4350     8.7590     8.8440   -24.3350 
  222.6250     2.3640   104.8320    27.2850     7.4640     8.6610     8.7030   -24.3500 
  222.7500     2.3690   107.2160    27.3440     7.4780     8.4850     8.5420   -24.3480 
  222.8750     2.3700   112.0710    27.4400     7.5390     8.2740     8.3840   -24.3810 
  223.0000     2.3750   119.1270    27.5550     7.6440     8.0500     8.2390   -24.4630 
  223.1250     2.3860   126.7920    27.6710     7.7240     7.8510     8.1520   -24.6260 
  223.2500     2.3930   130.5780    27.7610     7.8550     7.7520     8.2380   -24.8710 
  223.3750     2.3940   125.9930    27.7990     8.1450     7.8710     8.6770   -25.1790 
  223.5000     2.3930   113.4280    27.7870     8.7040     8.3510     9.6860   -25.5390 
  223.6250     2.3920   100.9360    27.7770    10.3660     9.4640    11.6650   -25.9460 
  223.7500     2.3850    94.7870    27.7920    14.2700    11.2940    14.6720   -26.3840 
  223.8750     2.3650    91.7590    27.8080    20.5290    13.8870    18.6520   -26.8170 
  224.0000     2.3400    86.4400    27.8100    26.5860    17.0240    23.1450   -27.2260 
  224.1250     2.3240    80.8550    27.7870    28.9910    19.9900    26.9800   -27.5830 
  224.2500     2.3200    78.8960    27.7700    29.0640    21.9770    29.1660   -27.8790 
  224.3750     2.3250    79.3780    27.7930    28.3990    22.6800    29.4830   -28.1100 
  224.5000     2.3290    80.4830    27.8480    26.7940    22.3820    28.5440   -28.2890 
  224.6250     2.3270    81.1310    27.8650    24.3250    21.6480    27.3100   -28.4260 
  224.7500     2.3230    82.2330    27.8270    22.5860    20.9870    26.4210   -28.5300 
  224.8750     2.3200    83.2260    27.7780    22.1330    20.5530    26.0070   -28.6210 
  225.0000     2.3200    82.9410    27.7420    22.4660    20.4260    26.0880   -28.7200 
  225.1250     2.3280    80.7940    27.7190    22.7090    20.7360    26.7640   -28.8590 
  225.2500     2.3390    80.3000    27.7020    22.6260    21.4640    27.9690   -29.0250 
  225.3750     2.3410    81.2120    27.6760    23.1060    22.6090    29.6950   -29.2270 
  225.5000     2.3280    79.5360    27.6390    25.6580    24.1100    31.8430   -29.4540 
  225.6250     2.3090    76.6870    27.6410    30.4460    25.7940    34.0750   -29.6790 
  225.7500     2.2970    77.4900    27.6720    33.9260    27.3100    35.8600   -29.8960 
  225.8750     2.2950    80.0730    27.6640    34.1890    28.3960    36.8610   -30.0980 
  226.0000     2.2970    80.1360    27.6200    33.3710    28.7820    37.0610   -30.2740 
  226.1250     2.2940    79.0190    27.5580    32.5760    29.0450    37.1130   -30.4100 
  226.2500     2.2890    75.7920    27.4560    32.2050    29.3800    37.2150   -30.5260 
  226.3750     2.2830    74.4090    27.3970    32.4540    30.0000    37.9310   -30.6110 
  226.5000     2.2720    74.9840    27.3680    32.9270    31.2030    39.5970   -30.6590 
  226.6250     2.2570    76.0200    27.3490    35.1940    33.0860    42.1770   -30.6740 
  226.7500     2.2550    75.4100    27.3450    40.1970    35.2060    44.9120   -30.6520 
  226.8750     2.2810    72.4980    27.3640    45.8850    37.0700    47.0640   -30.5990 
  227.0000     2.3230    70.5620    27.3990    47.8880    38.2050    48.0310   -30.5090 
  227.1250     2.3460    73.1550    27.4180    44.2730    38.1680    47.3930   -30.3760 
  227.2500     2.3390    76.4680    27.4210    40.3320    37.2000    45.6800   -30.2100 
  227.3750     2.3150    77.1100    27.4160    38.7740    35.5760    43.3450   -30.0190 
  227.5000     2.2910    75.4650    27.4000    37.9610    33.6580    40.8440   -29.8170 
  227.6250     2.2780    75.8140    27.3710    35.0650    31.9200    38.7360   -29.6110 
  227.7500     2.2790    77.6100    27.3460    31.4310    30.7310    37.4140   -29.4250 
  227.8750     2.2960    78.7490    27.3350    29.7380    30.3050    37.1280   -29.2600 
  228.0000     2.3170    77.6170    27.3280    31.3980    30.7160    37.9510   -29.1170 
  228.1250     2.3200    75.0640    27.3070    36.0040    32.0240    39.9020   -28.9800 
  228.2500     2.3070    74.9930    27.2830    40.7320    33.8860    42.4550   -28.8250 
  228.3750     2.2970    76.5310    27.2690    43.6970    36.0170    45.1880   -28.6370 
  228.5000     2.3000    76.2760    27.2640    44.9370    38.1590    47.7870   -28.4040 
  228.6250     2.3080    73.6360    27.2610    46.4970    40.1570    50.1210   -28.1070 
  228.7500     2.3110    71.7730    27.2700    48.9140    41.8850    52.0860   -27.7250 
  228.8750     2.3080    70.9230    27.2900    50.6060    42.9830    53.1760   -27.2660 
  229.0000     2.3110    69.4500    27.2950    50.5280    42.8990    52.6120   -26.7560 
  229.1250     2.3370    67.1470    27.2970    48.3220    40.9500    49.5560   -26.2190 
  229.2500     2.3870    65.3670    27.3310    43.6930    37.7260    45.0000   -25.6670 
  229.3750     2.4400    64.9960    27.3920    37.0740    34.1260    40.2590   -25.1310 
  229.5000     2.4640    66.9440    27.4470    30.9790    31.0890    36.5190   -24.6340 
  229.6250     2.4500    70.4200    27.4650    28.2640    29.3570    34.5950   -24.2080 
  229.7500     2.4080    71.4430    27.4550    28.4670    28.7250    34.0470   -23.8500 
  229.8750     2.3640    69.6380    27.4340    30.7200    28.8190    34.2900   -23.5600 
  230.0000     2.3410    69.4100    27.4220    33.9450    29.0780    34.5280   -23.3230 
  230.1250     2.3430    72.0350    27.4230    35.6310    28.7990    33.8440   -23.1430 
  230.2500     2.3650    72.6230    27.4230    33.7490    27.7940    32.1780   -23.0090 
  230.3750     2.3870    70.6080    27.4230    29.0490    26.2840    29.9720   -22.9190 
  230.5000     2.3860    69.1720    27.4240    24.3580    24.7050    27.8720   -22.8570 
  230.6250     2.3560    69.3630    27.4230    22.3260    23.5040    26.4530   -22.8020 
  230.7500     2.3110    69.0530    27.4210    22.2650    22.7150    25.6370   -22.7630 
  230.8750     2.2770    69.3020    27.4180    22.7600    22.1730    25.1240   -22.7280 
  231.0000     2.2670    69.2690    27.4140    22.9260    21.6400    24.5520   -22.6990 
  231.1250     2.2760    66.3670    27.4130    22.5150    20.9490    23.6990   -22.6640 
  231.2500     2.2970    64.3200    27.4190    21.2730    20.2260    22.7900   -22.6400 
  231.3750     2.3110    66.2250    27.4250    19.1550    19.7090    22.1810   -22.6050 
  231.5000     2.3130    70.7270    27.4090    17.2140    19.6170    22.1710   -22.5710 
  231.6250     2.3080    73.8550    27.3700    17.4070    20.1510    22.9890   -22.5500 
  231.7500     2.3060    73.0850    27.3410    19.7200    21.1830    24.3980   -22.5310 
  231.8750     2.3040    70.3360    27.3350    22.7900    22.5580    26.1480   -22.5210 
  232.0000     2.2980    68.1200    27.3310    24.9770    24.0500    27.9290   -22.5240 
  232.1250     2.2870    66.5520    27.3060    26.2010    25.3650    29.4060   -22.5340 
  232.2500     2.2720    65.2750    27.2760    28.5400    26.3570    30.4960   -22.5370 
  232.3750     2.2590    65.3270    27.2540    32.4050    26.9800    31.1880   -22.5340 
