~V
VERS. 2.00: Ver 2.00
~W
STRT.M 60.0000:
STOP.M 266.0000:
STEP.M 0.1250:
NULL. -999.2500:
UWI. DF3052:
~C
DEPT.M :
GR.API :
CALI.CM :
RXO.OHMM :
RI. :
RML.OHMM :
DEN.GM/CC :
SP.MV :
~A
# ...
   71.2500    68.4500    23.0680     7.7510     7.4930     7.9090  -999.2500   -21.4740 
   71.3750    70.7520    23.0590     7.6830     7.3140     7.7230  -999.2500   -20.5870 
   71.5000    75.3180    23.1050     7.5180     7.1190     7.5240  -999.2500   -19.5900 
   71.6250    80.6310    23.1480     7.1670     6.9180     7.3380  -999.2500   -18.6330 
   71.7500    86.2600    23.1270     6.7380     6.7300     7.1730  -999.2500   -17.7060 
   71.8750    92.3010    23.0610     6.4260     6.5750     7.0360  -999.2500   -16.9060 
   72.0000    98.2960    23.0120     6.3950     6.4420     6.9210  -999.2500   -16.2780 
   72.1250   103.1540    23.0450     6.4810     6.3400     6.8590  -999.2500   -15.8770 
   72.2500   106.4280    23.1530     6.4020     6.2920     6.8570  -999.2500   -15.7930 
   72.3750   107.5170    23.2740     6.2100     6.3120     6.9300  -999.2500   -16.0180 
   72.5000   104.9000    23.3020     6.1640     6.4230     7.1150  -999.2500   -16.4240 
   72.6250    96.8360    23.1690     6.4210     6.6690     7.4290  -999.2500   -16.9620 
   72.7500    86.4030    22.9990     6.8540     7.0420     7.8810  -999.2500   -17.5530 
   72.8750    77.4110    22.8830     7.2950     7.5930     8.5480  -999.2500   -18.0970 
   73.0000    72.0350    22.8110     7.6050     8.4460     9.5740  -999.2500   -18.5240 
   73.1250    70.5560    22.7100     7.7200     9.8760    11.2110  -999.2500   -18.8030 
   73.2500    70.8760    22.5950     8.0440    11.8630    13.3980  -999.2500   -19.0090 
   73.3750    71.0020    22.5130     9.7220    14.2900    15.9390  -999.2500   -19.1770 
   73.5000    69.7440    22.4390    14.3790    16.7770    18.3770  -999.2500   -19.3490 
   73.6250    68.1780    22.3130    22.4010    18.4980    19.8100  -999.2500   -19.5230 
   73.7500    67.7170    22.1880    27.6560    18.8790    19.6820  -999.2500   -19.7170 
   73.8750    67.5260    22.1460    25.8130    17.7760    17.9390  -999.2500   -19.9860 
   74.0000    66.8480    22.2000    18.6110    15.5070    15.1490  -999.2500   -20.3640 
   74.1250    66.3140    22.2750    12.0800    12.7280    12.1900  -999.2500   -20.7900 
   74.2500    66.0390    22.2620     8.8470    10.2000     9.7580  -999.2500   -21.1380 
   74.3750    65.5070    22.1250     7.7320     8.3010     8.1110  -999.2500   -21.3570 
   74.5000    64.9400    21.9350     7.3610     7.1560     7.2290  -999.2500   -21.4680 
   74.6250    64.9120    21.8610     7.1780     6.7740     7.0310  -999.2500   -21.5360 
   74.7500    64.0780    21.9540     7.1000     6.8270     7.1900  -999.2500   -21.5880 
   74.8750    61.5490    22.1410     7.0970     7.0920     7.5140  -999.2500   -21.6260 
   75.0000    58.8460    22.3100     7.1280     7.3970     7.8750  -999.2500   -21.6010 
   75.1250    59.2560    22.3430     7.1670     7.6330     8.1470  -999.2500   -21.5330 
   75.2500    62.1970    22.2480     7.1990     7.7830     8.3280  -999.2500   -21.4800 
   75.3750    64.8520    22.1150     7.2150     7.8590     8.4220  -999.2500   -21.4370 
   75.5000    65.2470    22.0450     7.2480     7.8750     8.4560  -999.2500   -21.4170 
   75.6250    64.5760    22.0650     7.3640     7.8430     8.4450  -999.2500   -21.3760 
   75.7500    65.5110    22.1130     7.5110     7.7690     8.3700  -999.2500   -21.2680 
   75.8750    68.3650    22.1790     7.5790     7.6510     8.2450  -999.2500   -21.0930 
   76.0000    71.3840    22.2720     7.5010     7.5030     8.0960  -999.2500   -20.9160 
   76.1250    72.6750    22.3710     7.2730     7.4150     8.0520  -999.2500   -20.7330 
   76.2500    72.8560    22.4670     7.0360     7.5110     8.2360  -999.2500   -20.5700 
   76.3750    72.3470    22.5870     6.8720     7.8650     8.6880  -999.2500   -20.4640 
   76.5000    70.5600    22.7750     6.9370     8.4840     9.4100  -999.2500   -20.3570 
   76.6250    66.1360    23.0160     7.8400     9.3610    10.3570  -999.2500   -20.1700 
   76.7500    60.6960    23.2400    10.5970    10.2760    11.2720  -999.2500   -19.9640 
   76.8750    57.0310    23.4260    15.6450    10.9340    11.8440  -999.2500   -19.7480 
   77.0000    56.8180    23.5580    19.9050    11.0770    11.8120  -999.2500   -19.5260 
   77.1250    59.3250    23.5800    18.5830    10.5720    11.0970  -999.2500   -19.2810 
   77.2500    62.1930    23.4970    13.6940     9.6660    10.0390  -999.2500   -18.9810 
   77.3750    65.1560    23.3980     9.8260     8.6080     8.9310  -999.2500   -18.6100 
   77.5000    68.4820    23.3620     8.2920     7.6490     7.9960  -999.2500   -18.2070 
   77.6250    71.8530    23.3710     8.0940     6.9860     7.4140  -999.2500   -17.8520 
   77.7500    74.5320    23.3670     8.0240     6.6370     7.1740  -999.2500   -17.5060 
   77.8750    75.7740    23.3200     7.9210     6.5970     7.2420  -999.2500   -17.2030 
   78.0000    75.7450    23.2290     7.8100     6.7640     7.4830  -999.2500   -16.9630 
   78.1250    75.9710    23.1350     7.7570     6.9640     7.7350  -999.2500   -16.8020 
   78.2500    77.7110    23.0850     7.7410     7.1180     7.9200  -999.2500   -16.7190 
   78.3750    80.5280    23.0680     7.6870     7.2320     8.0490  -999.2500   -16.7220 
   78.5000    83.2290    23.0500     7.5260     7.2970     8.1100  -999.2500   -16.7730 
   78.6250    84.3140    23.0580     7.1570     7.3130     8.1080  -999.2500   -16.9030 
   78.7500    83.1850    23.1150     6.6750     7.3150     8.0920  -999.2500   -17.1380 
   78.8750    80.5680    23.1750     6.5020     7.3130     8.0700  -999.2500   -17.4250 
   79.0000    78.0460    23.2020     6.9560     7.3140     8.0550  -999.2500   -17.7120 
   79.1250    76.1430    23.2320     7.6590     7.3690     8.1260  -999.2500   -17.9660 
   79.2500    73.5720    23.2990     8.0100     7.5280     8.3550  -999.2500   -18.1720 
   79.3750    69.8520    23.3590     8.0230     7.8450     8.7940  -999.2500   -18.3210 
   79.5000    66.1500    23.3400     8.0340     8.3470     9.4290  -999.2500   -18.4230 
   79.6250    64.1750    23.2250     8.1840     9.0030    10.2000  -999.2500   -18.4530 
   79.7500    63.8780    23.1050     8.3560     9.6580    10.9290  -999.2500   -18.3880 
   79.8750    64.3510    22.9960     8.5020    10.1660    11.4480  -999.2500   -18.2650 
   80.0000    64.2590    22.8320     8.6030    10.3980    11.6080  -999.2500   -18.0860 
   80.1250    62.7940    22.6380     8.6790    10.2020    11.2590  -999.2500   -17.8370 
   80.2500    61.5950    22.5830     8.6690     9.6900    10.5830  -999.2500   -17.5660 
   80.3750    62.5920    22.7270     8.5620     9.0180     9.7620  -999.2500   -17.2760 
   80.5000    66.1650    22.9740     8.4230     8.3480     8.9960  -999.2500   -16.9630 
   80.6250    70.0480    23.1730     8.3750     7.8970     8.5110  -999.2500   -16.6140 
   80.7500    71.7780    23.2930     8.4610     7.7850     8.4210  -999.2500   -16.2050 
   80.8750    70.6890    23.3580     8.6880     8.1670     8.9060  -999.2500   -15.7060 
   81.0000    67.3370    23.4170     9.0210     9.1700    10.0440  -999.2500   -15.1300 
   81.1250    63.9810    23.4920    10.0100    10.7200    11.6800  -999.2500   -14.4780 
   81.2500    63.4210    23.5570    13.7190    12.4290    13.4060  -999.2500   -13.7280 
   81.3750    66.3070    23.6250    23.1170    13.8930    14.8000  -999.2500   -12.9060 
   81.5000    71.4280    23.7280    37.5120    14.6750    15.3780  -999.2500   -12.0340 
   81.6250    77.7860    23.8540    44.7230    14.2190    14.4880  -999.2500   -11.1540 
   81.7500    85.3210    23.9480    37.2260    12.7370    12.5120  -999.2500   -10.3850 
   81.8750    93.8370    23.9830    21.6740    10.6040    10.0580  -999.2500    -9.7490 
   82.0000   102.1800    23.9750     9.8180     8.3150     7.7270  -999.2500    -9.2930 
   82.1250   108.7890    23.9590     5.9490     6.4920     6.1180  -999.2500    -9.1060 
   82.2500   112.5150    23.9530     5.0960     5.3510     5.2400  -999.2500    -9.1030 
   82.3750   111.7120    23.9400     4.9620     4.8720     4.9940  -999.2500    -9.2280 
