~V
VERS. 2.00: Ver 2.00
~W
STRT.M 60.0000:
STOP.M 277.0000:
STEP.M 0.1250:
NULL. -999.2500:
UWI. DF3048:
~C
DEPT.M :
SP.MV :
GR.API :
RML.OHMM :
RI. :
RXO.OHMM :
CALI.CM :
DEN.GM/CC :
~A
# ...
  138.7500   -18.4450    71.3780    16.5530    13.9800    28.0040    23.4780     2.4510 
  138.8750   -18.5350    68.2680    15.0220    13.1650    27.8500    23.2460     2.3450 
  139.0000   -18.6950    65.7480    13.2330    11.8640    19.1420    23.1220     2.2600 
  139.1250   -18.8280    66.3680    12.3950    10.9930    14.5710    23.1080     2.2300 
  139.2500   -18.8930    70.8050    12.6310    10.8650    13.1740    23.1420     2.2520 
  139.3750   -18.8170    76.2170    13.5220    11.3110    13.1370    23.2310     2.3150 
  139.5000   -18.5970    78.3170    14.3450    11.8740    13.8230    23.3860     2.3880 
  139.6250   -18.0890    76.7900    14.1560    11.8620    15.4220    23.4530     2.4300 
  139.7500   -17.5510    76.0830    12.8210    11.0270    17.6580    23.5480     2.4190 
  139.8750   -16.9300    78.7430    10.8310     9.5880    17.9850    23.7050     2.3640 
  140.0000   -16.3760    84.6830     9.0310     8.1050    13.4430    23.7310     2.2920 
  140.1250   -15.9970    90.6950     8.2070     7.2020     8.7480    23.6080     2.2350 
  140.2500   -15.8970    92.4680     8.3270     6.9960     7.8540    23.2690     2.2040 
  140.3750   -16.0660    88.7950     9.1730     7.4210     8.7710    22.8620     2.1960 
  140.5000   -16.4180    83.8100    10.3720     8.2630    10.4080    22.5260     2.2030 
  140.6250   -16.8470    81.4190    11.3710     9.1440    11.0650    22.4140     2.2150 
  140.7500   -17.1840    79.6790    11.7540     9.6510    11.2300    22.3860     2.2300 
  140.8750   -17.4300    78.4610    11.4020     9.5870    10.9670    22.4110     2.2470 
  141.0000   -17.4800    79.2270    10.5030     9.0100    10.5000    22.4860     2.2680 
  141.1250   -17.2650    84.2150     9.4340     8.1640     9.3070    22.5570     2.2960 
  141.2500   -16.7750    90.3170     8.5190     7.3530     7.6950    22.5990     2.3280 
  141.3750   -16.0980    95.3710     7.8530     6.6920     6.6370    22.6490     2.3590 
  141.5000   -15.3010    97.8430     7.4290     6.2070     6.1770    22.7450     2.3810 
  141.6250   -14.5780    96.5090     7.2180     5.8960     6.2870    22.8170     2.3830 
  141.7500   -13.9530    95.0260     7.1440     5.7080     6.3830    22.8720     2.3680 
  141.8750   -13.4960    96.7920     7.1980     5.6370     6.0620    22.9220     2.3470 
  142.0000   -13.2080    98.7630     7.3830     5.6890     5.8670    22.9810     2.3360 
  142.1250   -13.2000    95.9950     7.6880     5.8750     6.1360    22.9960     2.3450 
  142.2500   -13.3150    91.6730     8.0190     6.1260     6.6600    22.9560     2.3680 
  142.3750   -13.5940    89.8610     8.2870     6.3760     7.2050    22.8460     2.3890 
  142.5000   -13.9770    92.1450     8.4340     6.5640     7.8390    22.6730     2.3940 
  142.6250   -14.5190    96.4740     8.4590     6.6640     8.2040    22.4150     2.3730 
  142.7500   -15.1520    98.7740     8.4820     6.7410     7.5910    22.3210     2.3350 
  142.8750   -15.8580    97.4460     8.6160     6.8780     7.3080    22.3810     2.2890 
  143.0000   -16.7050    92.7500     8.9560     7.1570     7.7490    22.4920     2.2440 
  143.1250   -17.5450    86.2430     9.6040     7.6740     8.7120    22.4980     2.2080 
  143.2500   -18.4570    79.6040    10.5020     8.3990     9.8020    22.4630     2.1850 
  143.3750   -19.2920    75.6580    11.5480     9.2560    10.5420    22.3860     2.1730 
  143.5000   -20.0810    76.4950    12.5660    10.1050    11.1210    22.2720     2.1710 
  143.6250   -20.7240    77.4240    13.2820    10.7240    12.2290    22.2210     2.1740 
  143.7500   -21.2520    76.4230    13.6010    11.0190    13.7940    22.2040     2.1780 
  143.8750   -21.6340    75.5100    13.5670    11.0070    14.3250    22.2040     2.1800 
  144.0000   -21.8080    75.7580    13.3560    10.8100    12.6480    22.2040     2.1780 
  144.1250   -21.8810    75.8640    13.1880    10.5920    10.9980    22.2040     2.1760 
  144.2500   -21.8380    75.4430    13.1370    10.4480    10.4900    22.1990     2.1790 
  144.3750   -21.7860    75.9690    13.1360    10.3660    11.0090    22.1880     2.1900 
  144.5000   -21.7040    76.2070    13.0720    10.2850    12.0650    22.2580     2.2100 
  144.6250   -21.6260    75.7710    12.8830    10.1680    11.9670    22.4500     2.2350 
  144.7500   -21.5300    78.3460    12.7240    10.0920    11.4070    22.5820     2.2570 
  144.8750   -21.4200    82.8950    12.8260    10.2050    11.1590    22.4420     2.2710 
  145.0000   -21.2650    85.0830    13.3770    10.6490    11.6130    22.1290     2.2800 
  145.1250   -21.1270    84.6180    14.4530    11.5170    12.8050    21.8570     2.2880 
  145.2500   -20.9840    85.3860    15.7140    12.5960    15.1590    21.6720     2.2930 
  145.3750   -20.8770    86.2400    16.7800    13.6130    18.9140    21.6520     2.2920 
  145.5000   -20.8560    84.6770    17.2960    14.2720    23.3410    21.8140     2.2780 
  145.6250   -20.9870    81.6440    17.0120    14.3040    24.8140    22.1910     2.2490 
  145.7500   -21.1880    79.4780    16.2740    13.8860    21.9560    22.7030     2.2150 
  145.8750   -21.5180    77.2770    15.4780    13.2820    17.7070    23.1540     2.1820 
  146.0000   -21.9300    75.7390    14.9570    12.7640    15.5650    23.5880     2.1540 
  146.1250   -22.3530    75.6750    14.8780    12.5200    15.2210    23.8440     2.1350 
  146.2500   -22.7720    75.0560    14.9930    12.4480    15.2090    23.8340     2.1240 
  146.3750   -23.1090    74.2600    14.9960    12.3650    15.1380    23.6450     2.1220 
  146.5000   -23.3400    73.8440    14.6150    12.0700    14.8850    23.4700     2.1300 
  146.6250   -23.3470    72.7080    13.7040    11.4230    14.3770    23.4540     2.1460 
  146.7500   -23.2630    72.6750    12.5800    10.5910    13.7550    23.4020     2.1640 
  146.8750   -23.0290    76.6470    11.5760     9.7920    12.7350    23.3490     2.1780 
  147.0000   -22.7480    82.4970    10.9440     9.2180    11.2230    23.3140     2.1830 
  147.1250   -22.4990    83.6220    10.8360     9.0230    10.1300    23.2390     2.1790 
  147.2500   -22.3480    81.4630    11.0790     9.1350    10.4480    23.0820     2.1740 
  147.3750   -22.3110    80.6360    11.5060     9.4670    12.0880    22.9140     2.1720 
  147.5000   -22.3510    80.7990    11.9460     9.9020    12.9890    22.8160     2.1730 
  147.6250   -22.4960    79.3950    12.2390    10.3140    12.2350    22.7930     2.1740 
  147.7500   -22.6870    77.8290    12.3690    10.6280    11.8180    22.7910     2.1680 
  147.8750   -22.9320    76.5000    12.3990    10.8490    11.9720    22.7970     2.1570 
  148.0000   -23.1630    76.3650    12.4400    11.0310    12.5670    22.8090     2.1430 
  148.1250   -23.3290    77.2830    12.6170    11.2520    13.1960    22.8130     2.1320 
  148.2500   -23.3610    78.9120    12.9040    11.5120    13.0840    22.8140     2.1260 
  148.3750   -23.2280    79.1340    13.1760    11.7270    12.5640    22.8070     2.1270 
  148.5000   -22.9670    76.4280    13.2230    11.7450    12.2700    22.7640     2.1330 
  148.6250   -22.5680    73.0090    12.7420    11.3320    12.3470    22.6610     2.1480 
  148.7500   -22.0240    73.3900    11.7580    10.4970    12.2940    22.6100     2.1690 
  148.8750   -21.3350    80.5660    10.4540     9.3730    11.7530    22.6420     2.1970 
  149.0000   -20.4960    92.0760     9.1450     8.2000    10.2990    22.7070     2.2250 
  149.1250   -19.5590    99.8160     8.2380     7.2920     8.1990    22.7870     2.2490 
  149.2500   -18.5640   101.0150     7.8800     6.7960     6.7360    22.8200     2.2680 
  149.3750   -17.6560    98.3320     8.1180     6.7840     6.6650    22.8290     2.2870 
  149.5000   -16.8030    95.8870     8.9000     7.2700     7.6170    22.8290     2.3110 
  149.6250   -16.0130    92.3860    10.1410     8.2660     8.8680    22.8290     2.3460 
  149.7500   -15.3010    87.0990    11.5570     9.5590    10.4720    22.8290     2.3840 
  149.8750   -14.6960    81.4820    12.9530    10.9750    12.9210    22.8510     2.4170 
