~V
VERS. 2.00: Ver 2.00
~W
STRT.M 125.0000:
STOP.M 265.0000:
STEP.M 0.1250:
NULL. -999.2500:
UWI. DF3008:
~C
DEPT.M :
DEN.GM/CC :
GR.API :
CALI.CM :
RXO.OHMM :
RI. :
RML.OHMM :
SP.MV :
~A
# ...
  226.2500     2.4000    97.3020    24.9820     8.5730     8.0500     9.8700   -23.0830 
  226.3750     2.4110    96.3580    24.9820     9.1550     8.6290    10.6490   -22.8610 
  226.5000     2.4230    95.7990    24.9820    10.4510     9.3010    11.5090   -22.6590 
  226.6250     2.4190    95.2680    24.9820    11.7950     9.8630    12.1670   -22.4960 
  226.7500     2.4080    94.4690    24.9820    12.1430    10.1590    12.4580   -22.3670 
  226.8750     2.4010    92.3180    24.9820    11.3670    10.1390    12.3740   -22.2600 
  227.0000     2.4010    88.9040    24.9820    10.3580     9.8550    12.0170   -22.1650 
  227.1250     2.3960    86.0710    24.9820     9.7570     9.3780    11.4830   -22.1040 
  227.2500     2.3860    85.1960    24.9820     9.5120     8.8280    10.8670   -22.0890 
  227.3750     2.3820    87.0370    24.9820     9.5490     8.3050    10.2470   -22.1100 
  227.5000     2.3920    89.0980    24.9820     9.5050     7.9620     9.8130   -22.1770 
  227.6250     2.4040    87.2890    24.9820     9.1930     8.1160    10.0400   -22.3190 
  227.7500     2.4020    81.9360    24.9780     9.5860     9.0360    11.3170   -22.5370 
  227.8750     2.3840    75.3390    24.9620    12.6240    11.2470    14.1870   -22.8420 
  228.0000     2.3570    71.4230    24.9240    23.1840    15.7200    19.4650   -23.2270 
  228.1250     2.3310    68.6710    24.8980    52.3430    24.9950    29.4500   -23.6640 
  228.2500     2.3080    64.3700    24.8890    88.8280    40.4210    45.8460   -24.1170 
  228.3750     2.2870    57.6640    24.8880   106.3140    61.8980    69.8340   -24.5790 
  228.5000     2.2720    54.2100    24.8880    99.6810    85.3940    97.8450   -25.0570 
  228.6250     2.2700    54.6430    24.8880    92.8980   103.6150   118.8810   -25.5250 
  228.7500     2.2720    54.3660    24.8880    97.0100   115.3760   130.0590   -25.9530 
  228.8750     2.2730    52.4430    24.8880   108.7060   122.5950   135.6670   -26.3220 
  229.0000     2.2700    52.4600    24.8880   125.0170   126.5750   138.8940   -26.6360 
  229.1250     2.2700    55.6190    24.8880   132.7350   126.3940   138.7720   -26.8970 
  229.2500     2.2750    58.8510    24.8880   130.4060   122.5420   134.7860   -27.1210 
  229.3750     2.2870    59.2580    24.8880   120.8790   116.3230   127.9950   -27.3140 
  229.5000     2.3000    57.2350    24.8880   109.9260   109.6690   120.5300   -27.4600 
  229.6250     2.3040    57.5570    24.8880   105.1320   104.5080   114.5480   -27.5620 
  229.7500     2.3000    60.8120    24.8880   104.8560   101.4570   110.7550   -27.6400 
  229.8750     2.2910    62.7910    24.8880   105.1120   100.6820   109.3460   -27.6990 
  230.0000     2.2830    60.2640    24.8880   104.8980   102.0610   110.2210   -27.7410 
  230.1250     2.2800    57.5020    24.8880   107.4450   105.4920   113.3320   -27.7710 
  230.2500     2.2840    61.5290    24.8880   117.1500   109.9970   117.6560   -27.8020 
  230.3750     2.2940    70.7020    24.8880   129.3810   114.7890   122.2800   -27.8320 
  230.5000     2.3010    71.9200    24.8880   138.1490   119.1380   126.3150   -27.8690 
  230.6250     2.2970    63.1710    24.8880   140.3570   122.2910   128.9070   -27.9240 
  230.7500     2.2850    54.4470    24.8880   138.5010   124.0990   130.0310   -27.9880 
  230.8750     2.2720    53.9660    24.8880   134.7700   124.5490   129.8160   -28.0430 
  231.0000     2.2650    57.5560    24.8880   136.1420   123.8490   128.5700   -28.0940 
  231.1250     2.2630    58.3510    24.8880   141.0330   122.1940   126.4890   -28.1540 
  231.2500     2.2680    57.8850    24.8880   142.7490   120.0380   123.9240   -28.2010 
  231.3750     2.2790    56.2150    24.8870   136.6770   117.6920   121.1200   -28.2350 
  231.5000     2.2940    54.9450    24.8860   128.4720   115.4070   118.3190   -28.2590 
  231.6250     2.3050    56.0140    24.8850   125.8080   113.2180   115.5690   -28.2470 
  231.7500     2.3060    57.5270    24.8860   123.9400   110.8870   112.6540   -28.2010 
  231.8750     2.2980    56.7580    24.8790   117.9940   108.1690   109.3700   -28.1280 
  232.0000     2.2890    53.5470    24.8290   108.3710   104.8880   105.6500   -28.0210 
  232.1250     2.2910    54.1170    24.6890    99.9090   100.8930   101.5070   -27.8610 
  232.2500     2.3050    59.9700    24.5160    95.0810    96.3890    97.0830   -27.6580 
  232.3750     2.3270    65.6410    24.4180    93.8250    91.6060    92.4380   -27.4100 
  232.5000     2.3450    66.1610    24.4030    94.5710    86.9140    87.7730   -27.1000 
  232.6250     2.3490    65.1830    24.4610    93.3460    82.9470    83.6650   -26.7330 
  232.7500     2.3400    66.3930    24.5670    87.7320    80.0850    80.6400   -26.3100 
  232.8750     2.3260    71.4760    24.6690    81.7120    78.5300    79.0640   -25.8280 
  233.0000     2.3110    75.5510    24.7190    82.2110    78.1420    78.8880   -25.2820 
  233.1250     2.3010    72.9640    24.7280    87.8660    78.3350    79.4500   -24.6620 
  233.2500     2.2970    64.1630    24.7280    89.2060    78.0820    79.4480   -23.9740 
  233.3750     2.2970    56.4780    24.7280    85.6110    76.7480    78.0570   -23.2270 
  233.5000     2.3260    56.4010    24.7280    82.2440    74.1030    75.0620   -22.4400 
  233.6250     2.3550    57.2430    24.7280    80.8870    70.1800    70.7160   -21.6210 
  233.7500     2.3780    58.5600    24.7280    80.6030    65.6470    65.9190   -20.7990 
  233.8750     2.3910    60.5100    24.7280    82.7180    60.8960    61.1180   -20.0040 
  234.0000     2.3980    59.8280    24.7280    82.2970    56.1180    56.3980   -19.2490 
  234.1250     2.4040    56.1030    24.7280    70.4640    51.3900    51.6520   -18.5590 
  234.2500     2.4080    53.3530    24.7280    56.3040    46.8050    46.9220   -17.9380 
  234.3750     2.3990    53.7500    24.7280    47.5610    42.4550    42.3710   -17.3900 
  234.5000     2.3780    53.6560    24.7280    43.6610    38.3910    38.1680   -16.9250 
  234.6250     2.3500    57.0620    24.7280    40.1080    34.7250    34.4960   -16.5470 
  234.7500     2.3280    64.8090    24.7280    36.1120    31.4840    31.2970   -16.2270 
  234.8750     2.3130    68.3600    24.7280    32.7520    28.7170    28.5570   -15.9520 
  235.0000     2.3020    63.3590    24.7280    30.1530    26.4320    26.2620   -15.7180 
  235.1250     2.2910    58.4700    24.7280    28.1120    24.6710    24.4990   -15.5250 
  235.2500     2.2800    58.3390    24.7280    27.1030    23.3080    23.1800   -15.3670 
  235.3750     2.2740    59.5800    24.7280    26.7040    22.2980    22.2580   -15.2400 
  235.5000     2.2760    59.2010    24.7280    25.9230    21.5980    21.6730   -15.1260 
  235.6250     2.2830    61.2390    24.7280    24.0240    21.1580    21.3600   -15.0240 
  235.7500     2.2870    64.7950    24.7280    22.0220    20.7810    21.1050   -14.9430 
  235.8750     2.2870    67.6540    24.7280    21.1720    20.2730    20.6910   -14.8760 
  236.0000     2.2890    67.2270    24.7280    21.4810    19.4790    19.9380   -14.8210 
  236.1250     2.2930    65.3160    24.7280    21.1290    18.3380    18.7680   -14.7700 
  236.2500     2.2950    65.0210    24.7280    19.3200    17.0680    17.4290   -14.7320 
  236.3750     2.2930    67.9670    24.7280    17.0050    15.8840    16.1820   -14.6990 
  236.5000     2.2930    70.9840    24.7280    15.5550    14.9560    15.2420   -14.6740 
  236.6250     2.3010    70.4550    24.7250    15.4920    14.4090    14.7640   -14.6520 
  236.7500     2.3140    67.4310    24.7070    15.6020    14.1410    14.6080   -14.6260 
  236.8750     2.3220    66.2570    24.6610    15.4160    14.0430    14.6260   -14.6000 
  237.0000     2.3190    67.1910    24.5990    15.0310    14.0030    14.6760   -14.5770 
  237.1250     2.3080    66.6080    24.5670    14.6910    13.9460    14.6730   -14.5360 
  237.2500     2.2960    65.5270    24.5590    14.5020    13.8800    14.6380   -14.4760 
  237.3750     2.2880    65.4860    24.5570    14.6190    13.8310    14.6010   -14.3890 
