~V
VERS. 2.00: Ver 2.00
~W
STRT.M 65.0000:
STOP.M 273.0000:
STEP.M 0.1250:
NULL. -999.2500:
UWI. DF3011:
~C
DEPT.M :
DEN.GM/CC :
GR.API :
RML.OHMM :
RI. :
RXO.OHMM :
CALI.CM :
AC.US/MT :
SP.MV :
~A
# ...
  225.0000     2.2700    70.6780    99.5180    92.3110    94.6760    25.2930   365.5640   -18.7440 
  225.1250     2.2610    68.1170    98.9410    91.7800    89.9610    25.1540   369.1700   -18.4300 
  225.2500     2.2550    64.5540    97.4850    90.6320    87.8050    25.1120   370.7650   -18.0510 
  225.3750     2.2500    64.0310    95.4310    89.2910    87.9610    25.1460   371.3460   -17.6500 
  225.5000     2.2460    65.0630    92.8270    87.7170    88.4410    25.2030   370.9310   -17.1870 
  225.6250     2.2450    62.6460    89.0780    85.2170    88.4180    25.1930   368.0430   -16.6520 
  225.7500     2.2530    60.1110    83.5730    81.1540    87.5140    25.1420   361.9140   -16.0000 
  225.8750     2.2740    61.4740    75.9290    75.0640    84.3460    25.1590   352.3650   -15.3120 
  226.0000     2.3070    63.2200    66.5030    67.0380    77.2850    25.3170   338.2180   -14.5870 
  226.1250     2.3440    62.2720    56.4750    57.8300    65.1210    25.4100   322.1990   -13.8640 
  226.2500     2.3680    62.2350    47.3380    48.9120    51.9560    25.4420   310.5360   -13.1960 
  226.3750     2.3720    64.7230    39.8260    41.1870    40.5980    25.4490   309.9110   -12.5590 
  226.5000     2.3570    66.3690    34.1270    35.0840    32.9540    25.4580   322.6780   -11.9510 
  226.6250     2.3350    66.7780    30.2930    30.8360    29.4950    25.4670   339.6140   -11.3880 
  226.7500     2.3170    67.9000    27.7080    27.9000    27.9100    25.4710   353.9660   -10.9190 
  226.8750     2.3050    68.2640    26.1230    26.0210    26.5360    25.4710   363.2200   -10.5100 
  227.0000     2.2990    66.1330    25.3800    25.0220    25.1500    25.4700   368.9380   -10.1620 
  227.1250     2.2940    63.6940    25.4830    24.8910    24.6540    25.4680   374.0380    -9.9060 
  227.2500     2.2900    63.7140    26.1400    25.3320    25.2670    25.4630   378.0780    -9.6620 
  227.3750     2.2860    66.0320    27.0600    26.0830    26.5150    25.4510   379.6280    -9.4500 
  227.5000     2.2860    68.3100    27.8060    26.7570    28.0390    25.4430   378.5320    -9.2530 
  227.6250     2.2900    67.1150    27.7470    26.7720    29.8480    25.4400   376.8790    -9.0990 
  227.7500     2.2980    63.7610    26.7450    25.9240    30.3450    25.4400   375.2820    -8.9840 
  227.8750     2.3050    60.8550    24.9850    24.3050    29.2510    25.4510   374.3270    -8.9340 
  228.0000     2.3070    59.7940    22.9640    22.3100    26.3450    25.4840   375.6160    -8.9110 
  228.1250     2.3040    60.0550    21.3870    20.5660    22.5520    25.5490   377.3000    -8.8680 
  228.2500     2.2960    59.6260    20.6320    19.4900    20.1020    25.5770   376.9700    -8.8470 
  228.3750     2.2900    58.7290    20.8400    19.2700    19.7240    25.5790   374.1830    -8.8440 
  228.5000     2.2880    59.0600    21.9810    19.9340    21.0300    25.5540   370.6670    -8.8870 
  228.6250     2.2880    61.6990    23.9910    21.4850    23.5860    25.4940   367.8260    -8.9600 
  228.7500     2.2860    63.9770    26.4380    23.5530    26.5950    25.4620   366.3090    -9.0390 
  228.8750     2.2800    63.7440    28.9870    25.8490    29.6260    25.5120   367.6970    -9.0910 
  229.0000     2.2710    60.5790    31.3010    28.0610    32.0650    25.5670   371.9390    -9.1370 
  229.1250     2.2600    56.5740    32.9530    29.7910    33.5930    25.5850   376.2980    -9.1250 
  229.2500     2.2510    54.9400    33.8210    30.8510    34.6190    25.5850   379.0730    -9.1000 
  229.3750     2.2460    55.5160    33.7940    31.0890    35.1300    25.5790   379.6880    -9.0300 
  229.5000     2.2440    57.0050    32.8310    30.4470    34.9260    25.5540   377.8250    -8.9420 
  229.6250     2.2420    59.0000    30.9380    28.8920    33.0640    25.5040   374.2090    -8.8060 
  229.7500     2.2410    60.1540    28.4840    26.8280    29.7190    25.4700   369.1450    -8.6670 
  229.8750     2.2410    60.1420    25.8290    24.5850    26.0980    25.4680   362.7020    -8.5190 
  230.0000     2.2430    62.3400    23.3340    22.4680    23.1040    25.4520   359.7720    -8.3920 
  230.1250     2.2460    68.4650    21.3340    20.7500    21.3130    25.4120   363.0770    -8.3220 
  230.2500     2.2500    70.1760    20.1650    19.4400    20.1240    25.3820   369.6320    -8.2820 
  230.3750     2.2540    65.4910    19.3590    18.5090    19.3510    25.3730   373.8850    -8.2570 
  230.5000     2.2590    60.1430    18.8320    17.8870    18.8430    25.3720   374.2750    -8.2460 
  230.6250     2.2650    59.0430    18.5300    17.5280    18.3460    25.3730   375.0300    -8.3050 
  230.7500     2.2700    58.7950    18.3550    17.3150    18.0660    25.3780   376.5980    -8.3740 
  230.8750     2.2730    57.1990    18.2610    17.1870    17.9460    25.3860   378.2120    -8.4610 
  231.0000     2.2720    55.4910    18.2120    17.0940    17.8090    25.3870   379.5920    -8.5080 
  231.1250     2.2690    56.6090    18.1740    16.9970    17.3710    25.3820   380.4070    -8.5600 
  231.2500     2.2660    61.5190    18.1230    16.8860    16.8540    25.3790   380.3990    -8.5970 
  231.3750     2.2660    67.6630    18.0630    16.7800    16.5040    25.3880   379.5330    -8.6750 
  231.5000     2.2680    71.5460    18.0190    16.7110    16.4300    25.4100   378.2110    -8.7400 
  231.6250     2.2700    71.4590    18.0570    16.7340    16.7440    25.4500   377.1380    -8.7630 
  231.7500     2.2710    68.9680    18.2050    16.8590    17.5600    25.5400   376.5470    -8.7620 
  231.8750     2.2730    65.6440    18.4490    17.0690    18.7300    25.6110   376.1730    -8.7830 
  232.0000     2.2760    63.7300    18.7310    17.3140    19.6690    25.6280   375.1410    -8.8130 
  232.1250     2.2810    65.0550    18.9440    17.5100    19.9930    25.5910   373.5280    -8.8560 
  232.2500     2.2840    66.3880    19.0310    17.6060    19.9610    25.5490   372.7880    -8.8900 
  232.3750     2.2860    66.7150    18.9930    17.5900    19.5720    25.5190   374.5070    -8.8590 
  232.5000     2.2860    67.3980    18.8780    17.4960    19.0180    25.5060   377.7600    -8.7950 
  232.6250     2.2860    69.6160    18.7670    17.3840    18.7570    25.4890   378.6900    -8.7070 
  232.7500     2.2870    70.2890    18.7330    17.3250    19.0190    25.4530   375.3380    -8.6060 
  232.8750     2.2860    68.7350    18.8350    17.3650    19.5120    25.4110   368.6360    -8.4500 
  233.0000     2.2820    69.2760    19.1080    17.5320    20.0160    25.3990   362.4340    -8.2820 
  233.1250     2.2740    72.4020    19.5410    17.8140    20.0500    25.4170   360.5510    -8.0400 
  233.2500     2.2650    73.1560    19.9720    18.0840    19.6170    25.4250   364.0990    -7.7760 
  233.3750     2.2590    70.0780    20.2290    18.2050    19.7560    25.4150   370.3850    -7.5390 
  233.5000     2.2560    68.4730    20.1750    18.0680    20.1770    25.3850   374.0320    -7.3670 
  233.6250     2.2540    69.4990    19.7740    17.6410    20.3990    25.3810   373.5880    -7.2770 
  233.7500     2.2550    70.1440    19.2830    17.1420    19.8580    25.4290   371.0150    -7.2330 
  233.8750     2.2600    69.8520    18.9800    16.8090    19.0230    25.5230   368.8270    -7.2020 
  234.0000     2.2720    68.2280    19.1140    16.8590    18.8820    25.5890   368.3820    -7.1840 
  234.1250     2.2880    64.4520    19.9030    17.5090    21.2590    25.5590   369.2830    -7.1980 
  234.2500     2.2990    61.4630    21.1960    18.6520    23.9950    25.4830   371.1450    -7.2080 
  234.3750     2.2990    61.9150    22.8350    20.1730    25.2970    25.4120   373.2460    -7.2370 
  234.5000     2.2880    63.4360    24.6400    21.9220    25.5130    25.3450   375.2120    -7.2810 
  234.6250     2.2720    61.1540    26.4360    23.7440    25.3970    25.2390   377.4910    -7.3010 
  234.7500     2.2590    57.5430    28.0380    25.4390    25.6670    25.0970   380.0010    -7.3150 
  234.8750     2.2480    57.0200    29.1480    26.7410    26.3820    25.0200   381.4070    -7.3430 
