~V
VERS. 2.00: Ver 2.00
~W
STRT.M 70.0000:
STOP.M 278.0000:
STEP.M 0.1250:
NULL. -999.2500:
UWI. DF3060:
~C
DEPT.M :
SP.MV :
GR.API :
RML.OHMM :
RI. :
RXO.OHMM :
CALI.CM :
DEN.GM/CC :
~A
# ...
  160.0000   -23.2130    61.6450    14.1790    11.6080    23.7320    22.3650     2.4200 
  160.1250   -23.2940    66.3440    11.3790     9.1200    12.2790    22.3000     2.3950 
  160.2500   -23.3200    69.4690     9.7690     7.4500     7.9430    22.2450     2.3910 
  160.3750   -23.3050    68.6620     9.6640     6.8690     8.0520    22.2080     2.4120 
  160.5000   -23.2620    63.7650    11.1660     7.5600    10.9110    22.1890     2.4480 
  160.6250   -23.2040    57.3510    14.3160     9.8070    15.5130    22.1840     2.4870 
  160.7500   -23.1550    52.4550    18.2350    13.1220    20.1060    22.1840     2.5140 
  160.8750   -23.0790    49.7630    21.9210    16.8140    23.1700    22.1840     2.5250 
  161.0000   -23.0060    49.0740    24.1990    19.8330    23.8350    22.1840     2.5220 
  161.1250   -22.9630    50.7260    23.7860    20.7610    21.7380    22.1890     2.5030 
  161.2500   -22.9780    54.1960    21.2590    19.5900    18.5790    22.2070     2.4720 
  161.3750   -23.0260    59.2370    17.6770    16.9890    15.0590    22.2550     2.4320 
  161.5000   -23.0970    64.7050    14.2420    14.0130    11.8000    22.3580     2.3900 
  161.6250   -23.1570    68.9410    11.9730    11.6890     9.6340    22.5780     2.3580 
  161.7500   -23.1980    70.6790    10.9070    10.2930     9.3450    22.8730     2.3440 
  161.8750   -23.2440    70.5670    10.8140     9.7620    10.8250    23.1070     2.3460 
  162.0000   -23.2870    69.5110    11.2980     9.8590    13.0420    23.2280     2.3570 
  162.1250   -23.3260    67.5000    11.9470    10.3070    15.5230    23.2730     2.3650 
  162.2500   -23.3660    65.8990    12.5200    10.8210    16.3460    23.2920     2.3680 
  162.3750   -23.3920    66.9840    13.0920    11.3650    14.6100    23.2950     2.3730 
  162.5000   -23.4270    70.2250    13.8430    12.0230    12.4700    23.2880     2.3870 
  162.6250   -23.4600    70.6110    14.8020    12.8400    13.8230    23.2700     2.4040 
  162.7500   -23.4820    67.1310    15.5990    13.5960    16.2690    23.2340     2.4110 
  162.8750   -23.4990    62.1130    15.8680    14.0160    18.0830    23.1820     2.4000 
  163.0000   -23.5060    58.5330    15.5210    13.9580    18.5300    23.1440     2.3780 
  163.1250   -23.5020    59.7610    15.0150    13.6390    16.3220    23.1310     2.3690 
  163.2500   -23.4670    64.5480    15.1840    13.6850    15.5090    23.1290     2.3870 
  163.3750   -23.4180    69.6110    16.4970    14.5380    16.3720    23.1290     2.4300 
  163.5000   -23.3480    70.8290    18.8840    16.2840    18.3110    23.1290     2.4810 
  163.6250   -23.2820    66.8740    21.7030    18.5840    23.3840    23.1290     2.5150 
  163.7500   -23.2220    61.2210    23.9060    20.6100    30.3770    23.1290     2.5270 
  163.8750   -23.1450    57.3740    24.8290    21.7420    38.0070    23.1290     2.5240 
  164.0000   -23.0730    57.7650    24.3920    21.7530    48.8910    23.1280     2.5190 
  164.1250   -23.0130    61.8720    23.1790    20.9380    56.5790    23.1270     2.5190 
  164.2500   -22.9660    64.2350    22.1990    20.1210    54.5500    23.1270     2.5240 
  164.3750   -22.9280    62.9000    21.8770    19.7250    43.6630    23.1290     2.5330 
  164.5000   -22.9020    59.5870    22.2450    19.8710    31.3970    23.1290     2.5380 
  164.6250   -22.8840    57.0220    23.1350    20.5090    26.0310    23.1290     2.5360 
  164.7500   -22.8840    55.2130    24.1350    21.3360    23.4780    23.1290     2.5260 
  164.8750   -22.8970    53.9590    25.0040    22.1510    23.5380    23.1290     2.5090 
  165.0000   -22.9080    54.2230    25.6190    22.8180    23.4890    23.1290     2.4880 
  165.1250   -22.9330    56.0340    25.9850    23.2930    23.1810    23.1290     2.4700 
  165.2500   -22.9720    58.4640    26.3000    23.7030    22.3440    23.1260     2.4550 
  165.3750   -23.0300    61.4640    26.7220    24.1720    22.0780    23.1180     2.4460 
  165.5000   -23.0910    64.3950    27.3350    24.7810    22.5720    23.1020     2.4410 
  165.6250   -23.1710    65.6300    28.1200    25.5190    23.1210    23.0700     2.4380 
  165.7500   -23.2440    65.3830    28.8730    26.2180    24.1390    23.0290     2.4350 
  165.8750   -23.3310    63.7300    29.3620    26.6680    25.0050    23.0000     2.4320 
  166.0000   -23.4150    62.0020    29.3680    26.6720    24.8460    22.9870     2.4310 
  166.1250   -23.4730    61.9730    28.7200    26.0570    23.5590    22.9800     2.4330 
  166.2500   -23.5030    63.4940    27.6790    25.0420    22.8220    22.9670     2.4380 
  166.3750   -23.4970    64.3670    26.5550    23.8920    22.6590    22.9440     2.4440 
  166.5000   -23.4760    63.1360    25.6910    22.9050    22.8810    22.9110     2.4510 
  166.6250   -23.4190    62.1470    25.4120    22.3870    25.3460    22.8750     2.4590 
  166.7500   -23.3410    62.4550    25.6100    22.3060    28.4010    22.8260     2.4690 
  166.8750   -23.2450    63.2000    26.0740    22.5260    31.3630    22.7550     2.4800 
  167.0000   -23.1520    62.2150    26.5340    22.8410    30.4900    22.6410     2.4890 
  167.1250   -23.0590    58.5180    26.7350    23.0170    19.9380    22.4710     2.4920 
  167.2500   -22.9630    54.7870    26.6790    22.9710    12.9670    22.2770     2.4910 
  167.3750   -22.8720    53.1700    26.4820    22.7360    11.8580    22.0800     2.4860 
  167.5000   -22.7860    53.8410    26.2760    22.4090    12.8300    21.8940     2.4830 
  167.6250   -22.7200    55.6070    26.1070    22.0690    12.7180    21.7900     2.4840 
  167.7500   -22.6640    57.2850    25.9140    21.7320    11.9760    21.7560     2.4890 
  167.8750   -22.6120    58.3660    25.6590    21.3920    11.2930    21.7530     2.4950 
  168.0000   -22.5480    57.1170    25.3670    21.0640    10.7880    21.7540     2.4980 
  168.1250   -22.4870    54.2940    25.1580    20.8250    10.1230    21.7550     2.4990 
  168.2500   -22.4630    53.4050    25.1290    20.7420     9.1140    21.7610     2.4990 
  168.3750   -22.4520    55.9080    25.2610    20.8250     9.1640    21.7750     2.5000 
  168.5000   -22.4560    60.5370    25.3890    20.9860    10.6640    21.8130     2.5020 
  168.6250   -22.4440    63.9230    25.2010    21.0210    13.0730    21.8990     2.5010 
  168.7500   -22.4500    64.0970    24.5800    20.8000    15.4530    22.0380     2.4950 
  168.8750   -22.4610    61.8930    23.6140    20.3310    17.0240    22.2450     2.4840 
  169.0000   -22.4750    60.1480    22.6120    19.7800    17.1870    22.5100     2.4710 
  169.1250   -22.4850    59.5930    22.1030    19.5010    15.6280    22.7220     2.4590 
  169.2500   -22.4780    59.9640    22.2720    19.6930    13.4920    22.8160     2.4500 
  169.3750   -22.4750    61.1950    22.9720    20.3230    12.7150    22.8420     2.4460 
  169.5000   -22.4630    62.4160    23.7190    21.0860    13.7090    22.8540     2.4450 
  169.6250   -22.4690    62.9710    23.6510    21.3010    15.6550    22.8850     2.4400 
  169.7500   -22.4750    64.1750    22.3410    20.4890    16.5990    22.9500     2.4280 
  169.8750   -22.4990    68.2610    19.8150    18.5230    16.8780    23.0590     2.4060 
  170.0000   -22.5600    74.1550    16.6030    15.7470    17.2850    23.1790     2.3810 
  170.1250   -22.6590    81.1030    13.6010    12.8970    17.8890    23.2340     2.3610 
  170.2500   -22.7650    87.6520    11.4150    10.6120    19.1550    23.2240     2.3530 
  170.3750   -22.9110    91.7840    10.2230     9.1170    21.3170    23.1640     2.3530 
  170.5000   -23.0850    93.7460     9.9390     8.3990    20.7970    23.0670     2.3560 
  170.6250   -23.2850    95.6250    10.4050     8.3990    11.5770    23.0030     2.3540 
  170.7500   -23.4910    98.2700    11.1850     8.7880     6.9190    22.9610     2.3480 
  170.8750   -23.7060   100.1500    11.9870     9.3500     6.4090    22.9180     2.3420 
  171.0000   -23.9090   101.3800    12.5920     9.8960     7.2120    22.8540     2.3400 
  171.1250   -24.1210   103.2030    12.9110    10.3110     8.8940    22.7870     2.3410 
