~V
VERS. 2.00: Ver 2.00
~W
STRT.M 61.0000:
STOP.M 276.0000:
STEP.M 0.1250:
NULL. -999.2500:
UWI. DF3051:
~C
DEPT.M :
SP.MV :
GR.API :
CALI.CM :
RXO.OHMM :
RI. :
RML.OHMM :
DEN.GM/CC :
~A
# ...
  218.5000   -38.9980    61.9490    27.5380   132.7560   153.1800   162.3180     2.1930 
  218.6250   -39.0310    60.7590    27.6180   131.9520   144.9870   153.4260     2.2000 
  218.7500   -39.1190    57.3630    27.4390   130.7180   137.4940   145.4950     2.2000 
  218.8750   -39.1490    54.5700    27.1910   125.9240   131.1490   138.9340     2.1960 
  219.0000   -39.1220    56.8440    27.0590   120.1100   126.2370   134.0150     2.1920 
  219.1250   -39.1260    61.8910    27.0410   118.4300   123.5150   131.5600     2.1950 
  219.2500   -39.1370    63.7140    27.0420   120.3470   123.2980   131.8780     2.2050 
  219.3750   -39.1180    62.4320    27.0540   123.2110   126.1370   135.5260     2.2180 
  219.5000   -39.0420    61.1490    27.0600   125.9670   132.3640   142.8380     2.2220 
  219.6250   -38.8950    59.7350    26.9950   131.9390   142.3910   154.2820     2.2090 
  219.7500   -38.7840    57.6080    26.8580   143.3330   154.8390   168.3850     2.1960 
  219.8750   -38.7570    56.5830    26.7100   156.0290   168.1330   183.3710     2.1930 
  220.0000   -38.7120    57.8120    26.6110   162.4480   179.7200   196.2350     2.1970 
  220.1250   -38.5690    58.6980    26.5540   160.5810   184.9560   201.4150     2.1940 
  220.2500   -38.3980    57.3370    26.5240   157.2530   182.0180   196.9440     2.1880 
  220.3750   -38.2180    55.8720    26.6570   155.7310   171.2450   183.7310     2.1930 
  220.5000   -38.0900    55.2040    27.1430   155.6870   155.5670   165.7180     2.2150 
  220.6250   -38.1180    55.7430    27.7700   151.0550   139.4670   148.2730     2.2440 
  220.7500   -38.1830    56.5850    27.9950   137.0350   126.6860   135.0870     2.2630 
  220.8750   -38.3010    58.2030    27.7090   119.0890   119.0710   127.7830     2.2670 
  221.0000   -38.5290    60.2380    27.2630   108.8920   117.4440   126.9440     2.2600 
  221.1250   -38.7240    60.4980    27.0290   116.3190   122.8760   133.4970     2.2480 
  221.2500   -38.7780    60.4240    26.9310   136.1740   133.5380   145.4390     2.2400 
  221.3750   -38.7170    60.1320    26.8790   160.1400   147.4660   160.6560     2.2410 
  221.5000   -38.5880    59.4290    26.8770   177.8240   161.1880   175.3650     2.2500 
  221.6250   -38.3910    59.0110    26.9430   179.3670   168.4210   182.5190     2.2530 
  221.7500   -38.1470    59.5940    27.0280   169.4820   165.9580   178.7000     2.2430 
  221.8750   -37.8280    61.5840    27.0910   152.2190   154.2410   164.9300     2.2310 
  222.0000   -37.3620    61.9460    27.1190   128.9120   137.5190   146.5880     2.2300 
  222.1250   -36.8140    60.3890    27.1200   105.8300   121.8060   130.5770     2.2440 
  222.2500   -36.3550    60.0570    27.1070    94.2100   110.5180   119.9070     2.2570 
  222.3750   -36.0590    60.2100    27.0860    99.0340   104.1680   114.6280     2.2630 
  222.5000   -35.8610    59.6980    27.0680   116.3260   101.6920   113.3200     2.2690 
  222.6250   -35.6850    58.6650    27.0710   131.0060   101.3930   113.9590     2.2750 
  222.7500   -35.4290    60.0320    27.0900   129.2080   101.2630   114.3570     2.2760 
  222.8750   -35.0190    61.8100    27.1070   113.1340   100.7510   114.0080     2.2670 
  223.0000   -34.5400    61.9740    27.0980    96.1330   100.2720   113.6360     2.2570 
  223.1250   -34.0770    61.0680    27.0530    92.8460   101.2380   115.0860     2.2550 
  223.2500   -33.6430    60.6400    26.9950   103.3900   104.2820   119.0680     2.2580 
  223.3750   -33.2730    60.9280    26.9460   120.5370   108.8120   124.8240     2.2570 
  223.5000   -33.0030    61.5750    26.9180   133.7050   112.7970   129.8070     2.2510 
  223.6250   -32.7680    61.4500    26.9100   134.6740   112.6640   129.4070     2.2440 
  223.7500   -32.5320    59.4020    26.9080   125.1170   107.5470   122.7680     2.2390 
  223.8750   -32.2690    56.7050    26.9070   108.1530    98.6490   111.9440     2.2390 
  224.0000   -31.9490    55.6550    26.9040    90.4420    88.5380   100.3860     2.2400 
  224.1250   -31.6380    57.2020    26.9130    80.0310    79.9480    91.1700     2.2430 
  224.2500   -31.3650    59.4770    26.9690    76.2340    73.7400    84.8290     2.2460 
  224.3750   -31.1190    62.2640    27.0790    75.2450    69.8970    81.1880     2.2480 
  224.5000   -30.8470    66.4620    27.1660    74.1850    68.1290    79.8990     2.2460 
  224.6250   -30.5670    69.0120    27.1160    73.0590    68.5060    81.0760     2.2410 
  224.7500   -30.3140    68.3470    26.9840    72.9010    70.6110    84.2870     2.2440 
  224.8750   -30.1190    66.2830    26.8780    74.0540    74.1860    89.2800     2.2610 
  225.0000   -30.0050    65.2910    26.8500    77.4630    78.5660    95.2940     2.2810 
  225.1250   -29.9620    63.9060    26.8630    83.6110    82.3900   100.5430     2.2870 
  225.2500   -29.9390    62.6810    26.8710    86.4180    84.3300   103.1910     2.2830 
  225.3750   -29.8810    63.1800    26.8880    81.4560    83.7310   102.4010     2.2860 
  225.5000   -29.7780    64.0400    26.9410    73.3520    80.8160    98.6460     2.3070 
  225.6250   -29.5810    63.8890    27.0040    72.2710    76.3180    93.1150     2.3530 
  225.7500   -29.2730    64.2260    27.0180    75.2340    71.5700    87.4980     2.4160 
  225.8750   -28.8800    64.4500    26.9810    73.6810    67.4440    82.7850     2.4870 
  226.0000   -28.4390    62.2510    26.9310    66.2110    64.6490    79.7140     2.5490 
  226.1250   -28.0040    58.5140    26.9010    61.7720    63.9200    79.1140     2.5850 
  226.2500   -27.6110    57.4750    26.8810    65.8920    65.2110    81.0290     2.6020 
  226.3750   -27.2050    58.7410    26.8670    76.5300    68.9110    85.9890     2.6100 
  226.5000   -26.7590    60.5870    26.8630    87.8660    75.2310    94.1350     2.6180 
  226.6250   -26.2860    62.4380    26.8570    93.3240    82.3300   102.2020     2.6390 
  226.7500   -25.8180    65.4220    26.8190    98.7350    84.1530   100.6350     2.6740 
  226.8750   -25.3920    68.3680    26.7260   113.3920    74.8970    83.0560     2.7060 
  227.0000   -25.0350    70.0420    26.5750   108.5580    55.7330    56.7580     2.7090 
  227.1250   -24.7100    70.0300    26.3770    68.1770    36.1040    35.5080     2.6690 
  227.2500   -24.3230    67.5100    26.1790    26.8480    22.3210    22.0040     2.6140 
  227.3750   -23.8510    61.4280    26.0270    11.3540    14.2530    14.2860     2.5680 
  227.5000   -23.3180    54.8320    25.9490     7.4560     9.9980    10.1980     2.5380 
  227.6250   -22.7700    52.8270    25.9310     6.6430     8.0430     8.4340     2.5160 
  227.7500   -22.2610    54.5380    25.9330     6.3970     7.0490     7.6680     2.4930 
  227.8750   -21.8830    56.2450    25.9540     6.4890     6.5670     7.3350     2.4720 
  228.0000   -21.6310    57.4440    26.0100     6.6780     6.2850     7.0400     2.4570 
  228.1250   -21.4580    61.0710    26.0950     6.4070     5.9920     6.5800     2.4380 
  228.2500   -21.3110    67.2620    26.1700     5.7670     5.6570     6.0630     2.4060 
  228.3750   -21.1630    73.9650    26.2150     5.2350     5.3580     5.6550     2.3680 
  228.5000   -20.9650    80.0530    26.2440     5.1290     5.1760     5.4710     2.3400 
  228.6250   -20.7900    86.2540    26.3090     5.5110     5.1960     5.5870     2.3390 
  228.7500   -20.7220    92.8970    26.4400     6.2020     5.3920     5.9230     2.3580 
  228.8750   -20.6640    96.8150    26.6150     7.0300     5.7250     6.3960     2.3900 
  229.0000   -20.5400    98.1550    26.7740     7.6550     6.1190     6.9090     2.4200 
  229.1250   -20.2920   101.3580    26.8570     7.7450     6.4740     7.3530     2.4340 
  229.2500   -20.0210   106.1820    26.8840     7.6330     6.7320     7.6790     2.4290 
  229.3750   -19.8390   109.2320    26.8890     7.7240     6.8750     7.8680     2.4170 
  229.5000   -19.8300   108.6050    26.9010     8.1690     6.9160     7.9290     2.4100 
  229.6250   -19.9810   107.6960    26.9290     8.6490     6.8760     7.8880     2.4160 
