~V
VERS. 2.00: Ver 2.00
~W
STRT.M 125.0000:
STOP.M 269.0000:
STEP.M 0.1250:
NULL. -999.2500:
UWI. DF3036:
~C
DEPT.M :
GR.API :
RML.OHMM :
RI. :
RXO.OHMM :
CALI.CM :
DEN.GM/CC :
SP.MV :
~A
# ...
  237.5000    74.8070    73.7570    66.5960    50.3040    24.6300     2.2540   -25.4030 
  237.6250    74.2450    84.5880    76.5370    66.3080    24.5980     2.2420   -25.5740 
  237.7500    75.2730    94.7790    86.3450    90.8570    24.5170     2.2360   -25.7320 
  237.8750    77.6260   101.5820    93.3720   113.6310    24.4260     2.2410   -25.8820 
  238.0000    82.4410   103.4290    95.9020   115.5370    24.4280     2.2530   -26.0680 
  238.1250    85.3660   100.3270    93.5400    98.7280    24.4490     2.2680   -26.1890 
  238.2500    84.7830    95.5210    89.1170    85.9250    24.4760     2.2760   -26.3240 
  238.3750    82.2410    91.2970    84.7860    82.8950    24.5300     2.2750   -26.4280 
  238.5000    79.0820    89.2100    82.1360    82.8310    24.6560     2.2700   -26.5380 
  238.6250    74.6910    90.9790    82.8350    82.9440    24.7330     2.2640   -26.5760 
  238.7500    70.0500    97.0600    87.3630    87.6060    24.7670     2.2600   -26.6330 
  238.8750    69.1020   108.0310    96.3100    96.3940    24.7490     2.2560   -26.6850 
  239.0000    72.7720   123.5350   109.5320   106.5880    24.7290     2.2490   -26.6850 
  239.1250    76.9860   141.3420   125.4330   120.4770    24.7370     2.2390   -26.6980 
  239.2500    77.7340   156.3790   139.6260   150.3690    24.7750     2.2270   -26.6510 
  239.3750    75.4250   163.9720   147.9170   180.7340    24.8100     2.2220   -26.6080 
  239.5000    72.7000   161.2460   147.4140   191.3920    24.8230     2.2270   -26.5010 
  239.6250    71.4690   148.1330   137.2930   182.7800    24.8230     2.2390   -26.4300 
  239.7500    71.3810   131.5980   123.1890   166.3870    24.8210     2.2520   -26.3240 
  239.8750    71.9960   116.8450   109.7370   136.5280    24.8080     2.2570   -26.2100 
  240.0000    72.1170   106.9660   100.1210   108.4970    24.7750     2.2540   -26.1410 
  240.1250    71.8150   103.5510    96.2540    98.9710    24.7400     2.2430   -26.0700 
  240.2500    72.2250   104.6850    96.6850    97.0770    24.7100     2.2310   -26.0280 
  240.3750    72.2730   108.8060   100.0980   103.9900    24.6770     2.2220   -25.9780 
  240.5000    70.9020   114.0880   104.8470   114.8840    24.6450     2.2200   -25.9700 
  240.6250    70.2790   118.4830   109.0320   121.7210    24.6310     2.2240   -25.9050 
  240.7500    71.0230   120.9300   111.5080   124.7150    24.6280     2.2330   -25.8610 
  240.8750    71.7090   121.2940   112.0090   123.6950    24.6280     2.2410   -25.8030 
  241.0000    71.1650   120.0960   110.8970   119.5750    24.6280     2.2450   -25.7080 
  241.1250    70.3090   118.0520   108.7640   114.8550    24.6280     2.2430   -25.5940 
  241.2500    70.0530   115.8630   106.3390   112.2110    24.6280     2.2370   -25.4820 
  241.3750    70.5140   113.7370   103.8830   109.5380    24.6280     2.2320   -25.3710 
  241.5000    71.5620   111.8000   101.5720   106.4110    24.6280     2.2300   -25.2500 
  241.6250    71.3670   110.2950    99.6770   104.2540    24.6260     2.2310   -25.1540 
  241.7500    70.3140   109.2960    98.3140   101.0800    24.6100     2.2330   -25.0950 
  241.8750    70.4170   108.7230    97.4610    98.4200    24.5590     2.2340   -25.0440 
  242.0000    71.5530   108.2200    96.8460    97.0550    24.4720     2.2300   -25.0670 
  242.1250    70.4690   107.0430    95.8590    97.9970    24.3190     2.2230   -25.0850 
  242.2500    67.5890   104.7510    94.0360    98.0500    24.2390     2.2150   -25.1340 
  242.3750    66.7370   101.3130    91.2610    95.8380    24.2860     2.2050   -25.1420 
  242.5000    68.9620    97.2080    87.8370    93.8070    24.3540     2.1930   -25.1460 
  242.6250    72.2090    93.3850    84.4590    88.9100    24.3840     2.1780   -25.1270 
  242.7500    72.9070    90.5040    81.7080    83.7040    24.3840     2.1600   -25.0760 
  242.8750    71.3120    88.5540    79.6490    81.1930    24.3910     2.1490   -25.0350 
  243.0000    70.9400    86.9110    77.8460    85.1870    24.3960     2.1550   -24.9630 
  243.1250    74.2380    84.4100    75.4070    93.9310    24.4430     2.1830   -24.9070 
  243.2500    77.4640    80.4860    71.8500   101.8470    24.5360     2.2280   -24.8230 
  243.3750    77.2940    75.3230    67.2740   103.9370    24.6480     2.2690   -24.7620 
  243.5000    75.7950    69.8720    62.3990    95.4230    24.6960     2.2840   -24.6760 
  243.6250    76.3050    65.8930    58.6400    72.6470    24.6770     2.2690   -24.5590 
  243.7500    76.6940    64.4590    56.9480    53.5190    24.6240     2.2430   -24.3990 
  243.8750    73.7870    66.0800    57.8200    44.8630    24.4560     2.2470   -24.1880 
  244.0000    68.6600    70.6240    61.2070    45.3790    24.2380     2.3010   -23.8770 
  244.1250    67.2700    77.3650    66.5460    47.2070    24.0430     2.3960   -23.5050 
  244.2500    70.8660    84.1260    71.9680    49.1250    23.8250     2.5000   -23.0220 
  244.3750    75.4890    88.9760    75.8010    54.6320    23.7090     2.5570   -22.4850 
  244.5000    76.6080    90.4170    76.7560    64.6340    23.8580     2.5510   -21.8380 
  244.6250    73.1870    87.5620    74.0610    82.1520    24.0140     2.4950   -21.1460 
  244.7500    69.8890    82.3750    69.3250   100.9930    24.1290     2.4150   -20.3430 
  244.8750    71.7030    76.8140    64.1450    90.9400    24.1300     2.3370   -19.4900 
  245.0000    77.2430    72.6720    60.0310    54.7390    24.0820     2.2800   -18.5850 
  245.1250    81.5560    71.7920    58.5720    41.8090    23.9350     2.2540   -17.7110 
  245.2500    82.4140    74.6200    60.1940    42.9880    24.0180     2.2640   -16.8730 
  245.3750    81.4940    81.5700    65.2470    49.6150    24.1740     2.3110   -16.0350 
  245.5000    81.1910    92.1110    73.3280    57.6590    24.3040     2.3760   -15.2590 
  245.6250    81.0070   103.8090    82.4030    71.8160    24.1750     2.4480   -14.5190 
  245.7500    80.2780   111.8730    88.4500    87.9490    23.9680     2.5210   -13.8950 
  245.8750    77.1320   111.3860    87.8380    93.2930    23.7620     2.5840   -13.3300 
  246.0000    72.3590    99.8340    78.6730    94.5660    23.5970     2.6250   -12.8540 
  246.1250    68.3630    77.3360    61.9060   105.8100    23.5000     2.6320   -12.4160 
  246.2500    65.1770    53.1500    44.0360   114.9700    23.4490     2.5990   -12.0330 
  246.3750    63.8860    32.4350    29.3740    74.3810    23.4950     2.5360   -11.7320 
  246.5000    66.2410    17.4260    19.4550    29.4610    23.6310     2.4710   -11.4750 
  246.6250    71.9690    12.6520    14.0470    13.6970    23.7590     2.4200   -11.3270 
  246.7500    75.2580    11.0080    11.0560     9.1110    23.9100     2.3880   -11.2030 
  246.8750    72.8830    10.3890     9.5510     7.8800    24.0850     2.3720   -11.1340 
  247.0000    67.6480    10.1220     8.9320     7.5980    24.2190     2.3640   -11.0780 
  247.1250    65.1650     9.9640     8.8610     7.3990    24.2480     2.3590   -11.0180 
  247.2500    65.7980     9.9010     8.9930     7.3780    24.2320     2.3540   -10.9340 
  247.3750    67.6330     9.8730     9.1730     7.5220    24.2080     2.3490   -10.8460 
  247.5000    69.4510     9.9010     9.3060     7.6650    24.1980     2.3440   -10.7600 
  247.6250    70.9990     9.9250     9.3380     7.6430    24.1980     2.3430   -10.6580 
  247.7500    72.4840     9.9680     9.2860     7.3800    24.1980     2.3480   -10.5470 
  247.8750    73.4930    10.0170     9.1710     7.2880    24.1980     2.3580   -10.4080 
  248.0000    72.7580     9.9760     9.0130     7.3300    24.1980     2.3670   -10.2970 
  248.1250    70.5120     9.9090     8.8300     7.3550    24.1940     2.3690   -10.1760 
  248.2500    69.4130     9.8120     8.6470     7.3370    24.1890     2.3610   -10.0770 
  248.3750    70.3850     9.6800     8.4830     7.3810    24.1960     2.3460   -10.0100 
  248.5000    70.8600     9.4830     8.3490     7.4460    24.2240     2.3320    -9.9360 
  248.6250    70.4600     9.2620     8.2520     7.4110    24.2610     2.3250    -9.8980 
