~V
VERS. 2.00: Ver 2.00
~W
STRT.M 62.0000:
STOP.M 265.0000:
STEP.M 0.1250:
NULL. -999.2500:
UWI. DF3071:
~C
DEPT.M :
GR.API :
CALI.CM :
RXO.OHMM :
RI. :
RML.OHMM :
DEN.GM/CC :
SP.MV :
~A
# ...
  174.5000    63.4980    25.4880    66.6500    76.0810    96.3490     2.3110   -27.9470 
  174.6250    63.7980    25.4790    70.3860    76.8380    96.1870     2.3090   -27.8700 
  174.7500    66.0170    25.4850    72.3280    76.6370    94.9720     2.3060   -27.7890 
  174.8750    68.8240    25.5290    71.8020    75.4850    92.9030     2.3010   -27.6840 
  175.0000    69.8120    25.5940    68.2650    73.9320    90.6190     2.2900   -27.5380 
  175.1250    69.1360    25.6470    63.5020    72.7580    88.6360     2.2770   -27.3320 
  175.2500    70.5780    25.6830    60.2560    71.8010    86.2320     2.2720   -27.1450 
  175.3750    74.1810    25.7040    59.2860    69.6690    81.8770     2.2830   -26.9040 
  175.5000    76.8140    25.7170    59.3230    64.3360    73.9920     2.3070   -26.6790 
  175.6250    76.6450    25.7450    57.0380    54.4620    61.2530     2.3430   -26.3990 
  175.7500    76.3360    25.7940    49.6160    43.1190    46.8030     2.3910   -26.0990 
  175.8750    77.8480    25.8200    37.4190    33.3930    34.5720     2.4440   -25.7730 
  176.0000    81.2360    25.7840    24.6630    26.9640    27.1750     2.4820   -25.4710 
  176.1250    85.0590    25.7270    17.1180    24.3260    24.8490     2.4870   -25.2110 
  176.2500    87.2690    25.6990    14.9100    24.0270    24.7400     2.4720   -24.9680 
  176.3750    86.3810    25.7000    16.7470    25.0380    25.5030     2.4470   -24.7650 
  176.5000    82.7580    25.6850    21.3250    26.0790    25.9540     2.4210   -24.5850 
  176.6250    79.5450    25.5870    23.6990    25.5610    25.0300     2.4010   -24.4700 
  176.7500    80.7860    25.4380    20.8870    23.6560    23.1520     2.3930   -24.3810 
  176.8750    86.3210    25.2990    15.7370    21.5590    21.3390     2.3950   -24.3570 
  177.0000    90.6080    25.2150    12.7980    20.5140    20.7900     2.4000   -24.3640 
  177.1250    89.5600    25.2000    13.4880    21.7890    22.8270     2.3940   -24.3810 
  177.2500    87.7060    25.2340    17.0400    25.6570    27.2640     2.3710   -24.3840 
  177.3750    85.1120    25.2930    25.0340    32.0840    33.3220     2.3380   -24.3570 
  177.5000    80.7740    25.3350    38.8900    39.6120    39.2400     2.3080   -24.3170 
  177.6250    75.1720    25.3580    51.9100    44.0760    42.1640     2.2990   -24.2080 
  177.7500    71.9060    25.3930    52.9560    43.3560    41.4150     2.3120   -24.0990 
  177.8750    74.2990    25.4190    42.2480    39.0270    38.0800     2.3390   -23.9650 
  178.0000    81.8020    25.4050    30.3170    34.2870    34.3900     2.3660   -23.8670 
  178.1250    89.7810    25.3330    24.4170    31.8300    32.8190     2.3790   -23.7840 
  178.2500    90.7880    25.2380    23.6230    32.0970    33.9500     2.3800   -23.7370 
  178.3750    85.3020    25.1960    28.1800    35.0620    37.6030     2.3760   -23.7350 
  178.5000    80.4630    25.2820    37.9040    40.3220    43.1150     2.3680   -23.7530 
  178.6250    79.5960    25.4580    46.6610    47.0670    49.6120     2.3500   -23.8460 
  178.7500    79.7400    25.5900    48.9050    53.8220    56.0780     2.3290   -23.9140 
  178.8750    78.0680    25.6480    48.2700    59.9940    62.1850     2.3140   -23.9980 
  179.0000    75.2380    25.6730    50.1780    65.7160    68.0090     2.3050   -24.0290 
  179.1250    73.2230    25.7040    57.4750    71.3600    73.5730     2.2970   -24.0400 
  179.2500    71.9820    25.7320    66.8000    76.5760    78.3340     2.2880   -24.0150 
  179.3750    71.7240    25.7480    75.3970    80.1210    81.2780     2.2790   -23.9400 
  179.5000    72.2810    25.7540    81.4620    80.8000    81.7090     2.2730   -23.8270 
  179.6250    72.7700    25.7600    81.7140    78.5020    79.9740     2.2710   -23.6700 
  179.7500    73.1580    25.7630    76.4460    75.8460    78.2830     2.2760   -23.5190 
  179.8750    73.5360    25.7570    68.5700    75.4350    80.5180     2.2850   -23.3580 
  180.0000    73.5030    25.7390    63.0060    79.8270    90.8700     2.2910   -23.2570 
  180.1250    71.0730    25.7210    70.3470    92.8950   112.2750     2.2890   -23.1480 
  180.2500    67.3070    25.7220    88.5390   115.2320   141.8290     2.2740   -22.9520 
  180.3750    65.0340    25.7500   111.1000   146.8190   178.7930     2.2430   -22.7960 
  180.5000    64.9160    25.7830   128.2220   184.8920   221.5890     2.2060   -22.6730 
  180.6250    65.8690    25.7880   130.2530   221.7150   262.7670     2.1880   -22.6500 
  180.7500    65.4010    25.7600   120.2650   248.6250   293.1020     2.1930   -22.7200 
  180.8750    63.8800    25.6760   105.2050   262.3120   308.9630     2.2010   -22.8710 
  181.0000    62.2830    25.5530    95.3030   265.0990   312.0090     2.1990   -23.1430 
  181.1250    61.1130    25.5010   100.2520   260.6580   305.9670     2.2030   -23.4400 
  181.2500    61.4940    25.5720   114.0450   253.1240   296.5350     2.2260   -23.7840 
  181.3750    62.7310    25.7090   129.0390   244.5530   286.5750     2.2550   -24.0970 
  181.5000    63.3080    25.8230   137.5870   237.3380   278.8880     2.2670   -24.4710 
  181.6250    62.8500    25.8680   136.2910   235.2730   277.6850     2.2610   -24.7680 
  181.7500    63.0240    25.8760   133.2410   240.4540   284.7860     2.2530   -24.9750 
  181.8750    63.8110    25.8700   135.4870   254.5070   301.3270     2.2440   -25.0750 
  182.0000    62.9980    25.8600   145.3700   277.3820   326.3970     2.2270   -25.0280 
  182.1250    61.3450    25.8480   154.9960   306.4370   355.9410     2.2090   -24.9060 
  182.2500    61.5810    25.8380   156.4450   333.5980   381.5560     2.2060   -24.7130 
  182.3750    62.8700    25.8290   152.6750   351.5210   396.5860     2.2190   -24.3990 
  182.5000    62.4760    25.8170   149.9530   355.8760   397.9130     2.2350   -23.9410 
  182.6250    60.5110    25.7910   146.3890   346.6780   386.2890     2.2380   -23.4200 
  182.7500    59.6100    25.7470   139.9690   332.2880   369.8780     2.2270   -22.9150 
  182.8750    58.5160    25.7010   134.7240   318.0600   353.9440     2.2100   -22.4550 
  183.0000    56.0620    25.6710   134.2850   307.1070   341.7460     2.1950   -22.0560 
  183.1250    56.3340    25.6420   133.0570   301.5540   335.5330     2.1910   -21.7420 
  183.2500    60.7970    25.5910   129.3850   300.8800   334.4900     2.2010   -21.5630 
  183.3750    66.4460    25.5390   124.7660   304.7000   338.0460     2.2170   -21.6250 
  183.5000    68.2810    25.5270   124.8020   312.1870   345.3110     2.2340   -21.8610 
  183.6250    64.6330    25.5680   133.5270   322.4390   355.3410     2.2440   -22.1530 
  183.7500    60.9480    25.6300   140.4600   333.4690   366.0920     2.2480   -22.3740 
  183.8750    59.9300    25.6710   139.2460   343.7360   375.9930     2.2440   -22.5250 
  184.0000    60.6290    25.6520   132.3860   351.9500   383.6310     2.2320   -22.5720 
  184.1250    61.6680    25.5770   124.1410   356.9270   387.1420     2.2160   -22.7220 
  184.2500    62.1900    25.5150   116.8210   358.3820   386.0870     2.1990   -22.7870 
  184.3750    60.8920    25.4960   110.7380   355.2400   379.9960     2.1880   -22.8070 
  184.5000    57.4250    25.4970   106.7630   347.2060   369.3740     2.1900   -22.7940 
  184.6250    56.0530    25.4990   106.2780   335.6510   356.0420     2.2100   -22.8680 
  184.7500    57.8180    25.4980   105.1560   324.5100   343.4200     2.2310   -23.0860 
  184.8750    59.6300    25.4700    99.1860   316.3620   333.3360     2.2430   -23.4040 
  185.0000    60.4980    25.4020    86.8160   311.6420   325.4430     2.2410   -23.8810 
  185.1250    62.4730    25.3200    76.5840   306.8410   315.8110     2.2370   -24.2300 
  185.2500    64.5610    25.2650    73.1770   296.1540   299.4730     2.2450   -24.6830 
  185.3750    64.4270    25.2450    74.6710   275.6860   273.6130     2.2620   -25.1210 
  185.5000    61.9330    25.2500    76.4450   245.1380   239.3030     2.2740   -25.5920 
  185.6250    60.4750    25.2700    76.5850   208.5180   201.8800     2.2670   -26.0110 
