~V
VERS. 2.00: Ver 2.00
~W
STRT.M 140.0000:
STOP.M 272.0000:
STEP.M 0.1250:
NULL. -999.2500:
UWI. DF3077:
~C
DEPT.M :
GR.API :
CALI.CM :
RXO.OHMM :
RI. :
RML.OHMM :
DEN.GM/CC :
SP.MV :
~A
# ...
  218.7500    66.6490    24.9160    52.0890    67.1920    79.1100     2.1820   -22.4690 
  218.8750    64.6890    25.0480    52.1120    69.6630    82.4520     2.1800   -22.6830 
  219.0000    65.2370    25.0820    55.0920    73.2340    86.7980     2.1680   -22.8450 
  219.1250    68.7850    25.0500    63.2520    76.5570    90.3460     2.1520   -22.9010 
  219.2500    68.7270    25.0070    74.7050    78.5420    91.9100     2.1430   -22.8990 
  219.3750    66.0900    25.0240    85.3420    78.5760    90.8660     2.1410   -22.8660 
  219.5000    65.3450    25.2780    88.0890    76.4830    87.2630     2.1410   -22.8140 
  219.6250    65.7480    25.4390    78.5500    72.7640    82.0490     2.1450   -22.7740 
  219.7500    64.1520    25.5120    62.6950    68.8080    77.1020     2.1580   -22.7440 
  219.8750    62.2560    25.6210    53.4510    65.6270    73.4410     2.1800   -22.8050 
  220.0000    62.4050    25.6710    52.6360    63.7360    71.4900     2.2010   -22.9180 
  220.1250    64.4180    25.6770    54.4580    63.4080    71.3630     2.2030   -23.0520 
  220.2500    66.7250    25.7400    57.6130    64.0530    72.2310     2.1900   -23.2470 
  220.3750    66.7260    25.7030    60.8670    65.0650    73.4850     2.1760   -23.4840 
  220.5000    63.0670    25.7790    62.4410    66.1270    74.7730     2.1720   -23.7470 
  220.6250    59.8740    25.5880    61.2060    67.1910    76.1600     2.1730   -24.0140 
  220.7500    60.0340    25.5390    58.9130    68.6390    78.2750     2.1680   -24.2630 
  220.8750    62.6630    25.7410    58.0150    71.0960    81.8540     2.1590   -24.4200 
  221.0000    65.3540    25.8240    59.5480    75.6070    88.0930     2.1570   -24.5400 
  221.1250    65.5340    25.7790    61.6410    83.9250    98.7880     2.1680   -24.6240 
  221.2500    63.8640    25.6660    65.2180    96.2700   114.0630     2.1750   -24.6410 
  221.3750    60.7280    25.5920    77.3720   112.3790   133.8910     2.1660   -24.6300 
  221.5000    58.2210    25.5730   105.2540   130.9440   157.2490     2.1400   -24.5950 
  221.6250    57.6000    25.5650   130.6320   149.5280   181.5290     2.1190   -24.5450 
  221.7500    57.6340    25.5820   139.1540   164.8810   202.0520     2.1130   -24.5190 
  221.8750    57.6170    25.5700   137.0380   174.0270   213.8390     2.1120   -24.5160 
  222.0000    59.0300    25.5590   137.9880   175.0510   213.8320     2.1050   -24.5280 
  222.1250    63.8490    25.5580   140.5410   167.4910   202.0600     2.0970   -24.5830 
  222.2500    66.9030    25.5620   132.2900   156.1180   186.3900     2.1010   -24.6410 
  222.3750    65.6200    25.4750   116.1620   144.0010   170.8140     2.1180   -24.6900 
  222.5000    63.2030    25.5690    99.2930   133.2510   157.5150     2.1340   -24.7290 
  222.6250    63.7750    25.5410    85.9310   125.2810   147.8450     2.1350   -24.8100 
  222.7500    64.9280    25.4860    81.4540   119.8480   141.2270     2.1250   -24.8670 
  222.8750    65.1740    25.5170    88.4650   116.8450   137.3710     2.1180   -24.9370 
  223.0000    65.7180    25.5870    95.9180   115.7100   135.5430     2.1230   -25.0340 
  223.1250    65.3500    25.5780    94.9570   115.9060   134.8640     2.1340   -25.1140 
  223.2500    63.4410    25.5050    90.0620   116.3870   134.4740     2.1380   -25.1960 
  223.3750    62.2580    25.2980    87.0000   116.4830   133.5090     2.1360   -25.2600 
  223.5000    63.3020    25.2220    82.5200   115.3350   131.0690     2.1370   -25.3270 
  223.6250    64.5730    25.2520    85.6320   112.0430   126.3160     2.1480   -25.3170 
  223.7500    64.2940    25.3340    93.7460   107.1230   119.9780     2.1630   -25.3030 
  223.8750    63.4660    25.3220    99.8960   101.1730   112.8340     2.1750   -25.2480 
  224.0000    64.2700    25.1510    96.6700    95.0370   105.9050     2.1860   -25.1020 
  224.1250    66.4620    25.1340    82.1880    90.1400   101.0150     2.2040   -24.9340 
  224.2500    66.5320    25.1220    67.1040    87.2960    98.6890     2.2260   -24.7260 
  224.3750    65.3800    25.1200    63.4430    87.3390    99.9000     2.2420   -24.5050 
  224.5000    65.0650    25.1620    68.6980    90.8410   105.1810     2.2480   -24.2840 
  224.6250    66.0340    25.4190    73.0150    98.7200   115.6430     2.2440   -24.0710 
  224.7500    65.3950    25.6000    80.0970   110.0630   130.4970     2.2370   -23.8660 
  224.8750    64.4820    25.5300    91.7180   123.9120   148.8980     2.2320   -23.7170 
  225.0000    65.4630    25.3870   108.1760   138.6150   168.7150     2.2270   -23.6440 
  225.1250    67.0760    25.3310   117.7150   151.1910   185.6260     2.2160   -23.6280 
  225.2500    67.7310    25.3870   124.9730   159.4130   196.4300     2.2040   -23.6650 
  225.3750    66.2200    25.6200   127.9890   162.2650   199.6570     2.1990   -23.7470 
  225.5000    62.6200    25.6670   131.1020   159.6070   195.4480     2.2030   -23.8210 
  225.6250    62.0620    25.6120   125.5140   151.7630   185.0350     2.2080   -23.8790 
  225.7500    65.6830    25.5220   117.0840   141.4250   171.9600     2.2020   -23.8970 
  225.8750    68.5790    25.4810   106.3160   130.5480   158.7720     2.1870   -23.8330 
  226.0000    65.7410    25.5360    97.3250   120.7390   147.3420     2.1710   -23.6990 
  226.1250    61.9480    25.5700    87.5600   113.4290   139.1870     2.1740   -23.4880 
  226.2500    61.1830    25.5010    77.9440   108.9510   134.2920     2.2010   -23.2500 
  226.3750    60.6470    25.5010    73.7960   107.1120   132.0950     2.2420   -22.9890 
  226.5000    57.8700    25.3180    75.6850   107.1260   131.6470     2.2720   -22.7590 
  226.6250    56.1790    25.3150    80.2230   108.0280   131.6990     2.2690   -22.5760 
  226.7500    57.1280    25.4590    86.3490   107.7130   129.7910     2.2520   -22.3990 
  226.8750    59.0260    25.5630    92.2680   104.0020   123.3540     2.2530   -22.2590 
  227.0000    61.1590    25.4650   102.5840    96.1410   111.8240     2.2880   -22.1920 
  227.1250    62.1050    25.3850   104.7150    84.4420    96.4170     2.3400   -22.1580 
  227.2500    60.9770    25.1710    97.9830    71.3290    80.2000     2.3620   -22.1280 
  227.3750    60.6930    24.9710    82.0690    58.9790    65.7710     2.3310   -22.1520 
  227.5000    63.8480    24.8960    57.8680    49.1840    54.8800     2.2650   -22.1860 
  227.6250    67.6700    24.9070    36.7760    42.7250    48.0600     2.2120   -22.2030 
  227.7500    68.6570    24.8620    28.0690    38.7600    44.0770     2.1900   -22.2250 
  227.8750    67.6770    24.7470    28.9700    36.8750    42.4440     2.1840   -22.2300 
  228.0000    67.1680    24.8680    30.4020    36.5350    42.5520     2.1800   -22.1920 
  228.1250    68.2810    24.9130    29.9620    37.3690    43.9680     2.1770   -22.1740 
  228.2500    70.3050    24.9370    30.7330    38.7320    45.8490     2.1850   -22.1460 
  228.3750    70.8990    24.8830    32.9130    40.1050    47.5000     2.2040   -22.0360 
  228.5000    68.1540    24.6940    34.4070    41.0240    48.3540     2.2220   -21.9050 
  228.6250    64.3730    24.7670    36.7540    41.4110    48.4950     2.2160   -21.7650 
  228.7500    62.9190    24.9970    39.0100    41.7210    48.6100     2.1900   -21.6150 
  228.8750    63.5540    25.0460    38.4660    41.9500    48.6880     2.1700   -21.4840 
  229.0000    65.8390    25.0860    35.0010    41.9320    48.5250     2.1820   -21.3870 
  229.1250    68.6960    25.0260    34.9410    41.4440    47.8090     2.2240   -21.2890 
  229.2500    70.2720    24.8980    40.0760    40.4610    46.4640     2.2640   -21.1670 
  229.3750    69.2210    24.8920    51.1120    38.8980    44.3670     2.2830   -21.0450 
  229.5000    65.1830    24.8170    53.1140    36.8990    41.7440     2.2740   -20.8930 
  229.6250    62.4410    24.5480    40.8850    34.8370    39.0890     2.2460   -20.7310 
  229.7500    63.2500    24.2770    28.8050    33.0660    36.8150     2.2280   -20.6090 
  229.8750    65.2500    24.1980    26.5310    31.8230    35.1480     2.2500   -20.5330 
