~V
VERS. 2.00: Ver 2.00
~W
STRT.M 64.0000:
STOP.M 262.0000:
STEP.M 0.1250:
NULL. -999.2500:
UWI. DF3019:
~C
DEPT.M :
GR.API :
RML.OHMM :
RI. :
RXO.OHMM :
CALI.CM :
DEN.GM/CC :
SP.MV :
~A
# ...
   86.5000    96.8500     6.5450     5.6460     5.5860    24.4790  -999.2500   -17.7410 
   86.6250    98.2090     6.5140     5.5910     5.4180    24.4800  -999.2500   -17.8660 
   86.7500   100.5070     6.7340     5.7290     5.4020    24.4850  -999.2500   -18.0310 
   86.8750   102.6610     7.1670     6.0520     5.5280    24.4930  -999.2500   -18.2690 
   87.0000   102.3580     7.6890     6.4800     5.7790    24.4780  -999.2500   -18.6200 
   87.1250    96.4420     8.0860     6.8490     6.3050    24.4090  -999.2500   -18.9800 
   87.2500    90.8330     8.2210     7.0230     6.9800    24.2940  -999.2500   -19.3790 
   87.3750    92.0000     8.0740     6.9580     7.3730    24.2360  -999.2500   -19.8390 
   87.5000    98.9410     7.7560     6.7170     6.7000    24.2710  -999.2500   -20.4630 
   87.6250   101.9650     7.4930     6.4710     6.1790    24.3320  -999.2500   -21.0500 
   87.7500    97.3530     7.4750     6.3980     6.2060    24.3190  -999.2500   -21.6840 
   87.8750    89.9850     7.7970     6.6000     6.5750    24.2240  -999.2500   -22.4400 
   88.0000    84.1890     8.4770     7.1110     7.1230    24.1030  -999.2500   -23.1240 
   88.1250    79.5360     9.4840     7.9160     7.7750    24.0170  -999.2500   -23.9080 
   88.2500    74.5670    10.6180     8.8340     8.5180    23.8870  -999.2500   -24.7140 
   88.3750    72.5570    11.7120     9.7050     9.4220    23.6770  -999.2500   -25.4330 
   88.5000    75.1750    12.6010    10.3850    10.3940    23.4740  -999.2500   -26.0660 
   88.6250    79.0770    13.1230    10.7410    11.6220    23.4260  -999.2500   -26.6590 
   88.7500    79.0390    13.3480    10.8550    13.4100    23.5250  -999.2500   -27.2100 
   88.8750    77.0610    13.3910    10.8350    14.9720    23.7340  -999.2500   -27.5870 
   89.0000    76.8290    13.3790    10.7900    14.0180    23.9820  -999.2500   -27.9460 
   89.1250    77.0900    13.3870    10.7790    12.4660    24.1750  -999.2500   -28.1530 
   89.2500    75.9130    13.3880    10.7740    11.2420    24.2810  -999.2500   -28.3060 
   89.3750    76.0540    13.3290    10.7250    10.4620    24.1630  -999.2500   -28.4810 
   89.5000    80.2130    13.1960    10.6080     9.9770    23.9360  -999.2500   -28.5740 
   89.6250    86.8180    13.0530    10.4550     9.7820    23.8400  -999.2500   -28.7160 
   89.7500    89.6360    12.9980    10.3460     9.8270    23.8550  -999.2500   -28.8670 
   89.8750    86.4420    13.0680    10.3250     9.9690    23.9880  -999.2500   -29.0370 
   90.0000    79.5410    13.2230    10.3910    10.1040    24.2160  -999.2500   -29.2520 
   90.1250    74.7440    13.3390    10.4780    10.1610    24.4260  -999.2500   -29.4610 
   90.2500    74.4990    13.2960    10.4880    10.1210    24.4050  -999.2500   -29.6970 
   90.3750    76.6060    13.0520    10.3640     9.9970    24.1670  -999.2500   -29.9610 
   90.5000    78.6150    12.6420    10.1010     9.8820    23.9070  -999.2500   -30.2350 
   90.6250    78.9910    12.1660     9.7440     9.9110    23.8430  -999.2500   -30.5000 
   90.7500    77.5930    11.7450     9.3870    10.0120    23.8860  -999.2500   -30.7690 
   90.8750    73.8610    11.4320     9.0820    10.0750    23.9600  -999.2500   -31.0010 
   91.0000    68.2620    11.2370     8.8520    10.0620    23.9850  -999.2500   -31.1320 
   91.1250    64.4080    11.1480     8.6990     9.9760    23.9200  -999.2500   -31.2690 
   91.2500    63.8500    11.1060     8.5870     9.9540    23.8200  -999.2500   -31.2840 
   91.3750    65.9390    11.0800     8.4930     9.9300    23.6850  -999.2500   -31.1940 
   91.5000    69.6480    11.0510     8.4050     9.8630    23.5060  -999.2500   -31.0770 
   91.6250    74.8130    11.0170     8.3260     9.7670    23.4110  -999.2500   -30.8190 
   91.7500    78.6960    10.9840     8.2590     9.6200    23.3940  -999.2500   -30.5030 
   91.8750    78.0630    10.9530     8.2100     9.5380    23.3990  -999.2500   -30.1960 
   92.0000    73.4570    10.9230     8.1790     9.5530    23.3970  -999.2500   -29.9480 
   92.1250    69.4870    10.8990     8.1660     9.6140    23.3980  -999.2500   -29.7220 
   92.2500    69.1780    10.8860     8.1630     9.6700    23.3870  -999.2500   -29.5880 
   92.3750    71.1780    10.8890     8.1640     9.6890    23.3730  -999.2500   -29.5130 
   92.5000    71.5810    10.9020     8.1650     9.6430    23.3820  -999.2500   -29.4230 
   92.6250    69.8250    10.9110     8.1610     9.5950    23.4000  -999.2500   -29.4820 
   92.7500    69.6380    10.8990     8.1480     9.5810    23.4120  -999.2500   -29.5050 
   92.8750    72.2250    10.8650     8.1240     9.5940    23.4140  -999.2500   -29.5460 
   93.0000    74.6880    10.8160     8.0900     9.6130    23.4150  -999.2500   -29.6060 
   93.1250    74.7590    10.7700     8.0490     9.6050    23.4220  -999.2500   -29.5690 
   93.2500    74.4640    10.7430     8.0150     9.6190    23.4440  -999.2500   -29.6060 
   93.3750    74.3650    10.7400     7.9960     9.6730    23.4910  -999.2500   -29.6060 
   93.5000    74.2000    10.7630     8.0010     9.7330    23.5480  -999.2500   -29.5570 
   93.6250    73.3070    10.8110     8.0330     9.6800    23.6060  -999.2500   -29.4870 
   93.7500    71.1090    10.8630     8.0740     9.6400    23.5920  -999.2500   -29.4380 
   93.8750    68.5060    10.8950     8.1070     9.6430    23.5460  -999.2500   -29.3020 
   94.0000    67.1920    10.8720     8.1070     9.6660    23.5330  -999.2500   -29.1110 
   94.1250    67.8250    10.7520     8.0480     9.6040    23.5630  -999.2500   -28.9850 
   94.2500    68.9700    10.5600     7.9430     9.5140    23.5910  -999.2500   -28.6960 
   94.3750    69.9990    10.3530     7.8210     9.4580    23.5770  -999.2500   -28.3990 
   94.5000    71.8690    10.2080     7.7270     9.3640    23.5620  -999.2500   -28.1840 
   94.6250    73.0070    10.2110     7.7200     9.0150    23.4790  -999.2500   -27.8820 
   94.7500    72.7060    10.3310     7.7920     8.8290    23.4840  -999.2500   -27.5580 
   94.8750    71.1470    10.4780     7.8990     9.1930    23.4970  -999.2500   -27.2350 
   95.0000    69.4710    10.5220     7.9660     9.6290    23.5080  -999.2500   -26.8720 
   95.1250    71.1800    10.3140     7.8920     9.7600    23.5490  -999.2500   -26.3420 
   95.2500    74.2400     9.8960     7.6820     9.5740    23.6540  -999.2500   -25.8220 
   95.3750    76.9010     9.3880     7.3950     9.2150    23.7930  -999.2500   -25.2690 
   95.5000    79.9980     8.9590     7.1300     8.4730    23.8990  -999.2500   -24.6250 
   95.6250    82.2550     8.7990     7.0160     7.5320    23.7970  -999.2500   -24.0750 
   95.7500    80.2000     8.9050     7.0710     7.1560    23.7360  -999.2500   -23.5050 
   95.8750    74.1560     9.1910     7.2620     7.5830    23.7210  -999.2500   -22.9500 
   96.0000    70.1480     9.5020     7.4960     8.0430    23.6480  -999.2500   -22.4160 
   96.1250    71.6820     9.6340     7.6300     7.8380    23.4740  -999.2500   -21.9290 
   96.2500    75.2060     9.5130     7.5840     7.3150    23.4910  -999.2500   -21.5550 
   96.3750    79.1660     9.1580     7.3470     7.0000    23.6250  -999.2500   -21.1770 
   96.5000    84.2930     8.6520     6.9640     6.7070    23.7930  -999.2500   -20.8530 
   96.6250    92.0680     8.0870     6.5070     6.0540    23.8310  -999.2500   -20.5830 
   96.7500    96.4080     7.5450     6.0520     5.7270    23.6540  -999.2500   -20.3100 
   96.8750    93.8160     7.0930     5.6610     5.8980    23.5600  -999.2500   -20.2020 
   97.0000    88.5840     6.8570     5.4230     6.0890    23.6150  -999.2500   -20.2800 
   97.1250    87.8980     7.0860     5.5170     5.9690    23.7710  -999.2500   -20.5530 
   97.2500    89.3580     7.8190     5.9800     6.4250    23.9490  -999.2500   -20.9820 
   97.3750    87.7680     8.9790     6.7910     7.9120    24.0820  -999.2500   -21.6580 
   97.5000    84.3000    10.3290     7.8190    10.9600    24.0540  -999.2500   -22.4530 
   97.6250    81.3470    11.4330     8.7860    16.2520    23.8560  -999.2500   -23.2410 
