~V
VERS. 2.00: Ver 2.00
~W
STRT.M 125.0000:
STOP.M 265.0000:
STEP.M 0.1250:
NULL. -999.2500:
UWI. DF3008:
~C
DEPT.M :
DEN.GM/CC :
GR.API :
CALI.CM :
RXO.OHMM :
RI. :
RML.OHMM :
SP.MV :
~A
  125.0000     2.2130    55.5120    24.4280    13.7670     9.6230    11.9000   -26.4960 
  125.1250     2.2210    55.7910    24.4360    13.8580     9.6870    11.8950   -26.8650 
  125.2500     2.2320    55.9760    24.4360    13.8330     9.6740    11.8030   -27.1890 
  125.3750     2.2390    56.0980    24.4360    13.8120     9.6120    11.6870   -27.4390 
  125.5000     2.2380    55.9060    24.4360    13.8200     9.5280    11.5780   -27.6370 
  125.6250     2.2260    54.2330    24.4360    13.7140     9.4380    11.4800   -27.7820 
  125.7500     2.2090    52.8330    24.4360    13.4490     9.3510    11.3940   -27.8840 
  125.8750     2.1960    53.4960    24.4360    13.2290     9.2690    11.3260   -27.9540 
  126.0000     2.1890    56.4420    24.4360    13.1580     9.1920    11.2790   -27.9910 
  126.1250     2.1830    59.4490    24.4360    13.1660     9.1210    11.2510   -27.9660 
  126.2500     2.1750    62.8470    24.4360    13.2160     9.0570    11.2190   -27.8960 
  126.3750     2.1710    66.1790    24.4290    13.2830     9.0010    11.1600   -27.7890 
  126.5000     2.1780    67.3230    24.3930    13.2800     8.9490    11.0690   -27.6370 
  126.6250     2.1930    64.4970    24.2940    13.2130     8.9010    10.9640   -27.4420 
  126.7500     2.2090    60.3330    24.1880    13.1440     8.8600    10.8780   -27.2250 
  126.8750     2.2220    58.6580    24.1360    13.0420     8.8280    10.8270   -26.9810 
  127.0000     2.2330    57.9720    24.1340    12.8700     8.8150    10.8180   -26.7040 
  127.1250     2.2340    55.8780    24.1480    12.6710     8.8320    10.8660   -26.3790 
  127.2500     2.2250    54.2720    24.1470    12.5230     8.8680    10.9520   -25.9840 
  127.3750     2.2070    56.5680    24.1270    12.3490     8.8820    11.0250   -25.5160 
  127.5000     2.1880    60.8920    24.1150    12.1200     8.7920    10.9650   -24.9590 
  127.6250     2.1820    62.9090    24.1120    11.6970     8.4550    10.5480   -24.2940 
  127.7500     2.1940    65.4980    24.0950    10.9810     7.8810     9.7650   -23.5320 
  127.8750     2.2200    71.2230    24.0490     9.8590     7.1700     8.7580   -22.7000 
  128.0000     2.2530    76.1050    23.9900     8.3230     6.4790     7.7830   -21.8790 
  128.1250     2.2800    74.3910    23.9310     6.9700     6.0070     7.1600   -21.1910 
  128.2500     2.2820    67.1250    23.9500     6.5300     5.8310     6.9900   -20.6860 
  128.3750     2.2560    59.5080    24.0170     7.2970     5.9830     7.3020   -20.3550 
  128.5000     2.2180    54.4380    24.1220     8.7670     6.4430     8.0320   -20.1340 
  128.6250     2.2010    52.8200    24.2700     9.9710     7.1360     9.0170   -19.9770 
  128.7500     2.2110    55.2370    24.3350    10.6250     7.8280     9.9050   -19.8320 
  128.8750     2.2330    59.5330    24.3510    10.5590     8.3120    10.4170   -19.6550 
  129.0000     2.2400    60.2280    24.3510     9.8530     8.4610    10.4270   -19.3530 
  129.1250     2.2260    58.1240    24.3490     8.9740     8.2170     9.9590   -18.7960 
  129.2500     2.2160    59.4960    24.3460     8.4300     7.7250     9.2480   -17.9680 
  129.3750     2.2260    66.3240    24.3430     8.2910     7.0770     8.4060   -16.9120 
  129.5000     2.2550    72.6630    24.3440     8.2450     6.3730     7.5290   -15.7240 
  129.6250     2.2820    74.8140    24.3590     7.9000     5.7480     6.7720   -14.5490 
  129.7500     2.2970    75.3080    24.3970     7.3160     5.2910     6.2520   -13.4790 
  129.8750     2.3060    75.6290    24.4550     6.8170     5.0520     6.0390   -12.5590 
  130.0000     2.3070    74.4930    24.4910     6.8000     5.0420     6.1470   -11.8260 
  130.1250     2.2970    73.8580    24.4770     7.4740     5.2510     6.5360   -11.2970 
  130.2500     2.2830    76.4030    24.4230     8.3460     5.5330     6.9700   -10.9110 
  130.3750     2.2760    81.8870    24.3790     8.5290     5.7400     7.2150   -10.6030 
  130.5000     2.2850    84.9680    24.4110     7.8190     5.7540     7.1100   -10.3430 
  130.6250     2.3100    88.3330    24.5860     6.7850     5.5270     6.6520   -10.0890 
  130.7500     2.3400    93.6100    24.8200     5.8830     5.1990     6.1030    -9.8190 
  130.8750     2.3660    95.9890    24.9680     5.2600     4.8860     5.6400    -9.5310 
  131.0000     2.3820    91.4060    25.0070     5.0200     4.6680     5.3590    -9.2150 
  131.1250     2.3870    85.9810    24.9830     5.2050     4.5880     5.2990    -8.9050 
  131.2500     2.3880    85.8350    24.9510     5.3050     4.6040     5.3790    -8.6320 
  131.3750     2.3870    87.9440    24.9370     5.3180     4.6770     5.5350    -8.4510 
  131.5000     2.3830    85.6760    24.9350     5.5240     4.7620     5.6970    -8.3670 
  131.6250     2.3780    83.1210    24.9350     5.8620     4.8040     5.7890    -8.3720 
  131.7500     2.3780    84.7330    24.9350     5.9490     4.7810     5.7820    -8.3980 
  131.8750     2.3840    90.3140    24.9350     5.7950     4.6830     5.6740    -8.4550 
  132.0000     2.3950    92.9330    24.9350     5.5560     4.5240     5.4750    -8.5440 
  132.1250     2.4090    92.7610    24.9350     5.2450     4.3310     5.2180    -8.6770 
  132.2500     2.4210    93.1240    24.9340     4.9500     4.1700     4.9870    -8.8670 
  132.3750     2.4240    93.3620    24.9260     4.8450     4.1170     4.8970    -9.1170 
  132.5000     2.4220    89.5150    24.9050     4.9800     4.2590     5.0800    -9.4340 
  132.6250     2.4260    81.8280    24.8710     5.4580     4.7390     5.7360    -9.8390 
  132.7500     2.4390    72.3670    24.8360     6.4240     5.5640     6.8580   -10.3250 
  132.8750     2.4560    64.4970    24.7680     8.3140     6.6890     8.3590   -10.8440 
  133.0000     2.4600    64.4640    24.6580    11.5890     7.9050     9.8970   -11.3500 
  133.1250     2.4310    69.5610    24.5530    14.9540     8.7500    10.7390   -11.8000 
  133.2500     2.3790    73.8810    24.5030    15.7460     9.0630    10.7370   -12.1580 
  133.3750     2.3280    74.4480    24.4720    13.8260     9.0290    10.3290   -12.4110 
  133.5000     2.3070    73.0950    24.4230    11.3560     8.9460    10.0360   -12.5150 
  133.6250     2.3440    72.1730    24.3780    10.3110     8.9900    10.1060   -12.3960 
  133.7500     2.4140    72.6450    24.4030    11.0730     9.0480    10.2740   -12.0790 
  133.8750     2.4790    75.2430    24.5400    12.4280     8.8680    10.1160   -11.6290 
  134.0000     2.5020    79.6800    24.7670    11.9830     8.2350     9.2820   -11.1300 
  134.1250     2.4670    83.3980    24.8930     9.0520     7.1820     7.8790   -10.6510 
  134.2500     2.4150    85.9400    24.9320     6.2550     6.1040     6.5480   -10.2340 
  134.3750     2.3810    87.9160    24.9350     4.9970     5.2280     5.5890    -9.9070 
  134.5000     2.3750    90.0880    24.9350     4.6420     4.6340     5.0390    -9.7090 
  134.6250     2.3850    91.4680    24.9350     4.5500     4.3270     4.8130    -9.7030 
  134.7500     2.3900    91.0820    24.9340     4.4290     4.1660     4.6930    -9.8770 
  134.8750     2.3850    89.3310    24.9170     4.3360     4.0870     4.6030   -10.1970 
  135.0000     2.3770    86.4980    24.8650     4.3690     4.1050     4.6040   -10.6300 
  135.1250     2.3820    81.5120    24.7780     4.5920     4.3420     4.9070   -11.1420 
  135.2500     2.4070    75.5260    24.7310     5.0880     4.8550     5.6060   -11.7010 
  135.3750     2.4350    71.0050    24.7190     6.2870     5.6580     6.7310   -12.2770 
  135.5000     2.4450    69.8090    24.7060     8.9450     6.6290     8.1460   -12.8630 
  135.6250     2.4290    70.8700    24.6260    11.4260     7.3550     9.2430   -13.4350 
  135.7500     2.4100    75.9060    24.4690    11.6740     7.4760     9.3760   -13.9550 
  135.8750     2.4000    83.1690    24.3600     9.8460     7.0150     8.5700   -14.4240 
  136.0000     2.3970    85.8670    24.4250     7.7470     6.3290     7.4710   -14.8940 
  136.1250     2.3930    81.5820    24.5930     6.4400     5.8410     6.7730   -15.4340 
