~V
VERS. 2.00: Ver 2.00
~W
STRT.M 55.0000:
STOP.M 272.0000:
STEP.M 0.1250:
NULL. -999.2500:
UWI. DF3078:
~C
DEPT.M :
GR.API :
CALI.CM :
RXO.OHMM :
RI. :
RML.OHMM :
DEN.GM/CC :
SP.MV :
~A
# ...
  212.5000    71.4530    22.9160    50.5620    75.6970    80.0900     2.2520   -13.4810 
  212.6250    70.9350    23.0600    50.7240    76.6190    80.6570     2.2350   -13.7420 
  212.7500    68.7590    23.1240    48.9640    77.6660    81.2030     2.2100   -14.0030 
  212.8750    66.2880    23.1140    47.0360    78.5820    81.4690     2.1940   -14.2680 
  213.0000    66.0730    23.1000    47.7150    79.1370    81.2600     2.1910   -14.5550 
  213.1250    68.0520    23.1760    52.0550    79.1790    80.5240     2.1980   -14.8410 
  213.2500    70.2080    23.4020    58.7240    78.9890    79.6380     2.2050   -15.1430 
  213.3750    70.0550    23.7500    66.2080    79.5610    78.2220     2.2080   -15.4500 
  213.5000    68.1370    24.0910    72.2780    79.4830    78.0110     2.2080   -15.7930 
  213.6250    68.6330    24.2140    75.7190    79.3480    78.4600     2.2020   -16.1570 
  213.7500    70.7850    24.2320    78.8640    79.2390    79.0010     2.1900   -16.5610 
  213.8750    71.7590    24.3200    81.5600    78.8720    79.3340     2.1840   -16.9930 
  214.0000    70.9830    24.4640    82.1000    78.0190    79.1760     2.1930   -17.4640 
  214.1250    70.9910    24.5310    80.0240    76.5870    78.3300     2.2150   -17.9980 
  214.2500    73.9900    24.4950    76.8440    74.9350    77.0850     2.2290   -18.5470 
  214.3750    76.4980    24.3850    74.2370    73.4960    75.8290     2.2320   -19.1230 
  214.5000    73.8260    24.2200    73.1130    72.7760    75.0610     2.2340   -19.7150 
  214.6250    67.4250    24.1260    72.0730    73.5120    75.5330     2.2470   -20.3570 
  214.7500    64.9730    24.2050    71.6630    75.9220    77.5600     2.2660   -21.0180 
  214.8750    67.7040    24.4290    73.7040    80.3340    81.5630     2.2820   -21.7100 
  215.0000    69.4500    24.6330    79.9400    87.0770    87.9970     2.2870   -22.4050 
  215.1250    67.2370    24.7110    92.1920    96.8370    97.7300     2.2800   -23.0950 
  215.2500    66.5430    24.7430   110.3330   108.9950   110.1680     2.2700   -23.7870 
  215.3750    67.5790    24.7630   134.7350   122.6570   124.3930     2.2610   -24.4610 
  215.5000    67.9670    24.7720   161.3070   136.2290   138.7670     2.2580   -25.1260 
  215.6250    66.3520    24.7720   180.7630   147.5070   150.9940     2.2610   -25.7450 
  215.7500    65.6340    24.7720   184.6740   156.2970   160.5880     2.2630   -26.3250 
  215.8750    66.9080    24.7720   180.2360   163.9400   168.6240     2.2600   -26.8580 
  216.0000    67.6760    24.7720   182.2750   172.7250   177.3340     2.2520   -27.3460 
  216.1250    68.3930    24.7700   198.2750   185.6080   189.8190     2.2460   -27.7810 
  216.2500    68.6020    24.7500   222.6240   203.1700   206.9020     2.2410   -28.1790 
  216.3750    66.1870    24.6720   247.9890   225.0440   228.3330     2.2310   -28.5270 
  216.5000    62.0750    24.5250   268.4810   249.6080   252.6700     2.2160   -28.7980 
  216.6250    61.0610    24.3840   268.1150   274.1310   277.5300     2.2030   -28.9920 
  216.7500    62.0640    24.3760   256.2330   296.4970   300.8110     2.1970   -29.1120 
  216.8750    60.0580    24.4390   250.7690   315.9910   321.6420     2.2020   -29.1500 
  217.0000    55.6830    24.4130   257.1290   331.9370   339.2960     2.2220   -29.1090 
  217.1250    54.1600    24.2560   276.2760   341.4870   351.2850     2.2560   -28.9950 
  217.2500    55.2870    24.1700   317.7730   343.0420   356.1220     2.2880   -28.7890 
  217.3750    56.1050    24.3480   376.8820   335.0290   352.0380     2.3070   -28.5190 
  217.5000    55.8990    24.6390   406.9990   317.3810   338.2540     2.3110   -28.2000 
  217.6250    55.2980    24.8250   361.0470   291.6210   314.9680     2.2930   -27.8340 
  217.7500    55.1950    24.8450   296.1130   263.4870   287.4090     2.2620   -27.4590 
  217.8750    58.0370    24.8100   240.0010   236.9390   259.6630     2.2370   -27.0660 
  218.0000    63.9310    24.7980   198.9680   215.0700   235.4570     2.2330   -26.6510 
  218.1250    66.8930    24.7800   177.3110   201.4040   219.3300     2.2490   -26.1870 
  218.2500    64.5820    24.7050   173.4840   195.6280   211.9490     2.2660   -25.7270 
  218.3750    60.3960    24.6380   182.1750   197.0970   213.1360     2.2880   -25.2480 
  218.5000    57.7050    24.6610   199.5490   203.7900   220.9550     2.3290   -24.7540 
  218.6250    57.7830    24.6330   246.1590   211.0990   230.8220     2.3840   -24.2350 
  218.7500    58.8750    24.5770   312.6620   212.3590   235.4080     2.4110   -23.6800 
  218.8750    59.1250    24.5150   325.2110   203.4810   229.6640     2.3890   -23.1070 
  219.0000    58.3270    24.4890   261.0970   185.2250   212.9850     2.3270   -22.5330 
  219.1250    60.8100    24.4530   193.8060   162.4630   189.0480     2.2670   -21.9940 
  219.2500    64.8260    24.4320   155.6260   141.1120   164.7890     2.2360   -21.4630 
  219.3750    64.6190    24.4300   134.5130   123.3780   143.5230     2.2270   -20.9550 
  219.5000    61.0650    24.4450   122.2080   109.7420   126.5190     2.2230   -20.4780 
  219.6250    59.2160    24.4630   109.4640   100.5480   114.5210     2.2150   -20.0280 
  219.7500    59.6620    24.4880    96.9730    94.8180   106.5310     2.2080   -19.6210 
  219.8750    61.0150    24.5110    87.4550    92.3220   102.3240     2.2070   -19.2500 
  220.0000    61.9300    24.5230    84.9290    92.8210   101.6410     2.2050   -18.9100 
  220.1250    62.6340    24.5640    95.0440    96.3760   104.6170     2.2000   -18.5710 
  220.2500    64.1990    24.6820   112.6280   101.9210   110.0520     2.1920   -18.2510 
  220.3750    67.9760    24.8500   125.5940   108.6420   117.0090     2.1900   -17.9260 
  220.5000    71.1980    24.9460   131.4400   115.7230   124.5540     2.1960   -17.6170 
  220.6250    68.9360    24.9600   136.8610   122.2040   131.7660     2.2060   -17.3190 
  220.7500    65.1320    24.9560   146.1210   126.7380   137.3110     2.2080   -17.0190 
  220.8750    64.2600    24.9530   154.2070   127.1990   139.0370     2.1970   -16.7050 
  221.0000    67.0570    24.9460   160.9700   121.5180   134.6640     2.1810   -16.3790 
  221.1250    69.3210    24.9280   158.7630   108.6880   122.4310     2.1740   -16.0580 
  221.2500    69.6660    24.8970   134.0960    92.9480   106.0450     2.1750   -15.7440 
  221.3750    70.7400    24.8710    95.8590    77.9890    89.3650     2.1780   -15.4570 
  221.5000    74.4100    24.8700    66.8120    66.1060    75.4020     2.1800   -15.1950 
  221.6250    76.2460    24.8790    57.8330    58.3830    65.9210     2.1840   -14.9450 
  221.7500    73.5490    24.8750    56.1370    53.6310    59.8710     2.1910   -14.7070 
  221.8750    70.4550    24.8430    55.8680    51.1380    56.5270     2.1920   -14.5010 
  222.0000    70.8910    24.7890    54.9920    50.2340    55.1720     2.1740   -14.3290 
  222.1250    71.7280    24.7030    53.4060    50.4630    55.2900     2.1390   -14.1830 
  222.2500    69.8840    24.5810    52.4550    51.2320    56.1300     2.1150   -14.0670 
  222.3750    69.4750    24.5330    53.6660    52.2200    57.2990     2.1190   -13.9600 
  222.5000    72.2940    24.6070    55.9360    53.0290    58.3420     2.1420   -13.8470 
  222.6250    73.3490    24.4230    55.1960    53.0890    58.5860     2.1690   -13.7510 
  222.7500    72.2530    24.0050    52.2800    52.3350    57.8700     2.1970   -13.6700 
  222.8750    72.0800    23.7050    49.8820    51.0190    56.3720     2.2270   -13.6030 
  223.0000    73.4300    23.7070    49.3960    49.6170    54.5550     2.2470   -13.5480 
  223.1250    74.7770    23.9260    50.7440    48.6700    53.0090     2.2490   -13.5080 
  223.2500    75.6880    24.1250    52.4420    48.3080    52.0140     2.2500   -13.4720 
  223.3750    76.8140    24.1670    52.7350    48.4780    51.6100     2.2570   -13.4720 
  223.5000    76.4060    24.1010    51.9200    49.0800    51.7530     2.2580   -13.5240 
  223.6250    72.5480    24.0910    51.4420    50.1150    52.4730     2.2390   -13.6380 
