~V
VERS. 2.00: Ver 2.00
~W
STRT.M 61.0000:
STOP.M 279.0000:
STEP.M 0.1250:
NULL. -999.2500:
UWI. DF3040:
~C
DEPT.M :
GR.API :
CALI.CM :
RXO.OHMM :
RI. :
RML.OHMM :
DEN.GM/CC :
SP.MV :
~A
# ...
  128.5000    81.4250    22.4550     8.5110     6.9280     9.0950     2.3380   -21.0140 
  128.6250    83.9070    22.5220     7.1910     6.6300     8.6930     2.3320   -21.2020 
  128.7500    84.2280    22.7050     6.3590     6.4220     8.4560     2.3480   -21.4290 
  128.8750    83.6430    22.8800     6.2150     6.4680     8.6830     2.3680   -21.7020 
  129.0000    82.5560    23.0320     6.5350     6.8830     9.5310     2.3800   -21.9600 
  129.1250    80.8330    23.1060     7.1590     7.8130    11.0900     2.3770   -22.1730 
  129.2500    77.7740    23.1210     8.8840     9.1030    12.9940     2.3670   -22.3410 
  129.3750    74.9160    23.1370    12.6940    10.5860    14.8980     2.3500   -22.4860 
  129.5000    72.4910    23.2060    17.4650    11.9780    16.4140     2.3200   -22.6680 
  129.6250    70.7790    23.5220    27.0570    12.7700    16.9110     2.2740   -22.8720 
  129.7500    69.3390    23.6760    31.7690    12.9030    16.5510     2.2290   -23.0670 
  129.8750    67.7710    23.4010    26.0130    12.5250    15.5880     2.2020   -23.2440 
  130.0000    65.5940    22.8170    15.7090    11.9090    14.4300     2.1930   -23.4000 
  130.1250    63.3120    22.1390    11.6090    11.3400    13.5460     2.1980   -23.5220 
  130.2500    62.4620    22.0600    10.5680    10.9700    13.0440     2.2140   -23.6040 
  130.3750    64.0170    22.1750    10.3030    10.7810    12.8480     2.2450   -23.6450 
  130.5000    67.6000    22.2110    10.0680    10.7000    12.7810     2.2810   -23.6070 
  130.6250    68.8040    22.2230     9.9200    10.6570    12.7220     2.2920   -23.5120 
  130.7500    66.0220    22.3370    10.4930    10.5860    12.5610     2.2690   -23.4120 
  130.8750    62.3450    22.6410    11.2950    10.4590    12.2670     2.2260   -23.3520 
  131.0000    60.8440    23.0360    11.6140    10.3050    11.8890     2.1910   -23.3330 
  131.1250    63.4070    23.0660    11.3250    10.1590    11.4580     2.1840   -23.3550 
  131.2500    67.8120    23.0080    11.5630    10.0290    11.0450     2.1920   -23.4030 
  131.3750    70.7810    22.8560    12.5180     9.9270    10.6860     2.2080   -23.4220 
  131.5000    70.1850    22.8300    12.7930     9.8450    10.3930     2.2250   -23.4180 
  131.6250    69.1000    22.9410    12.1540     9.7640    10.1700     2.2420   -23.3970 
  131.7500    69.5390    23.0730    11.6770     9.6970    10.0190     2.2490   -23.3780 
  131.8750    69.8280    23.1160    12.0150     9.6810     9.9910     2.2420   -23.3370 
  132.0000    68.0380    23.1240    12.1320     9.7280    10.0830     2.2270   -23.3020 
  132.1250    64.2950    23.1300    11.8940     9.8480    10.2820     2.2170   -23.3100 
  132.2500    61.8630    23.1180    11.7990    10.0280    10.5160     2.2170   -23.3750 
  132.3750    62.6280    23.0850    11.8290    10.2450    10.7310     2.2200   -23.5000 
  132.5000    66.2860    22.8910    11.7830    10.4280    10.8750     2.2200   -23.6250 
  132.6250    66.0210    23.0190    11.8300    10.5360    10.9040     2.2180   -23.7050 
  132.7500    61.0500    23.0070    12.1900    10.5510    10.8560     2.2210   -23.7080 
  132.8750    58.2310    23.0380    12.5020    10.4830    10.7390     2.2310   -23.6650 
  133.0000    62.4960    23.1070    12.5390    10.3550    10.5930     2.2420   -23.5950 
  133.1250    68.4650    23.1150    12.4450    10.2270    10.5140     2.2520   -23.5160 
  133.2500    68.1680    23.0810    12.2720    10.1150    10.5150     2.2650   -23.4480 
  133.3750    65.1940    22.8850    12.1890    10.0060    10.5440     2.2780   -23.3770 
  133.5000    65.5140    22.6830    12.3220     9.9030    10.5390     2.2850   -23.3330 
  133.6250    66.1550    22.6130    12.5470     9.7880    10.4520     2.2800   -23.2750 
  133.7500    63.2240    22.5400    12.7330     9.6360    10.2670     2.2700   -23.2040 
  133.8750    61.1220    22.5130    12.8720     9.4720    10.0000     2.2610   -23.1250 
  134.0000    63.0770    22.5490    12.8700     9.3270     9.7430     2.2560   -23.0150 
  134.1250    63.9330    22.7810    11.9940     9.2410     9.5410     2.2570   -22.8830 
  134.2500    59.1610    22.9160    11.0160     9.2250     9.4260     2.2630   -22.7410 
  134.3750    54.4420    22.8040    10.8980     9.2920     9.4330     2.2660   -22.6260 
  134.5000    54.8160    22.5870    11.5890     9.4250     9.5380     2.2530   -22.5640 
  134.6250    59.0620    22.5220    12.5590     9.5650     9.6620     2.2250   -22.5750 
  134.7500    62.7830    22.5010    12.4460     9.7020     9.7550     2.1980   -22.6190 
  134.8750    64.5680    22.4930    12.1950     9.7960     9.8080     2.1810   -22.6260 
  135.0000    63.8610    22.4640    12.1220     9.8260     9.7880     2.1750   -22.6130 
  135.1250    61.1230    22.4940    12.0900     9.7910     9.6990     2.1720   -22.5560 
  135.2500    58.9070    22.6340    12.1150     9.7350     9.6120     2.1680   -22.4450 
  135.3750    58.1840    22.8110    12.3510     9.6700     9.5210     2.1650   -22.2920 
  135.5000    58.8370    22.9370    12.3990     9.6150     9.4580     2.1610   -22.1000 
  135.6250    61.1010    22.8820    12.3230     9.5730     9.4140     2.1580   -21.9020 
  135.7500    63.3410    22.8390    12.1110     9.5380     9.3990     2.1570   -21.7160 
  135.8750    63.8200    22.8480    11.8470     9.5180     9.4050     2.1600   -21.5670 
  136.0000    64.8780    23.0670    11.5800     9.5050     9.3960     2.1670   -21.4050 
  136.1250    66.3170    22.9700    11.3280     9.4000     9.3240     2.1730   -21.1840 
  136.2500    65.9330    22.9300    10.7850     9.1510     9.1520     2.1790   -20.9170 
  136.3750    65.3140    22.8900     9.9360     8.7490     8.8780     2.1910   -20.6090 
  136.5000    68.1420    22.8930     9.8490     8.2100     8.4940     2.2080   -20.2640 
  136.6250    73.3230    22.8280     9.6480     7.5720     8.0320     2.2220   -19.9150 
  136.7500    75.8620    22.7690     9.3020     6.9550     7.6050     2.2350   -19.5750 
  136.8750    79.3000    22.3970     8.1360     6.4400     7.2810     2.2590   -19.2620 
  137.0000    85.7680    22.0010     6.8100     6.0730     7.1020     2.2940   -19.0200 
  137.1250    88.8650    22.2140     6.4560     5.9110     7.0460     2.3200   -18.8870 
  137.2500    86.8440    22.5470     7.4890     5.9150     7.0830     2.3270   -18.8090 
  137.3750    84.9720    22.7770     8.5340     6.0150     7.1710     2.3200   -18.7180 
  137.5000    85.5270    22.8250     8.8180     6.1550     7.2800     2.3110   -18.5810 
  137.6250    84.6090    22.9050     8.5090     6.2670     7.3570     2.3120   -18.4250 
  137.7500    83.1370    22.8480     8.0200     6.2900     7.3430     2.3240   -18.2970 
  137.8750    84.2910    22.9700     7.7400     6.1870     7.2310     2.3450   -18.1870 
  138.0000    86.8790    23.4000     7.3850     5.9980     7.0820     2.3610   -18.0930 
  138.1250    86.5560    23.6800     7.6800     5.7610     6.9340     2.3600   -18.0100 
  138.2500    84.3070    23.7610     7.6570     5.5070     6.7840     2.3510   -17.9460 
  138.3750    83.4630    23.7900     7.6020     5.2800     6.6530     2.3440   -17.9140 
  138.5000    84.7350    23.8010     7.2140     5.1200     6.5960     2.3440   -17.9030 
  138.6250    88.2970    23.7440     6.7110     5.0350     6.6330     2.3550   -17.8990 
  138.7500    91.7790    23.7470     6.5740     5.0190     6.7710     2.3730   -17.8790 
  138.8750    92.4350    23.7520     6.7740     5.0590     6.9820     2.3900   -17.8780 
  139.0000    91.1000    23.7280     7.1230     5.1070     7.1570     2.3950   -17.8910 
  139.1250    91.9930    23.6450     7.9190     5.0990     7.1950     2.3870   -17.9570 
  139.2500    93.6790    23.5470     8.4180     5.0380     7.0890     2.3780   -18.0830 
  139.3750    95.1110    23.4060     8.4100     4.9540     6.9090     2.3720   -18.2600 
  139.5000    96.6460    23.1010     7.8560     4.9420     6.8450     2.3690   -18.4520 
  139.6250    98.5860    23.2870     7.4660     5.1680     7.2410     2.3780   -18.5880 
