~V
VERS. 2.00: Ver 2.00
~W
STRT.M 130.0000:
STOP.M 280.0000:
STEP.M 0.1250:
NULL. -999.2500:
UWI. DF3042:
~C
DEPT.M :
DEN.GM/CC :
GR.API :
RML.OHMM :
RI. :
RXO.OHMM :
CALI.CM :
SP.MV :
~A
# ...
  197.5000     2.3110    66.7370    70.3510    62.9340    69.6870    25.2260   -24.0840 
  197.6250     2.2980    65.9990    65.3290    57.9860    58.0510    25.2670   -23.4760 
  197.7500     2.2880    66.1350    62.6910    54.9180    53.6490    25.3510   -22.7510 
  197.8750     2.2950    66.6730    61.1700    52.7520    50.7500    25.2450   -22.0030 
  198.0000     2.3300    67.3870    58.9060    50.0280    48.2950    25.1480   -21.2400 
  198.1250     2.3990    67.3870    53.4360    44.8960    47.2800    25.0370   -20.3780 
  198.2500     2.4750    66.6620    44.8580    37.4300    49.9250    24.9970   -19.6140 
  198.3750     2.5300    64.6480    34.6360    28.8930    49.6360    25.0640   -18.8720 
  198.5000     2.5490    61.8070    25.1600    21.1060    39.3010    25.0840   -18.2130 
  198.6250     2.5340    58.9800    18.1110    15.6310    23.2320    24.9930   -17.6540 
  198.7500     2.5160    58.2140    13.5190    12.1700    13.0210    24.8660   -17.2180 
  198.8750     2.5100    60.0800    11.2800    10.2530     9.5370    24.7740   -16.8910 
  199.0000     2.5180    61.9300    10.6150     9.4140     9.1030    24.6010   -16.7110 
  199.1250     2.5280    59.7250    10.7820     9.4020     9.4620    24.5410   -16.6050 
  199.2500     2.5280    55.6020    11.4040     9.8700     9.7730    24.6520   -16.5770 
  199.3750     2.5210    54.3980    12.3570    10.6850    10.3030    24.8710   -16.5500 
  199.5000     2.5140    58.1150    13.5400    11.7370    11.4540    24.9290   -16.5770 
  199.6250     2.5170    60.7980    14.8060    12.8960    12.8470    24.9120   -16.5630 
  199.7500     2.5260    59.5610    15.9120    13.9480    14.1670    24.8930   -16.5800 
  199.8750     2.5350    58.0610    16.6420    14.6960    15.4550    24.8930   -16.6150 
  200.0000     2.5380    59.0460    16.8600    14.9830    16.4750    24.9110   -16.5710 
  200.1250     2.5390    59.4040    16.5050    14.6990    17.0970    24.9610   -16.6490 
  200.2500     2.5440    58.6780    15.8400    14.0580    17.4640    25.0120   -16.6720 
  200.3750     2.5560    59.6160    15.0610    13.2370    16.2390    24.9900   -16.7540 
  200.5000     2.5670    61.7860    14.2960    12.3760    13.7770    24.9280   -16.8090 
  200.6250     2.5650    60.9400    13.5690    11.5380    12.3240    24.9000   -16.9010 
  200.7500     2.5480    59.0560    12.8140    10.7070    11.8700    24.9170   -16.9560 
  200.8750     2.5220    59.4070    12.0020     9.8720    11.4370    24.9870   -16.9330 
  201.0000     2.4940    62.5390    11.1820     9.0680    10.6990    25.1120   -16.9680 
  201.1250     2.4710    67.5140    10.5290     8.4140     9.6430    25.0400   -16.8460 
  201.2500     2.4540    73.4600    10.1720     7.9910     8.5980    24.9990   -16.7750 
  201.3750     2.4460    80.1630    10.1700     7.8430     7.9120    25.0240   -16.6780 
  201.5000     2.4450    86.3520    10.4800     7.9590     8.1040    25.0460   -16.6320 
  201.6250     2.4520    88.8600    10.9860     8.2920     8.9340    25.0060   -16.5970 
  201.7500     2.4570    86.6910    11.5050     8.7000     9.7900    24.9460   -16.5740 
  201.8750     2.4570    83.2240    11.9530     9.0960    10.4750    24.9450   -16.6240 
  202.0000     2.4510    83.2830    12.3240     9.4280    10.6540    25.0180   -16.6750 
  202.1250     2.4470    87.3920    12.6590     9.6740    10.4270    25.0840   -16.8650 
  202.2500     2.4500    90.7070    12.9770     9.8480    10.3170    25.1270   -17.0530 
  202.3750     2.4640    89.8280    13.2180     9.9290    10.4010    25.1260   -17.3140 
  202.5000     2.4800    85.9420    13.2770     9.8750    10.7540    25.0890   -17.5720 
  202.6250     2.4870    84.6950    13.0360     9.6240    10.9270    25.0600   -17.9060 
  202.7500     2.4750    87.4660    12.5900     9.2420    10.6680    25.0450   -18.2490 
  202.8750     2.4490    91.7350    12.1020     8.8260     9.9560    25.0530   -18.6980 
  203.0000     2.4210    95.2410    11.7690     8.5030     9.3940    25.0610   -19.1650 
  203.1250     2.4020    97.6000    11.7910     8.4180     9.4840    25.0630   -19.6810 
  203.2500     2.3970    98.1930    12.1460     8.5850    10.0300    25.0420   -20.2180 
  203.3750     2.4000    96.1860    12.7780     8.9950    11.1700    24.9830   -20.6630 
  203.5000     2.4050    93.0520    13.6170     9.6110    12.8320    24.9530   -21.1060 
  203.6250     2.4070    91.3000    14.6510    10.4160    14.7550    24.9370   -21.3840 
  203.7500     2.4040    91.3310    15.8550    11.3470    15.9100    25.0440   -21.6030 
  203.8750     2.4010    90.4810    17.1900    12.3520    16.6740    25.0680   -21.6400 
  204.0000     2.4000    86.5100    18.4980    13.3160    17.6920    25.0390   -21.5700 
  204.1250     2.4100    82.5940    19.3680    13.9640    18.6360    25.0280   -21.2920 
  204.2500     2.4320    81.8630    19.4700    14.0810    19.9310    25.0360   -20.8620 
  204.3750     2.4600    83.0890    18.6200    13.5300    20.6570    24.9930   -20.3860 
  204.5000     2.4870    85.1900    16.9250    12.3670    19.7470    24.8930   -19.8000 
  204.6250     2.4960    89.2160    14.7930    10.8420    16.1700    24.8560   -19.2230 
  204.7500     2.4870    93.0690    12.8610     9.3980    13.1650    25.0200   -18.6070 
  204.8750     2.4670    95.4390    11.5090     8.3050    11.0060    25.2130   -18.0400 
  205.0000     2.4450    98.1360    10.9520     7.7330     9.6030    25.3890   -17.4990 
  205.1250     2.4370    99.0610    11.4020     7.8730     8.8230    25.3280   -17.0930 
  205.2500     2.4450    96.3800    12.6060     8.6070     9.2710    25.1940   -16.7540 
  205.3750     2.4660    93.4830    14.2660     9.7820    10.4140    25.0790   -16.4980 
  205.5000     2.4940    95.8610    15.8970    11.0940    12.1890    24.9890   -16.2290 
  205.6250     2.5200   102.0310    16.7380    12.0140    14.0660    24.9580   -15.9850 
  205.7500     2.5320   105.7610    16.4590    12.1920    14.9670    25.0270   -15.7100 
  205.8750     2.5260   104.5570    15.1130    11.5550    14.2540    25.1100   -15.3670 
  206.0000     2.4990    98.8310    13.1720    10.3560    12.5910    25.1820   -14.9840 
  206.1250     2.4640    89.7150    11.3520     9.0600    10.6260    25.2980   -14.4210 
  206.2500     2.4340    78.1030    10.0870     8.0430     8.5260    25.7880   -13.9040 
  206.3750     2.4160    66.9980     9.4550     7.4200     7.3120    26.2100   -13.3220 
  206.5000     2.4100    59.2770     9.3380     7.1730     7.0570    26.1770   -12.8540 
  206.6250     2.4090    58.8440     9.5570     7.2440     7.1270    25.7220   -12.3860 
  206.7500     2.4090    63.7710     9.8440     7.4570     7.1220    25.5580   -12.0150 
  206.8750     2.4110    70.2870    10.0560     7.7000     7.0380    25.5010   -11.7540 
  207.0000     2.4190    74.6110    10.1170     7.8890     6.8830    25.2730   -11.5300 
  207.1250     2.4320    75.9630     9.9940     7.9550     6.8400    24.8140   -11.4870 
  207.2500     2.4440    80.9520     9.7590     7.9140     6.8520    24.4750   -11.4230 
  207.3750     2.4500    88.4570     9.4760     7.7940     6.9180    24.5010   -11.4590 
  207.5000     2.4490    91.5540     9.2210     7.6400     7.0050    24.8580   -11.4320 
  207.6250     2.4420    89.3310     9.0980     7.5200     7.0180    25.0580   -11.4930 
  207.7500     2.4360    86.6380     9.1290     7.4780     7.0660    25.0880   -11.5720 
  207.8750     2.4330    85.0940     9.2890     7.5190     7.1830    25.0670   -11.6560 
  208.0000     2.4320    84.6570     9.5010     7.6110     7.5860    25.0620   -11.8220 
  208.1250     2.4300    88.8920     9.6630     7.6940     8.1850    25.0640   -11.9490 
  208.2500     2.4230    93.3430     9.7320     7.7190     9.0140    25.0600   -12.1340 
  208.3750     2.4120    92.2980     9.7360     7.6890     9.5850    25.0440   -12.2770 
  208.5000     2.4000    86.9450     9.7590     7.6500     8.7280    25.0090   -12.4820 
  208.6250     2.3950    84.6580     9.9200     7.7010     8.4330    24.9820   -12.6660 
