~V
VERS. 2.00: Ver 2.00
~W
STRT.M 60.0000:
STOP.M 232.0000:
STEP.M 0.1250:
NULL. -999.2500:
UWI. DF3065:
~C
DEPT.M :
GR.API :
CALI.CM :
RXO.OHMM :
RI. :
RML.OHMM :
DEN.GM/CC :
SP.MV :
~A
   60.0000  -999.2500  -999.2500  -999.2500  -999.2500  -999.2500  -999.2500    27.8770 
   60.1250  -999.2500  -999.2500  -999.2500  -999.2500  -999.2500  -999.2500    27.8770 
   60.2500  -999.2500  -999.2500  -999.2500  -999.2500  -999.2500  -999.2500    27.5190 
   60.3750  -999.2500  -999.2500  -999.2500  -999.2500  -999.2500  -999.2500    27.1210 
   60.5000  -999.2500  -999.2500  -999.2500  -999.2500  -999.2500  -999.2500    26.6950 
   60.6250  -999.2500  -999.2500  -999.2500  -999.2500  -999.2500  -999.2500    26.2420 
   60.7500  -999.2500  -999.2500  -999.2500  -999.2500  -999.2500  -999.2500    25.7570 
   60.8750  -999.2500  -999.2500  -999.2500  -999.2500  -999.2500  -999.2500    25.2450 
   61.0000  -999.2500  -999.2500  -999.2500  -999.2500  -999.2500  -999.2500    24.7140 
   61.1250  -999.2500  -999.2500  -999.2500  -999.2500  -999.2500  -999.2500    24.2110 
   61.2500  -999.2500  -999.2500    68.2670  -999.2500  -999.2500  -999.2500    23.7260 
   61.3750    52.4690    23.7540    68.2670     1.0140     2.9620  -999.2500    23.2230 
   61.5000    52.4690    23.7540    43.1650     1.0140     2.9620  -999.2500    22.6970 
   61.6250    49.1100    23.7420    20.4870     1.0220     2.9230  -999.2500    22.0940 
   61.7500    47.5550    23.7460    13.4740     1.0340     2.8590  -999.2500    21.4320 
   61.8750    48.2050    23.7720    10.7590     1.0620     2.8240  -999.2500    20.7310 
   62.0000    49.8080    23.8190     8.7720     1.0880     2.7980  -999.2500    19.9610 
   62.1250    48.7900    24.1060     8.3890     1.0990     2.7850  -999.2500    19.1110 
   62.2500    46.1960    24.4720    12.6550     1.1060     2.7820  -999.2500    18.2650 
   62.3750    45.2520    25.0750    26.4570     1.1140     2.7950  -999.2500    17.4610 
   62.5000    48.2820    25.3410    52.4670     1.1200     2.7700  -999.2500    16.7350 
   62.6250    54.2550    25.5640    57.1590     1.1260     2.7260  -999.2500    16.1890 
   62.7500    57.5350    25.5650    38.2400     1.1350     2.7160  -999.2500    15.8600 
   62.8750    57.4590    25.5590    23.0380     1.1450     2.6930  -999.2500    15.7140 
   63.0000    54.7250    25.4160    26.2810     1.1600     2.6680  -999.2500    15.7960 
   63.1250    52.6280    25.4070    29.7390     1.1770     2.6540  -999.2500    16.1220 
   63.2500    53.8600    25.4960    22.8990     1.1810     2.6290  -999.2500    16.6560 
   63.3750    56.9000    25.4650    18.4340     1.1770     2.6040  -999.2500    17.3000 
   63.5000    57.3150    25.3820    18.5630     1.1770     2.5850  -999.2500    17.9840 
   63.6250    54.0320    25.5100    15.8410     1.1760     2.5620  -999.2500    18.6840 
   63.7500    53.8170    25.4210    10.4550     1.1710     2.5480  -999.2500    19.3830 
   63.8750    57.6250    25.4270     8.0350     1.1630     2.5300  -999.2500    20.0480 
   64.0000    59.8290    25.5870     7.3980     1.1560     2.4800  -999.2500    20.6390 
   64.1250    56.2300    25.5940     6.7240     1.1530     2.3840  -999.2500    21.1000 
   64.2500    53.4260    25.4800     5.3520     1.1640     2.3210  -999.2500    21.4090 
   64.3750    55.7420    25.3290     3.6450     1.1750     2.2810  -999.2500    21.6640 
   64.5000    59.3270    25.0630     2.9600     1.1830     2.2550  -999.2500    21.8550 
   64.6250    58.9450    24.8660     2.7820     1.1830     2.2030  -999.2500    21.9360 
   64.7500    56.5620    24.6230     2.9410     1.1890     2.1320  -999.2500    21.8650 
   64.8750    55.3130    24.4180     3.3080     1.2060     2.0960  -999.2500    21.6430 
   65.0000    54.2740    24.2940     3.3660     1.2170     2.0880  -999.2500    21.2280 
   65.1250    51.7200    23.9940     3.4690     1.1980     2.0220  -999.2500    20.6000 
   65.2500    49.8720    23.8790     3.6900     1.1210     1.8190  -999.2500    19.6940 
   65.3750    49.3240    23.8940     3.7210     0.9520     1.4260  -999.2500    18.4740 
   65.5000    48.7200    23.9140     3.3150     0.7150     0.9420  -999.2500    16.9430 
   65.6250    47.6260    23.9960     2.8990     0.4760     0.5270  -999.2500    15.0790 
   65.7500    46.1790    23.9510     2.7810     0.2910     0.2180  -999.2500    12.7370 
   65.8750    45.5960    23.9040     2.8880     0.1650     0.0200  -999.2500     9.9400 
   66.0000    47.5060    23.9230     3.1500     0.1000    -0.0800  -999.2500     6.7270 
   66.1250    53.2970    23.9420     3.5530     0.1320    -0.0340  -999.2500     3.0990 
   66.2500    59.1590    24.1930     4.6510     0.2760     0.1500  -999.2500    -0.9200 
   66.3750    62.6330    24.4260     6.2830     0.5980     0.5340  -999.2500    -5.0170 
   66.5000    64.0570    25.1800     8.7780     1.2050     1.2230  -999.2500    -9.0420 
   66.6250    63.1950    25.5940    10.7500     2.2820     2.4150  -999.2500   -12.8830 
   66.7500    62.9790    25.6230    12.5390     3.7590     4.0050  -999.2500   -16.3130 
   66.8750    65.1150    25.5960    15.3260     5.4300     5.7240  -999.2500   -19.2670 
   67.0000    67.4080    24.5200    17.7570     6.9770     7.2310  -999.2500   -21.7130 
   67.1250    66.2180    23.8780    16.4630     8.0680     8.1860  -999.2500   -23.5950 
   67.2500    64.0950    23.5290    13.3260     8.7210     8.6490  -999.2500   -24.8320 
   67.3750    64.3940    23.4630    12.3120     9.0380     8.8100  -999.2500   -25.7210 
   67.5000    66.0000    23.4200    12.5500     9.1420     8.7920  -999.2500   -26.3900 
   67.6250    65.7330    23.1830    12.7820     9.1190     8.6860  -999.2500   -26.8770 
   67.7500    64.7850    23.0300    12.7200     9.0590     8.5800  -999.2500   -27.2210 
   67.8750    64.3200    22.9850    12.3100     9.0370     8.5480  -999.2500   -27.4840 
   68.0000    64.8120    22.9030    11.7060     9.0910     8.6240  -999.2500   -27.6590 
   68.1250    67.2670    22.7880    11.2680     9.1340     8.8280  -999.2500   -27.8040 
   68.2500    70.0880    22.6950    11.2250     9.1300     9.1530  -999.2500   -27.9670 
   68.3750    71.3240    22.6030    11.2140     9.0990     9.5950  -999.2500   -28.1090 
   68.5000    70.9570    22.5750    11.3250     9.0610    10.1470  -999.2500   -28.2460 
   68.6250    71.1450    22.5790    11.1550     9.0330    10.7180  -999.2500   -28.3960 
   68.7500    71.8380    22.6670    11.0830     9.0130    11.2740  -999.2500   -28.5460 
   68.8750    70.9430    22.6240    10.7010     9.0080    11.7700  -999.2500   -28.6940 
   69.0000    68.2670    22.4870    10.5170     9.0240    12.1690  -999.2500   -28.8470 
   69.1250    65.2790    22.2690    10.9840     9.0840    12.4760  -999.2500   -28.9380 
   69.2500    63.8910    22.0210    12.0660     9.1610    12.6760  -999.2500   -28.9320 
   69.3750    64.5550    22.1240    13.3480     9.2030    12.7840  -999.2500   -28.8710 
   69.5000    63.8800    22.3210    13.8800     9.1820    12.8020  -999.2500   -28.7230 
   69.6250    59.9440    22.6450    13.5920     9.0540    12.6980  -999.2500   -28.4990 
   69.7500    58.2450    22.8660    12.8310     8.8270    12.4060  -999.2500   -28.2020 
   69.8750    62.3080    23.1350    11.6000     8.5100    11.8760  -999.2500   -27.8500 
   70.0000    69.4140    23.6030     9.5250     8.1430    11.2210  -999.2500   -27.4290 
   70.1250    74.8870    23.8580     8.5940     7.7780    10.5510  -999.2500   -26.9680 
   70.2500    78.9370    23.8630     8.8910     7.4430    10.0040  -999.2500   -26.5210 
   70.3750    83.7700    23.6700     9.1350     7.1720     9.6380  -999.2500   -26.0930 
   70.5000    87.8750    23.9830     8.9060     6.9790     9.4640  -999.2500   -25.7010 
   70.6250    87.1680    24.2800     8.9990     6.8750     9.4930  -999.2500   -25.3760 
   70.7500    84.9580    24.2710     9.0620     6.8340     9.6710  -999.2500   -25.1300 
   70.8750    85.4150    24.1270     9.2130     6.8400     9.9470  -999.2500   -24.9340 
   71.0000    89.4300    24.1410     8.9200     6.8750    10.2470  -999.2500   -24.8190 
   71.1250    91.7430    24.2840     8.4570     6.9350    10.4570  -999.2500   -24.7780 
