~V
VERS. 2.00: Ver 2.00
~W
STRT.M 100.0000:
STOP.M 264.0000:
STEP.M 0.1250:
NULL. -999.2500:
UWI. DF3023:
~C
DEPT.M :
GR.API :
CALI.CM :
RXO.OHMM :
RI. :
RML.OHMM :
SP.MV :
DEN.GM/CC :
AC.US/MT :
~A
# ...
  230.0000    65.7700    24.3240    11.5910     9.2180    11.1860   -12.0560     2.4340   287.2950 
  230.1250    63.6890    24.2470    10.6870     9.2360    11.2230   -12.0240     2.4270   291.3280 
  230.2500    63.5630    24.2220    10.5740     9.2480    11.2470   -11.9350     2.4300   294.1550 
  230.3750    65.7710    24.1730    10.7210     9.2410    11.2140   -11.8480     2.4510   296.2070 
  230.5000    68.4410    24.0970    10.2080     9.2000    11.0960   -11.8100     2.4750   297.1110 
  230.6250    68.4470    24.0680    10.1760     9.1050    10.8850   -11.7930     2.4780   296.5310 
  230.7500    65.7980    24.1120    10.6590     8.9640    10.6360   -11.7240     2.4550   296.4780 
  230.8750    63.5700    24.1620    10.7320     8.8090    10.4060   -11.6020     2.4370   298.0430 
  231.0000    62.9650    24.1580     9.7700     8.6910    10.2580   -11.4720     2.4430   301.4200 
  231.1250    62.6140    24.1120     9.2780     8.6770    10.2620   -11.3660     2.4660   304.3650 
  231.2500    64.3060    24.1280     8.9990     8.7690    10.3910   -11.2680     2.4840   304.0310 
  231.3750    67.3070    24.2910     8.6150     8.9380    10.5900   -11.1690     2.4910   300.2440 
  231.5000    68.9790    24.5900     8.9110     9.1260    10.7790   -11.0810     2.5000   297.0040 
  231.6250    67.5430    24.8780    10.6210     9.2520    10.8690   -11.0260     2.5040   299.5140 
  231.7500    65.5920    25.0220    11.9520     9.3020    10.8600   -10.9930     2.4810   303.8780 
  231.8750    65.0410    25.0500    12.3360     9.3070    10.8040   -10.9710     2.4520   304.8390 
  232.0000    65.1110    25.0390    12.1080     9.3250    10.7720   -10.9720     2.4480   301.4180 
  232.1250    65.5910    25.0080    11.1110     9.4210    10.8380   -11.0150     2.4620   296.4750 
  232.2500    67.4320    24.9550    11.0150     9.5920    10.9920   -11.0720     2.4700   292.8680 
  232.3750    68.8130    24.8690    10.9840     9.7980    11.1970   -11.1070     2.4740   290.4780 
  232.5000    68.2200    24.7370    10.2470     9.9840    11.4000   -11.1090     2.4780   288.6210 
  232.6250    64.6850    24.5870     9.2510    10.1080    11.5580   -11.1030     2.4870   286.7640 
  232.7500    61.3890    24.4930     9.6330    10.1990    11.6890   -11.1200     2.4980   285.3070 
  232.8750    61.2990    24.4740    10.7840    10.3010    11.8270   -11.1620     2.5100   284.4230 
  233.0000    63.9300    24.5180    12.1410    10.4500    12.0010   -11.2050     2.5200   282.4100 
  233.1250    66.6540    24.6290    13.9290    10.6600    12.2230   -11.2220     2.5230   277.5710 
  233.2500    68.8550    24.7670    16.8990    10.9040    12.4770   -11.2150     2.5210   272.7820 
  233.3750    69.8620    24.8750    17.9880    11.1720    12.7590   -11.1960     2.5250   270.3450 
  233.5000    70.0010    24.9290    16.2790    11.4650    13.0600   -11.1830     2.5290   269.6850 
  233.6250    69.8860    24.9450    16.1620    11.7980    13.3910   -11.1850     2.5250   266.9620 
  233.7500    70.9000    24.9640    16.0610    12.1750    13.7650   -11.2070     2.5310   261.9040 
  233.8750    72.5000    25.0030    17.1100    12.5960    14.1970   -11.2540     2.5470   258.1700 
  234.0000    71.5900    25.0630    19.9490    13.0410    14.6670   -11.3130     2.5320   258.4360 
  234.1250    69.6970    25.1070    20.3020    13.4330    15.0640   -11.3650     2.4910   260.6050 
  234.2500    69.3880    25.1130    20.6230    13.6790    15.2510   -11.3990     2.4870   260.8980 
  234.3750    70.2860    25.0860    23.2310    13.7170    15.1530   -11.4290     2.5120   259.5330 
  234.5000    71.4020    25.0390    25.3430    13.5390    14.7930   -11.4680     2.5230   258.6140 
  234.6250    71.4480    24.9830    23.1490    13.1830    14.2850   -11.5170     2.5090   257.0160 
  234.7500    70.5120    24.9400    18.6260    12.7910    13.8180   -11.5590     2.4960   254.0200 
  234.8750    68.1830    24.9190    15.8240    12.4770    13.5180   -11.5710     2.4960   252.6500 
  235.0000    67.5130    24.9230    14.8670    12.3380    13.4610   -11.5600     2.5070   255.2310 
  235.1250    70.9000    24.9640    13.7020    12.4780    13.7190   -11.5590     2.5160   258.5370 
  235.2500    72.8630    25.0030    13.5390    12.8740    14.2220   -11.5880     2.5090   256.5280 
  235.3750    69.7660    24.9510    15.4300    13.4730    14.8930   -11.6360     2.5160   250.1740 
  235.5000    66.4180    24.7950    22.9810    14.1680    15.6200   -11.6890     2.5280   245.8950 
  235.6250    68.4040    24.6890    28.9440    14.8250    16.2570   -11.7420     2.5260   247.8750 
  235.7500    70.9090    24.7360    26.1980    15.3520    16.7260   -11.7780     2.5180   252.9900 
  235.8750    69.7200    24.8590    19.2880    15.7040    16.9930   -11.7730     2.5280   257.8250 
  236.0000    68.0090    24.9610    17.3870    15.8950    17.0900   -11.7270     2.5250   260.9400 
  236.1250    69.5660    25.0250    17.6440    15.9740    17.0930   -11.6760     2.4820   259.6080 
  236.2500    71.7290    25.0730    17.3470    16.0250    17.0990   -11.6480     2.4480   254.7860 
  236.3750    72.5060    25.1020    16.9970    16.0790    17.1370   -11.6240     2.4630   250.3560 
  236.5000    72.4330    25.1260    17.3210    16.1480    17.2080   -11.5730     2.4960   249.4140 
  236.6250    72.2740    25.1550    17.5210    16.2340    17.3080   -11.4920     2.4730   250.7460 
  236.7500    72.4140    25.1710    17.4910    16.3320    17.4320   -11.4230     2.4080   250.4170 
  236.8750    73.5680    25.1720    17.2960    16.4470    17.5950   -11.4090     2.3990   247.6910 
  237.0000    73.7640    25.1670    17.0440    16.5950    17.8130   -11.4520     2.4400   244.5840 
  237.1250    72.8850    25.1290    17.3310    16.7930    18.0970   -11.5180     2.4740   243.5830 
  237.2500    73.2950    25.0560    17.8490    17.0230    18.3980   -11.5650     2.4460   243.8430 
  237.3750    75.0300    24.9790    18.2160    17.2430    18.6510   -11.5970     2.4000   244.0450 
  237.5000    76.9670    24.9320    18.1030    17.3870    18.7780   -11.6370     2.3930   244.5800 
  237.6250    76.6600    24.8830    17.6900    17.3540    18.6760   -11.6840     2.4310   246.5550 
  237.7500    74.2030    24.7730    16.9810    17.1310    18.3480   -11.7220     2.4950   248.4690 
  237.8750    71.0040    24.6150    15.9670    16.7490    17.8350   -11.7480     2.5380   248.6960 
  238.0000    69.1020    24.4890    17.0430    16.2900    17.2410   -11.7620     2.5460   247.8130 
  238.1250    70.6170    24.4890    23.4090    15.8910    16.7500   -11.7540     2.5580   248.3590 
  238.2500    73.6080    24.5790    25.3200    15.6600    16.5040   -11.7360     2.5560   250.7290 
  238.3750    74.8830    24.6790    22.0110    15.6630    16.5710   -11.7300     2.5290   254.3270 
  238.5000    73.5220    24.7310    20.7090    15.9100    16.9210   -11.7370     2.4820   255.0670 
  238.6250    73.6300    24.7210    19.9340    16.3440    17.4310   -11.7370     2.4640   251.3240 
  238.7500    75.5500    24.6650    21.0860    16.7870    17.8790   -11.7570     2.5040   244.9210 
  238.8750    76.5450    24.5400    22.1210    17.0880    18.1150   -11.8090     2.5480   241.4270 
  239.0000    75.9010    24.3680    21.3420    17.1310    18.0470   -11.8620     2.5630   244.3020 
  239.1250    76.7470    24.2820    19.7360    16.8360    17.6420   -11.8780     2.5530   252.0030 
  239.2500    76.6030    24.3220    18.8100    16.3320    17.0630   -11.8710     2.5490   258.9580 
  239.3750    74.2010    24.4340    17.3480    15.7470    16.4550   -11.8470     2.5500   259.4310 
  239.5000    73.6250    24.5650    16.1800    15.2190    15.9580   -11.8030     2.5500   255.8690 
  239.6250    76.1560    24.6870    15.2070    14.9120    15.7330   -11.7710     2.5420   252.1680 
  239.7500    77.7310    24.7680    14.5220    14.8740    15.7870   -11.7670     2.5320   249.7610 
  239.8750    76.2750    24.7880    15.0190    15.0890    16.0830   -11.7660     2.5390   247.7540 
