~V
VERS. 2.00: Ver 2.00
~W
STRT.M 62.0000:
STOP.M 265.0000:
STEP.M 0.1250:
NULL. -999.2500:
UWI. DF3071:
~C
DEPT.M :
GR.API :
CALI.CM :
RXO.OHMM :
RI. :
RML.OHMM :
DEN.GM/CC :
SP.MV :
~A
# ...
  140.7500   105.0290    24.5450     4.9140     4.0070     4.1130     2.4250   -16.5200 
  140.8750   106.7570    24.5410     4.9010     4.0020     4.2130     2.4220   -16.9760 
  141.0000   109.6910    24.5380     5.1970     4.2140     4.5730     2.4190   -17.5130 
  141.1250   111.1580    24.5450     6.2440     4.6960     5.2160     2.4070   -18.1810 
  141.2500   107.9780    24.4900     7.6030     5.3570     5.9990     2.3700   -18.9120 
  141.3750   100.9600    24.2580     8.1670     6.0880     6.7790     2.3140   -19.6790 
  141.5000    93.5750    23.8640     7.7020     6.7450     7.4140     2.2620   -20.4450 
  141.6250    90.2280    23.5260     7.3970     7.1760     7.7780     2.2420   -21.1480 
  141.7500    89.2090    23.3790     7.4400     7.3930     7.9300     2.2500   -21.7840 
  141.8750    86.9720    23.3540     7.6660     7.4590     7.9490     2.2650   -22.3140 
  142.0000    82.3530    23.3440     7.8670     7.4550     7.9210     2.2680   -22.7400 
  142.1250    80.3110    23.3260     7.9790     7.4390     7.9050     2.2520   -23.0100 
  142.2500    83.8450    23.3180     7.9440     7.4330     7.9160     2.2340   -23.2000 
  142.3750    89.1690    23.2930     7.7980     7.4480     7.9550     2.2270   -23.3190 
  142.5000    92.3980    23.2150     7.6360     7.4940     8.0240     2.2330   -23.3980 
  142.6250    92.4250    23.1170     7.5270     7.5790     8.1290     2.2390   -23.4460 
  142.7500    91.4220    23.0990     7.5000     7.6920     8.2560     2.2350   -23.4880 
  142.8750    90.2800    23.1850     7.5280     7.8160     8.3890     2.2270   -23.5400 
  143.0000    89.5720    23.3020     7.5900     7.9270     8.5040     2.2210   -23.5990 
  143.1250    89.3370    23.3730     7.6750     7.9840     8.5670     2.2210   -23.6860 
  143.2500    88.8250    23.4070     7.7300     7.9760     8.5620     2.2270   -23.7330 
  143.3750    90.1080    23.4290     7.7330     7.8970     8.4690     2.2350   -23.7700 
  143.5000    93.4290    23.4570     7.7050     7.7420     8.2680     2.2370   -23.7800 
  143.6250    93.3620    23.4970     7.7160     7.4920     7.9360     2.2290   -23.7550 
  143.7500    89.5970    23.5230     7.7700     7.1910     7.5630     2.2200   -23.6860 
  143.8750    86.7840    23.5100     7.8360     6.9530     7.3320     2.2200   -23.5270 
  144.0000    86.8150    23.4680     7.9160     6.9810     7.5240     2.2350   -23.2840 
  144.1250    87.4250    23.4380     8.2180     7.6740     8.6530     2.2660   -22.8610 
  144.2500    85.4490    23.4320     9.3400     9.2850    10.9000     2.3120   -22.3580 
  144.3750    80.5950    23.4500    12.8690    12.0560    14.1800     2.3800   -21.7590 
  144.5000    76.0810    23.5010    23.3630    15.7940    17.6310     2.4690   -21.1100 
  144.6250    74.3020    23.6260    39.3250    18.6400    19.1880     2.5520   -20.4350 
  144.7500    73.2990    23.8470    43.8250    18.3550    17.9660     2.5880   -19.8150 
  144.8750    73.7540    24.1290    31.8470    15.3070    14.7280     2.5560   -19.3000 
  145.0000    79.1720    24.3630    16.3200    11.6750    11.2140     2.4700   -18.9150 
  145.1250    88.4910    24.4300     9.4320     9.0690     8.8840     2.3720   -18.7390 
  145.2500    92.7820    24.3510     7.2880     7.5090     7.6240     2.3040   -18.7180 
  145.3750    89.8890    24.1330     6.8240     6.7740     7.1140     2.2760   -18.8370 
  145.5000    86.2620    23.8060     6.7640     6.6260     7.1290     2.2720   -19.0560 
  145.6250    88.4140    23.4680     6.7540     6.8510     7.4360     2.2700   -19.3970 
  145.7500    92.0690    23.2030     6.8150     7.1550     7.7240     2.2620   -19.7540 
  145.8750    91.7180    23.0460     6.9590     7.4020     7.9040     2.2550   -20.0960 
  146.0000    88.5820    23.0340     7.0570     7.5610     7.9840     2.2530   -20.4250 
  146.1250    87.5670    23.2150     7.0060     7.6710     8.0450     2.2500   -20.7720 
  146.2500    88.4720    23.4690     7.0140     7.8010     8.1610     2.2390   -21.1700 
  146.3750    89.1390    23.6580     7.2230     7.9730     8.3520     2.2240   -21.5680 
  146.5000    88.0810    23.7090     7.6240     8.1700     8.6090     2.2100   -21.9750 
  146.6250    84.2670    23.6260     8.0790     8.3920     8.9470     2.1980   -22.3010 
  146.7500    80.4610    23.4990     8.4150     8.6810     9.3960     2.1880   -22.6190 
  146.8750    79.4850    23.3480     8.6510     9.0980     9.9830     2.1920   -22.8680 
  147.0000    79.8880    23.1650     9.1240     9.6400    10.6680     2.2280   -23.0150 
  147.1250    77.6900    23.0970    10.7930    10.1850    11.3040     2.3070   -22.9970 
  147.2500    73.2220    23.3260    13.7000    10.5790    11.7820     2.3890   -22.8210 
  147.3750    69.9160    23.8160    15.7780    10.8210    12.1310     2.4310   -22.5740 
  147.5000    68.9160    24.2870    15.1830    11.0420    12.4670     2.4230   -22.2570 
  147.6250    69.2830    24.4670    12.6390    11.3690    12.8500     2.4020   -21.9060 
  147.7500    68.5330    24.4730    11.7130    11.6700    13.0770     2.4120   -21.4920 
  147.8750    67.2050    24.4610    14.3460    11.6560    12.8520     2.4550   -21.1030 
  148.0000    68.8680    24.5120    18.8640    11.0920    12.0170     2.4980   -20.7740 
  148.1250    74.4270    24.6180    18.3820    10.0430    10.7230     2.5030   -20.5230 
  148.2500    79.5490    24.6270    12.8910     8.9950     9.5030     2.4730   -20.3380 
  148.3750    81.6020    24.4150     8.2050     8.2300     8.6800     2.4310   -20.1530 
  148.5000    81.0980    24.0470     7.2300     7.8410     8.3280     2.4020   -19.9560 
  148.6250    78.6350    23.7760     8.6350     7.7810     8.2900     2.4010   -19.7290 
  148.7500    75.3760    23.7170     9.8540     7.7670     8.2130     2.4100   -19.5290 
  148.8750    74.6560    23.8060     9.3390     7.5930     7.9400     2.4070   -19.3050 
  149.0000    78.7200    23.9570     7.5990     7.2420     7.5250     2.3840   -19.0630 
  149.1250    85.6230    24.1250     6.7520     6.9340     7.2160     2.3620   -18.7960 
  149.2500    89.1310    24.3110     6.7800     6.8630     7.1680     2.3720   -18.5160 
  149.3750    85.5660    24.5780     7.4840     7.0390     7.3250     2.4130   -18.2810 
  149.5000    78.2320    24.9350     8.8530     7.3040     7.4930     2.4580   -18.1040 
  149.6250    75.8970    25.2540    10.1440     7.3930     7.4650     2.4710   -18.0110 
  149.7500    80.0740    25.4170    10.2900     7.2990     7.3250     2.4550   -17.8860 
  149.8750    86.5680    25.4450     9.0400     7.2330     7.3090     2.4300   -17.8000 
  150.0000    91.0630    25.4230     7.6880     7.4460     7.6670     2.4230   -17.7280 
  150.1250    91.1690    25.3830     8.8070     8.1700     8.5570     2.4490   -17.6990 
  150.2500    86.4490    25.3520    13.2130     9.2710     9.6620     2.4870   -17.6770 
  150.3750    78.0870    25.3400    18.4310    10.3780    10.5390     2.5060   -17.6460 
  150.5000    70.6860    25.3320    19.1050    10.9000    10.7640     2.4830   -17.6140 
  150.6250    70.4090    25.3080    14.5060    10.3550    10.1050     2.4250   -17.6540 
  150.7500    78.0460    25.2710    10.6950     9.2570     9.0300     2.3710   -17.8220 
  150.8750    88.9450    25.2070     8.9790     8.1230     7.9710     2.3390   -18.0800 
  151.0000    96.7260    25.0980     7.8820     7.2690     7.2170     2.3260   -18.4190 
  151.1250    96.7210    24.9560     7.1610     6.8360     6.9000     2.3150   -18.8180 
  151.2500    92.8970    24.8320     6.9660     6.7030     6.8960     2.2950   -19.2510 
  151.3750    88.7780    24.7350     7.1760     6.8240     7.1660     2.2710   -19.6990 
  151.5000    85.6040    24.6600     7.5240     7.2190     7.7430     2.2540   -20.1100 
  151.6250    84.4540    24.6170     8.0690     8.0320     8.7910     2.2650   -20.4340 
  151.7500    84.5450    24.6040     9.0760     9.3020    10.3260     2.3050   -20.6400 
  151.8750    82.4220    24.6240    11.3210    11.0940    12.3500     2.3630   -20.7510 
