~V
VERS. 2.00: Ver 2.00
~W
STRT.M 60.0000:
STOP.M 250.0000:
STEP.M 0.1250:
NULL. -999.2500:
UWI. DF3018:
~C
DEPT.M :
DEN.GM/CC :
GR.API :
RML.OHMM :
RI. :
RXO.OHMM :
CALI.CM :
SP.MV :
~A
# ...
   82.5000  -999.2500    68.9890    11.7430     9.3360    12.3860    23.1780   -23.0220 
   82.6250  -999.2500    71.1990    12.1160     9.6880    12.4680    23.2510   -22.9740 
   82.7500  -999.2500    73.0180    12.2710     9.9240    12.4200    23.2670   -22.9340 
   82.8750  -999.2500    73.7110    12.1570     9.9800    12.2870    23.2260   -22.8620 
   83.0000  -999.2500    72.6490    11.8420     9.8600    12.0450    23.1630   -22.7360 
   83.1250  -999.2500    70.5300    11.4930     9.6410    12.0480    23.1300   -22.4790 
   83.2500  -999.2500    69.9130    11.2740     9.4480    12.0040    23.1300   -22.1070 
   83.3750  -999.2500    70.3650    11.2340     9.3400    11.9210    23.1500   -21.5880 
   83.5000  -999.2500    71.0450    11.3210     9.3080    11.7790    23.1900   -20.9290 
   83.6250  -999.2500    72.7420    11.3680     9.2570    11.6160    23.2250   -20.1660 
   83.7500  -999.2500    77.8930    11.2070     9.0730    11.3290    23.2940   -19.2930 
   83.8750  -999.2500    84.5030    10.7620     8.6930    10.8710    23.4370   -18.3790 
   84.0000  -999.2500    88.8050    10.0750     8.1350    10.2660    23.6660   -17.4800 
   84.1250  -999.2500    92.6190     9.3350     7.5180     9.4140    24.0030   -16.7270 
   84.2500  -999.2500    97.4510     8.8010     7.0210     8.0430    24.3180   -16.1470 
   84.3750  -999.2500   100.0690     8.6180     6.7550     7.0820    24.4840   -15.7870 
   84.5000  -999.2500    98.8920     8.7960     6.7530     6.8500    24.4600   -15.6130 
   84.6250  -999.2500    93.3970     9.2120     6.9770     7.0280    24.2140   -15.5960 
   84.7500  -999.2500    85.8860     9.5890     7.2480     7.6460    23.9060   -15.6950 
   84.8750  -999.2500    79.5380     9.7300     7.4200     8.6220    23.7250   -15.8900 
   85.0000  -999.2500    78.8240     9.5500     7.3950     9.1160    23.7850   -16.1740 
   85.1250  -999.2500    85.6170     9.1110     7.1540     8.5610    24.0240   -16.5590 
   85.2500  -999.2500    95.1210     8.6650     6.8470     7.7480    24.1930   -17.0140 
   85.3750  -999.2500   103.5390     8.3830     6.6020     7.1520    24.2540   -17.5460 
   85.5000  -999.2500   107.6720     8.3540     6.5150     6.8940    24.1920   -18.1950 
   85.6250  -999.2500   103.9410     8.6070     6.6590     7.0820    23.9900   -18.9280 
   85.7500  -999.2500    93.6210     9.0110     6.9690     7.6160    23.7420   -19.7200 
   85.8750  -999.2500    81.1940     9.4560     7.3740     8.1660    23.4990   -20.4620 
   86.0000  -999.2500    73.5920     9.8420     7.7870     8.8240    23.2290   -21.0630 
   86.1250  -999.2500    73.7320    10.0760     8.1020     9.8800    23.0470   -21.3610 
   86.2500  -999.2500    73.1550    10.1470     8.2720    10.7480    22.9360   -21.3260 
   86.3750  -999.2500    68.0710    10.0560     8.2770    11.0400    22.8570   -20.9240 
   86.5000  -999.2500    63.8550     9.8220     8.1220    11.0050    22.7890   -20.1480 
   86.6250  -999.2500    67.3670     9.4820     7.8290    10.7900    22.7640   -19.0700 
   86.7500  -999.2500    75.8040     9.1350     7.4850    10.0890    22.7910   -17.8190 
   86.8750  -999.2500    86.4510     8.8490     7.1500     8.8770    22.9550   -16.5450 
   87.0000  -999.2500    96.4030     8.6530     6.8650     7.3470    23.3820   -15.3440 
   87.1250  -999.2500   100.4940     8.5220     6.6440     6.6530    23.9140   -14.3110 
   87.2500  -999.2500    98.7410     8.3630     6.4450     6.4640    24.2430   -13.4830 
   87.3750  -999.2500    95.1320     8.1190     6.2370     6.5690    24.3120   -12.8690 
   87.5000  -999.2500    93.7520     7.8060     6.0260     6.6050    24.3140   -12.4760 
   87.6250  -999.2500    97.4460     7.5860     5.9100     6.5190    24.3980   -12.2910 
   87.7500  -999.2500   102.6700     7.6560     6.0050     6.3090    24.5430   -12.2340 
   87.8750  -999.2500   103.5140     8.1230     6.3930     6.4530    24.6640   -12.3060 
   88.0000  -999.2500    97.6460     8.9400     7.0620     7.2780    24.7020   -12.4630 
   88.1250  -999.2500    91.6220     9.8830     7.8820     9.3810    24.6180   -12.6770 
   88.2500  -999.2500    89.8400    10.5930     8.5710    12.7830    24.4020   -12.8970 
   88.3750  -999.2500    90.3400    10.8260     8.9050    15.1510    24.0510   -13.1070 
   88.5000  -999.2500    89.6070    10.5280     8.7800    12.9960    23.6410   -13.3000 
   88.6250  -999.2500    87.8070     9.8490     8.2400     9.7370    23.3910   -13.4280 
   88.7500  -999.2500    86.5340     9.1260     7.5730     8.5410    23.3310   -13.5530 
   88.8750  -999.2500    87.2320     8.5120     6.9490     8.1120    23.3880   -13.6230 
   89.0000  -999.2500    90.2050     8.0520     6.4550     7.5170    23.4910   -13.6720 
   89.1250  -999.2500    92.2040     7.7770     6.1570     6.8300    23.5550   -13.7420 
   89.2500  -999.2500    90.7900     7.7330     6.0810     6.9730    23.5760   -13.8270 
   89.3750  -999.2500    87.2390     8.0950     6.3450     7.5840    23.5760   -13.9590 
   89.5000  -999.2500    83.4560     9.1000     7.1270     8.4870    23.5760   -14.1600 
   89.6250  -999.2500    80.2710    11.0740     8.7290    10.3580    23.6400   -14.4900 
   89.7500  -999.2500    76.4460    13.7870    11.0360    13.8090    23.8610   -14.9020 
   89.8750  -999.2500    71.9430    16.7890    13.7530    19.3490    24.2050   -15.4010 
   90.0000  -999.2500    67.6310    19.3360    16.2970    26.1760    24.4590   -15.9730 
   90.1250  -999.2500    65.2610    20.3280    17.7050    31.1970    24.5190   -16.5710 
   90.2500  -999.2500    65.5710    19.6420    17.6620    30.8510    24.4190   -17.2120 
   90.3750  -999.2500    66.7840    17.7420    16.3720    27.2440    24.1090   -17.8530 
   90.5000  -999.2500    68.9800    15.4870    14.4680    22.4050    23.5650   -18.4690 
   90.6250  -999.2500    71.6310    13.6930    12.6690    17.0470    23.1520   -19.0110 
   90.7500  -999.2500    73.3760    12.5410    11.3150    12.9600    22.9580   -19.4670 
   90.8750  -999.2500    74.6720    11.9600    10.4510    10.9760    22.9090   -19.8410 
   91.0000  -999.2500    77.3470    11.7990    10.0130    10.2970    22.9010   -20.1170 
   91.1250  -999.2500    82.7070    11.9320     9.9420    10.0220    22.9020   -20.3260 
   91.2500  -999.2500    87.7890    12.1890    10.0750     9.9830    22.9030   -20.4770 
   91.3750  -999.2500    90.8280    12.4960    10.3250    10.1630    22.9010   -20.6150 
   91.5000  -999.2500    89.5870    12.8110    10.6260    10.3550    22.8900   -20.7580 
   91.6250  -999.2500    83.1020    13.0930    10.9230    10.3750    22.8790   -20.9470 
   91.7500  -999.2500    77.9430    13.3040    11.1690    10.5890    22.9160   -21.1550 
   91.8750  -999.2500    76.6980    13.4090    11.3300    11.1950    23.0170   -21.3760 
   92.0000  -999.2500    77.8430    13.3920    11.3780    12.0420    23.1400   -21.6060 
   92.1250  -999.2500    77.9410    13.2380    11.2820    12.5900    23.1480   -21.8690 
   92.2500  -999.2500    79.1540    12.9940    11.0780    12.2560    23.0510   -22.1430 
   92.3750  -999.2500    81.4740    12.6910    10.7980    11.5630    22.9060   -22.4320 
   92.5000  -999.2500    81.8430    12.3590    10.4770    11.1390    22.8130   -22.6930 
   92.6250  -999.2500    79.6340    12.0270    10.1500    10.6890    22.8250   -22.8970 
   92.7500  -999.2500    77.5900    11.7260     9.8460    10.4290    22.8820   -23.0500 
   92.8750  -999.2500    75.4950    11.4820     9.5840    10.3600    22.9090   -23.1340 
   93.0000  -999.2500    71.7490    11.3170     9.3800    10.2980    22.9130   -23.1630 
   93.1250  -999.2500    69.2200    11.2560     9.2570    10.0520    22.9230   -23.0710 
   93.2500  -999.2500    69.4610    11.2740     9.1980    10.0260    22.9580   -22.8940 
   93.3750  -999.2500    69.9820    11.3330     9.1810    10.2570    23.0320   -22.6170 
   93.5000  -999.2500    69.7820    11.3760     9.1660    10.5830    23.1500   -22.2590 
   93.6250  -999.2500    69.5500    11.3110     9.0880    10.7650    23.2800   -21.8380 
