~V
VERS. 2.00: Ver 2.00
~W
STRT.M 55.0000:
STOP.M 252.0000:
STEP.M 0.1250:
NULL. -999.2500:
UWI. DF3024:
~C
DEPT.M :
GR.API :
RML.OHMM :
RI. :
RXO.OHMM :
CALI.CM :
DEN.GM/CC :
SP.MV :
~A
# ...
  246.2500    74.7480    12.6440    11.5830     8.9860    22.9990     2.4830   -10.0810 
  246.3750    74.7480    12.5360    11.5060     9.1780    23.0210     2.4600   -10.0900 
  246.5000    74.7480    12.4660    11.4740     9.5710    23.0760     2.4390   -10.1690 
  246.6250    74.7480    12.4300    11.4820    10.1090    23.0770     2.4250   -10.2350 
  246.7500    74.7480    12.4080    11.5080    10.8990    23.0810     2.4240   -10.2730 
  246.8750    74.7480    12.3910    11.5420    11.9920    23.1120     2.4370   -10.2880 
  247.0000    74.7480    12.3780    11.5730    13.0250    23.1970     2.4600   -10.3640 
  247.1250    74.7480    12.3730    11.5930    13.0750    23.2790     2.4870   -10.4090 
  247.2500    74.7480    12.3720    11.6010    12.7120    23.2800     2.5120   -10.5110 
  247.3750    74.7480    12.3720    11.6030    12.1500    23.3560     2.5320   -10.5490 
  247.5000    74.7480    12.3720    11.6030    11.7570    23.6950     2.5440   -10.5960 
  247.6250    74.7480    12.3720    11.6030    11.6960    23.9110     2.5470   -10.6410 
  247.7500    74.7480    12.3720    11.6030    11.7640    23.9710     2.5410   -10.5380 
  247.8750    74.7480    12.3720    11.6030    11.4660    23.9460     2.5280   -10.5090 
  248.0000    74.7480    12.3720    11.6030    11.0780    23.9730     2.5130   -10.4990 
  248.1250    74.7480    12.3720    11.6030    10.8810    24.0040     2.4990   -10.4410 
  248.2500    74.7480    12.3720    11.6030    10.8710    24.0410     2.4880   -10.3680 
  248.3750    74.7480    12.3720    11.6030    10.7350    24.0660     2.4750   -10.2350 
  248.5000    74.7480    12.3720    11.6030    10.7430    24.0630     2.4650   -10.0590 
  248.6250    74.7480    12.3720    11.6030    10.8780    24.0370     2.4620   -10.0210 
  248.7500    74.7480    12.3720    11.6030    11.0950    24.0190     2.4710   -10.0470 
  248.8750    74.7480    12.3720    11.6030    11.2940    24.0280     2.4930   -10.0640 
  249.0000    74.7480    12.3720    11.6030    11.5010    24.0070     2.5160   -10.0170 
  249.1250    74.7480    12.3720    11.6030    11.8530    23.9840     2.5280    -9.8870 
  249.2500    74.7480    12.3720    11.6030    12.1620    23.9940     2.5270    -9.8460 
  249.3750    74.7480    12.3720    11.6030    12.1650    24.0470     2.5160    -9.8820 
  249.5000    74.7480    12.3720    11.6030    12.0080    24.0910     2.5050    -9.9010 
  249.6250    74.7480    12.3720    11.6030    11.9480    24.0710     2.5000    -9.8910 
  249.7500    74.7480    12.3720    11.6030    11.8940    24.0190     2.5040    -9.8300 
  249.8750    74.7480    12.3720    11.6030    11.8900    23.9770     2.5190    -9.7190 
  250.0000    74.7480    12.3720    11.6030    12.0960    23.9400     2.5420    -9.6020 
  250.1250    74.7480    12.3720    11.6030    13.1410    23.8510     2.5680    -9.5650 
  250.2500    74.7480    12.3720    11.6030    14.1480    23.7390     2.5790    -9.4980 
  250.3750    74.7480    12.3720    11.6030    14.4240    23.6590     2.5520    -9.3670 
  250.5000    74.7480    12.3720    11.6030    13.6330    23.5860     2.4850    -9.2780 
  250.6250    74.7480    12.3720    11.6030    11.9180    22.8170     2.3930    -9.1960 
  250.7500    74.7480    12.3720    11.6030     9.3770    20.9430     2.2990    -9.0980 
  250.8750    74.7480    12.3720    11.6030     6.9010    18.6620     2.2290    -9.0640 
  251.0000    74.7480    12.3720    11.6030     5.6470    17.3890     2.1850    -9.0640 
  251.1250    74.7480    12.3720    11.6030     5.3620    17.1210     2.1640  -999.2500 
  251.2500    74.7480    12.3720    11.6030     5.3330    17.0930     2.1580  -999.2500 
  251.3750    74.7480    12.3720    11.6030     5.3270    17.0880     2.1580  -999.2500 
  251.5000    74.7480    12.3720    11.6030     5.3250    17.0880     2.1590  -999.2500 
  251.6250    74.7480    12.3720    11.6030     5.3250    17.0870     2.1580  -999.2500 
  251.7500    74.7480    12.3720    11.6030     5.3240    17.0840     2.1570  -999.2500 
  251.8750    74.7480    12.3720    11.6030     5.3230    17.0760     2.1550  -999.2500 
  252.0000    74.7480    12.3720    11.6030     5.3230    17.0700     2.1520  -999.2500 
