~V
VERS. 2.00: Ver 2.00
~W
STRT.M 60.0000:
STOP.M 275.0000:
STEP.M 0.1250:
NULL. -999.2500:
UWI. DF3003:
~C
DEPT.M :
DEN.GM/CC :
SP.MV :
AC.US/MT :
GR.API :
RML.OHMM :
RI. :
RXO.OHMM :
CALI.CM :
~A
# ...
  230.0000     2.2240   -23.9020   383.5980    64.7030   113.0090   106.9150   107.1370    24.3850 
  230.1250     2.2280   -23.8020   379.7880    62.4060   105.7450    97.5290    88.7580    24.3370 
  230.2500     2.2360   -23.7190   375.9480    61.6840    96.5210    89.2610    77.7240    24.2450 
  230.3750     2.2450   -23.6370   373.4680    63.3490    89.9420    83.0490    70.6690    24.0680 
  230.5000     2.2530   -23.5060   372.6030    66.5070    86.1430    79.3030    64.1840    23.8090 
  230.6250     2.2590   -23.4150   373.0550    67.5470    85.4850    78.5320    62.9200    23.5840 
  230.7500     2.2640   -23.4120   374.1940    65.9610    87.3970    80.2420    65.5830    23.4920 
  230.8750     2.2660   -23.3580   375.1740    63.7400    91.6560    84.2500    71.1810    23.4740 
  231.0000     2.2660   -23.2010   375.7470    62.1770    97.6470    90.0840    79.3040    23.4920 
  231.1250     2.2630   -23.1650   376.1730    63.3740   103.8240    96.6450    89.4320    23.5380 
  231.2500     2.2560   -23.1370   376.5920    67.6100   108.0500   101.9090   100.4110    23.6200 
  231.3750     2.2480   -23.0410   376.5970    70.8730   108.3760   103.9840   109.7670    23.7290 
  231.5000     2.2430   -23.0370   375.1940    69.7860   104.1910   101.6140   111.4360    23.7400 
  231.6250     2.2460   -23.1290   370.3030    66.1300    95.8170    94.5020   102.4400    23.6260 
  231.7500     2.2550   -23.1990   361.7130    66.5650    86.9590    85.4610    87.8070    23.4990 
  231.8750     2.2710   -23.3100   351.0670    72.2660    79.6440    76.8610    68.5960    23.4440 
  232.0000     2.2870   -23.4460   342.7070    80.2900    74.0780    70.4940    53.3570    23.4540 
  232.1250     2.2970   -23.4600   342.7150    84.3200    71.9660    67.6330    50.5700    23.5780 
  232.2500     2.2970   -23.5410   345.3800    83.6530    72.5400    67.4820    55.1430    23.8040 
  232.3750     2.2890   -23.7320   339.4590    80.2330    74.9920    69.3280    62.2020    24.0450 
  232.5000     2.2780   -23.8680   316.7610    75.6640    78.4400    72.3730    67.7080    24.1780 
  232.6250     2.2720   -23.9460   284.2420    71.6500    81.9830    75.8190    72.0790    24.2040 
  232.7500     2.2730   -24.0020   262.5710    70.8450    85.0200    78.9910    74.0250    24.2030 
  232.8750     2.2830   -24.0450   259.1160    73.1420    87.4540    81.7060    70.8100    24.2160 
  233.0000     2.3020   -24.1060   268.5120    75.8650    89.4040    84.0080    71.4470    24.2580 
  233.1250     2.3270   -24.2410   278.9060    78.0280    90.8100    85.8320    72.5350    24.3260 
  233.2500     2.3520   -24.3450   284.0640    80.0220    91.5550    87.0610    72.6760    24.3540 
  233.3750     2.3690   -24.3660   284.8940    82.6400    91.3960    87.4440    74.6500    24.3530 
  233.5000     2.3770   -24.3750   282.9150    86.6470    90.1280    86.7460    78.3930    24.3330 
  233.6250     2.3760   -24.5010   284.0730    90.4630    87.5320    84.6950    82.2840    24.2880 
  233.7500     2.3730   -24.6260   289.4720    90.5770    84.1320    81.7470    78.5060    24.2200 
  233.8750     2.3700   -24.7010   296.9460    88.4110    80.4790    78.3920    72.5510    24.1880 
  234.0000     2.3660   -24.7910   305.3370    86.3440    77.1400    75.1650    67.8430    24.1300 
  234.1250     2.3560   -24.8500   318.4690    82.4640    74.6460    72.6270    63.0380    24.1450 
  234.2500     2.3380   -24.8280   337.8560    76.9830    72.9120    70.8390    59.6750    24.1970 
  234.3750     2.3170   -24.7910   357.7370    72.6410    71.7180    69.6660    59.8500    24.3310 
  234.5000     2.2950   -24.8220   371.3650    71.9030    70.8620    68.9050    63.0140    24.4100 
  234.6250     2.2800   -24.7610   376.6510    71.3870    70.4870    68.6210    66.0500    24.4770 
  234.7500     2.2720   -24.6720   378.7220    69.4670    70.8850    69.0350    65.8940    24.4610 
  234.8750     2.2670   -24.6210   380.5450    67.9050    72.3490    70.4330    64.9280    24.4600 
  235.0000     2.2610   -24.4930   382.8520    66.9830    74.8790    72.8550    66.8270    24.4590 
  235.1250     2.2520   -24.2970   385.0940    66.1210    78.0150    75.9300    75.2310    24.4570 
  235.2500     2.2380   -24.1940   386.2640    64.3950    80.6700    78.6570    85.4020    24.4480 
  235.3750     2.2240   -24.1080   385.8770    62.5910    81.9170    80.1490    90.4440    24.4200 
  235.5000     2.2140   -23.9190   384.3820    62.4340    81.2470    79.8440    84.9700    24.3640 
  235.6250     2.2150   -23.7640   382.7730    65.4880    78.7070    77.6000    73.1970    24.2330 
  235.7500     2.2230   -23.5900   382.0140    67.9960    75.5810    74.5220    64.5040    24.0580 
  235.8750     2.2320   -23.2700   382.5110    67.1560    72.8420    71.5440    59.5520    23.9500 
  236.0000     2.2380   -22.9370   383.9550    64.5250    71.2030    69.4530    57.8530    23.9810 
  236.1250     2.2350   -22.7140   385.1450    64.5560    71.4390    69.1290    59.5580    24.1480 
  236.2500     2.2270   -22.5100   385.4090    66.3250    73.6920    70.7920    63.4310    24.3520 
  236.3750     2.2190   -22.3880   384.8750    66.8790    78.2970    74.7660    68.9590    24.4840 
  236.5000     2.2130   -22.3510   383.9350    64.4530    85.3740    81.1610    77.8800    24.5150 
  236.6250     2.2140   -22.2330   383.2090    59.9550    94.6030    89.7370    92.6990    24.4720 
  236.7500     2.2190   -22.0650   382.7920    57.1160   103.9410    98.6700   110.0810    24.3990 
  236.8750     2.2280   -21.9840   382.0550    58.0390   111.0460   105.9020   125.8690    24.3310 
  237.0000     2.2400   -21.9490   380.1380    59.8090   113.5510   109.2840   130.7150    24.2970 
  237.1250     2.2530   -21.8450   376.3930    59.7160   109.1150   106.4690   120.8880    24.2900 
  237.2500     2.2650   -21.7420   372.1680    59.4690    99.6540    98.7020   108.4090    24.2900 
  237.3750     2.2740   -21.6200   369.7970    60.8640    87.5750    87.8170    94.5230    24.2920 
  237.5000     2.2770   -21.4250   371.3790    64.5510    75.4440    76.1490    78.1720    24.3020 
  237.6250     2.2720   -21.2370   376.7760    68.5410    65.4140    65.9760    62.5730    24.3360 
  237.7500     2.2620   -21.0980   381.6540    70.2630    57.8150    58.0430    51.3540    24.3970 
  237.8750     2.2530   -20.9090   383.5980    68.7130    52.5210    52.4050    44.9690    24.5010 
  238.0000     2.2490   -20.7050   383.1290    65.1950    49.1330    48.7450    42.1360    24.5650 
  238.1250     2.2530   -20.5520   382.7890    63.2010    47.3110    46.7600    40.8750    24.6680 
  238.2500     2.2590   -20.2960   383.3780    64.4180    46.3050    45.6780    40.3580    24.7450 
  238.3750     2.2640   -19.9570   383.6570    67.8960    45.7650    45.1240    40.1710    24.8210 
  238.5000     2.2660   -19.6800   382.6570    72.0060    45.4640    44.8380    40.2120    24.9170 
  238.6250     2.2640   -19.3850   380.7050    72.8070    45.3200    44.6890    40.4680    24.9630 
  238.7500     2.2620   -19.0760   379.0130    71.1210    45.3180    44.6280    40.3380    25.0120 
  238.8750     2.2610   -18.8260   377.8930    69.5630    45.4930    44.6710    39.9430    25.0040 
  239.0000     2.2640   -18.5270   376.8270    69.5490    45.8280    44.8020    39.8140    24.9790 
  239.1250     2.2730   -18.0520   374.2120    70.6660    46.1650    44.8780    40.1700    24.9060 
  239.2500     2.2840   -17.5900   369.2220    70.4980    46.2280    44.6550    41.1990    24.8760 
  239.3750     2.2930   -17.1870   362.6020    69.0230    45.7960    43.9380    42.2920    24.8310 
  239.5000     2.2980   -16.7080   356.6820    69.9140    44.8720    42.7320    42.6310    24.7610 
  239.6250     2.2950   -16.2350   353.5250    73.7400    43.9300    41.4270    41.3160    24.5880 
  239.7500     2.2900   -15.8270   350.7270    76.0320    43.6390    40.7180    38.4440    24.5090 
  239.8750     2.2930   -15.3770   342.6600    73.9050    44.6190    41.1900    35.8540    24.4730 
