~V
VERS. 2.00: Ver 2.00
~W
STRT.M 105.0000:
STOP.M 279.0000:
STEP.M 0.1250:
NULL. -999.2500:
UWI. DF3027:
~C
DEPT.M :
DEN.GM/CC :
AC.US/MT :
GR.API :
CALI.CM :
RXO.OHMM :
RI. :
RML.OHMM :
SP.MV :
~A
# ...
  155.0000     2.5930   255.9280    53.7090    29.9880    10.7130    11.5520    13.6930   -10.5740 
  155.1250     2.5900   254.9320    50.9650    30.0590    10.5880    11.5170    13.5800   -10.4720 
  155.2500     2.5900   255.1980    52.8960    30.1410    10.5010    11.4760    13.4930   -10.3760 
  155.3750     2.5930   258.6210    56.3550    30.2190    10.4220    11.4210    13.4180   -10.3100 
  155.5000     2.5920   266.5020    57.0080    30.3140    10.3630    11.3450    13.3360   -10.2740 
  155.6250     2.5770   279.1690    55.1630    30.4520    10.3430    11.2280    13.2110   -10.3060 
  155.7500     2.5460   294.0460    55.3880    30.6040    10.2990    11.0420    12.9890   -10.4270 
  155.8750     2.5060   309.2190    57.6060    30.7560    10.2120    10.7500    12.6180   -10.6450 
  156.0000     2.4640   323.3890    59.7480    30.9330    10.1510    10.3580    12.1100   -10.9620 
  156.1250     2.4310   335.9420    62.5770    31.1720    10.0300     9.9750    11.6430   -11.4330 
  156.2500     2.4090   347.4350    67.8170    31.4680     9.7380     9.8010    11.5280   -12.0340 
  156.3750     2.3930   358.0760    73.8430    31.8240     9.6720    10.0400    12.0900   -12.7370 
  156.5000     2.3740   367.5390    77.4270    32.2240    10.2470    10.9050    13.6540   -13.5200 
  156.6250     2.3440   374.7080    77.1410    32.6200    13.6470    12.8590    16.8310   -14.3600 
  156.7500     2.3040   379.4570    74.8530    33.0430    22.3160    16.1240    21.7160   -15.2110 
  156.8750     2.2640   382.1320    71.7730    33.5230    35.0740    21.0000    28.4170   -16.0540 
  157.0000     2.2420   383.5970    67.2590    34.0200    45.8300    27.6040    36.7840   -16.8620 
  157.1250     2.2440   384.7310    61.2870    34.4730    52.8380    35.9180    46.4740   -17.5950 
  157.2500     2.2490   385.9180    58.1700    34.9110    67.3680    45.0520    56.5000   -18.2600 
  157.3750     2.2420   387.0620    58.2020    35.4000    93.6260    54.2560    66.0610   -18.8550 
  157.5000     2.2280   388.1320    58.5580    35.9160   116.2320    62.6660    74.2070   -19.3870 
  157.6250     2.2270   389.0630    58.0260    36.3660   120.4690    68.4410    78.7540   -19.8720 
  157.7500     2.2410   389.1700    56.2670    36.7250   120.4100    70.0220    78.1830   -20.3310 
  157.8750     2.2590   387.3070    55.6190    37.0350   124.5020    66.4030    71.9000   -20.7770 
  158.0000     2.2770   382.9200    57.1620    37.3490   124.0670    58.4290    61.5480   -21.2210 
  158.1250     2.2960   377.1960    60.5760    37.6430   106.2020    48.8710    50.6330   -21.6730 
  158.2500     2.3160   373.1870    64.8910    37.9100    78.8940    40.9780    42.2910   -22.1470 
  158.3750     2.3320   372.8770    69.4360    38.1970    53.9520    36.2300    37.9110   -22.6510 
  158.5000     2.3330   376.3010    72.7150    38.5490    38.3940    35.3850    38.2270   -23.1970 
  158.6250     2.3090   381.3200    71.3520    38.9650    36.4580    40.6250    45.3000   -23.7830 
  158.7500     2.2710   384.9150    64.7690    39.4130    54.0480    53.4080    60.1140   -24.3960 
  158.8750     2.2380   386.1680    58.2030    39.8780   109.2960    76.2290    85.4260   -25.0280 
  159.0000     2.2260   385.9280    55.3150    40.3460   195.7920   110.7650   124.6840   -25.6640 
  159.1250     2.2290   386.1280    56.8050    40.8000   255.7190   156.2850   181.8390   -26.2960 
  159.2500     2.2310   387.7790    60.5130    41.2260   290.7290   202.8210   246.4750   -26.9060 
  159.3750     2.2220   390.4370    61.7870    41.6060   345.7570   241.8490   304.2440   -27.4870 
  159.5000     2.2030   392.9090    59.4410    41.9120   429.5590   270.2040   347.1770   -28.0170 
  159.6250     2.1790   393.9470    56.4150    42.0990   516.6570   288.4490   376.9030   -28.4970 
  159.7500     2.1580   393.6400    56.3370    42.1800   564.6720   298.5920   396.0010   -28.9450 
  159.8750     2.1480   392.4730    58.2250    42.1930   544.9910   300.1460   402.4180   -29.3610 
  160.0000     2.1480   391.1010    60.0050    42.1900   476.4030   294.7500   398.0510   -29.7450 
  160.1250     2.1470   390.2280    59.2360    42.1900   409.2070   285.2390   386.9540   -30.1080 
  160.2500     2.1410   389.9940    55.6350    42.1900   352.8300   275.2970   374.6000   -30.4530 
  160.3750     2.1340   390.1980    53.0660    42.1900   299.7670   266.6940   363.4500   -30.7820 
  160.5000     2.1310   390.6080    52.8740    42.1900   250.8790   260.2220   354.5730   -31.1100 
  160.6250     2.1250   391.4470    53.6300    42.1900   212.5910   256.2010   348.3230   -31.4180 
  160.7500     2.1120   393.2810    54.5860    42.1900   184.8950   253.2970   342.7960   -31.6700 
  160.8750     2.0930   396.3830    55.6800    42.1900   168.3860   249.6290   335.0580   -31.8560 
  161.0000     2.0810   399.8520    56.0410    42.1900   161.4310   242.9130   321.7260   -31.9880 
  161.1250     2.0830   400.6930    55.5280    42.1900   156.7120   230.5300   299.3740   -31.9980 
  161.2500     2.0950   396.8720    55.3130    42.1900   147.8130   213.1460   270.1480   -31.9130 
  161.3750     2.1140   388.4700    56.8410    42.1900   135.4260   192.0190   236.9820   -31.7540 
  161.5000     2.1350   378.0260    59.3970    42.1900   122.0250   169.2170   203.6180   -31.5160 
  161.6250     2.1500   370.2200    62.2330    42.1900   108.6340   147.5140   174.3910   -31.2100 
  161.7500     2.1480   367.7790    63.9560    42.1900    95.5490   128.8680   150.9360   -30.8960 
  161.8750     2.1330   370.9740    64.5120    42.1900    84.1760   114.3770   133.8430   -30.6070 
  162.0000     2.1140   378.1360    63.8380    42.1900    75.6120   104.4090   122.8600   -30.3380 
  162.1250     2.1010   386.5810    62.2780    42.1900    70.3560    99.2770   117.9600   -30.1600 
  162.2500     2.0900   393.6350    61.6350    42.1900    67.2290    97.4170   117.1000   -30.0670 
  162.3750     2.0850   398.0380    62.2450    42.1900    65.8260    97.8560   119.1090   -30.0390 
  162.5000     2.0880   399.5390    61.3270    42.1900    65.8060    99.5760   122.7320   -30.0600 
  162.6250     2.0940   398.8640    58.5560    42.1900    66.6340   101.6520   126.7630   -30.1280 
  162.7500     2.0950   398.2490    59.8460    42.1900    67.0870   103.5730   130.4920   -30.2210 
  162.8750     2.0900   399.3530    64.7090    42.1900    66.4860   105.5030   134.0930   -30.3270 
  163.0000     2.0860   402.8870    66.6610    42.1900    65.1440   107.8450   138.0740   -30.4370 
  163.1250     2.0910   408.0200    62.2590    42.1900    64.7170   110.9240   142.8450   -30.5450 
  163.2500     2.0970   412.3710    56.5780    42.1900    66.4060   114.4460   148.0740   -30.6470 
  163.3750     2.0980   414.7120    55.7720    42.1900    69.6910   118.1180   153.4150   -30.7380 
  163.5000     2.0960   415.3620    57.6800    42.1900    72.3030   121.8180   158.7880   -30.8060 
  163.6250     2.0990   415.6970    59.2080    42.1900    71.2200   125.8800   164.8280   -30.8250 
  163.7500     2.1050   416.4000    60.1470    42.1900    68.1870   130.7850   172.1150   -30.7820 
  163.8750     2.1080   416.7540    60.6960    42.1900    67.3690   135.9830   179.1850   -30.6540 
  164.0000     2.1060   415.7200    61.0680    42.1900    71.7900   138.0890   179.8900   -30.4510 
  164.1250     2.1100   412.7860    62.7920    42.1900    80.5070   129.4020   162.5620   -30.1190 
  164.2500     2.1260   409.1420    64.3400    42.1940    88.1390   109.8240   131.2750   -29.6610 
  164.3750     2.1570   405.8000    62.7210    42.1820    86.4260    85.3910    97.9980   -29.0980 
  164.5000     2.1950   403.1870    58.1090    42.1070    69.3550    63.9350    72.5760   -28.4750 
  164.6250     2.2260   400.9820    55.6230    41.9670    45.9690    51.2630    59.7460   -27.8000 
  164.7500     2.2330   398.6740    58.1940    41.8500    35.2430    46.5850    56.7590   -27.1260 
  164.8750     2.2170   396.5290    60.4690    41.8020    44.0210    49.1670    62.6310   -26.4870 
