~V
VERS. 2.00: Ver 2.00
~W
STRT.M 70.0000:
STOP.M 278.0000:
STEP.M 0.1250:
NULL. -999.2500:
UWI. DF3060:
~C
DEPT.M :
SP.MV :
GR.API :
RML.OHMM :
RI. :
RXO.OHMM :
CALI.CM :
DEN.GM/CC :
~A
# ...
  205.0000   -28.4010    64.6910    72.5260    71.6250    47.3230    23.9720     2.2880 
  205.1250   -28.5080    65.2670    70.5670    69.4930    47.8960    23.9720     2.2850 
  205.2500   -28.6420    67.6560    69.4910    68.1350    48.9910    23.9720     2.2800 
  205.3750   -28.7860    71.6320    69.0970    67.4690    49.3160    23.9720     2.2770 
  205.5000   -28.9440    73.8900    69.4250    67.4780    48.1250    23.9720     2.2760 
  205.6250   -29.1350    70.7960    70.9930    68.5790    47.0210    23.9720     2.2770 
  205.7500   -29.3440    66.4620    74.6560    71.2040    47.6120    23.9720     2.2770 
  205.8750   -29.5900    64.5730    81.1730    76.0210    50.5230    23.9720     2.2730 
  206.0000   -29.8720    65.1920    90.9450    83.5630    56.8400    23.9720     2.2640 
  206.1250   -30.2020    66.0720   104.0130    94.2050    69.6700    23.9720     2.2510 
  206.2500   -30.5590    65.8150   117.0430   106.3910    89.0610    23.9720     2.2390 
  206.3750   -30.9750    63.3850   129.3770   118.2720   112.6560    23.9720     2.2290 
  206.5000   -31.4040    58.8120   138.6940   127.6920   136.6170    23.9720     2.2220 
  206.6250   -31.8670    54.9860   142.4300   132.1700   153.2290    23.9720     2.2190 
  206.7500   -32.3410    53.9960   141.4900   132.2400   155.8360    23.9720     2.2170 
  206.8750   -32.8110    55.4470   137.5000   129.1730   150.8010    23.9720     2.2160 
  207.0000   -33.2350    57.3900   132.4520   124.7330   143.3390    23.9720     2.2150 
  207.1250   -33.6010    57.0140   127.9420   120.4860   141.6800    23.9720     2.2140 
  207.2500   -33.9100    55.2170   124.3710   117.0490   143.4760    23.9720     2.2130 
  207.3750   -34.1360    54.0380   121.6030   114.4070   146.1090    23.9720     2.2150 
  207.5000   -34.3090    53.9460   119.4570   112.4210   144.7130    23.9720     2.2200 
  207.6250   -34.4070    55.3290   118.1420   111.2700   137.9300    23.9720     2.2260 
  207.7500   -34.4190    57.4870   117.9540   111.1860   133.1900    23.9720     2.2310 
  207.8750   -34.3540    58.9910   119.2800   112.5350   133.8590    23.9720     2.2340 
  208.0000   -34.2420    58.6350   122.2150   115.4430   135.0780    23.9720     2.2370 
  208.1250   -34.0590    59.0270   126.4190   119.6600   134.3080    23.9720     2.2420 
  208.2500   -33.8360    60.4630   130.6280   124.0060   138.6970    23.9720     2.2500 
  208.3750   -33.5770    60.4380   133.7720   127.4320   147.2540    23.9720     2.2590 
  208.5000   -33.3150    57.9750   135.1020   129.1330   151.9760    23.9720     2.2630 
  208.6250   -33.0220    55.6490   134.1680   128.5000   144.6400    23.9720     2.2600 
  208.7500   -32.7350    55.2050   131.7960   126.2160   130.7900    23.9720     2.2530 
  208.8750   -32.4340    56.1860   128.6810   122.9190   119.3150    23.9720     2.2450 
  209.0000   -32.1000    57.4710   125.5150   119.3280   117.5140    23.9720     2.2410 
  209.1250   -31.7260    56.6120   123.0790   116.2740   124.5380    23.9720     2.2430 
  209.2500   -31.3460    55.2640   121.9430   114.4020   125.6500    23.9720     2.2480 
  209.3750   -30.9660    55.9990   122.8470   114.4350   124.4160    23.9720     2.2510 
  209.5000   -30.5680    58.6510   126.6830   117.2320   126.8850    23.9720     2.2450 
  209.6250   -30.1640    59.2090   135.0590   124.3610   135.7300    23.9710     2.2250 
  209.7500   -29.7350    56.4520   147.6890   135.6250   150.7010    23.9690     2.1950 
  209.8750   -29.2920    53.5530   163.8100   150.4090   176.0790    23.9620     2.1670 
  210.0000   -28.8530    54.0790   181.4310   166.9630   210.0020    23.9490     2.1510 
  210.1250   -28.4240    56.5350   196.7510   181.9790   248.7570    23.9150     2.1540 
  210.2500   -27.9920    55.8770   206.4470   192.3750   271.4250    23.8610     2.1670 
  210.3750   -27.5470    52.2730   208.2700   195.9690   267.2700    23.8070     2.1810 
  210.5000   -27.0890    50.5120   201.5380   191.8190   241.5350    23.7530     2.1930 
  210.6250   -26.5980    52.6590   186.1830   179.3650   221.4590    23.6810     2.1990 
  210.7500   -26.1220    54.1510   165.8340   161.6570   204.7330    23.6100     2.1990 
  210.8750   -25.6500    53.7260   143.1380   140.9510   180.2870    23.6320     2.1960 
  211.0000   -25.1540    52.5480   120.6910   119.6440   147.7430    23.7820     2.1890 
  211.1250   -24.6690    52.6320   100.8610   100.1480   119.6120    24.0330     2.1850 
  211.2500   -24.1930    53.3300    84.0470    83.3500    99.8010    24.2000     2.1880 
  211.3750   -23.7170    53.9440    70.3360    69.5830    86.3240    24.2390     2.2000 
  211.5000   -23.2190    55.1950    59.7120    58.9050    75.8690    24.1690     2.2180 
  211.6250   -22.7270    58.1480    52.6750    51.7420    65.4050    24.0300     2.2410 
  211.7500   -22.2180    61.8060    48.7830    47.5580    49.5470    23.9340     2.2620 
  211.8750   -21.7190    64.1550    48.2030    46.4690    42.5030    23.9000     2.2780 
  212.0000   -21.2540    64.6470    51.0440    48.5750    45.5650    23.8950     2.2880 
  212.1250   -20.8070    63.8850    57.3120    53.9290    54.8910    23.8910     2.2890 
  212.2500   -20.3810    62.0310    64.9580    60.6190    67.5240    23.8810     2.2820 
  212.3750   -19.9830    58.5360    71.5450    66.4030    83.1790    23.8600     2.2700 
  212.5000   -19.6120    54.5980    74.2350    68.7430    99.1700    23.8220     2.2590 
  212.6250   -19.2830    52.0400    70.1590    65.0470   111.1120    23.7710     2.2560 
  212.7500   -18.9840    51.4010    61.2090    57.0710   102.1560    23.6920     2.2660 
  212.8750   -18.7350    52.4640    50.6680    47.6380    71.7560    23.5700     2.2870 
  213.0000   -18.5380    55.1660    41.7970    39.5720    45.5770    23.4090     2.3140 
  213.1250   -18.4020    58.6530    36.7790    34.8480    36.5510    23.3070     2.3390 
  213.2500   -18.2820    61.0930    35.5890    32.9450    37.4020    23.3420     2.3540 
  213.3750   -18.1980    62.1770    36.5520    33.2370    42.3540    23.4820     2.3550 
  213.5000   -18.1350    62.5410    38.8470    34.9880    47.1770    23.5870     2.3430 
  213.6250   -18.0700    62.0910    41.7350    37.4800    46.8530    23.6230     2.3340 
  213.7500   -17.9830    60.9680    44.4190    39.7930    46.9670    23.6380     2.3460 
  213.8750   -17.8360    59.9900    46.1550    41.1610    50.1270    23.6440     2.3860 
  214.0000   -17.6100    59.7950    45.9530    40.7760    54.3670    23.6050     2.4470 
  214.1250   -17.3010    60.3140    42.4950    37.5980    57.1790    23.5290     2.5020 
  214.2500   -16.9660    60.3600    36.1510    32.2000    54.3260    23.5150     2.5220 
  214.3750   -16.5960    60.4470    28.1300    25.6430    41.6540    23.5250     2.5020 
  214.5000   -16.2310    63.8590    20.1720    19.3540    22.6450    23.5320     2.4630 
  214.6250   -15.8810    72.6550    14.2150    14.6880    11.8650    23.5320     2.4290 
  214.7500   -15.5630    81.3980    11.2190    11.6550     8.4370    23.5320     2.4120 
  214.8750   -15.2570    86.4300     9.9720     9.9640     8.3540    23.5320     2.4100 
  215.0000   -14.9980    88.9270     9.6460     9.1980     8.8160    23.5320     2.4160 
  215.1250   -14.7900    89.6620     9.7280     8.9690     8.8220    23.5320     2.4230 
  215.2500   -14.6040    87.9870     9.7250     8.8170     8.4520    23.5320     2.4260 
  215.3750   -14.4140    85.5890     9.4700     8.5510     8.2080    23.5320     2.4240 
  215.5000   -14.1980    84.9680     9.0230     8.1560     7.9370    23.5320     2.4190 
  215.6250   -13.9730    85.3270     8.6230     7.7860     7.5500    23.5320     2.4110 
  215.7500   -13.7530    85.5000     8.4870     7.6140     7.3550    23.5320     2.4050 
  215.8750   -13.5840    86.7830     8.7070     7.7310     7.6460    23.5320     2.4030 
  216.0000   -13.4290    88.7040     9.2730     8.1570     8.5070    23.5320     2.4070 
  216.1250   -13.2340    88.0860    10.0980     8.8740     9.9830    23.5310     2.4190 
