~V
VERS. 2.00: Ver 2.00
~W
STRT.M 60.0000:
STOP.M 273.0000:
STEP.M 0.1250:
NULL. -999.2500:
UWI. DF3001:
~C
DEPT.M :
DEN.GM/CC :
SP.MV :
AC.US/MT :
GR.API :
RML.OHMM :
RI. :
RXO.OHMM :
CALI.CM :
~A
# ...
  210.0000     2.2010   -18.9640   387.5160    61.1020   105.1550    99.5960    90.5920    25.1870 
  210.1250     2.2000   -18.7700   381.3640    60.4930   106.6670   100.4420    93.6150    25.3260 
  210.2500     2.1960   -18.6000   378.0050    61.1440   111.4060   105.2830   102.4640    25.3720 
  210.3750     2.1900   -18.3800   378.7500    61.8970   118.4360   112.9420   113.1460    25.3740 
  210.5000     2.1830   -18.1630   381.0960    61.7620   127.5460   121.5400   123.4660    25.3690 
  210.6250     2.1780   -18.0360   383.5500    61.8760   134.7760   128.4400   126.4540    25.3650 
  210.7500     2.1750   -17.9220   385.9220    62.5630   138.2600   132.1450   126.2380    25.3620 
  210.8750     2.1770   -17.8710   388.2720    63.1040   137.8630   132.3440   125.5810    25.3590 
  211.0000     2.1830   -17.8330   390.1360    64.0830   134.7140   129.8610   124.0740    25.3570 
  211.1250     2.1900   -17.6680   391.5230    65.5540   130.7750   126.2920   117.0280    25.3570 
  211.2500     2.1950   -17.4730   391.4150    65.5630   128.0490   123.5480   109.0670    25.3530 
  211.3750     2.1970   -17.3870   389.8590    62.9360   127.4890   122.6310   106.0420    25.3460 
  211.5000     2.1980   -17.2830   389.1500    59.8710   129.1950   123.7910   110.1170    25.3270 
  211.6250     2.1980   -17.0830   390.4280    58.2740   132.3150   126.4440   118.0320    25.2530 
  211.7500     2.1990   -16.9380   392.3500    59.2430   134.6820   128.6920   126.4290    25.1030 
  211.8750     2.2000   -16.8020   393.2120    62.1960   134.3920   128.8010   133.5060    24.9400 
  212.0000     2.2020   -16.7330   393.8750    63.3140   130.1970   125.5160   134.7320    24.8880 
  212.1250     2.2040   -16.7620   393.9780    59.0230   121.7520   118.2000   124.3020    24.9750 
  212.2500     2.2070   -16.7540   392.3060    54.7280   111.3510   108.7740   108.5640    25.1020 
  212.3750     2.2120   -16.7190   388.2530    55.5040   101.0040    99.0390    93.0130    25.0930 
  212.5000     2.2160   -16.7330   383.1390    59.7030    92.5730    90.6920    83.6560    24.9220 
  212.6250     2.2160   -16.7840   378.6040    61.7170    87.9260    85.6160    81.1870    24.7160 
  212.7500     2.2110   -16.8330   376.7880    61.7780    87.8600    84.2850    81.6840    24.6310 
  212.8750     2.2030   -16.9690   380.3940    62.8100    92.8660    87.2190    83.3210    24.6140 
  213.0000     2.1980   -17.1470   386.6520    65.6130   102.7020    94.5020    86.1020    24.6310 
  213.1250     2.1980   -17.2580   390.7020    67.6900   116.0570   105.5430    94.8380    24.6910 
  213.2500     2.2060   -17.3850   389.0330    65.7760   126.8250   116.9160   111.9320    24.7600 
  213.3750     2.2160   -17.5020   382.4040    60.7330   133.0000   124.8040   135.0400    24.7590 
  213.5000     2.2220   -17.5430   376.7360    57.1080   130.9120   125.4920   153.9890    24.7320 
  213.6250     2.2240   -17.5670   375.0920    60.0260   118.2070   115.9100   158.1010    24.7150 
  213.7500     2.2220   -17.5910   378.1830    64.1280   100.1450   100.0530   134.7720    24.7120 
  213.8750     2.2230   -17.5430   384.8320    65.4790    81.8460    82.4890    99.4110    24.7080 
  214.0000     2.2320   -17.4870   391.4000    64.6850    66.9020    67.1580    66.2010    24.7080 
  214.1250     2.2480   -17.4640   396.6660    66.3490    57.1100    56.5280    47.4160    24.7090 
  214.2500     2.2650   -17.4780   398.1540    69.8360    51.0200    49.6160    39.2600    24.7120 
  214.3750     2.2760   -17.5690   393.5270    72.8760    47.6100    45.4700    36.8180    24.7140 
  214.5000     2.2740   -17.7980   387.6400    74.5830    45.9740    43.1980    36.0300    24.7150 
  214.6250     2.2630   -18.0450   385.7560    74.5550    45.6940    42.3290    35.4610    24.7100 
  214.7500     2.2470   -18.3040   387.8350    73.5210    46.4760    42.4280    35.6650    24.6910 
  214.8750     2.2350   -18.6550   388.0440    73.1780    48.4200    43.7130    36.9270    24.6370 
  215.0000     2.2270   -18.9880   384.8410    73.7290    52.1470    46.7810    39.7970    24.5490 
  215.1250     2.2220   -19.3580   380.7320    72.1690    58.4770    53.0990    46.8190    24.4040 
  215.2500     2.2160   -19.7470   377.9860    67.4290    68.3770    63.1520    58.8160    24.3170 
  215.3750     2.2100   -20.0450   378.6230    62.0210    82.1830    77.1930    74.9710    24.2870 
  215.5000     2.2030   -20.2260   381.7900    58.9450    99.6010    94.4590    91.7230    24.2750 
  215.6250     2.1990   -20.4240   385.8520    59.1890   121.0350   112.6490   101.7290    24.2740 
  215.7500     2.1970   -20.5460   389.0300    59.5040   140.2110   128.1910   102.4020    24.2490 
  215.8750     2.1980   -20.5210   389.8240    58.2140   153.3850   138.3980    98.0530    24.1500 
  216.0000     2.1990   -20.4510   388.7320    57.1830   158.5990   142.0650    96.0470    23.9550 
  216.1250     2.2010   -20.2240   386.7270    59.7100   156.0190   139.3000    99.6310    23.8610 
  216.2500     2.2050   -19.8530   384.8280    63.0430   150.3890   133.7480   105.3380    23.8310 
  216.3750     2.2090   -19.4630   383.5880    63.8610   145.1130   128.2060   109.1000    23.8310 
  216.5000     2.2130   -19.0410   382.8670    62.9110   142.8380   125.0910   109.0700    23.8290 
  216.6250     2.2120   -18.5550   382.9040    62.8460   146.0210   126.8220   105.7660    23.8240 
  216.7500     2.2020   -18.0760   384.4000    62.4000   153.7610   132.8940   109.2880    23.8210 
  216.8750     2.1860   -17.6010   388.0510    61.2880   163.9600   141.7340   124.3400    23.8580 
  217.0000     2.1720   -17.1480   392.2290    61.6210   172.9260   150.3510   145.0690    24.0620 
  217.1250     2.1640   -16.8820   394.5410    64.4960   175.0370   154.0920   158.8950    24.5730 
  217.2500     2.1660   -16.7020   393.4270    66.7740   168.8640   151.1660   157.7190    25.0790 
  217.3750     2.1720   -16.4160   390.2670    66.2860   156.1520   142.1700   140.9710    25.2960 
  217.5000     2.1780   -16.1280   389.1240    64.7840   141.2860   130.0590   111.1240    25.3310 
  217.6250     2.1820   -15.8780   391.5140    62.7430   128.9300   118.8760    81.6300    25.2840 
  217.7500     2.1840   -15.6210   396.1470    60.3090   119.8880   110.4780    71.0720    25.1600 
  217.8750     2.1870   -15.3510   399.6380    58.4910   113.0580   104.5070    80.7440    25.0180 
  218.0000     2.1880   -15.0590   399.7060    58.1240   106.9150    99.6910   102.0720    24.9460 
  218.1250     2.1860   -14.6850   395.9980    59.1770   100.6000    94.9050   119.3710    24.9380 
  218.2500     2.1810   -14.2620   388.5450    61.2940    94.7160    90.1760   120.6650    24.9400 
  218.3750     2.1860   -13.9310   375.1750    65.0920    90.2480    86.2950   103.5610    24.9440 
  218.5000     2.2180   -13.5940   354.0280    70.7520    87.3520    83.7480    80.9640    24.9440 
  218.6250     2.2890   -13.2070   322.6440    75.9980    84.2110    81.5700    72.2070    24.9130 
  218.7500     2.4000   -12.8580   282.2560    76.9760    77.8300    77.1120    76.7810    24.8390 
  218.8750     2.5120   -12.5360   243.0050    72.2170    66.2850    68.0920    82.5730    24.7650 
  219.0000     2.5840   -12.2500   219.4390    66.7430    50.3800    54.1500    84.1210    24.7230 
  219.1250     2.5900   -11.9790   220.4980    68.7430    34.6000    38.1620    69.3290    24.7210 
  219.2500     2.5320   -11.6980   246.1150    72.1910    22.7420    24.7450    42.0930    24.7120 
  219.3750     2.4490   -11.4260   288.4890    69.5550    15.0200    15.5590    17.5840    24.6940 
  219.5000     2.3620   -11.2300   330.2570    62.6420    10.2450    10.1190     7.1700    24.6720 
  219.6250     2.2870   -11.0750   361.3520    58.8430     7.4860     7.4440     5.6500    24.6430 
  219.7500     2.2410   -11.0070   380.9600    60.2660     5.9540     6.0760     5.3420    24.6280 
  219.8750     2.2240   -11.0500   394.8640    66.3710     5.6610     5.5010     5.1830    24.6100 
