~V
VERS. 2.00: Ver 2.00
~W
STRT.M 125.0000:
STOP.M 254.0000:
STEP.M 0.1250:
NULL. -999.2500:
UWI. DF3068:
~C
DEPT.M :
SP.MV :
GR.API :
CALI.CM :
RXO.OHMM :
RI. :
RML.OHMM :
DEN.GM/CC :
~A
  125.0000   -22.0370    70.4640    20.5360     9.0550     8.4590     9.9290     2.2260 
  125.1250   -21.9440    72.7140    20.7050     8.8150     7.4640     8.4930     2.2450 
  125.2500   -21.8690    80.3150    21.5090     7.3590     6.3570     7.0490     2.2770 
  125.3750   -21.7910    88.3670    22.8630     5.2690     5.4130     5.9520     2.3110 
  125.5000   -21.6950    90.5230    24.1960     3.9340     4.7990     5.3630     2.3310 
  125.6250   -21.5980    89.8700    24.7670     4.2370     4.6360     5.3710     2.3230 
  125.7500   -21.5350    89.8070    24.6110     4.8580     4.8510     5.8140     2.2940 
  125.8750   -21.5260    87.4700    23.9660     5.5330     5.3930     6.5710     2.2580 
  126.0000   -21.5870    82.6940    23.1550     6.0870     6.1380     7.4410     2.2320 
  126.1250   -21.7680    79.4270    22.5950     6.4530     6.8020     8.0600     2.2260 
  126.2500   -22.0990    77.9380    22.3900     6.7210     7.1110     8.1980     2.2330 
  126.3750   -22.5760    78.2580    22.4110     7.0070     6.9880     7.8540     2.2480 
  126.5000   -23.1210    81.8420    22.5320     6.9350     6.5590     7.2400     2.2660 
  126.6250   -23.5720    86.3210    22.7810     6.0180     6.0570     6.6730     2.2820 
  126.7500   -23.8180    88.2940    23.0870     5.0180     5.6860     6.3500     2.2860 
  126.8750   -23.8530    88.2240    23.2650     4.9430     5.5200     6.3260     2.2720 
  127.0000   -23.7670    87.7550    23.1560     5.6650     5.5610     6.5720     2.2430 
  127.1250   -23.7300    85.6520    22.8250     6.2070     5.7740     7.0070     2.2220 
  127.2500   -23.8360    81.1970    22.5650     6.2250     6.0430     7.4560     2.2260 
  127.3750   -24.0620    78.1360    22.4770     6.1010     6.2910     7.8150     2.2460 
  127.5000   -24.3250    78.9690    22.4910     6.3000     6.4900     8.0600     2.2640 
  127.6250   -24.5400    82.5170    22.4510     6.5780     6.6820     8.2620     2.2640 
  127.7500   -24.7050    83.4150    22.2940     6.7910     6.9360     8.5290     2.2530 
  127.8750   -24.8580    79.2960    22.1290     7.0660     7.2920     8.9080     2.2390 
  128.0000   -25.0330    73.7110    22.1380     7.7270     7.7400     9.3770     2.2280 
  128.1250   -25.2340    69.3220    22.3180     8.4870     8.2080     9.8530     2.2270 
  128.2500   -25.3940    66.8230    22.4020     8.8240     8.5880    10.2330     2.2330 
  128.3750   -25.4720    65.0710    22.3200     9.0570     8.8030    10.4490     2.2400 
  128.5000   -25.4840    64.4020    22.2100     9.2890     8.8230    10.4710     2.2430 
  128.6250   -25.4660    66.1120    22.1800     9.1130     8.6480    10.2940     2.2410 
  128.7500   -25.4440    68.5390    22.1800     8.9140     8.3890    10.0320     2.2330 
  128.8750   -25.3930    69.3400    22.1830     9.0020     8.1500     9.8220     2.2150 
  129.0000   -25.2890    69.0900    22.2280     8.9450     8.0540     9.8150     2.1940 
  129.1250   -25.1060    69.7690    22.3380     8.4320     8.2380    10.1730     2.1860 
  129.2500   -24.8860    71.0080    22.4380     8.1840     8.6670    10.8100     2.2040 
  129.3750   -24.6740    70.6950    22.4310     8.8990     9.2310    11.5450     2.2510 
  129.5000   -24.4620    68.3690    22.2750    11.3240     9.7270    12.0850     2.3140 
  129.6250   -24.1730    66.6600    21.9940    12.1780     9.8380    12.0440     2.3530 
  129.7500   -23.7780    66.8060    21.7560    10.8090     9.5210    11.4730     2.3470 
  129.8750   -23.3270    69.2030    21.7410     8.9140     8.9060    10.6040     2.3030 
  130.0000   -22.9170    72.8190    21.9740     8.1630     8.2040     9.7140     2.2500 
  130.1250   -22.6250    74.7160    22.2580     7.8500     7.6210     9.0370     2.2140 
  130.2500   -22.3920    75.4350    22.4210     7.5470     7.2400     8.6280     2.1990 
  130.3750   -22.1270    76.5950    22.4980     7.0890     7.0830     8.4890     2.1990 
  130.5000   -21.7850    77.8060    22.5400     6.6620     7.1150     8.5620     2.1990 
  130.6250   -21.4240    77.6350    22.5100     6.7150     7.2430     8.7210     2.1910 
  130.7500   -21.1340    78.3860    22.4700     7.0800     7.3320     8.8020     2.1840 
  130.8750   -20.9150    80.4510    22.3320     7.2470     7.3130     8.7290     2.1940 
  131.0000   -20.6860    80.2900    21.8360     6.9510     7.1700     8.5000     2.2320 
  131.1250   -20.3310    77.5840    21.1560     6.0710     6.9340     8.1820     2.3030 
  131.2500   -19.8700    79.2120    20.9980     5.3220     6.6830     7.8770     2.3850 
  131.3750   -19.3740    85.2740    21.6310     5.7300     6.4540     7.6120     2.4460 
  131.5000   -18.9010    90.6550    22.6990     6.9230     6.2450     7.3600     2.4620 
  131.6250   -18.4750    91.7400    23.5710     7.0170     6.0300     7.0860     2.4270 
  131.7500   -18.0790    92.8770    24.0400     6.0760     5.8010     6.7910     2.3750 
  131.8750   -17.7260    96.6980    24.1710     5.4760     5.5570     6.5000     2.3280 
  132.0000   -17.4400    99.5880    24.1570     5.3670     5.3110     6.2420     2.2950 
  132.1250   -17.2450    96.5820    24.1770     5.2540     5.0940     6.0430     2.2910 
  132.2500   -17.1030    91.3750    24.2370     4.9720     4.9150     5.8700     2.3090 
  132.3750   -16.9820    91.0250    24.3120     4.7880     4.7630     5.6830     2.3360 
  132.5000   -16.8650    98.4890    24.3600     4.5580     4.6200     5.4670     2.3520 
  132.6250   -16.7470   108.6140    24.4460     4.2290     4.4900     5.2530     2.3520 
  132.7500   -16.6080   113.6470    24.6650     4.2040     4.3860     5.0880     2.3500 
  132.8750   -16.4260   112.5740    24.9940     4.3470     4.3190     4.9940     2.3520 
  133.0000   -16.2050   108.5180    25.3220     4.4890     4.2970     4.9760     2.3550 
  133.1250   -16.0150   105.9370    25.4620     4.5120     4.3220     5.0190     2.3520 
  133.2500   -15.9150   103.6930    25.4100     4.5400     4.3640     5.0820     2.3470 
  133.3750   -15.9010   101.3690    25.2690     4.4800     4.3980     5.1340     2.3470 
  133.5000   -15.9180   101.4780    25.1700     4.4020     4.4030     5.1590     2.3490 
  133.6250   -15.9060   103.9090    25.1700     4.4600     4.3730     5.1410     2.3490 
  133.7500   -15.8760   104.8790    25.1760     4.4170     4.3150     5.0840     2.3450 
  133.8750   -15.8660   103.7490    25.1740     4.3210     4.2290     4.9800     2.3370 
  134.0000   -15.8970   102.7300    25.1740     4.3110     4.1050     4.8180     2.3260 
  134.1250   -15.9570   105.5220    25.1720     4.3310     3.9180     4.5850     2.3230 
  134.2500   -15.9980   111.4480    25.1810     4.2310     3.6880     4.3320     2.3340 
  134.3750   -16.0200   116.1800    25.2000     3.9410     3.4730     4.1440     2.3540 
  134.5000   -16.0400   115.2450    25.2060     3.6550     3.3460     4.1150     2.3690 
  134.6250   -16.0640   111.0490    25.1820     3.5760     3.4080     4.3570     2.3780 
  134.7500   -16.0720   107.3160    25.1100     3.9690     3.6780     4.8470     2.4000 
  134.8750   -16.0540   102.7420    24.9890     5.5730     4.1590     5.5260     2.4440 
  135.0000   -16.0310    97.1150    24.8580     7.2350     4.7900     6.2550     2.4980 
  135.1250   -16.0320    93.0340    24.7870     7.4910     5.4010     6.7900     2.5320 
  135.2500   -16.0870    89.6470    24.7640     6.8920     5.8090     7.0130     2.5320 
  135.3750   -16.2130    87.1530    24.7400     6.7360     5.9400     6.9390     2.5040 
  135.5000   -16.3860    89.5050    24.7180     6.3370     5.8300     6.6910     2.4620 
  135.6250   -16.5430    98.6340    24.7030     5.7180     5.5830     6.4220     2.4170 
  135.7500   -16.6320   104.8350    24.6540     5.8870     5.3160     6.1990     2.3790 
  135.8750   -16.6650   103.1740    24.5670     5.9470     5.0620     6.0060     2.3580 
  136.0000   -16.6990    99.3090    24.4900     5.5680     4.8380     5.8320     2.3530 
  136.1250   -16.8130   101.3600    24.4720     4.9790     4.6990     5.7580     2.3470 
