~V
VERS. 2.00: Ver 2.00
~W
STRT.M 62.0000:
STOP.M 282.0000:
STEP.M 0.1250:
NULL. -999.2500:
UWI. DF3054:
~C
DEPT.M :
DEN.GM/CC :
GR.API :
CALI.CM :
RXO.OHMM :
RI. :
RML.OHMM :
SP.MV :
~A
# ...
  275.7500     2.4590    68.4780    25.2240     6.5820     6.8190     7.7200    -2.6700 
  275.8750     2.4450    68.4780    25.2710     6.3410     6.7990     7.7000    -2.6090 
  276.0000     2.4330    68.4780    25.3390     6.2190     6.7830     7.6830    -2.5440 
  276.1250     2.4020    68.4780    25.2910     6.3480     6.7750     7.6740    -2.5310 
  276.2500     2.3550    68.4780    25.3300     6.4890     6.7720     7.6700    -2.6050 
  276.3750     2.3140    68.4780    25.6220     6.5240     6.7720     7.6700    -2.7140 
  276.5000     2.2900    68.4780    26.1550     6.5140     6.7720     7.6700    -2.7560 
  276.6250     2.2740    68.4780    26.3750     6.5020     6.7720     7.6700    -2.7560 
  276.7500     2.2770    68.4780    26.1150     6.4450     6.7720     7.6700    -2.8820 
  276.8750     2.3110    68.4780    25.7880     6.3550     6.7720     7.6700    -3.1500 
  277.0000     2.3620    68.4780    25.5260     6.3290     6.7720     7.6700    -3.4310 
  277.1250     2.3870    68.4780    25.4390     6.3730     6.7720     7.6700    -3.6000 
  277.2500     2.3720    68.4780    25.4020     6.4400     6.7720     7.6700    -3.5420 
  277.3750     2.3470    68.4780    25.4220     6.5010     6.7720     7.6700    -4.2450 
  277.5000     2.3510    68.4780    25.4860     6.5800     6.7720     7.6700  -999.2500 
  277.6250     2.3810    68.4780    25.5520     6.6490     6.7720     7.6700  -999.2500 
  277.7500     2.4120    68.4780    25.6560     6.6100     6.7720     7.6700  -999.2500 
  277.8750     2.4290    68.4780    25.6150     6.4570     6.7720     7.6700  -999.2500 
  278.0000     2.4360    68.4780    25.5120     6.3010     6.7720     7.6700  -999.2500 
  278.1250     2.4400    68.4780    25.4620     6.2690     6.7720     7.6700  -999.2500 
  278.2500     2.4390    68.4780    25.3670     6.3230     6.7720     7.6700  -999.2500 
  278.3750     2.4270    68.4780    25.1740     6.4240     6.7720     7.6700  -999.2500 
  278.5000     2.4120    68.4780    25.0340     6.5320     6.7720     7.6700  -999.2500 
  278.6250     2.4030    68.4780    24.9680     6.6330     6.7720     7.6700  -999.2500 
  278.7500     2.4080    68.4780    24.9110     6.7430     6.7720     7.6700  -999.2500 
  278.8750     2.4260    68.4780    24.8640     6.8240     6.7720     7.6700  -999.2500 
  279.0000     2.4420    68.4780    24.7690     6.8410     6.7720     7.6700  -999.2500 
  279.1250     2.4320    68.4780    24.4870     6.8200     6.7720     7.6700  -999.2500 
  279.2500     2.3930    68.4780    24.0170     6.8050     6.7720     7.6700  -999.2500 
  279.3750     2.3440    68.4780    23.4380     6.7410     6.7720     7.6700  -999.2500 
  279.5000     2.3110    68.4780    22.7750     6.6280     6.7720     7.6700  -999.2500 
  279.6250     2.2970    68.4780    21.8830     6.5340     6.7720     7.6700  -999.2500 
  279.7500     2.2900    68.4780    20.8650     6.5900     6.7720     7.6700  -999.2500 
  279.8750     2.2780    68.4780    19.7380     6.6780     6.7720     7.6700  -999.2500 
  280.0000     2.2490    68.4780    18.5770     6.6620     6.7720     7.6700  -999.2500 
  280.1250     2.2100    68.4780    17.4140     6.5070     6.7720     7.6700  -999.2500 
  280.2500     2.1710    68.4780    16.3820     6.3960     6.7720     7.6700  -999.2500 
  280.3750     2.1460    68.4780    15.8370     6.3510     6.7720     7.6700  -999.2500 
  280.5000     2.1380    68.4780    15.6810     6.3400     6.7720     7.6700  -999.2500 
  280.6250     2.1380    68.4780    15.6780     6.3370     6.7720     7.6700  -999.2500 
  280.7500     2.1400    68.4780    15.6870     6.3350     6.7720     7.6700  -999.2500 
  280.8750     2.1420    68.4780    15.6960     6.3350     6.7720     7.6700  -999.2500 
  281.0000     2.1510    68.4780    15.6990     6.3360     6.7720     7.6700  -999.2500 
  281.1250     2.1640    68.4780    15.6980     6.3390     6.7720     7.6700  -999.2500 
  281.2500     2.1710    68.4780    15.6950     6.3400     6.7720     7.6700  -999.2500 
  281.3750     2.1640    68.4780    15.6950     6.3400     6.7720     7.6700  -999.2500 
  281.5000     2.1510    68.4780    15.6950     6.3400     6.7720     7.6700  -999.2500 
  281.6250     2.1500  -999.2500  -999.2500  -999.2500  -999.2500  -999.2500  -999.2500 
  281.7500     2.1610  -999.2500  -999.2500  -999.2500  -999.2500  -999.2500  -999.2500 
  281.8750     2.1630  -999.2500  -999.2500  -999.2500  -999.2500  -999.2500  -999.2500 
  282.0000     2.1470  -999.2500  -999.2500  -999.2500  -999.2500  -999.2500  -999.2500 
