~V
VERS. 2.00: Ver 2.00
~W
STRT.M 110.0000:
STOP.M 242.0000:
STEP.M 0.1250:
NULL. -999.2500:
UWI. DF306:
~C
DEPT.M :
DEN.GM/CC :
AC.US/MT :
GR.API :
CALI.CM :
RXO.OHMM :
RI. :
RML.OHMM :
SP.MV :
~A
# ...
  210.0000     2.5350   219.4760    80.1350    24.6710    25.5640    14.0030    17.1880   -10.8410 
  210.1250     2.5490   221.8050    81.4790    24.7010    20.0950    13.7310    16.6910   -10.7910 
  210.2500     2.5610   226.5570    86.7220    24.7320    15.7740    13.3160    16.0530   -10.7370 
  210.3750     2.5610   231.4780    91.3240    24.7550    13.2650    12.8480    15.3940   -10.6830 
  210.5000     2.5500   234.5840    90.8680    24.7750    12.1190    12.4050    14.8010   -10.6320 
  210.6250     2.5420   234.6150    86.3550    24.7970    11.7650    12.0620    14.3540   -10.5980 
  210.7500     2.5460   231.5590    85.2710    24.8060    11.7130    11.8430    14.0720   -10.5980 
  210.8750     2.5490   227.9640    87.3400    24.8010    11.9920    11.7650    13.9820   -10.6210 
  211.0000     2.5450   225.9020    88.6700    24.7910    13.4080    11.8450    14.1080   -10.6760 
  211.1250     2.5390   226.3980    88.8440    24.7930    17.2610    12.1410    14.5200   -10.7290 
  211.2500     2.5390   229.1050    89.9450    24.8000    21.4780    12.6460    15.1900   -10.7990 
  211.3750     2.5360   231.7950    90.5870    24.7990    23.7910    13.3510    16.0800   -10.8710 
  211.5000     2.5270   232.7180    89.5890    24.7940    25.4780    14.1940    17.0880   -10.9400 
  211.6250     2.5210   231.0380    87.4680    24.7770    31.3690    15.0370    18.0070   -11.0040 
  211.7500     2.5290   227.1960    85.5210    24.7480    39.3740    15.7060    18.6340   -11.0510 
  211.8750     2.5380   223.3150    85.6260    24.7110    43.5730    16.0750    18.8460   -11.0930 
  212.0000     2.5390   220.8620    88.4720    24.6880    40.8160    16.1010    18.6400   -11.1190 
  212.1250     2.5330   220.5260    89.9750    24.6870    33.1920    15.8010    18.1070   -11.1480 
  212.2500     2.5290   222.2280    87.8920    24.6410    25.7330    15.3670    17.5010   -11.1630 
  212.3750     2.5310   224.5440    83.9320    24.5150    21.0990    14.9450    16.9940   -11.1690 
  212.5000     2.5410   226.4420    80.3160    24.3680    19.7390    14.6430    16.6920   -11.1670 
  212.6250     2.5520   227.2830    80.6790    24.3020    20.0310    14.5390    16.6620   -11.1610 
  212.7500     2.5580   226.7980    83.8920    24.2980    19.9640    14.5920    16.8300   -11.1430 
  212.8750     2.5580   225.8180    85.6050    24.3140    19.3900    14.7530    17.1340   -11.1140 
  213.0000     2.5550   225.4310    84.0040    24.3600    18.8270    14.9610    17.5010   -11.0860 
  213.1250     2.5500   226.6600    84.6930    24.4740    18.5030    15.1470    17.8330   -11.0530 
  213.2500     2.5460   229.9800    89.4440    24.6010    18.5100    15.2750    18.0560   -11.0330 
  213.3750     2.5430   234.0520    93.7130    24.6910    19.2290    15.3300    18.1350   -11.0100 
  213.5000     2.5410   237.5140    92.7630    24.7230    20.5150    15.3110    18.0760   -10.9950 
  213.6250     2.5350   239.3570    88.9350    24.7270    20.9060    15.2280    17.9180   -10.9730 
  213.7500     2.5240   239.0110    86.3680    24.7570    19.9450    15.1110    17.7390   -10.9640 
  213.8750     2.5130   237.2660    84.6390    24.8100    18.7860    14.9780    17.5730   -10.9650 
  214.0000     2.5100   234.8280    82.8230    24.8510    18.6250    14.8540    17.4410   -10.9650 
  214.1250     2.5160   232.3860    83.2140    24.8550    19.2120    14.7850    17.3840   -10.9690 
  214.2500     2.5300   230.5620    88.6430    24.8540    19.3460    14.8080    17.4300   -10.9490 
  214.3750     2.5410   229.3820    94.2770    24.8700    18.7790    14.9530    17.6260   -10.9320 
  214.5000     2.5440   228.5890    93.4150    24.8880    18.0610    15.2360    18.0090   -10.9070 
  214.6250     2.5400   227.7860    88.3500    24.8850    18.0990    15.6650    18.5880   -10.8920 
  214.7500     2.5340   226.6730    85.3030    24.8740    18.9140    16.1470    19.2300   -10.8850 
  214.8750     2.5340   225.4570    85.1390    24.8660    19.7560    16.5770    19.7890   -10.8690 
  215.0000     2.5410   224.4810    85.6470    24.8560    19.7960    16.8410    20.1130   -10.8590 
  215.1250     2.5490   223.9040    85.1270    24.8250    18.8650    16.8250    20.0660   -10.8460 
  215.2500     2.5540   223.5290    84.2520    24.7980    17.6230    16.5850    19.7350   -10.8570 
  215.3750     2.5560   223.0810    83.0500    24.7890    16.4330    16.1980    19.2320   -10.8710 
  215.5000     2.5550   222.6930    83.2100    24.7830    15.9130    15.7630    18.6850   -10.8920 
  215.6250     2.5490   222.7390    84.4740    24.7700    17.0200    15.3750    18.2190   -10.8890 
  215.7500     2.5390   223.6200    86.1900    24.7590    18.7990    15.0750    17.8860   -10.8830 
  215.8750     2.5340   225.0970    88.3400    24.7570    19.6010    14.8760    17.6980   -10.8820 
  216.0000     2.5320   226.8730    89.8370    24.7620    18.8620    14.7760    17.6530   -10.8740 
  216.1250     2.5300   228.7530    90.0470    24.7600    17.8900    14.7840    17.7510   -10.8760 
  216.2500     2.5290   230.7480    89.7220    24.7520    18.0380    14.8780    17.9420   -10.8680 
  216.3750     2.5350   232.7010    89.0950    24.7380    19.1220    15.0430    18.2000   -10.8670 
  216.5000     2.5400   234.0750    90.0780    24.7280    19.8720    15.2520    18.4910   -10.8670 
  216.6250     2.5400   234.1960    93.5430    24.7280    18.9480    15.4460    18.7490   -10.8920 
  216.7500     2.5390   232.7790    95.0070    24.7350    17.2460    15.5590    18.8890   -10.9230 
  216.8750     2.5450   231.1170    91.4810    24.7460    16.0050    15.5380    18.8320   -10.9490 
  217.0000     2.5540   230.6040    88.4820    24.7560    15.5280    15.3620    18.5390   -10.9760 
  217.1250     2.5560   232.0180    88.8640    24.7570    15.3500    15.0370    18.0380   -10.9860 
  217.2500     2.5430   234.8940    86.0650    24.7480    15.2050    14.6530    17.5010   -10.9980 
  217.3750     2.5260   237.2220    80.8340    24.7320    15.3130    14.2920    17.0570   -10.9960 
  217.5000     2.5160   237.6410    79.6450    24.7230    15.9480    14.0220    16.7850   -10.9870 
  217.6250     2.5200   235.9330    84.8600    24.7340    17.2110    13.9140    16.7310   -10.9650 
  217.7500     2.5290   233.1060    89.5640    24.7160    18.5350    13.9650    16.8520   -10.9290 
  217.8750     2.5270   230.8080    91.1990    24.6200    19.2970    14.1760    17.1390   -10.8870 
  218.0000     2.5140   229.7430    90.3390    24.4660    19.4470    14.5280    17.5740   -10.8370 
  218.1250     2.5030   229.9760    90.1470    24.3410    20.5620    14.9670    18.1110   -10.7860 
  218.2500     2.5000   231.4450    92.3020    24.3010    25.3560    15.3570    18.5950   -10.7330 
  218.3750     2.4980   233.8300    93.7000    24.3700    34.2480    15.5460    18.8250   -10.6770 
  218.5000     2.4960   237.1190    92.0430    24.5150    40.4150    15.3860    18.5870   -10.6100 
  218.6250     2.5040   241.1700    88.6170    24.6110    34.8770    14.7490    17.6800   -10.5440 
  218.7500     2.5220   245.3340    85.7070    24.5980    23.7780    13.8120    16.3490   -10.4690 
  218.8750     2.5330   248.4500    82.4930    24.5630    15.2620    12.7900    14.9130   -10.4120 
  219.0000     2.5260   249.4700    79.3590    24.6030    11.1950    11.9060    13.7130   -10.3610 
  219.1250     2.5130   247.7450    79.4900    24.6960    10.2350    11.3880    13.0870   -10.3320 
  219.2500     2.5070   243.0380    82.2670    24.7590    10.3680    11.2500    13.0210   -10.3120 
  219.3750     2.5090   236.9720    86.9610    24.7790    11.0470    11.4680    13.4440   -10.3030 
  219.5000     2.5140   231.0080    92.2860    24.7820    12.1920    11.9600    14.1960   -10.3180 
  219.6250     2.5230   226.2760    94.3990    24.7810    13.0640    12.5830    15.0310   -10.3290 
  219.7500     2.5390   223.4600    92.2210    24.7630    12.7050    13.1260    15.6730   -10.3540 
  219.8750     2.5550   222.0030    87.4400    24.7120    11.5180    13.4560    15.9700   -10.3710 
