~V
VERS. 2.00: Ver 2.00
~W
STRT.M 130.0000:
STOP.M 280.0000:
STEP.M 0.1250:
NULL. -999.2500:
UWI. DF3042:
~C
DEPT.M :
DEN.GM/CC :
GR.API :
RML.OHMM :
RI. :
RXO.OHMM :
CALI.CM :
SP.MV :
~A
# ...
  152.5000     2.5130    66.7900    20.7000    19.6930    19.4520    23.4560   -12.6770 
  152.6250     2.5030    65.9880    19.6320    18.6520    18.8140    23.6740   -12.6140 
  152.7500     2.4910    66.8490    18.9140    17.8530    18.2920    23.9570   -12.5790 
  152.8750     2.4790    67.5390    18.5470    17.3490    17.9230    24.1090   -12.5530 
  153.0000     2.4700    66.1260    18.3880    17.0560    17.3800    24.1220   -12.5730 
  153.1250     2.4640    64.1690    18.2280    16.8290    17.6730    24.0480   -12.5460 
  153.2500     2.4600    63.3190    17.9360    16.5380    18.1220    23.9310   -12.5370 
  153.3750     2.4570    63.4230    17.5090    16.1590    17.9470    23.8650   -12.5370 
  153.5000     2.4590    63.4830    17.0230    15.7360    16.6890    23.9270   -12.4940 
  153.6250     2.4760    63.4600    16.5720    15.3500    15.4290    23.9220   -12.5820 
  153.7500     2.5050    64.5850    16.1750    15.0370    15.7010    23.8190   -12.5700 
  153.8750     2.5360    65.3140    15.8060    14.7960    16.3160    23.7040   -12.6040 
  154.0000     2.5530    64.4700    15.4530    14.6240    16.0550    23.6630   -12.6220 
  154.1250     2.5430    62.8450    15.1700    14.5670    15.6070    23.6790   -12.6330 
  154.2500     2.5130    61.9850    15.0670    14.6880    15.2560    23.6940   -12.7440 
  154.3750     2.4770    62.0830    15.2520    15.0730    14.9920    23.6810   -12.8050 
  154.5000     2.4470    63.2690    15.6980    15.7460    14.9650    23.6440   -12.9390 
  154.6250     2.4310    66.3960    16.2330    16.5700    15.5970    23.5980   -12.9620 
  154.7500     2.4240    69.2360    16.5140    17.1550    15.9970    23.5710   -13.0460 
  154.8750     2.4190    71.1900    16.2880    17.0960    16.0270    23.5610   -13.0890 
  155.0000     2.4070    72.9380    15.4020    16.1070    15.6590    23.5470   -13.1290 
  155.1250     2.3820    74.3380    14.0180    14.1160    14.7310    23.5170   -13.2020 
  155.2500     2.3500    77.0530    12.5640    11.7450    13.0390    23.5090   -13.1620 
  155.3750     2.3230    84.4730    10.9590     9.5100    10.3740    23.5210   -13.2050 
  155.5000     2.3110    95.9320     9.1620     7.7430     7.6950    23.5490   -13.2020 
  155.6250     2.3190   104.2670     8.0400     6.5990     6.5000    23.6190   -13.2250 
  155.7500     2.3350   107.0240     7.3890     5.8710     6.1230    23.7300   -13.2480 
  155.8750     2.3520   107.6250     6.9740     5.4140     6.1070    23.8380   -13.2890 
  156.0000     2.3590   107.7240     6.6370     5.1120     6.1380    23.8900   -13.3850 
  156.1250     2.3580   106.8220     6.3950     4.9290     6.1270    23.8970   -13.4640 
  156.2500     2.3560   105.7090     6.4510     4.8990     6.2570    23.8920   -13.6720 
  156.3750     2.3560   102.9180     7.2310     5.2810     6.9440    23.8670   -13.8470 
  156.5000     2.3560    95.5270     9.5960     6.8230     8.8250    23.8080   -14.0990 
  156.6250     2.3520    83.6420    15.7570    11.6770    13.6660    23.7190   -14.3940 
  156.7500     2.3410    74.1010    26.6630    21.1070    22.6490    23.6310   -14.7220 
  156.8750     2.3200    68.6350    42.1350    35.3100    37.5520    23.5630   -15.0730 
  157.0000     2.2920    65.2990    59.5470    52.0390    57.4660    23.5670   -15.4110 
  157.1250     2.2650    63.9140    72.2870    64.9750    72.2510    23.6230   -15.7120 
  157.2500     2.2430    65.3780    74.5540    68.1950    75.2690    23.7100   -15.9850 
  157.3750     2.2320    68.5460    64.7990    60.0370    69.6700    23.7830   -16.2170 
  157.5000     2.2330    73.1640    48.2390    45.0760    55.6860    23.8060   -16.4370 
  157.6250     2.2510    79.9360    33.6100    31.1900    33.3270    23.7860   -16.6310 
  157.7500     2.2830    86.6040    24.0600    21.8270    17.7130    23.7670   -16.8210 
  157.8750     2.3240    91.1620    19.0570    16.6930    11.4850    23.7890   -16.9980 
  158.0000     2.3640    93.8400    17.4750    14.6830    10.3290    23.8280   -17.1810 
  158.1250     2.3860    94.0330    18.6460    15.1600    11.2370    23.8710   -17.3780 
  158.2500     2.3890    91.1430    21.3210    17.1260    12.8440    23.9160   -17.5450 
  158.3750     2.3770    87.0720    24.7760    20.0580    15.3350    23.9420   -17.7470 
  158.5000     2.3600    85.1010    28.2900    23.3340    19.1950    23.9650   -17.8950 
  158.6250     2.3470    86.0730    31.1620    26.2140    21.9300    23.9910   -18.1430 
  158.7500     2.3380    87.4920    33.3380    28.4310    22.5800    24.0020   -18.2980 
  158.8750     2.3300    88.0310    35.1700    30.1740    23.2250    24.0050   -18.5180 
  159.0000     2.3200    85.1920    37.2500    31.9110    25.9830    24.0050   -18.7190 
  159.1250     2.3070    80.1060    40.3940    34.3010    32.1270    24.0180   -18.9610 
  159.2500     2.2970    77.4880    44.9430    37.6690    36.2870    24.0500   -19.2320 
  159.3750     2.2920    78.2170    51.1200    42.2150    40.8930    24.0840   -19.4720 
  159.5000     2.2890    78.7670    58.8570    47.9330    48.1620    24.1060   -19.7390 
  159.6250     2.2870    77.8060    67.6190    54.5130    54.8240    24.1110   -19.8910 
  159.7500     2.2820    78.6210    75.8370    60.8310    60.7640    24.1090   -20.1230 
  159.8750     2.2760    79.9350    81.8710    65.6630    65.6350    24.0920   -20.2730 
  160.0000     2.2690    78.1970    84.4130    67.9710    74.0520    24.0520   -20.4220 
  160.1250     2.2650    73.7960    82.8890    67.1660    77.8240    24.0190   -20.4990 
  160.2500     2.2660    72.3630    79.6260    64.8250    77.1200    24.0070   -20.5570 
  160.3750     2.2700    74.5760    76.7590    62.4930    63.8810    24.0050   -20.6150 
  160.5000     2.2730    76.9470    75.7820    61.3970    50.1850    24.0050   -20.6660 
  160.6250     2.2700    78.2810    77.1060    62.1130    47.2300    24.0030   -20.7090 
  160.7500     2.2630    78.6370    79.0060    63.5620    52.2060    23.9910   -20.7400 
  160.8750     2.2580    76.7330    79.6470    64.4450    57.2330    23.9640   -20.7750 
  161.0000     2.2600    73.7990    77.5370    63.5650    59.8050    23.9430   -20.8130 
  161.1250     2.2720    76.0420    72.0790    60.1990    56.1140    23.9360   -20.8450 
  161.2500     2.2910    83.0390    65.5080    55.6990    49.2550    23.9360   -20.8890 
  161.3750     2.3130    89.0050    60.0260    51.6500    42.3930    23.9360   -20.9150 
  161.5000     2.3340    89.8280    57.2970    49.4850    37.1460    23.9360   -20.9780 
  161.6250     2.3450    87.6940    58.7180    50.5890    34.4670    23.9360   -21.0570 
  161.7500     2.3460    85.3800    63.5320    54.5820    36.2840    23.9360   -21.0690 
  161.8750     2.3360    83.9380    70.7320    60.7420    43.1740    23.9360   -21.1590 
  162.0000     2.3210    83.2510    78.4740    67.5880    51.5280    23.9360   -21.1730 
  162.1250     2.3070    82.3360    83.5180    72.4600    56.7260    23.9360   -21.2860 
  162.2500     2.3000    81.2510    83.6430    73.3810    58.4400    23.9360   -21.3590 
  162.3750     2.3000    80.3590    78.1350    69.5310    58.5020    23.9360   -21.4870 
  162.5000     2.3050    80.6410    68.5570    61.8490    55.6390    23.9360   -21.5640 
  162.6250     2.3120    84.3280    58.6020    53.0040    50.3470    23.9360   -21.7160 
  162.7500     2.3190    89.1900    51.8640    46.2810    43.3860    23.9380   -21.9050 
  162.8750     2.3200    93.7330    50.4080    43.8200    35.3010    23.9460   -22.1040 
  163.0000     2.3110    94.3580    55.8490    47.3430    31.0930    23.9640   -22.3750 
  163.1250     2.2890    86.2980    71.1530    59.5750    42.7290    23.9740   -22.6710 
  163.2500     2.2610    75.4250    95.2670    79.4770    66.8750    23.9990   -22.9980 
  163.3750     2.2360    70.6630   126.1010   105.0290   104.7170    24.0680   -23.3430 
  163.5000     2.2190    73.7170   158.7540   131.8780   184.1800    24.1800   -23.6880 
  163.6250     2.2160    75.9990   184.5590   152.8930   204.7190    24.2370   -24.0170 
