~V
VERS. 2.00: Ver 2.00
~W
STRT.M 55.0000:
STOP.M 272.0000:
STEP.M 0.1250:
NULL. -999.2500:
UWI. DF3078:
~C
DEPT.M :
GR.API :
CALI.CM :
RXO.OHMM :
RI. :
RML.OHMM :
DEN.GM/CC :
SP.MV :
~A
# ...
  190.0000    69.6860    24.8150    58.2680    56.6870    55.4580     2.3150   -17.1170 
  190.1250    71.9160    24.8160    58.4380    56.7320    55.6640     2.3250   -17.1360 
  190.2500    73.3460    24.7480    55.6420    56.3640    55.6560     2.3370   -17.1470 
  190.3750    73.1140    24.6680    53.5400    56.3290    56.1800     2.3370   -17.1620 
  190.5000    72.2450    24.6600    56.7980    57.1750    57.6860     2.3240   -17.1590 
  190.6250    71.4540    24.7020    66.9080    59.0580    60.1290     2.3080   -17.1750 
  190.7500    70.1150    24.7230    75.1510    61.1430    62.5020     2.3040   -17.1750 
  190.8750    68.4410    24.7310    76.4800    62.4790    63.7670     2.3090   -17.1610 
  191.0000    68.2010    24.7420    71.0590    62.3250    63.2330     2.3170   -17.1470 
  191.1250    70.7910    24.7060    64.2040    60.5010    60.9870     2.3210   -17.1110 
  191.2500    72.1190    24.6640    59.7940    58.1740    58.4830     2.3250   -17.0710 
  191.3750    70.5990    24.5840    57.1860    56.3280    56.7510     2.3280   -17.0080 
  191.5000    68.2880    24.4050    55.9430    55.6040    56.3060     2.3230   -16.9340 
  191.6250    69.2680    24.1800    56.4580    56.2940    57.2370     2.3030   -16.8090 
  191.7500    71.4000    24.1600    57.5800    57.7950    58.8350     2.2830   -16.6650 
  191.8750    69.4800    24.3730    58.5180    59.6250    60.5840     2.2760   -16.4900 
  192.0000    65.5010    24.5370    58.5470    61.3050    61.9500     2.2840   -16.3050 
  192.1250    65.3930    24.4840    57.0680    61.7800    61.7460     2.2910   -16.1010 
  192.2500    67.2110    24.4900    55.4110    59.9510    59.0060     2.2990   -15.8810 
  192.3750    66.1080    24.6030    55.0600    55.2110    53.4360     2.3180   -15.6800 
  192.5000    62.9860    24.6980    52.6250    48.3110    46.1680     2.3580   -15.4880 
  192.6250    62.3900    24.7240    42.6640    41.3510    39.5790     2.4060   -15.3780 
  192.7500    63.9300    24.6920    31.1820    36.2700    35.3670     2.4260   -15.3450 
  192.8750    65.7760    24.5970    28.9800    33.9450    34.1670     2.4030   -15.4210 
  193.0000    67.3560    24.4760    39.6130    34.6190    35.9780     2.3540   -15.5980 
  193.1250    67.9460    24.4220    55.2090    38.4410    40.6980     2.3150   -15.8770 
  193.2500    67.7870    24.4610    62.3800    44.0100    46.8300     2.2980   -16.2530 
  193.3750    68.0170    24.5250    59.9430    49.7020    52.6950     2.2960   -16.6940 
  193.5000    68.8150    24.5240    53.6440    53.5230    56.2840     2.2970   -17.2080 
  193.6250    69.5970    24.4580    48.9380    53.7740    56.0230     2.2920   -17.7340 
  193.7500    70.4290    24.3890    46.4530    51.7210    53.6180     2.2880   -18.2540 
  193.8750    70.8930    24.3900    44.1540    48.8410    50.7950     2.2920   -18.7290 
  194.0000    70.1560    24.4810    40.6860    46.2780    48.6950     2.3020   -19.1300 
  194.1250    67.3780    24.6180    38.5530    44.9250    48.1150     2.3020   -19.4090 
  194.2500    64.1780    24.7510    40.1050    44.9560    49.0500     2.2940   -19.5870 
  194.3750    63.3290    24.8380    45.0950    46.3350    51.3530     2.2850   -19.6600 
  194.5000    65.6720    24.9090    50.8030    48.6170    54.4600     2.2840   -19.6360 
  194.6250    68.5380    25.0000    52.6620    50.7570    57.0530     2.2900   -19.5080 
  194.7500    67.9790    25.1010    49.0940    51.5850    57.7520     2.2900   -19.2730 
  194.8750    65.7030    25.1180    42.7310    50.5060    55.9350     2.2800   -18.9740 
  195.0000    65.1050    25.0020    36.9050    47.7120    52.1070     2.2660   -18.5930 
  195.1250    68.9850    24.7300    33.2710    44.0410    47.6040     2.2700   -18.1690 
  195.2500    73.3020    24.4660    31.3310    40.6470    43.7610     2.2890   -17.7170 
  195.3750    74.0780    24.4140    30.8580    38.0880    41.0790     2.3090   -17.2610 
  195.5000    70.5960    24.5330    31.1830    36.5580    39.6140     2.3170   -16.7930 
  195.6250    68.2700    24.5690    31.3830    36.0760    39.2460     2.3240   -16.3040 
  195.7500    71.1240    24.5460    31.4430    36.1530    39.3910     2.3480   -15.8360 
  195.8750    73.4570    24.4980    32.8140    36.4150    39.6440     2.3820   -15.3630 
  196.0000    70.5170    24.4580    34.5820    36.4830    39.6200     2.4060   -14.9330 
  196.1250    66.7030    24.4230    32.1670    35.9530    38.9500     2.4070   -14.5520 
  196.2500    67.8540    24.3500    26.8240    34.8690    37.7830     2.4010   -14.2190 
  196.3750    71.5670    24.1900    22.8560    33.4720    36.4720     2.4040   -13.9420 
  196.5000    72.5940    24.1430    21.6230    32.1640    35.5170     2.4250   -13.7250 
  196.6250    71.5020    24.2920    21.6250    31.5580    35.6250     2.4520   -13.5820 
  196.7500    71.1200    24.4370    23.1570    31.9630    37.0030     2.4660   -13.4900 
  196.8750    71.2020    24.5150    28.4120    33.5190    39.6790     2.4580   -13.4440 
  197.0000    69.6950    24.5660    37.1830    36.1080    43.3490     2.4360   -13.4380 
  197.1250    65.1500    24.6340    43.5640    39.2540    47.1860     2.4180   -13.4350 
  197.2500    60.6770    24.6650    42.3730    41.9530    49.9510     2.4080   -13.4080 
  197.3750    58.5000    24.6510    35.9810    43.5120    50.9780     2.3960   -13.3120 
  197.5000    59.5670    24.5800    30.0800    43.9970    50.7940     2.3710   -13.1330 
  197.6250    61.2360    24.4750    28.9520    44.6590    51.3490     2.3370   -12.8760 
  197.7500    60.8590    24.3810    33.0480    47.1680    54.2940     2.3170   -12.5020 
  197.8750    59.6470    24.2430    45.5320    52.3400    59.9890     2.3260   -12.0460 
  198.0000    59.6930    24.0840    69.5910    59.0760    66.4810     2.3700   -11.4860 
  198.1250    60.1580    24.0230   104.7100    61.5370    65.9200     2.4510   -10.8320 
  198.2500    58.5910    24.0910   116.5360    54.3300    53.8780     2.5500   -10.1080 
  198.3750    56.5970    24.2260    88.2080    39.3950    36.0210     2.6360    -9.3600 
  198.5000    57.4530    24.3070    41.9360    24.2890    21.0290     2.6780    -8.6010 
  198.6250    60.1390    24.2350    16.6940    14.5920    12.5240     2.6590    -7.8550 
  198.7500    61.4610    24.0300     7.5710     9.1770     8.0130     2.6060    -7.1640 
  198.8750    61.5750    23.7890     4.9140     6.4750     5.9030     2.5380    -6.5290 
  199.0000    60.8800    23.5140     4.4370     5.2930     5.1510     2.4730    -5.9840 
  199.1250    58.2430    23.3560     4.5390     5.0420     5.1760     2.4300    -5.5630 
  199.2500    55.6610    23.5340     4.6080     5.1860     5.4370     2.4060    -5.2640 
  199.3750    55.4790    23.8690     4.6050     5.4670     5.6900     2.3880    -5.0570 
  199.5000    56.0020    24.0650     4.5590     5.7120     5.8260     2.3680    -4.9350 
  199.6250    56.3050    24.0880     4.5460     5.8560     5.8690     2.3480    -4.9260 
  199.7500    59.3100    24.0940     4.6040     5.9780     5.9500     2.3340    -4.9930 
  199.8750    65.9540    24.0920     4.7870     6.1400     6.1420     2.3300    -5.1290 
  200.0000    75.2380    24.0850     5.1710     6.3660     6.4550     2.3450    -5.3190 
  200.1250    83.7200    24.0700     5.8250     6.6120     6.8230     2.3850    -5.5650 
  200.2500    90.1590    24.0670     6.4950     6.7730     7.1110     2.4330    -5.8680 
  200.3750    95.0770    24.0800     6.8310     6.7600     7.2260     2.4630    -6.2310 
  200.5000   100.5340    24.0500     6.6880     6.5580     7.1670     2.4620    -6.6550 
  200.6250   106.0070    23.9850     6.3640     6.2530     7.0580     2.4400    -7.1570 
  200.7500   108.1590    23.9340     6.3160     6.0050     7.0900     2.4280    -7.7530 
  200.8750   107.0480    23.8870     6.6350     5.9130     7.3760     2.4320    -8.4410 
  201.0000   104.9250    23.8530     7.2880     6.0330     7.9560     2.4430    -9.1870 
  201.1250   104.3190    23.9320     8.2760     6.4140     8.8230     2.4440   -10.0220 
