~V
VERS. 2.00: Ver 2.00
~W
STRT.M 65.0000:
STOP.M 252.0000:
STEP.M 0.1250:
NULL. -999.2500:
UWI. DF3012:
~C
DEPT.M :
GR.API :
RML.OHMM :
RI. :
RXO.OHMM :
CALI.CM :
DEN.GM/CC :
SP.MV :
~A
# ...
   76.2500    71.9720    11.8030    10.1070     0.0000    22.8750  -999.2500   -34.9060 
   76.3750    71.2840    11.4370     9.8340     0.0000    22.8870  -999.2500   -35.6250 
   76.5000    71.0790    11.4570     9.7580     0.0000    22.8800  -999.2500   -36.3650 
   76.6250    73.5660    11.9200    10.0050     0.0000    22.8980  -999.2500   -37.0280 
   76.7500    76.0440    12.4820    10.3850     0.0000    22.9130  -999.2500   -37.4330 
   76.8750    75.5530    12.8480    10.6880     0.0000    22.9330  -999.2500   -37.7500 
   77.0000    71.9450    12.8520    10.7520     0.0000    22.9900  -999.2500   -38.1350 
   77.1250    68.8810    12.5130    10.5220     0.0000    23.1070  -999.2500   -38.3350 
   77.2500    69.2910    12.1110    10.1870     0.0000    23.2150  -999.2500   -38.5340 
   77.3750    71.1680    11.8300     9.9020     0.0000    23.2780  -999.2500   -38.8440 
   77.5000    71.5590    11.7590     9.7610     0.0000    23.3230  -999.2500   -39.1230 
   77.6250    70.7410    11.9090     9.8050     0.0000    23.3400  -999.2500   -39.3130 
   77.7500    70.9730    12.1560     9.9480     0.0000    23.3450  -999.2500   -39.5200 
   77.8750    71.8860    12.4080    10.1150     0.0000    23.3440  -999.2500   -39.7780 
   78.0000    71.3620    12.5910    10.2360     0.0000    23.3400  -999.2500   -40.0150 
   78.1250    71.0140    12.6120    10.2310     0.0000    23.3550  -999.2500   -40.2020 
   78.2500    73.0380    12.4580    10.0840     0.0000    23.3910  -999.2500   -40.3410 
   78.3750    77.1730    12.1530     9.8120     0.0000    23.4270  -999.2500   -40.4660 
   78.5000    81.6190    11.7830     9.4760     0.0000    23.4400  -999.2500   -40.5270 
   78.6250    84.7060    11.4950     9.1860     0.0000    23.4380  -999.2500   -40.5910 
   78.7500    85.0880    11.3890     9.0280     0.0000    23.4080  -999.2500   -40.8230 
   78.8750    82.4060    11.5020     9.0420     0.0000    23.3010  -999.2500   -41.0090 
   79.0000    78.3130    11.8030     9.2260     0.0000    23.1160  -999.2500   -41.0890 
   79.1250    72.9410    12.2160     9.5440     0.0000    22.9620  -999.2500   -41.3250 
   79.2500    66.6700    12.6240     9.8980     0.0000    22.8880  -999.2500   -41.5680 
   79.3750    62.2860    12.9600    10.2210     0.0000    22.8370  -999.2500   -41.6690 
   79.5000    62.1740    13.1950    10.4680     0.0000    22.8280  -999.2500   -41.8210 
   79.6250    64.0300    13.3210    10.6070     0.0000    22.9120  -999.2500   -42.0200 
   79.7500    64.5860    13.3760    10.6690     0.0000    23.0800  -999.2500   -42.0200 
   79.8750    66.0960    13.3760    10.6720     0.0000    23.2250  -999.2500   -42.0240 
   80.0000    69.2780    13.3250    10.6340     0.0000    23.3130  -999.2500   -42.1450 
   80.1250    71.7370    13.2250    10.5680     0.0000    23.3370  -999.2500   -42.1580 
   80.2500    72.8180    13.1110    10.5040     0.0000    23.3450  -999.2500   -42.1110 
   80.3750    73.5000    13.0360    10.4730     0.0000    23.3460  -999.2500   -42.1920 
   80.5000    73.2580    13.0570    10.5090     0.0000    23.3460  -999.2500   -42.2420 
   80.6250    71.2420    13.2330    10.6490     0.0000    23.3440  -999.2500   -42.1360 
   80.7500    70.0580    13.5110    10.8570     0.0000    23.3260  -999.2500   -41.9710 
   80.8750    69.4600    13.7820    11.0600     0.0000    23.2710  -999.2500   -41.7140 
   81.0000    69.3350    13.8910    11.1450     0.0000    23.1880  -999.2500   -41.3330 
   81.1250    70.6410    13.6120    10.9380     0.0000    23.1210  -999.2500   -40.7450 
   81.2500    73.1040    12.9480    10.4200     0.0000    23.1080  -999.2500   -40.0300 
   81.3750    75.9630    11.9950     9.6530     0.0000    23.1650  -999.2500   -39.1590 
   81.5000    80.7450    10.9430     8.7770     0.0000    23.3260  -999.2500   -38.0980 
   81.6250    88.5540    10.0450     7.9870     0.0000    23.5470  -999.2500   -37.0470 
   81.7500    93.7310     9.4430     7.4020     0.0000    23.6750  -999.2500   -36.1820 
   81.8750    94.5400     9.1820     7.0740     0.0000    23.7010  -999.2500   -35.3900 
   82.0000    95.4420     9.2220     6.9970     0.0000    23.6930  -999.2500   -34.5700 
   82.1250   101.0180     9.4570     7.1290     0.0000    23.7010  -999.2500   -34.0480 
   82.2500   107.0950     9.6780     7.3230     0.0000    23.6460  -999.2500   -33.7620 
   82.3750   107.3850     9.7510     7.4670     0.0000    23.5140  -999.2500   -33.4840 
   82.5000   100.9890     9.6220     7.4910     0.0000    23.4040  -999.2500   -33.3680 
   82.6250    97.2060     9.3330     7.3760     0.0000    23.5540  -999.2500   -33.3950 
   82.7500   102.9170     9.0390     7.2120     0.0000    23.8870  -999.2500   -33.2520 
   82.8750   110.6930     8.8280     7.0610     0.0000    24.0790  -999.2500   -33.0540 
   83.0000   109.2030     8.7220     6.9560     0.0000    23.9270  -999.2500   -32.9710 
   83.1250   101.3790     8.6850     6.8930     0.0000    23.4630  -999.2500   -32.6960 
   83.2500    99.5980     8.6380     6.8350     0.0000    23.1100  -999.2500   -32.3030 
   83.3750   102.5690     8.5570     6.7630     0.0000    22.9570  -999.2500   -32.0100 
   83.5000   104.2980     8.4720     6.6860     0.0000    22.9520  -999.2500   -31.6590 
   83.6250   106.0880     8.4650     6.6460     0.0000    23.0920  -999.2500   -31.1580 
   83.7500   109.4670     8.5860     6.6750     0.0000    23.3800  -999.2500   -30.7400 
   83.8750   110.6130     8.8280     6.7800     0.0000    23.7680  -999.2500   -30.3130 
   84.0000   106.6970     9.1220     6.9270     0.0000    24.1120  -999.2500   -29.6870 
   84.1250   100.5890     9.3290     7.0400     0.0000    24.2010  -999.2500   -28.9840 
   84.2500    98.2240     9.3620     7.0560     0.0000    24.1500  -999.2500   -28.3320 
   84.3750    99.2250     9.2210     6.9630     0.0000    24.0540  -999.2500   -27.8230 
   84.5000   100.5350     8.9850     6.8010     0.0000    23.9490  -999.2500   -27.5330 
   84.6250   100.6950     8.8180     6.6700     0.0000    23.9030  -999.2500   -27.5040 
   84.7500   100.9450     8.8450     6.6640     0.0000    23.8440  -999.2500   -27.7590 
   84.8750   100.5770     9.1140     6.8360     0.0000    23.6980  -999.2500   -28.2330 
   85.0000    96.1760     9.6040     7.1940     0.0000    23.4640  -999.2500   -28.8940 
   85.1250    86.8550    10.2440     7.7250     0.0000    23.3070  -999.2500   -29.8800 
   85.2500    76.9210    10.8920     8.3260     0.0000    23.2600  -999.2500   -30.9330 
   85.3750    70.4730    11.4640     8.9170     0.0000    23.1830  -999.2500   -31.7200 
   85.5000    70.8280    11.9120     9.4280     0.0000    23.0250  -999.2500   -32.3180 
   85.6250    73.6060    12.2080     9.7860     0.0000    22.9540  -999.2500   -32.7480 
   85.7500    72.8900    12.3730     9.9840     0.0000    22.9480  -999.2500   -32.7150 
   85.8750    69.4270    12.3740     9.9960     0.0000    22.9540  -999.2500   -32.3240 
   86.0000    66.2520    12.1490     9.7910     0.0000    22.9420  -999.2500   -31.8050 
   86.1250    65.3830    11.6120     9.3190     0.0000    22.9250  -999.2500   -30.9580 
   86.2500    68.3360    10.8590     8.6700     0.0000    22.9310  -999.2500   -29.8000 
   86.3750    76.1140    10.0260     7.9490     0.0000    23.0130  -999.2500   -28.6380 
   86.5000    86.9470     9.2800     7.2800     0.0000    23.2690  -999.2500   -27.4470 
   86.6250    96.9440     8.8140     6.8100     0.0000    23.7020  -999.2500   -26.1860 
   86.7500   102.4370     8.6540     6.5730     0.0000    24.1120  -999.2500   -25.1890 
   86.8750   102.3690     8.7830     6.5780     0.0000    24.3230  -999.2500   -24.4950 
   87.0000   100.8960     9.1290     6.8010     0.0000    24.2880  -999.2500   -23.9380 
   87.1250   104.9480     9.5850     7.1950     0.0000    24.0130  -999.2500   -23.5920 
   87.2500   107.7150     9.9970     7.6360     0.0000    23.6080  -999.2500   -23.5780 
   87.3750   103.8090    10.2780     8.0350     0.0000    23.1820  -999.2500   -23.7470 
