~V
VERS. 2.00: Ver 2.00
~W
STRT.M 60.0000:
STOP.M 282.0000:
STEP.M 0.1250:
NULL. -999.2500:
UWI. DF3058:
~C
DEPT.M :
GR.API :
RML.OHMM :
RI. :
RXO.OHMM :
CALI.CM :
DEN.GM/CC :
SP.MV :
~A
# ...
  105.0000    67.5170    10.0310     7.8630     9.8140    21.9240     2.1490  -999.2500 
  105.1250    63.6970     9.8870     7.7690     9.6420    21.9160     2.1510  -999.2500 
  105.2500    63.0740     9.8460     7.7330     9.5330    21.9140     2.1540   -30.2310 
  105.3750    67.4810     9.9360     7.7840     9.6690    21.9120     2.1570   -30.2310 
  105.5000    73.8690    10.1140     7.9080    10.1230    21.9060     2.1580   -30.2000 
  105.6250    76.7840    10.2670     8.0470    10.7110    21.9030     2.1580   -30.1600 
  105.7500    75.5730    10.3010     8.1300    10.9730    21.9010     2.1580   -30.1270 
  105.8750    72.4980    10.2010     8.1310    10.6470    21.9000     2.1590   -30.1160 
  106.0000    69.8210    10.0380     8.0700     9.9880    21.9030     2.1590   -30.1270 
  106.1250    68.7450     9.9410     8.0140     9.3640    21.9210     2.1550   -30.1480 
  106.2500    68.0760     9.9630     8.0130     9.2320    21.9430     2.1500   -30.1600 
  106.3750    67.5920    10.0630     8.0600     9.5570    21.9530     2.1450   -30.1770 
  106.5000    67.9270    10.1370     8.1070     9.9470    21.9540     2.1440   -30.2180 
  106.6250    67.0300    10.0640     8.0790    10.0290    21.9540     2.1500   -30.2640 
  106.7500    65.6390     9.8570     7.9640     9.8230    21.9470     2.1620   -30.3100 
  106.8750    66.6670     9.6120     7.8050     9.4390    21.9300     2.1760   -30.3600 
  107.0000    69.2160     9.4630     7.6820     9.1180    21.9060     2.1840   -30.4440 
  107.1250    68.8670     9.5550     7.7000     9.1800    21.8920     2.1840   -30.5390 
  107.2500    65.9320     9.8600     7.8710     9.4860    21.8630     2.1780   -30.6490 
  107.3750    63.3950    10.2970     8.1650     9.9210    21.8030     2.1710   -30.7590 
  107.5000    62.2350    10.7440     8.5110    10.2730    21.7580     2.1670   -30.8840 
  107.6250    60.9430    11.0530     8.8060    10.4420    21.7340     2.1690   -31.0270 
  107.7500    60.3780    11.1820     8.9910    10.5080    21.7110     2.1710   -31.1980 
  107.8750    62.2110    11.1510     9.0560    10.5880    21.6880     2.1720   -31.3550 
  108.0000    64.1040    11.0260     9.0290    10.6630    21.6910     2.1700   -31.4640 
  108.1250    64.1270    10.8880     8.9550    10.7140    21.7130     2.1650   -31.5120 
  108.2500    61.9180    10.7970     8.8850    10.7410    21.7070     2.1610   -31.5340 
  108.3750    60.4890    10.7720     8.8450    10.7800    21.6960     2.1580   -31.5410 
  108.5000    60.2660    10.8160     8.8430    10.8120    21.6960     2.1580   -31.5250 
  108.6250    59.4300    10.9110     8.8760    10.8110    21.7260     2.1600   -31.4390 
  108.7500    59.5100    11.0060     8.9130    10.7980    21.7770     2.1640   -31.3050 
  108.8750    60.9600    11.0450     8.9210    10.7670    21.8020     2.1680   -31.1660 
  109.0000    64.1620    10.9770     8.8720    10.7070    21.7640     2.1720   -31.0120 
  109.1250    66.1550    10.7570     8.7340    10.5800    21.7400     2.1750   -30.8470 
  109.2500    66.3970    10.4360     8.5330    10.3600    21.7530     2.1780   -30.6550 
  109.3750    66.9480    10.0810     8.2990     9.9780    21.8030     2.1810   -30.4490 
  109.5000    67.0600     9.7680     8.0760     9.5060    21.8580     2.1850   -30.2430 
  109.6250    66.8140     9.5930     7.9250     9.1780    21.8770     2.1880   -30.0670 
  109.7500    66.1360     9.5730     7.8680     9.0660    21.8630     2.1910   -29.9010 
  109.8750    64.4790     9.7020     7.9130     9.2080    21.7870     2.1910   -29.7390 
  110.0000    62.0510     9.9390     8.0430     9.5170    21.6470     2.1870   -29.6080 
  110.1250    59.4430    10.2050     8.2170     9.8060    21.5380     2.1770   -29.5230 
  110.2500    60.1000    10.4020     8.3670    10.1150    21.5090     2.1650   -29.4800 
  110.3750    63.0230    10.4740     8.4470    10.2510    21.4070     2.1550   -29.4650 
  110.5000    65.7600    10.4130     8.4400    10.1800    21.3610     2.1490   -29.4740 
  110.6250    67.2330    10.2760     8.3680     9.8830    21.4610     2.1480   -29.5490 
  110.7500    68.0150    10.1790     8.3070     9.6060    21.6530     2.1500   -29.6900 
  110.8750    67.5070    10.2000     8.3150     9.4650    21.7960     2.1510   -29.8780 
  111.0000    64.9360    10.3700     8.4280     9.5680    21.8420     2.1530   -30.0720 
  111.1250    62.6730    10.6610     8.6480    10.0630    21.8110     2.1550   -30.2660 
  111.2500    63.6830    10.9600     8.9070    10.5690    21.8070     2.1590   -30.4780 
  111.3750    66.3410    11.1850     9.1430    10.7720    21.9530     2.1610   -30.6990 
  111.5000    67.2230    11.2920     9.3130    10.8550    22.2720     2.1590   -30.8840 
  111.6250    64.3320    11.2780     9.3860    10.9740    22.5050     2.1540   -31.0000 
  111.7500    61.1590    11.2220     9.3970    11.0690    22.5730     2.1500   -31.0330 
  111.8750    61.0070    11.1810     9.3740    11.1350    22.6320     2.1510   -30.9940 
  112.0000    62.4090    11.1720     9.3330    11.1720    22.7160     2.1570   -30.9020 
  112.1250    61.8800    11.1440     9.2460    11.1150    22.7540     2.1660   -30.7300 
  112.2500    60.1400    11.0060     9.0740    11.0060    22.6720     2.1740   -30.4750 
  112.3750    60.3190    10.6790     8.7740    10.7120    22.5630     2.1830   -30.1600 
  112.5000    63.0060    10.1370     8.3310    10.0970    22.5660     2.1920   -29.8340 
  112.6250    66.4420     9.4520     7.7840     9.3560    22.4450     2.2040   -29.5070 
  112.7500    69.2870     8.8320     7.2660     8.6600    22.2550     2.2190   -29.2450 
  112.8750    69.5580     8.4500     6.8980     8.2210    22.1710     2.2320   -29.0740 
  113.0000    66.9130     8.4220     6.7720     8.1660    22.2350     2.2420   -29.0280 
  113.1250    65.0580     8.8190     6.9740     8.9130    22.4250     2.2430   -29.1050 
  113.2500    64.1650     9.4720     7.4160    10.0060    22.6180     2.2390   -29.2720 
  113.3750    62.2150    10.2130     7.9980    10.7850    22.5520     2.2300   -29.5090 
  113.5000    57.6860    10.8660     8.5900    11.0090    22.5430     2.2200   -29.7790 
  113.6250    54.3220    11.2600     9.0390    10.9770    22.7490     2.2110   -30.0690 
  113.7500    55.6910    11.4100     9.2990    11.0210    22.7920     2.2040   -30.3100 
  113.8750    59.6080    11.3780     9.3800    11.0770    22.5900     2.1990   -30.4870 
  114.0000    61.4920    11.2430     9.3330    11.0840    22.3850     2.1970   -30.5720 
  114.1250    60.4180    11.0400     9.1910    10.9760    22.2580     2.1930   -30.5910 
  114.2500    59.2880    10.7770     8.9920    10.8170    22.2260     2.1870   -30.5420 
  114.3750    58.4610    10.4540     8.7460    10.6220    22.2180     2.1790   -30.4240 
  114.5000    57.9360    10.1020     8.4800    10.3790    22.2180     2.1710   -30.2430 
  114.6250    61.1330     9.8110     8.2560    10.0780    22.2180     2.1660   -30.0220 
  114.7500    66.6540     9.6720     8.1360     9.7940    22.2180     2.1640   -29.7520 
  114.8750    69.7140     9.7560     8.1730     9.6560    22.2180     2.1640   -29.4080 
  115.0000    67.9370    10.0780     8.3890     9.7940    22.2190     2.1640   -28.9610 
  115.1250    64.9310    10.5750     8.7540    10.2100    22.2250     2.1620   -28.4090 
  115.2500    63.9530    11.0220     9.1080    10.6110    22.2430     2.1610   -27.7500 
  115.3750    64.5170    11.1960     9.2840    10.7660    22.3190     2.1630   -26.9900 
  115.5000    64.6310    10.9210     9.1320    10.5670    22.5060     2.1740   -26.1410 
  115.6250    63.2560    10.0900     8.5310     9.9440    22.8170     2.1940   -25.1850 
  115.7500    65.5630     8.9690     7.6540     8.9850    22.9930     2.2180   -24.1880 
  115.8750    73.6600     7.8450     6.7080     7.7580    23.2360     2.2380   -23.2510 
  116.0000    84.1280     7.0090     5.9120     6.5450    23.7700     2.2480   -22.4430 
  116.1250    90.8850     6.7560     5.5070     6.0050    24.4120     2.2480   -21.8290 
