~V
VERS. 2.00: Ver 2.00
~W
STRT.M 56.0000:
STOP.M 263.0000:
STEP.M 0.1250:
NULL. -999.2500:
UWI. DF3034:
~C
DEPT.M :
DEN.GM/CC :
GR.API :
RML.OHMM :
RI. :
RXO.OHMM :
CALI.CM :
SP.MV :
~A
# ...
  101.0000  -999.2500    90.6710     8.1770     6.4340     6.8730    24.6390   -14.6970 
  101.1250  -999.2500    90.1490     8.5160     6.6800     7.0820    24.6300   -14.4900 
  101.2500  -999.2500    86.3630     8.8150     6.9350     7.4350    24.5760   -14.3710 
  101.3750  -999.2500    84.3340     8.9370     7.1000     8.1240    24.5080   -14.3480 
  101.5000  -999.2500    86.6460     8.8220     7.1070     8.9940    24.6260   -14.4290 
  101.6250  -999.2500    88.7200     8.5110     6.9440     9.0150    24.9750   -14.5630 
  101.7500  -999.2500    87.7600     8.1880     6.7210     7.3960    25.1950   -14.7280 
  101.8750  -999.2500    86.2060     7.9620     6.5230     6.7470    25.1080   -14.8380 
  102.0000  -999.2500    85.7770     7.8600     6.3950     6.8110    24.8520   -15.0760 
  102.1250  -999.2500    86.8650     7.8560     6.3410     7.0080    24.6770   -15.1840 
  102.2500  -999.2500    88.8290     7.8720     6.3120     6.9370    24.6320   -15.2770 
  102.3750  -999.2500    89.4640     7.8700     6.2730     6.7440    24.6920   -15.3750 
  102.5000  -999.2500    88.0050     7.8340     6.2040     6.6480    24.7710   -15.4480 
  102.6250  -999.2500    87.1440     7.7540     6.1020     6.6430    24.7950   -15.5700 
  102.7500  -999.2500    89.5160     7.6300     5.9800     6.5940    24.8140   -15.7410 
  102.8750  -999.2500    92.4120     7.4750     5.8550     6.6100    24.8370   -16.1000 
  103.0000  -999.2500    91.1580     7.3530     5.7680     6.8660    24.8740   -16.4860 
  103.1250  -999.2500    86.7480     7.4250     5.8200     6.8930    24.9290   -17.1690 
  103.2500  -999.2500    84.7020     7.7890     6.0720     7.0380    24.9700   -18.0360 
  103.3750  -999.2500    85.6740     8.4710     6.5510     7.7930    24.9300   -19.0400 
  103.5000  -999.2500    85.1300     9.3810     7.2170     9.4010    24.8800   -20.1840 
  103.6250  -999.2500    81.1600    10.2960     7.9420    12.8760    24.8350   -21.3760 
  103.7500  -999.2500    76.9470    10.9550     8.5410    18.3770    24.6620   -22.5490 
  103.8750  -999.2500    73.4370    11.2290     8.8950    20.0450    24.1640   -23.6130 
  104.0000  -999.2500    70.5350    11.1450     8.9790    14.3040    23.7430   -24.5970 
  104.1250  -999.2500    72.0150    10.8630     8.8530    10.9910    23.5680   -25.3010 
  104.2500  -999.2500    75.8790    10.6080     8.6820    10.0420    23.5390   -25.8570 
  104.3750  -999.2500    77.7310    10.4670     8.5490     9.9720    23.5200   -26.2220 
  104.5000  -999.2500    75.4480    10.4430     8.4840    10.0400    23.5150   -26.4770 
  104.6250  -999.2500    72.8160    10.4930     8.4760    10.0350    23.5180   -26.5750 
  104.7500  -999.2500    73.8410    10.5550     8.4860    10.0300    23.5280   -26.6540 
  104.8750  -999.2500    77.5380    10.6110     8.5040    10.0550    23.5410   -26.6690 
  105.0000  -999.2500    81.5350    10.6720     8.5390    10.1420    23.5500   -26.7520 
  105.1250  -999.2500    83.4140    10.7830     8.6260    10.3370    23.5530   -26.8280 
  105.2500  -999.2500    81.9870    10.9810     8.7860    10.5830    23.5510   -26.8580 
  105.3750  -999.2500    77.9390    11.2790     9.0270    10.8050    23.5490   -26.9300 
  105.5000  -999.2500    73.1910    11.6390     9.3230    10.9610    23.5540   -26.9100 
  105.6250  -999.2500    71.1680    11.9600     9.6070    10.9110    23.5640   -26.9330 
  105.7500  -999.2500    71.9770    12.1370     9.8030    10.8840    23.5860   -26.8550 
  105.8750  -999.2500    72.5470    12.1130     9.8620    10.8760    23.6450   -26.7910 
  106.0000  -999.2500    71.2810    11.8960     9.7760    10.8360    23.6820   -26.6230 
  106.1250  -999.2500    72.3250    11.5500     9.5720    10.7150    23.5170   -26.4650 
  106.2500  -999.2500    75.0770    11.1940     9.3350    10.4590    23.1120   -26.3520 
  106.3750  -999.2500    76.1690    10.8910     9.1190    10.1290    22.8720   -26.1840 
  106.5000  -999.2500    73.7480    10.6590     8.9520     9.8380    22.8270   -26.0860 
  106.6250  -999.2500    69.2610    10.4960     8.8460     9.6900    22.8350   -25.9460 
  106.7500  -999.2500    66.6430    10.3660     8.7740     9.5980    22.7670   -25.8790 
  106.8750  -999.2500    67.0140    10.2530     8.7220     9.5440    22.5160   -25.7660 
  107.0000  -999.2500    68.7810    10.1570     8.6840     9.6030    22.1240   -25.6770 
  107.1250  -999.2500    68.9760    10.0930     8.6700    10.0150    21.9720   -25.4880 
  107.2500  -999.2500    68.5690    10.0690     8.6830    10.5340    22.4160   -25.1920 
  107.3750  -999.2500    69.9170    10.0860     8.7230    10.7690    23.1290   -24.7730 
  107.5000  -999.2500    71.5480    10.1260     8.7760    10.7690    23.7200   -24.2310 
  107.6250  -999.2500    71.8210    10.1320     8.7940    10.7560    23.8610   -23.4590 
  107.7500  -999.2500    72.1560    10.0260     8.7170    10.4870    23.8300   -22.5460 
  107.8750  -999.2500    73.6520     9.7350     8.4830     9.9870    23.8040   -21.5010 
  108.0000  -999.2500    76.5110     9.2230     8.0560     9.2640    23.8200   -20.3430 
  108.1250  -999.2500    78.5770     8.5120     7.4350     8.6690    23.8540   -19.2920 
  108.2500  -999.2500    80.2960     7.7510     6.7390     8.1560    23.9230   -18.2800 
  108.3750  -999.2500    84.3870     7.0600     6.0730     7.2710    24.0450   -17.4970 
  108.5000  -999.2500    89.8460     6.5210     5.5180     5.8010    24.2210   -16.8880 
  108.6250  -999.2500    93.9710     6.1940     5.1510     5.1990    24.4700   -16.7450 
  108.7500  -999.2500    95.8780     6.0420     4.9580     5.2180    24.6520   -16.8820 
  108.8750  -999.2500    95.9820     6.0680     4.9440     5.5680    24.6390   -17.3220 
  109.0000  -999.2500    93.4990     6.3010     5.1280     5.8840    24.3940   -18.0790 
  109.1250  -999.2500    89.2340     6.8540     5.5950     6.3130    24.2460   -18.9510 
  109.2500  -999.2500    86.8040     7.7320     6.3470     7.1640    24.1330   -19.9710 
  109.3750  -999.2500    85.6260     8.9090     7.3770     9.2500    24.0050   -20.9580 
  109.5000  -999.2500    82.1170    10.2380     8.5880    13.2270    23.7510   -21.9240 
  109.6250  -999.2500    76.0480    11.3930     9.7370    19.0530    23.7370   -22.6440 
  109.7500  -999.2500    70.4520    12.0680    10.5400    26.7920    23.7580   -23.2540 
  109.8750  -999.2500    67.3960    12.1060    10.8140    31.9370    23.7340   -23.7270 
  110.0000  -999.2500    65.6830    11.5770    10.5490    26.0160    23.5710   -23.9870 
  110.1250  -999.2500    65.5290    10.7520     9.9000    16.1310    23.2940   -24.1420 
  110.2500  -999.2500    69.5010    10.0070     9.2020    11.3340    23.0790   -24.1850 
  110.3750  -999.2500    76.3940     9.4940     8.6260     9.7830    22.9980   -24.2320 
  110.5000  -999.2500    81.6650     9.2390     8.2410     9.2700    23.0040   -24.3040 
  110.6250  -999.2500    80.9300     9.2130     8.0720     8.9880    23.0530   -24.4310 
  110.7500  -999.2500    77.1020     9.2980     8.0350     8.8010    23.1800   -24.5700 
  110.8750  -999.2500    75.0630     9.4290     8.0820     8.6830    23.3940   -24.7820 
  111.0000  -999.2500    76.3060     9.5550     8.1660     8.7010    23.6870   -25.0370 
  111.1250  -999.2500    78.5390     9.6290     8.2510     9.0480    23.8030   -25.3140 
  111.2500  -999.2500    78.9030     9.6410     8.3070     9.4260    23.8970   -25.5580 
  111.3750  -999.2500    77.2210     9.5940     8.3250     9.6670    23.9290   -25.7380 
  111.5000  -999.2500    76.0570     9.5110     8.3050     9.7980    23.7550   -25.8180 
  111.6250  -999.2500    77.1590     9.4250     8.2630     9.6930    23.5390   -25.9020 
  111.7500  -999.2500    78.3310     9.3680     8.2260     9.6420    23.2180   -25.8820 
  111.8750  -999.2500    77.8330     9.3590     8.2130     9.6160    23.0570   -25.8620 
  112.0000  -999.2500    75.7800     9.4160     8.2400     9.6950    23.0240   -25.8180 
  112.1250  -999.2500    73.4880     9.5710     8.3300     9.7090    23.0610   -25.7310 
