~V
VERS. 2.00: Ver 2.00
~W
STRT.M 60.0000:
STOP.M 238.0000:
STEP.M 0.1250:
NULL. -999.2500:
UWI. DF308:
~C
DEPT.M :
DEN.GM/CC :
SP.MV :
AC.US/MT :
GR.API :
CALI.CM :
RXO.OHMM :
RI. :
RML.OHMM :
~A
# ...
  110.0000     2.1680   -32.9460   447.4070    80.1040    22.9390     9.9310     6.9460     8.5680 
  110.1250     2.1560   -32.8420   448.4770    80.6870    22.8800     9.9710     6.8410     8.4280 
  110.2500     2.1430   -32.7200   449.6410    76.3150    22.8590    10.1050     6.7530     8.3190 
  110.3750     2.1390   -32.5850   450.4770    69.3620    22.8310    10.1260     6.7060     8.2820 
  110.5000     2.1440   -32.4090   449.7290    67.2710    22.7580     9.9560     6.7180     8.3440 
  110.6250     2.1570   -32.2050   446.6440    71.8470    22.6370     9.8170     6.8010     8.5110 
  110.7500     2.1750   -32.0070   443.6590    75.0300    22.5880    10.0360     6.9190     8.7100 
  110.8750     2.1920   -31.7990   443.2470    73.2000    22.6500    10.5390     7.0300     8.8610 
  111.0000     2.1970   -31.6220   445.7680    70.0550    22.8380    10.5530     7.0880     8.8860 
  111.1250     2.1830   -31.5070   448.6160    68.5580    23.0340     9.7220     7.0550     8.7420 
  111.2500     2.1590   -31.3810   449.5540    66.9650    23.1100     8.8150     6.9590     8.5070 
  111.3750     2.1360   -31.2430   449.5740    65.1690    23.0120     8.3990     6.8370     8.2570 
  111.5000     2.1260   -31.0550   450.6850    64.8490    22.9080     8.3560     6.7320     8.0620 
  111.6250     2.1410   -30.8000   452.5930    69.1690    23.0460     8.4930     6.6900     7.9880 
  111.7500     2.1670   -30.4700   452.2660    74.7580    23.0760     8.4940     6.7130     8.0150 
  111.8750     2.1800   -30.0240   448.7160    76.3950    22.9660     8.2980     6.7830     8.1080 
  112.0000     2.1750   -29.4390   444.2250    73.2390    22.8010     8.0120     6.8650     8.2110 
  112.1250     2.1640   -28.6930   442.8340    70.1040    22.6130     7.7060     6.9010     8.2280 
  112.2500     2.1670   -27.8130   445.0980    73.0810    22.4710     7.3920     6.8510     8.1080 
  112.3750     2.1910   -26.7960   449.7900    80.0940    22.3550     7.0750     6.7020     7.8550 
  112.5000     2.2350   -25.7180   455.4780    88.7080    22.2080     6.8350     6.4820     7.5310 
  112.6250     2.2830   -24.6560   460.4730    97.8980    22.0830     6.6050     6.2400     7.2230 
  112.7500     2.3150   -23.6650   462.9000   103.6020    22.2920     6.4210     6.0250     6.9840 
  112.8750     2.3210   -22.8480   461.9790   103.5200    22.9350     6.3680     5.8510     6.8090 
  113.0000     2.3080   -22.2160   459.4160    99.3710    23.6630     6.4510     5.7030     6.6500 
  113.1250     2.2940   -21.7920   458.7030    97.5480    23.9570     6.5610     5.5660     6.4620 
  113.2500     2.2960   -21.6340   458.6580    99.8330    23.9520     6.4570     5.4480     6.2740 
  113.3750     2.3060   -21.7910   453.3890   102.5980    23.9010     6.1910     5.3900     6.1700 
  113.5000     2.3070   -22.2590   439.1830   104.5040    23.9490     6.1250     5.4400     6.2580 
  113.6250     2.2950   -23.0400   422.4780   102.0700    23.9830     6.6470     5.6620     6.6590 
  113.7500     2.2860   -24.0490   415.9430    93.6340    23.9160     7.4840     6.0250     7.2850 
  113.8750     2.2810   -25.2230   422.7190    82.5210    23.7870     8.0110     6.4660     7.9830 
  114.0000     2.2650   -26.5110   435.8740    73.0930    23.5680     8.2430     6.8890     8.5590 
  114.1250     2.2330   -27.8390   445.3480    66.6870    23.1500     8.5150     7.1770     8.8180 
  114.2500     2.2040   -29.1210   449.3010    62.7110    22.6970     8.8740     7.3160     8.8010 
  114.3750     2.1880   -30.3080   450.0830    61.8850    22.4410     9.1300     7.3370     8.6170 
  114.5000     2.1780   -31.3300   449.6480    64.3580    22.4240     9.2780     7.3000     8.3970 
  114.6250     2.1690   -32.1290   448.8420    65.9210    22.4970     9.1660     7.2530     8.2330 
  114.7500     2.1650   -32.7200   448.5990    65.2190    22.4390     8.7330     7.2140     8.1340 
  114.8750     2.1740   -33.0560   448.9770    64.5740    22.3670     8.2260     7.1820     8.0910 
  115.0000     2.1920   -33.1530   449.0590    65.6090    22.4090     7.9570     7.1600     8.0940 
  115.1250     2.2020   -33.0880   447.6150    66.8900    22.6190     8.0450     7.1470     8.1270 
  115.2500     2.1960   -32.8880   444.9820    65.3590    22.7910     8.2000     7.1380     8.1650 
  115.3750     2.1840   -32.5560   442.2740    63.4020    22.8020     8.2610     7.1230     8.1860 
  115.5000     2.1800   -32.1590   440.7060    63.2100    22.7180     8.2840     7.0890     8.1490 
  115.6250     2.1890   -31.6590   441.2300    63.7560    22.7310     8.4710     7.0030     7.9790 
  115.7500     2.1980   -31.0580   442.8090    63.1470    22.8080     8.7300     6.8460     7.6560 
  115.8750     2.1970   -30.3980   441.8710    61.8500    22.8500     8.8900     6.6390     7.2500 
  116.0000     2.1860   -29.6400   430.5540    60.7060    22.8560     8.9250     6.4960     7.0060 
  116.1250     2.1890   -28.7400   399.2770    60.9010    22.8420     8.8730     6.6710     7.3670 
  116.2500     2.2370   -27.7520   357.5670    63.0470    22.8110     9.1840     7.2800     8.4340 
  116.3750     2.3450   -26.6630   322.8070    63.7150    22.7890    11.2260     8.3460    10.1010 
  116.5000     2.4900   -25.4800   313.0080    60.9720    22.8300    18.2450     9.7090    11.9390 
  116.6250     2.5920   -24.2960   338.8570    60.0710    23.0000    25.3760    10.7950    12.9440 
  116.7500     2.6010   -23.1620   379.6660    64.2210    23.2240    23.4830    10.9780    12.4830 
  116.8750     2.5270   -22.1370   414.4340    72.0930    23.3510    14.6710    10.1420    10.7320 
  117.0000     2.4260   -21.2890   432.9480    79.8930    23.3440     8.3480     8.7560     8.5430 
  117.1250     2.3580   -20.6380   440.7900    85.3870    23.2970     7.0770     7.4520     6.8280 
  117.2500     2.3330   -20.1640   447.9910    90.1440    23.2910     6.7140     6.5200     5.8080 
  117.3750     2.3320   -19.8910   452.7340    93.0120    23.3140     6.3430     5.9840     5.3690 
  117.5000     2.3330   -19.7820   450.3920    92.5730    23.3590     5.9530     5.7390     5.2310 
  117.6250     2.3230   -19.7980   443.4870    90.5010    23.3830     5.8650     5.6380     5.0980 
  117.7500     2.3120   -19.8770   439.7560    90.0580    23.3790     6.1380     5.5850     4.9240 
  117.8750     2.3110   -19.9240   435.3250    90.6960    23.3490     6.4580     5.6660     4.9330 
  118.0000     2.3300   -19.9100   418.0340    89.2970    23.2980     6.8030     6.0610     5.4700 
  118.1250     2.3880   -19.8690   384.8330    82.7160    23.2970     8.2810     7.1220     7.0670 
  118.2500     2.4870   -19.7580   359.1660    72.4240    23.3280    12.4660     8.9930     9.7740 
  118.3750     2.5910   -19.6050   356.7870    59.8640    23.4230    20.7910    11.6990    13.3650 
  118.5000     2.6380   -19.4590   375.8680    49.2170    23.5780    29.8180    14.7170    16.8890 
  118.6250     2.5810   -19.2710   403.6270    47.1550    23.6950    29.7180    16.2730    18.1070 
  118.7500     2.4750   -19.0810   426.6830    53.7770    23.7780    21.8460    15.4250    16.3550 
  118.8750     2.3740   -18.9450   439.9130    64.8160    23.8250    13.3180    12.9520    12.8360 
  119.0000     2.3080   -18.8370   443.1140    73.2610    23.7930     8.6200    10.2810     9.3550 
  119.1250     2.2910   -18.7190   441.1710    75.1660    23.6570     7.4950     8.3670     7.1150 
  119.2500     2.3060   -18.6230   437.3420    77.4140    23.5860     7.2410     7.2520     6.0480 
  119.3750     2.3390   -18.5040   426.0520    80.3840    23.7420     7.3200     6.8880     6.0260 
  119.5000     2.3860   -18.3370   400.2220    79.4900    23.9880     7.6730     7.2450     6.9630 
  119.6250     2.4530   -18.1480   358.7070    69.9640    24.0550     9.2110     8.4460     8.9470 
  119.7500     2.5270   -17.9190   318.5820    58.7030    24.0360    13.6210    10.3040    11.6060 
  119.8750     2.5790   -17.6670   296.8440    51.2960    24.0220    20.3220    12.5360    14.4060 
