~V
VERS. 2.00: Ver 2.00
~W
STRT.M 115.0000:
STOP.M 288.0000:
STEP.M 0.1250:
NULL. -999.2500:
UWI. DF3049:
~C
DEPT.M :
GR.API :
CALI.CM :
RXO.OHMM :
RI. :
RML.OHMM :
SP.MV :
DEN.GM/CC :
AC.US/MT :
~A
# ...
  175.0000    62.3260    25.5460   160.1800   186.5610   227.7140   -32.8910     2.4460   307.7630 
  175.1250    56.2320    25.5460   145.8870   180.2880   220.5110   -32.8360     2.3800   336.4080 
  175.2500    57.4140    25.5460   127.7410   178.5130   218.8730   -32.7780     2.3210   360.0100 
  175.3750    60.3090    25.5460   116.5290   180.1170   221.4640   -32.7390     2.2900   373.0520 
  175.5000    61.9840    25.5460   116.7450   182.9720   225.6740   -32.7080     2.2780   378.3040 
  175.6250    63.7780    25.5460   127.9690   183.8040   227.1630   -32.6820     2.2750   379.9910 
  175.7500    66.8490    25.5460   141.9470   177.6410   218.9030   -32.6470     2.2730   380.1290 
  175.8750    69.3740    25.5460   145.8700   163.9310   200.1680   -32.6170     2.2740   379.0930 
  176.0000    69.1640    25.5460   135.2330   145.0440   174.7270   -32.5560     2.2750   377.1980 
  176.1250    67.5820    25.5460   112.4350   125.4010   148.9350   -32.4750     2.2780   375.6170 
  176.2500    66.5310    25.5460    85.3760   109.8100   128.8530   -32.4030     2.2850   375.9930 
  176.3750    65.4170    25.5460    68.4540    99.5510   115.4460   -32.3130     2.2940   378.0140 
  176.5000    64.4870    25.5460    64.7730    94.6210   108.4090   -32.2020     2.3040   380.4480 
  176.6250    65.2000    25.5460    70.4570    94.3730   106.8700   -32.0840     2.3130   382.2370 
  176.7500    67.9450    25.5460    79.2320    98.5900   110.5410   -31.9820     2.3160   383.4460 
  176.8750    70.9520    25.5250    83.0310   105.8490   117.7500   -31.8660     2.3120   384.6650 
  177.0000    72.5310    25.3890    82.8200   114.9050   127.1660   -31.7510     2.3060   384.8100 
  177.1250    71.8040    25.0320    83.6810   122.7150   135.5480   -31.6150     2.3100   381.2500 
  177.2500    68.0540    24.5860    88.0480   121.3300   134.0700   -31.4550     2.3390   372.1220 
  177.3750    63.5750    24.3710    88.2540   106.9270   118.2430   -31.2950     2.3860   362.7130 
  177.5000    64.1720    24.3150    76.5930    83.1790    92.0930   -31.1470     2.4350   359.8700 
  177.6250    72.8900    24.3110    53.5620    59.2010    65.5220   -31.0230     2.4700   366.9560 
  177.7500    83.5240    24.3710    29.9070    42.8240    46.9800   -30.9420     2.4750   380.0980 
  177.8750    88.3060    24.5020    16.5600    33.6140    36.3880   -30.9210     2.4580   390.1910 
  178.0000    86.0710    24.6320    12.9430    30.0100    32.4910   -30.9760     2.4290   393.9530 
  178.1250    81.0450    24.6870    17.0340    30.7380    34.0670   -31.1150     2.3990   393.2040 
  178.2500    78.1390    24.7040    28.8690    35.9590    41.0040   -31.3020     2.3720   391.6950 
  178.3750    78.0510    24.7590    43.0890    44.8240    51.6230   -31.5310     2.3480   391.3040 
  178.5000    80.2610    24.8460    54.5640    56.0630    64.1130   -31.7810     2.3290   391.8030 
  178.6250    82.9860    24.9210    61.3510    66.7260    75.3530   -32.0390     2.3150   392.5790 
  178.7500    81.8740    24.9360    61.2080    72.6950    81.2270   -32.2810     2.3090   393.2490 
  178.8750    77.3150    24.9140    59.5580    73.9860    82.0270   -32.5010     2.3110   393.7830 
  179.0000    73.2020    24.8890    56.6930    72.1570    79.6370   -32.6840     2.3160   394.2760 
  179.1250    71.6360    24.8780    53.4440    68.9190    76.0890   -32.8260     2.3200   394.8560 
  179.2500    70.8570    24.8760    51.5200    65.4630    72.7730   -32.9490     2.3180   395.6770 
  179.3750    70.2870    24.8760    50.1840    62.2800    70.0640   -33.0590     2.3160   396.6150 
  179.5000    71.2850    24.8750    47.4040    59.4260    67.8710   -33.1660     2.3160   397.2780 
  179.6250    73.4050    24.8750    44.0880    56.9580    66.0790   -33.2660     2.3180   397.3970 
  179.7500    72.6440    24.8760    42.9110    55.1060    64.7450   -33.3820     2.3220   397.4480 
  179.8750    70.0070    24.8750    42.7340    53.9600    63.9340   -33.5160     2.3260   398.2700 
  180.0000    68.6860    24.8760    42.0800    53.6560    63.8570   -33.6660     2.3300   399.5960 
  180.1250    70.2900    24.8750    41.6860    54.2720    64.7180   -33.8440     2.3310   399.8370 
  180.2500    69.5320    24.8750    42.6280    55.9560    66.8070   -34.0410     2.3280   396.7340 
  180.3750    65.8370    24.8750    44.0140    58.4830    69.9350   -34.2610     2.3210   391.0570 
  180.5000    64.4900    24.8730    45.3810    61.7460    74.0070   -34.5200     2.3140   384.7890 
  180.6250    67.6740    24.8720    47.2640    65.5630    78.8240   -34.8260     2.3160   379.9570 
  180.7500    70.7470    24.8720    50.4530    69.6710    84.1080   -35.1420     2.3310   377.9560 
  180.8750    70.6090    24.8720    54.4990    73.6940    89.4110   -35.4760     2.3460   378.2360 
  181.0000    69.7030    24.8720    57.9430    77.4210    94.4650   -35.8250     2.3470   380.2480 
  181.1250    70.9950    24.8720    59.2010    80.7830    99.1530   -36.1870     2.3350   383.2830 
  181.2500    73.6600    24.8720    57.6280    83.8700   103.5620   -36.5660     2.3170   386.4520 
  181.3750    75.0970    24.8730    56.9720    87.0660   108.1160   -36.9640     2.2980   389.0470 
  181.5000    72.4680    24.8840    61.7690    90.8020   113.3120   -37.3750     2.2850   390.8670 
  181.6250    67.5430    24.9130    72.9370    95.4460   119.5660   -37.7710     2.2810   392.1090 
  181.7500    63.8200    24.9570    85.9170   101.1890   127.0550   -38.1590     2.2780   393.4110 
  181.8750    64.7770    24.9760    94.5750   107.4480   135.0030   -38.5140     2.2730   395.2800 
  182.0000    69.1090    24.9810   100.0640   113.5930   142.5320   -38.8260     2.2680   397.4180 
  182.1250    71.2040    24.9810   105.8020   118.9650   148.6970   -39.0900     2.2660   398.9310 
  182.2500    71.6770    24.9810   108.1280   122.8500   152.4360   -39.3300     2.2670   398.9620 
  182.3750    73.5530    24.9810   106.8680   125.4290   154.1430   -39.5230     2.2670   398.1940 
  182.5000    73.5310    24.9810   107.2730   126.8900   154.2560   -39.6620     2.2640   397.5390 
  182.6250    67.7330    24.9810   112.5610   127.3120   153.0510   -39.7770     2.2590   397.3920 
  182.7500    61.7500    24.9810   118.9190   126.3990   150.2580   -39.8510     2.2590   397.1460 
  182.8750    61.5100    24.9810   120.9630   124.3540   146.1170   -39.8940     2.2700   395.9600 
  183.0000    65.1530    24.9810   116.3570   121.6080   141.1770   -39.9000     2.2890   393.5520 
  183.1250    67.6090    24.9810   104.8180   118.9090   136.4090   -39.8470     2.3040   390.0190 
  183.2500    68.4570    24.9810    93.8590   116.9870   132.8040   -39.7020     2.3060   385.6250 
  183.3750    67.5930    24.9840    88.2520   115.5150   129.9110   -39.4520     2.3040   381.6630 
  183.5000    64.9360    25.0310    91.3320   113.6140   126.5630   -39.0520     2.3080   379.7960 
  183.6250    62.5520    25.1630   102.0250   110.3570   121.5580   -38.4240     2.3180   380.9480 
  183.7500    63.9160    25.3830   104.5550   105.2640   114.4040   -37.6460     2.3230   384.2870 
  183.8750    67.9650    25.4790    92.5190    99.5570   106.7790   -36.7770     2.3150   387.2930 
  184.0000    70.7610    25.5020    76.8730    94.5990   100.4370   -35.9230     2.2980   389.0280 
  184.1250    70.8830    25.5020    70.9620    91.5130    96.6750   -35.1530     2.2840   389.6360 
  184.2500    70.8180    25.5020    75.2400    91.4620    96.7070   -34.4860     2.2770   388.8720 
  184.3750    70.5410    25.5020    82.8340    94.3780   100.1980   -33.9570     2.2700   386.6790 
  184.5000    68.3770    25.5020    89.1220   100.4410   107.2280   -33.5990     2.2600   384.0000 
  184.6250    63.4170    25.5020    91.3930   109.9240   118.0510   -33.4830     2.2460   382.8850 
  184.7500    58.4430    25.5020    92.6120   124.3460   134.3050   -33.5380     2.2310   385.1840 
  184.8750    56.6520    25.5020    95.5240   144.1510   156.5440   -33.7160     2.2260   389.2450 
