~V
VERS. 2.00: Ver 2.00
~W
STRT.M 60.0000:
STOP.M 264.0000:
STEP.M 0.1250:
NULL. -999.2500:
UWI. DF303:
~C
DEPT.M :
DEN.GM/CC :
SP.MV :
AC.US/MT :
GR.API :
CALI.CM :
RXO.OHMM :
RI. :
RML.OHMM :
~A
# ...
  210.0000     2.2500   -23.9610   407.4320    64.6960    25.5840    38.3740    38.3420    45.1980 
  210.1250     2.2310   -24.0450   403.8470    65.5630    25.5460    41.0050    40.0850    47.5380 
  210.2500     2.2220   -24.1350   396.9890    62.7770    25.5290    43.2770    42.0430    50.2110 
  210.3750     2.2260   -24.2290   391.7040    59.8240    25.5260    45.7820    44.0770    53.0150 
  210.5000     2.2350   -24.3150   392.4600    63.3230    25.5240    47.2960    46.0450    55.7440 
  210.6250     2.2460   -24.4110   398.0330    71.6970    25.5130    46.8900    47.8120    58.2170 
  210.7500     2.2570   -24.4820   403.5640    75.6310    25.4850    46.4350    49.3810    60.4540 
  210.8750     2.2670   -24.5270   407.9280    73.2020    25.4470    47.9280    50.7800    62.5030 
  211.0000     2.2690   -24.5340   411.0090    69.0290    25.4280    50.7610    52.0770    64.4420 
  211.1250     2.2660   -24.5130   412.4110    68.2760    25.4210    53.0140    53.3760    66.3520 
  211.2500     2.2680   -24.4850   411.8790    67.7040    25.4210    55.9320    54.7020    68.2070 
  211.3750     2.2730   -24.4260   409.7550    68.2300    25.4180    58.1440    55.9400    69.8030 
  211.5000     2.2770   -24.3390   407.1780    68.7410    25.4170    59.1580    56.8900    70.8100 
  211.6250     2.2780   -24.1880   405.2250    67.6300    25.4150    60.7850    57.3490    70.8100 
  211.7500     2.2780   -24.0070   404.2160    65.3440    25.4020    62.6630    57.5500    70.1370 
  211.8750     2.2730   -23.7930   404.2920    63.7280    25.3670    63.8470    58.0100    69.5640 
  212.0000     2.2680   -23.5400   404.4780    64.3990    25.3280    62.7320    59.5610    70.2550 
  212.1250     2.2840   -23.2320   399.6940    70.0710    25.3140    59.5210    63.3340    73.7300 
  212.2500     2.3320   -22.8750   385.6520    77.1110    25.3170    57.7950    68.2670    78.9700 
  212.3750     2.4030   -22.4950   363.7910    77.3940    25.3210    65.4490    70.6450    81.2470 
  212.5000     2.4720   -22.1060   340.2120    68.7090    25.3030    89.7110    64.7510    72.5610 
  212.6250     2.5130   -21.7300   322.6870    60.1560    25.2390   116.8980    48.5470    51.7130 
  212.7500     2.5260   -21.3470   318.0360    58.1860    25.1620   102.5800    31.5340    32.1290 
  212.8750     2.5190   -20.9960   332.8170    58.4790    25.1280    55.9230    19.0900    18.9610 
  213.0000     2.4990   -20.6790   364.3260    57.7220    25.1240    19.1270    11.6760    11.4190 
  213.1250     2.4730   -20.4260   394.8240    57.9440    25.1240     8.4200     8.0950     7.8720 
  213.2500     2.4510   -20.2430   410.7230    58.5430    25.1230     5.9320     6.2800     6.2430 
  213.3750     2.4390   -20.1100   415.1900    57.2630    25.1220     5.6360     5.4920     5.7740 
  213.5000     2.4350   -20.0320   416.8610    53.0140    25.1170     5.6900     5.3130     5.9400 
  213.6250     2.4340   -19.9990   420.2910    49.0610    25.1010     5.6520     5.4220     6.2730 
  213.7500     2.4330   -20.0290   423.4520    47.9860    25.0650     5.6570     5.4880     6.3810 
  213.8750     2.4360   -20.0780   425.0520    50.8660    25.0310     5.7090     5.3880     6.1700 
  214.0000     2.4440   -20.1480   426.1730    55.1470    25.0160     5.6590     5.1430     5.7600 
  214.1250     2.4510   -20.2600   428.5700    63.3780    25.0150     5.4430     4.8800     5.3900 
  214.2500     2.4530   -20.4110   430.8360    78.9630    25.0150     5.2130     4.7280     5.2300 
  214.3750     2.4500   -20.6070   429.9630    97.6970    25.0150     5.0390     4.7560     5.3630 
  214.5000     2.4500   -20.8190   424.8110   111.2700    25.0150     5.2080     4.9850     5.8050 
  214.6250     2.4590   -21.0530   417.8100   114.2400    25.0140     5.9090     5.3940     6.5150 
  214.7500     2.4710   -21.2710   412.5590   111.4220    25.0110     6.7390     5.8520     7.2820 
  214.8750     2.4790   -21.4980   409.5890   104.9720    25.0100     7.2690     6.2500     7.9260 
  215.0000     2.4760   -21.7160   407.7330    99.0950    25.0080     7.4660     6.5140     8.3220 
  215.1250     2.4680   -21.8850   406.3790   101.1870    24.9960     7.4970     6.6160     8.4320 
  215.2500     2.4580   -22.0120   405.7380   108.2440    24.9580     7.5610     6.6290     8.4140 
  215.3750     2.4430   -22.0970   405.8280   113.9880    24.9090     7.6340     6.6070     8.3750 
  215.5000     2.4250   -22.1550   406.2550   116.0870    24.8470     7.6440     6.5770     8.3590 
  215.6250     2.4190   -22.1600   406.6510   117.5160    24.7910     7.5550     6.5340     8.3490 
  215.7500     2.4260   -22.1490   407.0870   119.7490    24.7100     7.4320     6.4680     8.3120 
  215.8750     2.4410   -22.1110   407.6900   121.1880    24.6210     7.3050     6.3740     8.2320 
  216.0000     2.4530   -22.0450   408.4570   118.0730    24.5620     7.1460     6.2600     8.1230 
  216.1250     2.4590   -21.9890   409.1880   115.2120    24.5380     6.9680     6.1540     8.0240 
  216.2500     2.4600   -21.9110   409.6800   120.5620    24.5370     6.7860     6.0900     7.9760 
  216.3750     2.4550   -21.8200   409.9000   131.9760    24.5300     6.6960     6.0850     7.9980 
  216.5000     2.4430   -21.7220   409.8160   137.3130    24.5030     6.7460     6.1300     8.0680 
  216.6250     2.4250   -21.6400   409.2470   128.6070    24.4550     6.8820     6.1880     8.1230 
  216.7500     2.4090   -21.5510   408.4240   118.0890    24.4160     6.9950     6.2130     8.0930 
  216.8750     2.4010   -21.4490   407.6970   112.2910    24.3800     6.9670     6.1880     7.9550 
  217.0000     2.4040   -21.3620   406.9980   109.8950    24.3590     6.7740     6.1250     7.7370 
  217.1250     2.4170   -21.2740   405.5080   114.3480    24.3520     6.5380     6.0630     7.5150 
  217.2500     2.4320   -21.1980   403.4970   119.9800    24.3520     6.4190     6.0450     7.3690 
  217.3750     2.4540   -21.1120   402.1760   121.1290    24.3520     6.4460     6.0960     7.3380 
  217.5000     2.4770   -21.0330   401.6840   116.1430    24.3520     6.5780     6.2180     7.4190 
  217.6250     2.4860   -20.9460   399.7190   112.9860    24.3520     6.8480     6.3790     7.5690 
  217.7500     2.4770   -20.8620   396.0050   113.7900    24.3520     7.1770     6.5080     7.6940 
  217.8750     2.4580   -20.8060   394.0420   114.1880    24.3520     7.3820     6.5410     7.7130 
  218.0000     2.4440   -20.7460   397.8640   113.7250    24.3520     7.1590     6.4360     7.5700 
  218.1250     2.4380   -20.7080   407.3840   111.6560    24.3520     6.6030     6.1700     7.2340 
  218.2500     2.4320   -20.6790   416.2860   109.5580    24.3520     6.1580     5.8100     6.7870 
  218.3750     2.4210   -20.6870   421.1530   108.6300    24.3520     5.9920     5.4060     6.2920 
  218.5000     2.4080   -20.7030   422.3690   110.3360    24.3520     5.9680     5.0170     5.8240 
  218.6250     2.4020   -20.7630   422.0290   114.4110    24.3520     5.9500     4.7550     5.5380 
  218.7500     2.4000   -20.8860   420.4910   116.9540    24.3520     5.9110     4.7150     5.5710 
  218.8750     2.3940   -21.0600   415.5230   113.0600    24.3520     5.9490     5.0140     6.0960 
  219.0000     2.3810   -21.3260   405.0730   103.9360    24.3520     6.2850     5.8000     7.3170 
  219.1250     2.3690   -21.6640   391.2990    95.8210    24.3400     7.8910     7.4080     9.6650 
  219.2500     2.3580   -22.0670   382.7130    90.6920    24.2960    11.1120     9.9520    13.2420 
  219.3750     2.3390   -22.5290   384.6340    87.1240    24.2190    15.6380    13.5410    18.1370 
  219.5000     2.3130   -23.0520   394.6990    84.7940    24.1850    20.3620    18.0340    24.0770 
  219.6250     2.3010   -23.6020   402.9090    85.8810    24.2210    24.4610    23.0140    30.2700 
  219.7500     2.3110   -24.1740   403.6980    86.9940    24.3260    26.8440    28.1600    36.1580 
  219.8750     2.3250   -24.7550   399.7270    84.2710    24.4500    28.8890    34.1110    42.4730 
