~V
VERS. 2.00: Ver 2.00
~W
STRT.M 110.0000:
STOP.M 266.0000:
STEP.M 0.1250:
NULL. -999.2500:
UWI. DF309:
~C
DEPT.M :
DEN.GM/CC :
SP.MV :
AC.US/MT :
GR.API :
CALI.CM :
RXO.OHMM :
RI. :
RML.OHMM :
~A
# ...
  170.0000     2.2170   -28.6850   394.9580    69.5800    24.9570    89.5470   116.4030   126.3570 
  170.1250     2.2240   -29.0080   391.5960    67.2080    24.5620    93.9070   123.6160   135.1800 
  170.2500     2.2420   -29.2870   388.6990    65.0710    24.3070    99.0950   123.8950   134.9840 
  170.3750     2.2600   -29.5200   388.8160    64.9380    24.2030    98.0230   120.6060   130.6130 
  170.5000     2.2680   -29.7180   392.6730    66.3110    24.1420    89.6150   116.9190   126.2010 
  170.6250     2.2580   -29.8890   397.8370    67.9960    24.0670    84.0590   114.5560   123.5610 
  170.7500     2.2420   -30.0140   400.3160    69.3280    24.0040    91.0140   113.2500   122.1380 
  170.8750     2.2340   -30.1020   398.9940    69.4180    23.9690   100.8680   112.2590   120.9710 
  171.0000     2.2390   -30.1620   395.4700    68.5390    23.9570   100.8300   110.7750   119.0330 
  171.1250     2.2540   -30.2010   392.4680    69.2810    23.9570    92.6120   108.0540   115.4050 
  171.2500     2.2670   -30.2200   390.9310    72.2770    23.9770    85.0120   104.2370   110.4170 
  171.3750     2.2690   -30.2190   390.3660    75.9750    24.0300    78.8840    99.7070   104.6810 
  171.5000     2.2630   -30.1900   390.0360    75.8110    24.1460    73.1830    94.9110    98.8310 
  171.6250     2.2710   -30.1280   389.4820    72.0990    24.3650    67.6980    90.0020    93.1200 
  171.7500     2.2960   -30.0660   388.8420    73.4470    24.5470    61.3870    84.8640    87.3560 
  171.8750     2.3180   -30.0090   388.3830    78.7480    24.5490    54.1260    79.5070    81.4950 
  172.0000     2.3210   -29.9650   388.2330    80.6630    24.4030    47.3970    74.2400    75.8140 
  172.1250     2.3060   -29.9300   388.3950    73.8990    24.2690    41.8480    69.7690    71.0300 
  172.2500     2.2940   -29.9070   388.6240    66.6260    24.1270    37.8030    66.6140    67.6610 
  172.3750     2.2930   -29.9080   388.6640    66.0130    24.0070    35.6120    65.2580    66.2010 
  172.5000     2.2990   -29.9370   388.4000    71.6640    23.9250    35.3230    66.0420    66.9950 
  172.6250     2.3030   -30.0090   388.1000    77.8840    23.8740    36.0760    69.4550    70.5390 
  172.7500     2.3010   -30.1020   388.1000    77.2810    23.8480    37.6660    74.8770    76.1910 
  172.8750     2.2960   -30.2030   388.3760    71.2060    23.8210    41.0370    81.7070    83.3470 
  173.0000     2.2900   -30.2940   388.8670    65.6360    23.7590    46.5560    89.0460    91.0630 
  173.1250     2.2840   -30.3940   389.8500    63.7850    23.6760    51.9500    95.6880    98.0120 
  173.2500     2.2760   -30.5110   391.2990    64.5840    23.6020    55.1770   101.0160   103.5210 
  173.3750     2.2680   -30.6320   392.7070    66.8130    23.6100    57.7610   104.9500   107.5740 
  173.5000     2.2620   -30.7500   393.4020    69.6000    23.7700    63.2620   107.6530   110.4670 
  173.6250     2.2630   -30.8440   393.1650    72.1380    24.1630    74.1120   109.0420   112.2160 
  173.7500     2.2690   -30.9340   392.7630    73.2360    24.5970    83.7040   109.3920   113.0090 
  173.8750     2.2720   -31.0390   392.7210    70.9720    24.8810    87.8100   109.0570   113.0980 
  174.0000     2.2670   -31.1720   393.1710    67.6100    24.9790    86.3670   108.8410   113.2460 
  174.1250     2.2570   -31.3320   393.8720    67.0750    24.9820    83.8270   110.2860   115.0480 
  174.2500     2.2480   -31.4960   394.4280    67.9560    24.9710    86.4730   114.3710   119.5730 
  174.3750     2.2420   -31.6610   394.8980    67.2360    24.9500   100.2750   121.5520   127.3780 
  174.5000     2.2390   -31.8370   395.8470    64.9270    24.9180   122.5070   131.5450   138.2600 
  174.6250     2.2390   -32.0300   397.9910    66.2700    24.9030   138.3700   143.5670   151.4380 
  174.7500     2.2380   -32.2180   400.5700    71.4460    24.8880   140.9850   156.0070   165.0510 
  174.8750     2.2320   -32.3780   402.1880    74.5700    24.8580   134.9650   168.0010   178.0070 
  175.0000     2.2250   -32.5120   401.8250    72.7580    24.7940   134.7360   178.9980   189.7030 
  175.1250     2.2250   -32.6110   399.6190    71.6470    24.6520   149.5880   187.9930   199.2640 
  175.2500     2.2280   -32.6880   397.2300    74.5260    24.4270   164.5060   194.2270   205.9850 
  175.3750     2.2290   -32.7520   395.5540    75.1040    24.2330   168.8930   196.9620   208.9330 
  175.5000     2.2270   -32.7870   394.7270    69.2170    24.1480   160.4390   196.3500   208.1240 
  175.6250     2.2240   -32.7730   394.5990    66.3250    24.1390   142.9090   193.4330   204.7320 
  175.7500     2.2250   -32.7260   394.8040    71.5730    24.1390   131.8910   190.1760   201.0500 
  175.8750     2.2300   -32.6550   395.1170    77.0780    24.1390   135.8450   187.2000   197.7800 
  176.0000     2.2330   -32.5450   395.4260    74.6340    24.1390   147.8790   184.1040   194.3480 
  176.1250     2.2270   -32.3980   395.7800    67.6220    24.1390   147.8610   179.9900   189.4980 
  176.2500     2.2170   -32.2400   396.0570    63.5820    24.1400   136.8560   175.0900   183.4960 
  176.3750     2.2120   -32.0740   396.0740    64.0120    24.1490   125.7190   170.4840   177.6840 
  176.5000     2.2170   -31.8920   395.9020    65.0490    24.1950   123.3020   167.7870   173.9530 
  176.6250     2.2260   -31.7000   396.0650    64.9660    24.3410   129.5000   169.0920   174.6200 
  176.7500     2.2280   -31.5160   396.6540    64.0180    24.6120   137.4680   173.6370   179.0680 
  176.8750     2.2220   -31.3520   397.3110    62.1840    24.9780   139.6910   178.6610   184.6430 
  177.0000     2.2100   -31.2160   397.8120    61.1370    25.2650   136.5720   179.5000   186.1660 
  177.1250     2.2010   -31.0980   398.3750    62.3940    25.3630   137.1090   170.3680   176.5780 
  177.2500     2.2020   -30.9690   399.0560    65.2630    25.3780   136.8380   153.1450   157.9730 
  177.3750     2.2160   -30.8280   399.5960    66.3980    25.3780   121.3110   132.5810   136.2140 
  177.5000     2.2400   -30.7110   399.9410    64.6090    25.3740    92.2190   114.1570   117.3640 
  177.6250     2.2590   -30.6180   400.3510    64.3740    25.3520    73.6910   102.6430   105.9670 
  177.7500     2.2640   -30.5270   400.8520    65.1300    25.3160    68.8760    98.1350   101.6660 
  177.8750     2.2570   -30.4240   401.0910    63.5380    25.2890    71.9150   100.2730   104.1220 
  178.0000     2.2460   -30.3220   400.7570    60.1150    25.2800    79.6430   108.0810   112.6760 
  178.1250     2.2410   -30.2140   400.0580    58.7370    25.2800    90.7210   119.6360   126.1720 
  178.2500     2.2460   -30.1210   399.8920    59.4860    25.2800   108.0440   129.8810   139.4410 
  178.3750     2.2580   -30.0360   400.5770    61.1780    25.2800   126.3860   133.9120   146.3100 
  178.5000     2.2670   -29.9430   401.2390    63.1520    25.2800   130.6430   128.6020   141.9680 
  178.6250     2.2660   -29.8470   400.1110    64.5730    25.2880   115.9510   114.1840   126.3920 
  178.7500     2.2630   -29.7530   397.3670    65.1520    25.3240    93.6310    97.2390   107.9780 
  178.8750     2.2660   -29.6640   394.5450    65.8790    25.4080    74.3850    82.3440    92.0890 
  179.0000     2.2710   -29.5750   393.1680    67.0100    25.5340    61.1860    72.1140    81.3990 
  179.1250     2.2630   -29.4950   393.8440    70.1300    25.6160    54.1760    68.1890    77.5240 
  179.2500     2.2420   -29.4320   395.3980    74.6920    25.6300    50.8290    69.4430    79.2980 
  179.3750     2.2250   -29.3900   396.5700    76.4210    25.5350    53.6430    75.4450    86.4250 
  179.5000     2.2200   -29.3610   396.1700    73.5320    25.1930    60.5620    85.0180    97.9830 
  179.6250     2.2290   -29.3500   393.6880    71.7900    24.5190    66.7100    94.1040   109.7460 
  179.7500     2.2470   -29.3530   391.0880    75.0050    23.8100    66.3160    96.2380   113.0020 
  179.8750     2.2700   -29.3640   390.4140    78.9450    23.3730    61.1080    87.8670   102.4300 
