~V
VERS. 2.00: Ver 2.00
~W
STRT.M 65.0000:
STOP.M 270.0000:
STEP.M 0.1250:
NULL. -999.2500:
UWI. DF3062:
~C
DEPT.M :
SP.MV :
GR.API :
CALI.CM :
RXO.OHMM :
RI. :
RML.OHMM :
DEN.GM/CC :
~A
# ...
   87.5000   -39.4240    61.3510    23.2680    11.9070     8.9050    10.5250  -999.2500 
   87.6250   -39.3720    58.8950    23.2360    11.6580     8.7930    10.4210  -999.2500 
   87.7500   -39.3080    61.1300    23.1370    11.5920     8.7110    10.3500  -999.2500 
   87.8750   -39.1850    65.5440    23.0850    11.3050     8.6620    10.3330  -999.2500 
   88.0000   -39.0160    68.0540    23.0600    10.9560     8.6590    10.3720  -999.2500 
   88.1250   -38.8140    65.7830    22.8200    11.0040     8.7310    10.4760  -999.2500 
   88.2500   -38.6010    61.9760    22.7390    11.2650     8.8560    10.6170  -999.2500 
   88.3750   -38.3870    58.9010    22.7830    10.8860     9.0020    10.7740  -999.2500 
   88.5000   -38.1620    56.3740    22.8520    10.2080     9.1430    10.9350  -999.2500 
   88.6250   -37.8950    55.4100    23.0940     9.8350     9.2750    11.0930  -999.2500 
   88.7500   -37.5760    56.4770    23.2070     9.9400     9.3570    11.1880  -999.2500 
   88.8750   -37.1890    58.3660    23.2150    10.1900     9.3410    11.1520  -999.2500 
   89.0000   -36.7100    60.3270    23.1020    10.5750     9.2090    10.9850  -999.2500 
   89.1250   -36.0920    63.2960    23.0910    10.2870     8.9350    10.6540  -999.2500 
   89.2500   -35.4010    67.8720    23.1760     9.4030     8.5620    10.1770  -999.2500 
   89.3750   -34.6790    74.5680    23.3620     8.1790     8.1220     9.6140  -999.2500 
   89.5000   -33.9590    81.4960    23.5600     6.7700     7.6680     9.0510  -999.2500 
   89.6250   -33.3350    85.9320    23.7000     6.3740     7.2930     8.6150  -999.2500 
   89.7500   -32.8090    86.7030    23.7120     6.7650     7.0540     8.3870  -999.2500 
   89.8750   -32.3790    85.0120    23.5650     7.1470     6.9760     8.3900  -999.2500 
   90.0000   -32.0680    82.2620    23.2430     7.2120     7.0440     8.5820  -999.2500 
   90.1250   -31.9000    80.3670    22.5280     6.6890     7.2260     8.8980  -999.2500 
   90.2500   -31.8080    80.4440    21.5700     6.4260     7.4380     9.2050  -999.2500 
   90.3750   -31.7490    81.4780    21.3510     7.0820     7.5770     9.3640  -999.2500 
   90.5000   -31.6960    82.1480    21.6760     8.0700     7.5580     9.2770  -999.2500 
   90.6250   -31.6160    82.4810    21.9550     7.4060     7.3340     8.9400  -999.2500 
   90.7500   -31.5280    82.9770    22.0100     5.7800     6.9860     8.4640  -999.2500 
   90.8750   -31.4620    85.3740    22.0980     5.0820     6.5950     7.9640  -999.2500 
   91.0000   -31.4270    89.8760    22.2040     5.6970     6.2270     7.5290  -999.2500 
   91.1250   -31.4390    95.1150    22.2490     6.0580     5.9310     7.2090  -999.2500 
   91.2500   -31.5280    98.1710    22.2100     6.1210     5.6940     6.9760  -999.2500 
   91.3750   -31.7030    98.6590    22.1770     6.4190     5.5030     6.7910  -999.2500 
   91.5000   -31.9460    96.3830    22.2590     7.2120     5.3920     6.7010  -999.2500 
   91.6250   -32.2260    92.5260    22.3270     8.7690     5.4570     6.9150  -999.2500 
   91.7500   -32.5370    91.5850    22.3740     9.3390     5.8090     7.6570  -999.2500 
   91.8750   -32.8620    93.7230    22.4470     8.3070     6.5850     9.1690  -999.2500 
   92.0000   -33.2270    94.6070    22.4710     7.0910     7.9010    11.5050  -999.2500 
   92.1250   -33.6770    90.1420    22.4990     8.7760     9.8570    14.5040  -999.2500 
   92.2500   -34.1750    82.3320    22.5640    17.9080    12.1370    17.4780  -999.2500 
   92.3750   -34.7290    75.6870    22.6900    37.0230    14.2320    19.7030  -999.2500 
   92.5000   -35.3190    70.6110    22.7620    54.8840    15.3520    20.4580  -999.2500 
   92.6250   -35.9050    67.7980    22.9060    44.6370    14.8260    19.2330  -999.2500 
   92.7500   -36.4930    67.4590    23.2390    24.8390    13.2980    16.9510  -999.2500 
   92.8750   -37.0640    69.2640    23.2620    12.7820    11.4090    14.4030  -999.2500 
   93.0000   -37.5210    70.3280    23.1580    10.5670     9.6700    12.2480  -999.2500 
   93.1250   -37.8350    69.8110    23.3960    10.4680     8.4420    11.0540  -999.2500 
   93.2500   -38.0640    70.8430    23.4580    10.4710     7.7670    10.7810  -999.2500 
   93.3750   -38.1780    72.4700    23.4130    10.1480     7.6450    11.3500  -999.2500 
   93.5000   -38.1800    69.8800    23.5090     9.4480     8.1490    12.9080  -999.2500 
   93.6250   -38.1360    65.4200    23.4920     8.2200     9.5480    15.9520  -999.2500 
   93.7500   -38.0400    64.3640    23.4300     8.4160    11.9540    20.4870  -999.2500 
   93.8750   -37.8930    65.4630    23.4660    17.0100    15.5070    26.4330  -999.2500 
   94.0000   -37.7650    65.1110    23.5130    35.5810    20.1040    33.2870  -999.2500 
   94.1250   -37.7030    62.5300    23.5100    65.8010    24.9530    39.4190  -999.2500 
   94.2500   -37.6710    60.6010    23.4490    91.4010    28.1670    42.5650  -999.2500 
   94.3750   -37.6840    60.0980    23.3870    98.0440    28.2950    41.3690  -999.2500 
   94.5000   -37.8020    61.3490    23.3830    74.1120    25.3530    36.1820  -999.2500 
   94.6250   -38.0610    63.8600    23.3770    43.4540    20.7530    28.9440  -999.2500 
   94.7500   -38.3990    65.1850    23.1400    23.7340    16.4450    22.4680  -999.2500 
   94.8750   -38.7880    65.5730    22.6790    15.3450    13.0910    17.7590  -999.2500 
   95.0000   -39.2170    65.9130    22.4840    12.0430    10.7850    14.8100  -999.2500 
   95.1250   -39.6190    66.2650    22.4510    11.5070     9.4830    13.4460  -999.2500 
   95.2500   -39.9730    66.0340    22.3860    11.0770     8.7980    12.9360  -999.2500 
   95.3750   -40.2860    67.1070    22.2600    10.5610     8.5630    12.9480  -999.2500 
   95.5000   -40.5410    69.4480    22.3770     9.9350     8.6370    13.2020  -999.2500 
   95.6250   -40.6760    69.4990    22.3460     9.4050     8.8930    13.3800  -999.2500 
   95.7500   -40.7300    67.3700    22.3340     9.0140     9.1810    13.3560  -999.2500 
   95.8750   -40.7600    65.5280    22.2660     8.4540     9.4260    13.1250  -999.2500 
   96.0000   -40.8210    65.6490    22.4750     7.9350     9.6190    12.7670  -999.2500 
   96.1250   -40.9020    67.6140    22.6920     8.1290     9.7350    12.3150  -999.2500 
   96.2500   -41.0070    69.7470    22.6720     9.3060     9.7820    11.8610  -999.2500 
   96.3750   -41.1350    69.2280    22.7040    10.8840     9.7670    11.4310  -999.2500 
   96.5000   -41.2970    66.0050    22.7880    11.7720     9.7030    11.0920  -999.2500 
   96.6250   -41.4830    65.8920    23.0260    11.9120     9.6240    10.8630  -999.2500 
   96.7500   -41.6840    67.5360    23.0800    12.5480     9.5300    10.6850  -999.2500 
   96.8750   -41.8720    66.5060    23.0600    13.5360     9.4330    10.5220  -999.2500 
   97.0000   -42.0230    63.2350    23.0060    13.5000     9.3360    10.3910  -999.2500 
   97.1250   -42.1110    64.7950    22.8920    11.5930     9.2410    10.3030  -999.2500 
   97.2500   -42.1480    69.2380    22.8200    10.8590     9.1400    10.2290  -999.2500 
   97.3750   -42.1480    70.2290    22.7740    11.0070     9.0280    10.1650  -999.2500 
   97.5000   -42.0960    68.4400    22.8110    11.2870     8.9250    10.1250  -999.2500 
   97.6250   -41.9570    68.4670    22.7960    11.4090     8.8330    10.1200  -999.2500 
   97.7500   -41.7300    68.7880    22.7740    11.4010     8.7850    10.1750  -999.2500 
   97.8750   -41.4620    67.5830    22.8420    11.3600     8.7850    10.2680  -999.2500 
   98.0000   -41.1930    66.0120    22.8380    11.4480     8.8070    10.3810  -999.2500 
   98.1250   -40.9520    66.2360    22.8270    11.4930     8.8530    10.5050  -999.2500 
   98.2500   -40.7210    66.0980    22.8110    11.4300     8.9120    10.6180  -999.2500 
   98.3750   -40.4890    64.6800    22.8140    11.9480     8.9720    10.6980  -999.2500 
   98.5000   -40.2660    63.4970    23.1090    14.4350     9.0130    10.7340  -999.2500 
   98.6250   -40.1030    63.2280    23.0070    18.2690     9.0270    10.7100  -999.2500 
