~V
VERS. 2.00: Ver 2.00
~W
STRT.M 60.0000:
STOP.M 282.0000:
STEP.M 0.1250:
NULL. -999.2500:
UWI. DF3058:
~C
DEPT.M :
GR.API :
RML.OHMM :
RI. :
RXO.OHMM :
CALI.CM :
DEN.GM/CC :
SP.MV :
~A
# ...
  161.2500    53.8340    19.0280    16.6180    17.1070    23.9080     2.5320   -16.4180 
  161.3750    55.1810    19.3250    16.9330    17.2930    23.8830     2.5330   -16.5130 
  161.5000    55.7150    19.6910    17.2980    17.6240    23.8730     2.5330   -16.5950 
  161.6250    55.4490    20.0130    17.6360    17.8600    23.8720     2.5310   -16.6430 
  161.7500    54.8100    20.1460    17.8270    17.8980    23.8660     2.5310   -16.6900 
  161.8750    54.4750    19.9810    17.7780    17.8410    23.8580     2.5310   -16.7140 
  162.0000    54.6710    19.4880    17.4470    17.7780    23.8600     2.5290   -16.7170 
  162.1250    56.0950    18.7190    16.8510    17.4880    23.8720     2.5250   -16.7300 
  162.2500    58.4380    17.9080    16.1690    16.4980    23.8830     2.5170   -16.7600 
  162.3750    60.6840    17.2360    15.5550    15.2030    23.9030     2.5090   -16.7910 
  162.5000    63.6070    16.8300    15.1310    14.0150    23.9160     2.5020   -16.8330 
  162.6250    65.8340    16.7670    14.9960    13.9120    23.9940     2.4990   -16.8840 
  162.7500    66.3540    16.8890    15.0750    14.2440    24.0270     2.4980   -16.9520 
  162.8750    65.5390    17.0480    15.2710    14.9810    23.9420     2.4980   -17.0260 
  163.0000    63.8740    17.1480    15.4790    15.6220    23.8250     2.4970   -17.1080 
  163.1250    64.1960    17.1970    15.6550    15.8100    23.7680     2.4920   -17.2180 
  163.2500    66.2860    17.4540    15.8940    15.7880    23.7840     2.4820   -17.3460 
  163.3750    68.5390    18.1000    16.3340    15.7270    23.8090     2.4660   -17.5020 
  163.5000    69.8440    19.1300    17.0340    16.2740    23.8760     2.4430   -17.6940 
  163.6250    70.8840    20.2320    17.8490    18.7820    24.0180     2.4120   -17.9140 
  163.7500    72.4780    20.5850    18.4070    22.0170    24.1750     2.3800   -18.1330 
  163.8750    74.5800    20.2030    18.3870    24.7320    24.2230     2.3570   -18.3760 
  164.0000    79.3580    19.0270    17.6530    24.4470    24.3920     2.3480   -18.6400 
  164.1250    86.8470    17.3490    16.3360    18.7840    24.3550     2.3560   -18.9030 
  164.2500    91.1910    15.8000    14.9800    14.0970    24.3390     2.3720   -19.1800 
  164.3750    90.3130    14.7340    13.9330    12.5830    24.3190     2.3860   -19.4400 
  164.5000    87.1990    14.2360    13.3360    12.5790    24.3190     2.3930   -19.6470 
  164.6250    86.7620    14.2070    13.1800    12.8170    24.3320     2.3920   -19.8170 
  164.7500    89.5000    14.3030    13.1960    12.8900    24.3410     2.3860   -19.9770 
  164.8750    91.7830    14.3110    13.1910    12.9210    24.2870     2.3800   -20.1100 
  165.0000    91.7520    14.1410    13.0530    12.7830    24.1990     2.3770   -20.2090 
  165.1250    90.7380    13.8210    12.7830    12.6260    24.2290     2.3770   -20.2990 
  165.2500    90.4580    13.5230    12.5330    12.6600    24.4200     2.3790   -20.3640 
  165.3750    90.5910    13.4880    12.4730    12.8820    24.4590     2.3800   -20.3980 
  165.5000    90.3430    13.9350    12.7850    13.6510    24.4010     2.3800   -20.4470 
  165.6250    90.0450    15.4120    13.7710    15.4640    24.3540     2.3800   -20.4960 
  165.7500    87.5020    17.8730    15.4960    18.8650    24.3540     2.3780   -20.5440 
  165.8750    81.4600    21.4040    18.0290    23.9330    24.3550     2.3750   -20.6210 
  166.0000    76.1810    25.8680    21.3430    30.3220    24.3620     2.3690   -20.7090 
  166.1250    76.6040    30.4660    25.4000    37.0080    24.3720     2.3560   -20.7670 
  166.2500    78.2780    35.4140    29.8940    42.8710    24.3720     2.3390   -20.8190 
  166.3750    76.3710    40.5980    34.6760    47.9910    24.3570     2.3210   -20.8800 
  166.5000    71.2270    45.9770    39.6650    53.8300    24.3460     2.3030   -20.9230 
  166.6250    66.4970    51.5180    44.8250    62.0790    24.3450     2.2900   -20.9840 
  166.7500    64.6180    56.9840    49.9710    70.3760    24.3450     2.2830   -21.0200 
  166.8750    66.1990    62.0050    54.8060    75.6770    24.3450     2.2790   -21.0110 
  167.0000    70.6520    66.1580    58.9550    77.7620    24.3450     2.2780   -21.0020 
  167.1250    72.3590    68.8330    61.8870    78.5130    24.3450     2.2790   -21.0040 
  167.2500    70.3990    70.0750    63.6210    80.4740    24.3450     2.2800   -20.9810 
  167.3750    66.6430    70.0910    64.2040    79.7730    24.3450     2.2810   -20.9530 
  167.5000    64.1070    69.0540    63.7630    75.7120    24.3450     2.2800   -20.9110 
  167.6250    65.1760    67.3420    62.2470    71.7350    24.3450     2.2760   -20.8360 
  167.7500    69.8660    64.9280    59.8510    69.0130    24.3440     2.2700   -20.7790 
  167.8750    75.4750    62.0310    56.6770    66.8660    24.3420     2.2650   -20.7410 
  168.0000    77.9430    58.8230    52.9920    63.9980    24.3440     2.2660   -20.6970 
  168.1250    78.0640    54.3790    49.2860    59.7670    24.3450     2.2740   -20.6630 
  168.2500    80.7370    50.6610    46.1070    54.5590    24.3450     2.2860   -20.6510 
  168.3750    85.4140    48.1100    43.8640    48.6890    24.3450     2.2950   -20.6570 
  168.5000    88.5790    47.0120    42.8540    44.2530    24.3440     2.2980   -20.7090 
  168.6250    89.0250    47.7720    43.4970    44.6870    24.3410     2.2950   -20.7990 
  168.7500    88.6740    50.0830    45.5700    47.7410    24.3400     2.2910   -20.8890 
  168.8750    87.2270    53.6890    48.8860    51.2950    24.3390     2.2870   -20.9980 
  169.0000    83.4440    58.0250    52.9820    55.1510    24.3400     2.2840   -21.1180 
  169.1250    81.4420    61.9660    56.9110    61.5800    24.3380     2.2810   -21.2340 
  169.2500    85.2930    64.3930    59.6070    69.3750    24.3370     2.2790   -21.3440 
  169.3750    92.0750    64.7390    60.4450    75.3940    24.3370     2.2820   -21.4170 
  169.5000    96.6690    63.2200    59.5190    79.6490    24.3370     2.2900   -21.4780 
  169.6250    96.0900    61.1980    57.7940    77.4970    24.3360     2.2990   -21.5150 
  169.7500    91.6870    60.5390    56.9540    71.5000    24.3350     2.3050   -21.5420 
  169.8750    84.3360    62.6550    58.2130    72.0820    24.3340     2.3050   -21.5560 
  170.0000    76.5230    67.9490    62.2230    83.8660    24.3340     2.3000   -21.5640 
  170.1250    73.1320    76.8900    69.2530   100.9780    24.3340     2.2930   -21.5680 
  170.2500    72.8290    87.4080    77.9200   109.0990    24.3340     2.2880   -21.5700 
  170.3750    72.3280    97.3320    86.9500   111.9440    24.3330     2.2860   -21.5940 
  170.5000    71.8240   105.2220    94.9890   117.6050    24.3300     2.2860   -21.5940 
  170.6250    71.8730   109.9150   100.4680   123.9080    24.3280     2.2850   -21.5580 
  170.7500    72.4000   111.2890   103.0830   127.3930    24.3290     2.2810   -21.5000 
  170.8750    72.8070   109.1160   102.5020   123.6120    24.3510     2.2720   -21.4370 
  171.0000    71.6000   103.2330    98.4290   111.6760    24.4510     2.2590   -21.3620 
  171.1250    68.1990    93.3930    90.3390    93.5220    24.5900     2.2480   -21.2910 
  171.2500    63.8940    81.3650    79.6770    74.8430    24.6000     2.2460   -21.2370 
  171.3750    62.0490    68.6970    67.8250    60.6210    24.4880     2.2550   -21.1840 
  171.5000    64.8440    56.7970    56.2280    50.6880    24.4160     2.2720   -21.1490 
  171.6250    70.0890    46.9250    46.3150    38.5850    24.4160     2.2900   -21.1470 
  171.7500    74.5200    39.0870    38.3550    31.4500    24.4160     2.3040   -21.1610 
  171.8750    75.9390    33.1360    32.2870    28.2680    24.4160     2.3130   -21.1700 
  172.0000    75.5700    28.7900    27.8370    26.7420    24.4160     2.3210   -21.1790 
  172.1250    76.2920    25.9890    24.9270    23.7940    24.4160     2.3290   -21.1910 
  172.2500    78.0320    24.3590    23.1610    22.5590    24.4160     2.3380   -21.2010 
  172.3750    79.4670    23.9020    22.5070    22.3650    24.4180     2.3460   -21.2280 
