~V
VERS. 2.00: Ver 2.00
~W
STRT.M 56.0000:
STOP.M 260.0000:
STEP.M 0.1250:
NULL. -999.2500:
UWI. DF3033:
~C
DEPT.M :
GR.API :
RML.OHMM :
RI. :
RXO.OHMM :
CALI.CM :
DEN.GM/CC :
SP.MV :
~A
# ...
  146.0000   103.4150     8.0770     6.6170     6.0220    24.5680     2.3780   -14.5200 
  146.1250   105.3020     7.6090     6.1080     5.7560    24.5920     2.3650   -14.4650 
  146.2500   107.7820     7.7950     6.0450     6.0100    24.6410     2.3680   -14.4680 
  146.3750   106.3190     8.8460     6.6150     6.7870    24.5670     2.3940   -14.4620 
  146.5000    97.2800    10.8390     7.9400     8.5090    24.4140     2.4450   -14.4100 
  146.6250    84.4890    13.7350    10.1310    11.9080    24.3060     2.5110   -14.3450 
  146.7500    73.7030    16.9470    12.8220    16.4360    24.3050     2.5730   -14.2520 
  146.8750    66.3710    19.9170    15.5930    20.0610    24.3380     2.6180   -14.1490 
  147.0000    62.1670    22.1360    17.9590    21.7900    24.3870     2.6410   -14.1480 
  147.1250    58.3650    23.2160    19.4260    23.3630    24.4080     2.6470   -14.0150 
  147.2500    53.4300    23.5330    20.1270    24.1190    24.4150     2.6470   -13.9830 
  147.3750    49.5740    23.4600    20.3120    23.7080    24.4150     2.6430   -13.9560 
  147.5000    49.3110    23.3080    20.2550    22.6330    24.4110     2.6360   -13.9280 
  147.6250    52.0760    23.2690    20.1560    22.6880    24.3940     2.6260   -14.0030 
  147.7500    53.9590    23.4010    20.1420    22.4080    24.3770     2.6160   -14.0170 
  147.8750    54.5290    23.7290    20.2730    20.9780    24.3880     2.6080   -14.0990 
  148.0000    54.3820    24.2270    20.5720    19.5820    24.4020     2.6020   -14.0810 
  148.1250    52.7970    24.7950    21.0240    19.8690    24.3900     2.5980   -14.1650 
  148.2500    51.4630    25.2770    21.5120    20.6470    24.3530     2.5940   -14.2000 
  148.3750    52.4040    25.5760    21.9300    20.6420    24.3380     2.5930   -14.2260 
  148.5000    54.5820    25.6740    22.1990    20.4260    24.3570     2.5940   -14.2700 
  148.6250    55.3150    25.5970    22.2500    20.8630    24.4090     2.5970   -14.2170 
  148.7500    53.6530    25.3980    22.1070    21.5260    24.4360     2.6000   -14.2580 
  148.8750    52.6060    25.0100    21.7560    20.9310    24.4550     2.6000   -14.2390 
  149.0000    53.4770    24.3070    21.1540    20.0770    24.4800     2.5980   -14.2210 
  149.1250    55.1480    23.1470    20.2320    20.8970    24.5040     2.5950   -14.2560 
  149.2500    57.4380    21.7160    19.1200    22.1210    24.5160     2.5930   -14.2670 
  149.3750    60.8930    20.3020    18.0050    19.9850    24.5150     2.5880   -14.2640 
  149.5000    65.7250    19.2400    17.1110    16.5720    24.4870     2.5770   -14.3490 
  149.6250    69.2310    18.8880    16.7140    14.3160    24.3940     2.5560   -14.4680 
  149.7500    71.6950    19.2010    16.8340    13.9730    24.2310     2.5340   -14.5450 
  149.8750    74.1450    20.0550    17.4370    14.7430    23.9850     2.5160   -14.6300 
  150.0000    75.1190    21.2080    18.3760    15.7880    23.6850     2.5100   -14.7580 
  150.1250    72.7550    22.2950    19.3740    16.3340    23.5090     2.5160   -14.8280 
  150.2500    68.7480    22.9920    20.1100    16.5450    23.4560     2.5230   -14.8560 
  150.3750    65.5310    23.1250    20.3940    17.2490    23.4700     2.5250   -14.9520 
  150.5000    63.8230    22.6880    20.1800    18.6400    23.5260     2.5210   -14.8990 
  150.6250    64.6390    21.8000    19.5290    18.7670    23.6870     2.5120   -14.8360 
  150.7500    66.0630    20.7680    18.6930    17.4850    23.9800     2.5060   -14.7250 
  150.8750    66.7990    19.7420    17.8020    15.8750    24.2660     2.5050   -14.6220 
  151.0000    67.6430    18.7840    16.9320    15.0940    24.4060     2.5050   -14.5450 
  151.1250    70.3020    17.9320    16.1600    15.2510    24.4210     2.5030   -14.4270 
  151.2500    72.9460    17.2170    15.5320    15.4690    24.4110     2.4980   -14.4350 
  151.3750    71.1070    16.7140    15.0990    14.7640    24.4010     2.4920   -14.3600 
  151.5000    65.0360    16.5010    14.9050    13.4980    24.4030     2.4880   -14.3920 
  151.6250    60.1370    16.6700    15.0180    13.7640    24.4120     2.4910   -14.4820 
  151.7500    60.8400    17.1260    15.3790    14.8100    24.4370     2.4970   -14.5810 
  151.8750    64.9750    17.7700    15.9310    15.9740    24.4680     2.5040   -14.7260 
  152.0000    67.5800    18.4690    16.5760    16.0200    24.4790     2.5080   -14.8130 
  152.1250    68.1100    19.0520    17.1620    15.7150    24.4740     2.5060   -14.9220 
  152.2500    69.2460    19.3950    17.5540    16.4870    24.4740     2.5010   -14.9810 
  152.3750    71.3130    19.4110    17.6600    17.4990    24.4930     2.4980   -14.9670 
  152.5000    72.4280    19.0870    17.4540    17.5810    24.5290     2.4970   -14.8990 
  152.6250    72.4050    18.5080    16.9820    16.8640    24.5590     2.5020   -14.8620 
  152.7500    72.3590    17.9620    16.4750    16.3930    24.5400     2.5080   -14.7700 
  152.8750    71.5930    17.7090    16.1510    15.6090    24.4780     2.5140   -14.6240 
  153.0000    69.6960    17.9420    16.1940    14.8240    24.4220     2.5180   -14.4780 
  153.1250    67.7700    18.7540    16.7460    14.8280    24.3770     2.5190   -14.3710 
  153.2500    65.7670    19.8420    17.6120    15.5870    24.3340     2.5220   -14.2430 
  153.3750    62.7690    20.8730    18.5450    16.8310    24.3030     2.5260   -14.2240 
  153.5000    58.9660    21.5070    19.2430    18.7710    24.2730     2.5330   -14.2030 
  153.6250    56.0590    21.4140    19.3610    19.4310    24.2380     2.5400   -14.0900 
  153.7500    55.6190    20.7400    18.9390    18.6190    24.2230     2.5450   -14.0900 
  153.8750    57.1560    19.7400    18.1550    16.9880    24.2310     2.5480   -14.0400 
  154.0000    60.1040    18.7280    17.2830    15.5360    24.2730     2.5490   -14.0560 
  154.1250    61.1100    18.0210    16.6150    15.1160    24.3640     2.5490   -13.9920 
  154.2500    58.1570    17.6780    16.2500    15.0660    24.4230     2.5480   -13.9980 
  154.3750    54.3810    17.6540    16.1830    15.1450    24.4430     2.5470   -14.0040 
  154.5000    55.0730    17.8300    16.3300    15.2640    24.4480     2.5460   -13.9890 
  154.6250    60.7850    18.0420    16.5620    15.4780    24.4420     2.5410   -14.1010 
  154.7500    64.8360    18.1550    16.7420    15.5680    24.4010     2.5300   -14.1170 
  154.8750    64.6020    18.1360    16.8190    15.0980    24.3090     2.5150   -14.1890 
  155.0000    63.5410    18.0410    16.8140    14.6710    24.2090     2.5030   -14.2090 
  155.1250    65.2090    18.0070    16.8150    13.6200    24.1610     2.5000   -14.3140 
  155.2500    68.0580    18.1270    16.9050    13.0240    24.2400     2.5070   -14.3800 
  155.3750    70.7690    18.3950    17.1000    13.2900    24.3780     2.5190   -14.3680 
  155.5000    71.3210    18.7170    17.3470    13.9070    24.4800     2.5300   -14.4160 
  155.6250    70.8260    18.9350    17.5410    14.5690    24.4830     2.5310   -14.4130 
  155.7500    71.4130    18.9950    17.6250    14.7770    24.5230     2.5220   -14.4070 
  155.8750    73.7480    18.9420    17.6150    14.7350    24.5650     2.5050   -14.4380 
  156.0000    76.0660    18.8820    17.5850    14.6030    24.5630     2.4840   -14.4840 
  156.1250    75.2990    18.9410    17.6480    14.5530    24.5340     2.4660   -14.4780 
  156.2500    73.6820    19.1280    17.8360    15.3730    24.5660     2.4530   -14.4930 
  156.3750    73.2960    19.4010    18.1220    16.5780    24.6630     2.4450   -14.5680 
  156.5000    74.3310    19.6980    18.4450    17.6420    24.7410     2.4420   -14.6790 
  156.6250    75.0880    19.9830    18.7390    17.9920    24.7640     2.4440   -14.7190 
  156.7500    73.0260    20.2740    18.9980    17.5890    24.7670     2.4480   -14.8470 
  156.8750    69.3460    20.5910    19.2400    17.2240    24.7670     2.4540   -14.9380 
  157.0000    67.3520    20.9010    19.4520    16.6440    24.7670     2.4610   -15.0760 
  157.1250    70.2670    21.0480    19.5170    16.0570    24.7560     2.4660   -15.2210 
