~V
VERS. 2.00: Ver 2.00
~W
STRT.M 125.0000:
STOP.M 269.0000:
STEP.M 0.1250:
NULL. -999.2500:
UWI. DF3004:
~C
DEPT.M :
GR.API :
RML.OHMM :
RI. :
RXO.OHMM :
CALI.CM :
DEN.GM/CC :
SP.MV :
~A
# ...
  136.2500    74.8070    12.8240    11.2670    10.1760    23.8420     2.4210   -22.7970 
  136.3750    74.4610    15.3970    13.3600    12.7260    23.9660     2.4330   -22.7260 
  136.5000    71.4780    17.7990    15.6050    17.0230    23.7840     2.4410   -22.7230 
  136.6250    67.9450    18.8040    16.9810    20.9910    23.7710     2.4390   -22.6030 
  136.7500    68.7580    18.0270    16.8850    22.9500    23.9560     2.4240   -22.4550 
  136.8750    73.9400    15.7470    15.3010    25.0790    24.0910     2.3960   -22.3480 
  137.0000    77.8080    12.8250    12.8480    21.5680    24.0920     2.3600   -22.1860 
  137.1250    79.7790    10.2590    10.4150    13.6700    24.1230     2.3240   -22.0500 
  137.2500    85.5500     8.4060     8.4860     8.8050    24.0050     2.2960   -21.9450 
  137.3750    94.3270     7.2330     7.1180     7.4490    23.9820     2.2750   -21.8400 
  137.5000   101.0990     6.5800     6.2290     6.7820    24.1070     2.2580   -21.7710 
  137.6250   101.8000     6.2900     5.7240     6.1300    24.3300     2.2480   -21.7130 
  137.7500   101.7990     6.1130     5.3930     5.7430    24.3660     2.2480   -21.6520 
  137.8750   104.2800     5.9190     5.1280     5.5930    24.3550     2.2610   -21.6460 
  138.0000   108.4020     5.6430     4.8620     5.5610    24.3490     2.2880   -21.6250 
  138.1250   110.4930     5.3010     4.5890     5.4770    24.3380     2.3210   -21.6030 
  138.2500   108.2380     5.0440     4.3880     5.3600    24.3090     2.3450   -21.6920 
  138.3750   103.4180     5.0850     4.4010     5.3280    24.2660     2.3530   -21.7210 
  138.5000    97.8770     5.6680     4.8140     5.6070    24.2050     2.3490   -21.7040 
  138.6250    90.3940     7.1000     5.9080     6.9200    24.1780     2.3520   -21.8810 
  138.7500    80.5450     9.1980     7.6080     9.5590    24.1790     2.3820   -22.0370 
  138.8750    70.5270    11.6000     9.6900    13.8950    24.2000     2.4420   -22.1240 
  139.0000    62.3960    13.7250    11.7000    20.3600    24.2080     2.5110   -22.3630 
  139.1250    56.9410    14.7550    12.9010    25.5080    24.1600     2.5410   -22.5550 
  139.2500    55.3590    14.6040    13.0620    22.5240    24.1060     2.5060   -22.6650 
  139.3750    59.0640    13.6200    12.3780    15.5590    24.1800     2.4160   -22.8850 
  139.5000    65.4920    12.4080    11.3450    10.9030    24.1220     2.3100   -23.0470 
  139.6250    69.9780    11.4800    10.4140     9.6900    24.0930     2.2270   -23.0590 
  139.7500    70.8660    10.8330     9.6710     9.5270    23.8610     2.1810   -23.0960 
  139.8750    69.6000    10.2940     9.0270     9.6300    23.7120     2.1710   -23.1050 
  140.0000    70.0390     9.7060     8.3840     9.7290    23.7200     2.1850   -23.0770 
  140.1250    77.4260     9.0390     7.7160     9.5120    23.7790     2.2060   -23.0900 
  140.2500    89.1880     8.4270     7.1060     8.6900    24.0430     2.2180   -23.1230 
  140.3750    99.8570     8.0030     6.6490     7.4620    24.2340     2.2160   -23.1980 
  140.5000   103.6270     7.8280     6.3980     6.7300    24.3450     2.2070   -23.3520 
  140.6250    98.6820     7.8840     6.3660     6.6750    24.3530     2.2040   -23.5320 
  140.7500    92.9150     8.0150     6.4400     7.0450    24.2990     2.2150   -23.7610 
  140.8750    91.2410     8.1070     6.5290     7.4710    24.2000     2.2350   -24.0360 
  141.0000    92.1640     8.0890     6.5590     7.6960    24.1170     2.2530   -24.2800 
  141.1250    89.8650     7.9320     6.4860     7.5890    24.1250     2.2530   -24.5510 
  141.2500    86.6540     7.7200     6.3580     7.5160    24.2140     2.2410   -24.7830 
  141.3750    85.6770     7.5470     6.2460     7.3860    24.2780     2.2240   -24.9740 
  141.5000    86.7860     7.5150     6.2260     7.2580    23.9800     2.2120   -25.2070 
  141.6250    88.7130     7.7540     6.4020     7.2220    23.8200     2.2080   -25.3490 
  141.7500    89.1880     8.2690     6.7900     7.3770    23.7040     2.2080   -25.3540 
  141.8750    86.5520     9.0250     7.3800     7.8440    23.6410     2.2120   -25.3910 
  142.0000    82.5500     9.8910     8.0930     8.6460    23.5890     2.2180   -25.3300 
  142.1250    81.4790    10.5840     8.7290     9.3770    23.5380     2.2290   -25.0560 
  142.2500    83.2850    10.8510     9.0690     9.7560    23.4670     2.2450   -24.8350 
  142.3750    85.2100    10.5660     8.9750     9.8810    23.5210     2.2660   -24.5360 
  142.5000    85.9200     9.7860     8.4480     9.7020    23.6870     2.2870   -24.0660 
  142.6250    87.5730     8.7380     7.6300     8.9640    23.8710     2.3020   -23.7380 
  142.7500    91.4120     7.7700     6.8100     7.7890    23.8150     2.3080   -23.4620 
  142.8750    94.6910     7.0530     6.1500     6.7320    23.8190     2.3050   -23.1490 
  143.0000    95.3310     6.6340     5.7220     6.3230    23.8670     2.2990   -22.9740 
  143.1250    93.8720     6.5210     5.5760     6.3110    24.0630     2.2910   -22.8930 
  143.2500    93.1530     6.6080     5.6410     6.4940    24.3580     2.2810   -22.8700 
  143.3750    92.0930     6.8500     5.8790     6.7440    24.6280     2.2690   -22.8700 
  143.5000    91.8510     7.2000     6.2440     7.1410    24.7690     2.2550   -22.9490 
  143.6250    94.0250     7.5930     6.6730     7.6380    24.6150     2.2420   -23.0060 
  143.7500    95.7800     7.9130     7.0580     8.0850    24.0740     2.2360   -22.9580 
  143.8750    94.8990     8.0510     7.2960     8.1750    23.8490     2.2360   -22.9340 
  144.0000    93.3110     7.9250     7.3000     8.0390    23.9720     2.2420   -22.8390 
  144.1250    94.9990     7.4920     7.0010     7.7790    23.8590     2.2530   -22.7450 
  144.2500    99.1990     6.8980     6.5080     7.1460    23.8520     2.2670   -22.6930 
  144.3750   103.9550     6.2740     5.9380     6.3410    24.0360     2.2820   -22.6360 
  144.5000   108.8870     5.7460     5.4080     5.6680    24.2970     2.2970   -22.5890 
  144.6250   113.5010     5.4360     5.0390     5.2250    24.4040     2.3070   -22.6130 
  144.7500   115.0410     5.3430     4.8530     5.0200    24.3790     2.3150   -22.6930 
  144.8750   113.6090     5.4310     4.8400     5.1420    24.3580     2.3220   -22.7260 
  145.0000   111.8860     5.6260     4.9550     5.3260    24.3810     2.3300   -22.8390 
  145.1250   109.2970     5.8200     5.1330     5.7540    24.4030     2.3430   -22.9690 
  145.2500   103.4440     5.9530     5.3090     6.5160    24.3890     2.3570   -22.9220 
  145.3750   100.2230     6.0600     5.4890     7.4570    24.3710     2.3690   -22.9250 
  145.5000   103.1000     6.2760     5.7520     8.1160    24.3810     2.3760   -22.9740 
  145.6250   101.8050     6.8960     6.3120     8.7320    24.4180     2.3840   -22.8330 
  145.7500    92.1070     8.1090     7.3450    10.0800    24.4340     2.4020   -22.7720 
  145.8750    80.7910    10.0450     9.0150    13.3820    24.4330     2.4380   -22.7570 
  146.0000    71.8000    12.6790    11.3900    18.7930    24.4300     2.4920   -22.6320 
  146.1250    63.8870    15.7850    14.4020    25.4830    24.4300     2.5530   -22.6030 
  146.2500    58.2510    18.7870    17.5290    29.5870    24.4280     2.6040   -22.5890 
  146.3750    55.6460    21.2020    20.2620    32.5240    24.4270     2.6340   -22.5390 
  146.5000    52.5710    22.7240    22.1770    34.9500    24.4270     2.6410   -22.4910 
  146.6250    52.5640    23.2630    23.0180    35.0730    24.4270     2.6310   -22.4930 
  146.7500    57.1770    23.3390    23.2310    33.2980    24.4270     2.6170   -22.5070 
  146.8750    60.1740    23.3510    23.2060    31.1250    24.4280     2.6090   -22.4650 
  147.0000    57.3090    23.5770    23.2610    29.8020    24.4310     2.6080   -22.4670 
  147.1250    53.6990    24.1650    23.6080    28.8460    24.4280     2.6120   -22.4030 
  147.2500    53.6460    24.9630    24.1890    29.4090    24.4270     2.6160   -22.3780 
  147.3750    53.4080    25.7760    24.8710    30.8250    24.4270     2.6170   -22.4000 
