~V
VERS. 2.00: Ver 2.00
~W
STRT.M 115.0000:
STOP.M 241.0000:
STEP.M 0.1250:
NULL. -999.2500:
UWI. DF3064:
~C
DEPT.M :
GR.API :
CALI.CM :
RXO.OHMM :
RI. :
RML.OHMM :
DEN.GM/CC :
SP.MV :
~A
# ...
  216.2500    62.6570    24.7990     8.5920     9.1570    12.2580     2.4210   -20.2890 
  216.3750    63.9420    24.8200     8.2190     9.1180    12.2260     2.4090   -20.4240 
  216.5000    66.0210    24.8170     8.0240     9.0840    12.1880     2.3830   -20.5690 
  216.6250    66.7280    24.7690     7.7520     9.0410    12.0930     2.3600   -20.7310 
  216.7500    67.3990    24.7710     7.6310     8.9610    11.9610     2.3550   -20.8890 
  216.8750    70.5930    24.7280     8.0510     8.8580    11.8010     2.3620   -21.0300 
  217.0000    74.0060    24.7090     8.6240     8.7570    11.6430     2.3600   -21.1610 
  217.1250    71.7490    24.6780     8.7420     8.6820    11.5480     2.3420   -21.2330 
  217.2500    68.3130    24.6290     8.5200     8.6670    11.5380     2.3160   -21.2770 
  217.3750    67.6540    24.7070     8.2440     8.7130    11.6060     2.2970   -21.2800 
  217.5000    67.8530    24.7420     8.2270     8.8120    11.7230     2.2940   -21.2460 
  217.6250    65.5710    24.6940     8.4190     8.9380    11.8450     2.3090   -21.1550 
  217.7500    65.1280    24.5890     8.8570     9.0470    11.9380     2.3380   -21.0300 
  217.8750    67.8780    24.4230     9.5470     9.1190    11.9750     2.3620   -20.8910 
  218.0000    67.8670    24.4880    10.1760     9.1320    11.9540     2.3710   -20.7460 
  218.1250    61.8060    24.5960    10.0210     9.0860    11.8640     2.3660   -20.6270 
  218.2500    56.4450    24.6790     9.8690     9.0300    11.7740     2.3610   -20.5270 
  218.3750    55.9930    24.6140    10.0260     8.9930    11.7180     2.3560   -20.4580 
  218.5000    59.9130    24.6120    10.0370     8.9860    11.7030     2.3460   -20.4350 
  218.6250    64.3060    24.6760     9.7390     9.0160    11.7270     2.3330   -20.4560 
  218.7500    67.4860    24.6330     9.5220     9.0790    11.7600     2.3300   -20.5200 
  218.8750    69.6860    24.6090     9.4210     9.1530    11.7980     2.3420   -20.6120 
  219.0000    70.8890    24.6080     9.2570     9.2200    11.8370     2.3590   -20.6730 
  219.1250    70.6470    24.6210     9.2840     9.2700    11.8680     2.3680   -20.7720 
  219.2500    68.4890    24.6150     9.3040     9.2980    11.8590     2.3630   -20.9020 
  219.3750    65.9660    24.5930     9.6430     9.3020    11.7970     2.3550   -21.0360 
  219.5000    65.4920    24.5660    10.0390     9.2960    11.6950     2.3560   -21.1610 
  219.6250    65.9900    24.4070    10.4560     9.2890    11.5700     2.3670   -21.2570 
  219.7500    64.4640    24.5760    10.7070     9.2810    11.4830     2.3780   -21.3260 
  219.8750    61.0240    24.6100    10.5020     9.2850    11.4100     2.3800   -21.3530 
  220.0000    60.2510    24.7210     9.4850     9.3150    11.3690     2.3790   -21.3930 
  220.1250    63.8770    24.6360     8.4570     9.3600    11.3710     2.3830   -21.3740 
  220.2500    66.7090    24.5760     8.4660     9.4120    11.3990     2.3930   -21.3230 
  220.3750    66.6850    24.4810     8.9300     9.4640    11.4370     2.4000   -21.2480 
  220.5000    64.6920    24.4730     9.2900     9.5140    11.4780     2.4000   -21.1060 
  220.6250    63.0390    24.5290     9.4500     9.5560    11.5360     2.3960   -20.9700 
  220.7500    63.9260    24.6310     9.5700     9.6130    11.6150     2.3930   -20.8410 
  220.8750    67.2740    24.6710     9.8370     9.6880    11.7370     2.3920   -20.7380 
  221.0000    69.7820    24.7430     9.7910     9.7910    11.9150     2.4000   -20.6730 
  221.1250    67.4250    24.7760     9.2390     9.9720    12.1150     2.4190   -20.6260 
  221.2500    64.1060    24.7220     8.4910    10.2300    12.3710     2.4430   -20.6120 
  221.3750    62.8520    24.6760     8.9500    10.5680    12.7050     2.4550   -20.6490 
  221.5000    63.9190    24.6810    10.9430    10.9870    13.1140     2.4490   -20.7580 
  221.6250    64.4620    24.4970    13.0990    11.4850    13.6030     2.4300   -20.9030 
  221.7500    62.3590    24.4380    14.9230    12.0140    14.1380     2.4150   -21.0420 
  221.8750    59.3460    24.3650    17.6550    12.5420    14.6980     2.4140   -21.1620 
  222.0000    58.1040    24.3440    21.4140    13.0460    15.2480     2.4300   -21.2580 
  222.1250    60.5880    24.5550    26.8100    13.4560    15.7040     2.4570   -21.3290 
  222.2500    63.3030    24.7130    31.4840    13.7340    16.0500     2.4840   -21.3530 
  222.3750    63.1810    24.7140    31.9360    13.8540    16.1940     2.4960   -21.3230 
  222.5000    61.3750    24.7200    26.0950    13.8110    16.1550     2.4920   -21.2460 
  222.6250    60.8470    24.7540    21.5880    13.5750    15.9040     2.4750   -21.1040 
  222.7500    63.9920    24.7220    23.2150    13.2600    15.5490     2.4560   -20.9470 
  222.8750    67.9650    24.7090    25.1280    12.9510    15.1990     2.4490   -20.7990 
  223.0000    69.7520    24.8070    22.7400    12.7260    14.9650     2.4510   -20.6670 
  223.1250    68.1380    24.7930    18.5050    12.7090    14.9860     2.4540   -20.5770 
  223.2500    63.9140    24.7480    18.9830    12.9610    15.3110     2.4540   -20.5390 
  223.3750    61.2580    24.6100    19.1530    13.4720    15.9530     2.4600   -20.5510 
  223.5000    61.4000    24.4810    21.4840    14.1940    16.8130     2.4750   -20.6060 
  223.6250    62.8360    24.6590    25.3720    15.0420    17.7570     2.4920   -20.6730 
  223.7500    61.8080    24.7060    27.9970    15.8540    18.5830     2.5030   -20.7160 
  223.8750    59.7990    24.5730    26.3160    16.4900    19.1490     2.5090   -20.6990 
  224.0000    58.8190    24.3520    22.5170    16.8820    19.4260     2.5050   -20.6360 
  224.1250    59.5690    24.3850    20.7200    16.9790    19.4110     2.4990   -20.5480 
  224.2500    62.6550    24.4290    22.1820    16.8850    19.2140     2.5070   -20.4350 
  224.3750    67.0680    24.3800    22.6350    16.7180    18.9500     2.5320   -20.3270 
  224.5000    70.3150    24.3350    26.3310    16.5840    18.7520     2.5570   -20.2400 
  224.6250    70.1290    24.2190    26.3590    16.5120    18.6610     2.5670   -20.1930 
  224.7500    69.9710    24.1720    25.5570    16.4810    18.6210     2.5550   -20.2280 
  224.8750    70.8100    24.1300    31.1860    16.4720    18.5970     2.5370   -20.3310 
  225.0000    71.6530    23.9980    32.2290    16.4610    18.5570     2.5270   -20.4650 
  225.1250    69.9910    23.9110    25.1960    16.3820    18.3600     2.5260   -20.5740 
  225.2500    66.6970    23.9110    16.9880    16.1950    18.0190     2.5290   -20.6360 
  225.3750    63.7620    24.2260    16.9920    15.8770    17.5620     2.5250   -20.6030 
  225.5000    60.0210    24.2940    17.2340    15.4340    16.9740     2.5180   -20.4960 
  225.6250    56.0560    24.2160    17.3010    14.8770    16.2830     2.5120   -20.3800 
  225.7500    54.3350    24.1490    15.7260    14.3030    15.5870     2.5140   -20.2280 
  225.8750    55.5830    24.1360    11.6860    13.7690    14.9840     2.5190   -20.0890 
  226.0000    57.3340    24.1430     8.0710    13.3490    14.5590     2.5140   -19.9710 
  226.1250    58.7050    24.1550     7.4070    13.1180    14.4020     2.4960   -19.9260 
  226.2500    60.3030    24.1430     7.7000    13.0610    14.4560     2.4800   -19.9290 
  226.3750    61.1020    24.1550     8.1980    13.1460    14.6290     2.4870   -20.0050 
  226.5000    60.6800    24.2070     8.7640    13.3180    14.8900     2.5140   -20.1300 
  226.6250    60.2320    24.1440    10.1190    13.5110    15.1850     2.5380   -20.2500 
  226.7500    59.7860    24.1420    11.7050    13.6420    15.4220     2.5380   -20.3430 
  226.8750    60.3320    24.1950    12.9460    13.6770    15.5490     2.5260   -20.3770 
  227.0000    62.5720    24.3900    13.5930    13.6160    15.5720     2.5170   -20.3620 
  227.1250    64.1410    24.3840    13.1900    13.4790    15.4960     2.5150   -20.2660 
  227.2500    63.1010    24.2890    12.3800    13.3270    15.3870     2.5180   -20.1540 
  227.3750    60.6860    24.1970    11.3850    13.1800    15.2910     2.5220   -20.0610 
