~V
VERS. 2.00: Ver 2.00
~W
STRT.M 120.0000:
STOP.M 278.0000:
STEP.M 0.1250:
NULL. -999.2500:
UWI. DF3047:
~C
DEPT.M :
DEN.GM/CC :
SP.MV :
AC.US/MT :
GR.API :
CALI.CM :
RXO.OHMM :
RI. :
RML.OHMM :
~A
# ...
  250.0000     2.3860   -15.5660   311.1670    75.0970    26.4430    41.9920    56.6480    56.3190 
  250.1250     2.3930   -15.4850   304.7020    75.3610    26.4130    48.4230    57.3950    57.9940 
  250.2500     2.3930   -15.4030   293.9560    75.7240    26.3690    57.4980    62.5180    63.9820 
  250.3750     2.4010   -15.3020   281.4620    76.7250    26.2960    65.2250    70.9390    73.4860 
  250.5000     2.4230   -15.1960   271.5180    78.1660    26.1750    70.6680    80.7150    84.6970 
  250.6250     2.4490   -15.0920   266.1240    79.0490    26.0680    85.7900    88.3350    93.5620 
  250.7500     2.4650   -14.9750   264.7490    78.6340    26.0810   113.7700    91.3410    96.7910 
  250.8750     2.4540   -14.8550   265.4090    77.6940    26.1850   129.1910    89.4010    94.1600 
  251.0000     2.4240   -14.7130   266.2280    77.3310    26.2640   112.1600    84.4540    88.5440 
  251.1250     2.3940   -14.5590   266.3920    80.0560    26.2820    81.3620    79.9760    84.1930 
  251.2500     2.3890   -14.3890   265.1270    84.1900    26.3300    68.4140    78.7810    83.6290 
  251.3750     2.4200   -14.2140   260.5940    86.3270    26.3790    79.2710    82.4580    88.1000 
  251.5000     2.4710   -14.0210   249.5750    83.5990    26.3740   119.5210    91.6930    98.2450 
  251.6250     2.5290   -13.7850   233.2730    79.3540    26.3630   184.1930   106.2400   114.1960 
  251.7500     2.5760   -13.5240   215.3820    77.3700    26.3710   224.2430   120.7740   129.6890 
  251.8750     2.5890   -13.2150   201.2140    75.1550    26.3290   204.1630   126.3420   131.6060 
  252.0000     2.5770   -12.8800   196.7020    70.8260    26.2070   144.8570   112.9930   108.3290 
  252.1250     2.5610   -12.5280   201.6410    67.3220    26.0790   100.7850    81.0090    71.0940 
  252.2500     2.5410   -12.1600   215.0130    64.9870    26.0390    76.1860    49.7450    41.8600 
  252.3750     2.4800   -11.7950   235.5160    61.9930    26.1020    50.8870    28.0410    23.7220 
  252.5000     2.3800   -11.4480   262.2450    58.1650    26.2360    24.9340    15.6990    13.5740 
  252.6250     2.2760   -11.1400   290.7320    55.4500    26.3920    11.0500    10.0330     8.7040 
  252.7500     2.2090   -10.8780   315.9460    55.1010    26.5050     5.9410     7.2090     6.2470 
  252.8750     2.1990   -10.6670   333.0160    56.8380    26.5200     4.8440     5.8720     5.1910 
  253.0000     2.2230   -10.5040   338.4460    59.9680    26.4160     4.9120     5.3480     4.9330 
  253.1250     2.2520   -10.3850   336.9570    61.7600    26.2770     4.9660     5.3200     5.1000 
  253.2500     2.2610   -10.3190   333.4160    60.9600    26.2270     4.9330     5.4560     5.3380 
  253.3750     2.2440   -10.2920   331.5370    59.8060    26.2620     4.8740     5.6090     5.5080 
  253.5000     2.2260   -10.3070   332.5810    60.1790    26.3060     4.8210     5.7120     5.5810 
  253.6250     2.2170   -10.3670   334.5850    61.8690    26.3050     4.8160     5.7620     5.6030 
  253.7500     2.2150   -10.4380   335.8020    64.7290    26.2950     4.8510     5.7940     5.6190 
  253.8750     2.2120   -10.5340   334.9750    67.1680    26.3190     4.8990     5.8200     5.6370 
  254.0000     2.2130   -10.6540   331.2340    67.3640    26.3610     4.9290     5.8390     5.6620 
  254.1250     2.2300   -10.8020   325.8620    65.7050    26.3770     5.0000     5.8330     5.6950 
  254.2500     2.2670   -10.9560   320.7290    65.1000    26.3570     5.2420     5.8010     5.7310 
  254.3750     2.3120   -11.1250   317.9500    65.1250    26.2990     5.7880     5.7500     5.7720 
  254.5000     2.3510   -11.2800   319.4820    64.0350    26.2140     6.6750     5.6930     5.8270 
  254.6250     2.3760   -11.4080   324.0910    63.4680    26.1330     7.6090     5.6540     5.9080 
  254.7500     2.3870   -11.5310   329.6930    64.4780    26.0970     8.1330     5.6430     6.0180 
  254.8750     2.3860   -11.6400   333.8990    66.3780    26.0980     8.2180     5.6620     6.1570 
  255.0000     2.3820   -11.7340   334.6310    67.7040    26.0880     8.2400     5.7050     6.3080 
  255.1250     2.3830   -11.7830   332.5760    66.7660    26.0540     8.4850     5.7530     6.4350 
  255.2500     2.3920   -11.8000   329.1420    64.0710    26.0460     8.7010     5.7900     6.5180 
  255.3750     2.4050   -11.7810   326.1330    60.7800    26.0890     8.6260     5.8050     6.5550 
  255.5000     2.4070   -11.7410   325.4820    57.5250    26.1550     8.2760     5.8000     6.5540 
  255.6250     2.3890   -11.6990   327.4660    55.7970    26.1900     7.9430     5.7820     6.5320 
  255.7500     2.3600   -11.6550   331.7540    56.9120    26.1730     7.8750     5.7720     6.5240 
  255.8750     2.3490   -11.6220   337.3200    60.5880    26.1390     8.0420     5.7840     6.5460 
  256.0000     2.3600   -11.6060   342.2080    64.1010    26.1270     8.2420     5.8310     6.6050 
  256.1250     2.3840   -11.6180   344.7000    64.6070    26.0910     8.2540     5.9190     6.7110 
  256.2500     2.4050   -11.6680   344.0760    63.3670    26.0000     8.0920     6.0330     6.8530 
  256.3750     2.4190   -11.7380   340.5660    61.7060    25.9130     7.8470     6.1550     7.0030 
  256.5000     2.4360   -11.8140   334.8140    59.7660    25.8620     7.6030     6.2670     7.1340 
  256.6250     2.4610   -11.8790   328.3710    57.5410    25.7770     7.4070     6.3560     7.2320 
  256.7500     2.4840   -11.9210   322.4690    55.5920    25.7260     7.3220     6.4280     7.3010 
  256.8750     2.4870   -11.9230   318.4570    54.5350    25.8580     7.6810     6.4880     7.3500 
  257.0000     2.4770   -11.8840   318.0360    55.6050    26.1570     9.2620     6.5430     7.3960 
  257.1250     2.4620   -11.8220   320.6960    58.3430    26.3820    12.9290     6.5890     7.4420 
  257.2500     2.4470   -11.7170   324.9470    60.2170    26.4500    16.2870     6.6160     7.4730 
  257.3750     2.4380   -11.5910   328.3520    60.2730    26.4570    16.1880     6.6170     7.4750 
  257.5000     2.4360   -11.4560   327.8430    59.5310    26.4750    12.5520     6.5900     7.4470 
  257.6250     2.4400   -11.3120   323.0710    59.9680    26.4840     8.8630     6.5400     7.3860 
  257.7500     2.4420   -11.1850   314.9790    61.4520    26.4340     6.9640     6.4850     7.2920 
  257.8750     2.4350   -11.0660   305.5770    62.7500    26.3330     6.2830     6.4400     7.1720 
  258.0000     2.4200   -10.9470   297.3810    62.2250    26.2370     6.2570     6.4230     7.0670 
  258.1250     2.4010   -10.8400   291.4140    60.1160    26.2150     6.7570     6.4760     7.0790 
  258.2500     2.3850   -10.7490   287.5080    59.7960    26.2780     7.4260     6.6360     7.2940 
  258.3750     2.3860   -10.6750   285.0230    61.0630    26.3960     7.9400     6.9380     7.7690 
  258.5000     2.4110   -10.6210   283.3710    60.6840    26.4940     8.5920     7.3950     8.4850 
  258.6250     2.4500   -10.5870   281.5100    58.2900    26.4830    10.5550     7.9880     9.3470 
  258.7500     2.4770   -10.5630   278.2550    56.8770    26.4150    13.0630     8.5850    10.1360 
  258.8750     2.4840   -10.5550   272.7860    57.5210    26.3750    13.6510     9.0460    10.6650 
  259.0000     2.4860   -10.5770   265.8690    59.0270    26.3910    11.5650     9.2530    10.8080 
  259.1250     2.4840   -10.6170   260.7320    60.3910    26.4160     9.8050     9.1440    10.5430 
  259.2500     2.4710   -10.6730   260.1030    61.7380    26.3900    10.6970     8.8690    10.1130 
  259.3750     2.4550   -10.7310   264.6730    62.2740    26.3300    12.4520     8.5500     9.6990 
  259.5000     2.4460   -10.7820   272.3570    61.8770    26.2970    12.1550     8.2890     9.4240 
  259.6250     2.4450   -10.8390   278.9520    61.6500    26.3000     9.7160     8.1580     9.3630 
  259.7500     2.4490   -10.8810   282.6740    62.2590    26.2900     8.4260     8.1450     9.4590 
  259.8750     2.4660   -10.9150   283.9620    62.7630    26.2790     9.2330     8.2240     9.6560 
