~V
VERS. 2.00: Ver 2.00
~W
STRT.M 63.0000:
STOP.M 272.0000:
STEP.M 0.1250:
NULL. -999.2500:
UWI. DF3013:
~C
DEPT.M :
DEN.GM/CC :
SP.MV :
AC.US/MT :
GR.API :
CALI.CM :
RXO.OHMM :
RI. :
RML.OHMM :
~A
# ...
  233.0000     2.3270   -13.4060   356.3250    74.0150    24.6500    28.5010    25.2840    26.7130 
  233.1250     2.3240   -13.3150   369.6610    73.8360    24.6950    23.8910    23.6830    24.9740 
  233.2500     2.3250   -13.2550   383.8720    72.9300    24.6050    20.8510    22.1990    23.4650 
  233.3750     2.3300   -13.2070   390.3010    72.0730    24.4630    20.4000    21.1950    22.5680 
  233.5000     2.3310   -13.1430   389.6810    71.0170    24.4010    20.7420    20.8740    22.4670 
  233.6250     2.3250   -13.0410   386.6930    69.7940    24.4930    22.4260    21.3980    23.2790 
  233.7500     2.3210   -12.9080   381.6700    67.9470    24.6790    24.8670    22.5180    24.6630 
  233.8750     2.3220   -12.7530   372.9980    65.5790    24.8780    27.1700    23.9610    26.2700 
  234.0000     2.3330   -12.5890   359.4000    64.5400    24.9890    29.8610    25.3260    27.6330 
  234.1250     2.3580   -12.4360   340.7740    66.7730    24.9670    29.6560    26.0210    28.1080 
  234.2500     2.3870   -12.3110   323.5150    69.0210    24.9140    27.2900    25.8400    27.5710 
  234.3750     2.4000   -12.2420   318.0700    67.9080    24.8940    26.1740    24.8060    26.1340 
  234.5000     2.3820   -12.2430   333.0550    65.7480    24.9050    25.1710    23.1340    24.1080 
  234.6250     2.3390   -12.3100   362.5280    66.2570    24.9370    22.7660    21.1520    21.9140 
  234.7500     2.2990   -12.4000   386.4250    67.6810    24.9830    20.1000    19.2960    19.9930 
  234.8750     2.2770   -12.4740   396.6930    68.6830    25.0260    18.7620    17.8300    18.6040 
  235.0000     2.2740   -12.5020   396.3730    69.3210    25.0340    17.2550    16.9140    17.8900 
  235.1250     2.2800   -12.4840   392.9160    69.1680    24.9910    15.8380    16.7300    18.0130 
  235.2500     2.2830   -12.4540   390.2730    68.1730    24.9410    17.5460    17.1580    18.7850 
  235.3750     2.2770   -12.4400   390.2890    66.4010    24.9130    21.7830    18.1110    20.0660 
  235.5000     2.2690   -12.4560   393.4620    64.4150    24.9090    26.0680    19.4600    21.6740 
  235.6250     2.2680   -12.5080   397.7870    63.4870    24.9110    26.1680    21.0600    23.4220 
  235.7500     2.2720   -12.5750   401.1590    65.5870    24.9110    25.9670    22.6940    25.1290 
  235.8750     2.2720   -12.6300   403.4240    68.5210    24.9110    27.2240    24.2640    26.7360 
  236.0000     2.2610   -12.6390   404.8180    69.5020    24.9110    30.9700    25.7400    28.2270 
  236.1250     2.2420   -12.5540   405.4070    68.9570    24.9110    32.8800    26.9760    29.4040 
  236.2500     2.2290   -12.3760   405.5060    67.9630    24.9070    33.3440    27.6800    29.9090 
  236.3750     2.2270   -12.1330   404.8080    66.0950    24.8970    32.9920    27.4630    29.3230 
  236.5000     2.2390   -11.8770   402.6430    64.1510    24.8880    32.3800    26.0930    27.4540 
  236.6250     2.2570   -11.6770   398.1710    64.8320    24.7560    29.1730    23.5900    24.4580 
  236.7500     2.2750   -11.5600   393.4610    67.8000    24.4380    23.7020    20.6890    21.6460 
  236.8750     2.2930   -11.5190   390.1950    71.1460    24.1740    19.0880    17.9300    19.0500 
  237.0000     2.3110   -11.5220   388.4400    73.6170    24.2630    16.3770    15.6590    16.6490 
  237.1250     2.3270   -11.5200   384.4670    76.6560    24.6210    14.1320    14.1410    15.2560 
  237.2500     2.3420   -11.4800   374.1120    81.0180    24.8260    12.9410    13.2700    14.6370 
  237.3750     2.3650   -11.3990   355.5860    84.4170    24.8180    13.0100    12.9110    14.5510 
  237.5000     2.4050   -11.3030   330.0700    85.1230    24.7690    13.3560    12.8390    14.6740 
  237.6250     2.4530   -11.2370   310.2700    84.2370    24.7090    14.3830    12.7980    14.6760 
  237.7500     2.4800   -11.2320   310.3250    83.7290    24.6190    16.2130    12.6580    14.4820 
  237.8750     2.4610   -11.2960   331.9010    83.8030    24.5530    16.4310    12.4740    14.2440 
  238.0000     2.4010   -11.4020   363.2180    84.9810    24.5400    14.1420    12.4050    14.2400 
  238.1250     2.3310   -11.4930   386.8650    84.9760    24.4580    12.8340    12.7330    14.8710 
  238.2500     2.2830   -11.5190   398.8440    81.1980    24.2100    15.3660    13.5920    16.2430 
  238.3750     2.2610   -11.4710   403.1960    75.7760    23.9140    18.6130    15.1150    18.4450 
  238.5000     2.2530   -11.3800   405.0350    72.0150    23.7350    20.8540    17.4050    21.5140 
  238.6250     2.2540   -11.3060   399.6080    70.1930    23.6870    23.8410    20.4860    25.3870 
  238.7500     2.2720   -11.2800   379.6520    69.8860    23.6430    27.1030    23.6940    29.2580 
  238.8750     2.3140   -11.2920   348.4010    71.3040    23.6350    33.0570    26.1010    31.9580 
  239.0000     2.3660   -11.3090   323.8870    72.0100    23.7490    37.1540    26.7560    32.2830 
  239.1250     2.3910   -11.2940   328.1790    69.5590    23.9280    34.3440    25.0280    29.5710 
  239.2500     2.3830   -11.2410   351.4900    67.8360    24.0380    26.3180    22.0370    25.5140 
  239.3750     2.3560   -11.1740   376.3430    70.6540    24.0670    19.9400    18.8370    21.5250 
  239.5000     2.3310   -11.1220   390.3010    74.3960    24.0640    15.9760    16.1480    18.4130 
  239.6250     2.3160   -11.1140   391.3110    74.4810    24.0640    15.1220    14.3740    16.5720 
  239.7500     2.3060   -11.1280   386.2920    75.1010    24.0640    14.7050    13.3810    15.7500 
  239.8750     2.3010   -11.1280   380.8620    79.6550    24.0640    14.3300    13.1240    15.8680 
  240.0000     2.3000   -11.0690   379.6210    84.7260    24.0630    14.0230    13.5800    16.8610 
  240.1250     2.3070   -10.9120   376.7450    84.3260    24.0640    14.9860    14.7830    18.6730 
  240.2500     2.3290   -10.6900   358.6470    81.5840    24.0790    17.4970    16.3310    20.7000 
  240.3750     2.3700   -10.4460   320.5780    78.8970    24.0990    20.7190    17.6490    22.1220 
  240.5000     2.4240   -10.2270   275.7530    75.1900    24.0700    24.7320    17.9790    21.9790 
  240.6250     2.4690   -10.0720   254.7040    68.6650    23.9660    31.7570    16.5990    19.6020 
  240.7500     2.4870    -9.9710   266.5140    60.9840    23.9350    27.6520    14.2000    16.2040 
  240.8750     2.4790    -9.9070   297.6650    55.2710    24.0760    15.4920    11.6260    12.9270 
  241.0000     2.4560    -9.8530   325.3580    53.8610    24.3040     8.0430     9.4820    10.4310 
  241.1250     2.4270    -9.7850   335.8820    57.6320    24.4050     6.9530     8.0860     8.9750 
  241.2500     2.3970    -9.6960   336.9130    62.5130    24.3720     6.7430     7.2750     8.2390 
  241.3750     2.3730    -9.5810   334.0990    64.8150    24.3230     6.9560     6.9200     8.0100 
  241.5000     2.3620    -9.4350   328.7900    64.1930    24.3300     7.3840     6.8680     8.0750 
  241.6250     2.3690    -9.2800   323.4200    64.5780    24.4140     8.1390     6.9750     8.2370 
  241.7500     2.3850    -9.1530   321.6500    67.8500    24.5340     8.7470     7.0850     8.3340 
  241.8750     2.3970    -9.0880   322.8380    69.5220    24.6400     9.4810     7.1190     8.2990 
  242.0000     2.4020    -9.1000   324.9890    67.3840    24.6950     9.6120     7.0410     8.1220 
  242.1250     2.4020    -9.1920   328.3770    65.8510    24.7000     9.3730     6.8620     7.8560 
  242.2500     2.4040    -9.3120   332.8330    66.3700    24.6970     8.5870     6.6620     7.6090 
  242.3750     2.4070    -9.4120   336.1730    66.5120    24.6970     7.7300     6.4940     7.4470 
  242.5000     2.4080    -9.4580   336.8130    65.6470    24.6990     7.0610     6.3870     7.3920 
  242.6250     2.4030    -9.4370   337.0910    66.4280    24.7010     6.7340     6.3550     7.4470 
  242.7500     2.3990    -9.3970   339.0510    67.4980    24.7010     6.9430     6.3700     7.5600 
  242.8750     2.3970    -9.3810   341.2810    66.9090    24.6980     7.2650     6.4150     7.7000 
