~V
VERS. 2.00: Ver 2.00
~W
STRT.M 59.0000:
STOP.M 281.0000:
STEP.M 0.1250:
NULL. -999.2500:
UWI. DF3005:
~C
DEPT.M :
DEN.GM/CC :
SP.MV :
AC.US/MT :
GR.API :
CALI.CM :
RXO.OHMM :
RI. :
RML.OHMM :
~A
# ...
  159.0000     2.4770   -15.1360   292.2330    74.4710    26.3280    15.5210    14.6310    15.9510 
  159.1250     2.4800   -15.0550   293.2910    76.2620    26.3560    16.5120    14.7790    16.1100 
  159.2500     2.4840   -14.9730   294.9890    74.6840    26.3860    17.2630    14.8280    16.1700 
  159.3750     2.4920   -14.9000   295.4650    72.9160    26.4160    16.7480    14.8050    16.1560 
  159.5000     2.4980   -14.8270   293.9990    71.5910    26.4530    16.2620    14.7610    16.1390 
  159.6250     2.4920   -14.7340   292.0140    70.8710    26.4990    15.7480    14.7440    16.2110 
  159.7500     2.4810   -14.6230   291.3310    70.3840    26.5480    15.3510    14.7640    16.3790 
  159.8750     2.4750   -14.4890   291.6260    70.1710    26.6090    15.1300    14.8280    16.6060 
  160.0000     2.4780   -14.3290   291.2800    70.6940    26.6850    15.6660    14.9390    16.8370 
  160.1250     2.4870   -14.1250   289.5530    71.9980    26.7540    17.1310    15.0980    17.0290 
  160.2500     2.4950   -13.8840   287.3000    73.4140    26.7970    17.3190    15.2670    17.1710 
  160.3750     2.5020   -13.6350   285.5750    74.4780    26.8150    16.7180    15.3910    17.2330 
  160.5000     2.5040   -13.3970   284.6850    74.0350    26.8180    16.5130    15.4040    17.1550 
  160.6250     2.5050   -13.1900   284.3990    70.4470    26.8230    16.2130    15.2150    16.8420 
  160.7500     2.5110   -13.0300   283.5940    66.1840    26.8430    15.0910    14.8450    16.3270 
  160.8750     2.5250   -12.9030   281.5810    64.6910    26.8680    14.0690    14.3450    15.6860 
  161.0000     2.5390   -12.7990   278.8480    65.6300    26.8930    14.1560    13.8030    15.0470 
  161.1250     2.5480   -12.6950   277.0000    65.5990    26.9310    14.6140    13.3330    14.5550 
  161.2500     2.5540   -12.5770   276.3560    64.3730    26.9980    14.7330    12.9730    14.2240 
  161.3750     2.5600   -12.4640   275.8230    63.3340    27.0810    14.1870    12.6970    13.9940 
  161.5000     2.5670   -12.3810   275.0130    62.3860    27.1470    13.9390    12.4390    13.7630 
  161.6250     2.5730   -12.3600   276.1580    61.9420    27.1870    15.9880    12.1220    13.4100 
  161.7500     2.5790   -12.3850   280.9520    62.1880    27.2280    15.4890    11.7390    12.9460 
  161.8750     2.5780   -12.4140   287.6400    61.9240    27.2870    12.9080    11.3360    12.4700 
  162.0000     2.5660   -12.4320   292.3430    59.8540    27.3640    10.9180    10.9890    12.1150 
  162.1250     2.5470   -12.4640   292.2200    56.0600    27.4390    11.7680    10.7910    12.0090 
  162.2500     2.5360   -12.5480   290.3130    53.3560    27.5020    13.6180    10.7460    12.1080 
  162.3750     2.5340   -12.6890   289.7890    52.6300    27.5680    15.7690    10.8290    12.3390 
  162.5000     2.5250   -12.8460   291.4180    53.2520    27.6450    16.1740    10.9840    12.5990 
  162.6250     2.5010   -12.9810   294.1420    52.9510    27.7290    15.1660    11.1250    12.7740 
  162.7500     2.4810   -13.0930   296.6210    51.5110    27.8110    13.9010    11.2050    12.8370 
  162.8750     2.4740   -13.1820   299.0060    50.9620    27.8940    14.4610    11.2330    12.8210 
  163.0000     2.4800   -13.2370   301.3280    52.5350    27.9930    14.3830    11.2480    12.8030 
  163.1250     2.4900   -13.2320   302.2900    55.0120    28.1150    12.8150    11.2910    12.8780 
  163.2500     2.5010   -13.2040   300.7330    55.3100    28.2470    12.5640    11.3730    13.0610 
  163.3750     2.5140   -13.2030   296.7160    54.2070    28.3560    14.0430    11.4760    13.3050 
  163.5000     2.5250   -13.2570   292.1680    53.0850    28.4200    14.8160    11.5580    13.5040 
  163.6250     2.5280   -13.3810   290.6190    52.6410    28.4440    14.3500    11.5580    13.5170 
  163.7500     2.5210   -13.5300   292.9370    53.0280    28.4610    12.9650    11.4680    13.3480 
  163.8750     2.5120   -13.6920   297.3600    55.0720    28.4910    12.7270    11.3180    13.0810 
  164.0000     2.5020   -13.8610   300.5030    57.6760    28.5410    12.7260    11.1730    12.8530 
  164.1250     2.4950   -14.0200   299.5540    56.8010    28.5990    12.9610    11.1180    12.8150 
  164.2500     2.4890   -14.1630   297.0820    54.1500    28.6410    13.5810    11.1570    12.9620 
  164.3750     2.4820   -14.2700   296.7400    53.8600    28.6590    14.8490    11.2390    13.1980 
  164.5000     2.4730   -14.3490   300.0700    56.2760    28.6580    14.2600    11.2680    13.3520 
  164.6250     2.4650   -14.4300   305.9010    58.0790    28.6580    12.4410    11.1310    13.2090 
  164.7500     2.4650   -14.5110   310.7030    57.1040    28.6720    11.0260    10.8470    12.7880 
  164.8750     2.4740   -14.5960   313.1020    54.4670    28.6960    10.3070    10.4900    12.2220 
  165.0000     2.4900   -14.6690   312.6310    51.9320    28.7180     9.5140    10.1690    11.7100 
  165.1250     2.5030   -14.7250   309.2490    50.7700    28.7250     9.3880    10.0130    11.4660 
  165.2500     2.5070   -14.7790   304.6470    51.0490    28.7240    10.0730    10.0310    11.4910 
  165.3750     2.5050   -14.8340   300.5180    51.3980    28.7220    11.4570    10.1760    11.6910 
  165.5000     2.5010   -14.9090   299.1460    51.3010    28.7290    13.9530    10.3490    11.9150 
  165.6250     2.4970   -15.0260   301.9050    52.9350    28.7510    16.2630    10.4320    12.0050 
  165.7500     2.4910   -15.1500   305.5920    54.8460    28.7760    15.8220    10.4090    11.9490 
  165.8750     2.4830   -15.2630   307.2670    54.4610    28.7850    12.8330    10.3330    11.8130 
  166.0000     2.4800   -15.3520   305.5380    51.2790    28.7690    10.8240    10.2790    11.6850 
  166.1250     2.4880   -15.4620   301.3920    50.0320    28.7290    11.0430    10.2900    11.6450 
  166.2500     2.5030   -15.6370   297.3780    52.5500    28.6780    12.4850    10.3350    11.6750 
  166.3750     2.5190   -15.8730   295.2610    55.5200    28.6160    13.0210    10.3700    11.7200 
  166.5000     2.5280   -16.1720   296.1020    56.2250    28.5380    11.5010    10.3540    11.6980 
  166.6250     2.5290   -16.5340   297.6230    53.8760    28.4490     8.6800    10.2650    11.5550 
  166.7500     2.5300   -16.9230   296.7280    52.2230    28.3730     8.1450    10.1470    11.3590 
  166.8750     2.5340   -17.3160   294.0310    53.8780    28.3240     8.1920    10.0430    11.1940 
  167.0000     2.5400   -17.6670   291.9800    56.9070    28.3020     8.1490     9.9880    11.1110 
  167.1250     2.5450   -17.9510   291.8580    57.0520    28.2830     7.9580    10.0250    11.1190 
  167.2500     2.5490   -18.2090   291.5380    54.8340    28.2470     7.9950    10.1460    11.1510 
  167.3750     2.5470   -18.4920   290.2840    54.7790    28.1980     8.2670    10.3210    11.1600 
  167.5000     2.5380   -18.8500   288.9200    57.2640    28.1640     8.3290    10.4870    11.1230 
  167.6250     2.5250   -19.2720   289.4340    57.6290    28.1570     8.1650    10.5550    11.0050 
  167.7500     2.5140   -19.7050   292.7780    55.6430    28.1590     8.1630    10.4940    10.7940 
  167.8750     2.5090   -20.1330   297.6420    54.9810    28.1590     7.9300    10.3170    10.4990 
  168.0000     2.5110   -20.5580   301.5060    57.3500    28.1590     7.5590    10.0850    10.1900 
  168.1250     2.5140   -21.0060   304.0620    59.2100    28.1590     8.3010     9.8760     9.9840 
  168.2500     2.5150   -21.4660   307.9320    57.6750    28.1590     8.4710     9.7270     9.9130 
  168.3750     2.5120   -21.9320   314.1670    54.7030    28.1590     7.9100     9.6270     9.9390 
  168.5000     2.5020   -22.4180   321.6970    54.4260    28.1700     7.3250     9.5340     9.9550 
  168.6250     2.4860   -22.9250   329.8750    58.5920    28.2040     7.0560     9.3630     9.8140 
  168.7500     2.4680   -23.4480   338.9740    62.6520    28.2580     7.2850     9.0840     9.5070 
  168.8750     2.4530   -23.9790   347.3000    63.2040    28.3320     7.5640     8.7480     9.1380 
