~V
VERS. 2.00: Ver 2.00
~W
STRT.M 130.0000:
STOP.M 268.0000:
STEP.M 0.1250:
NULL. -999.2500:
UWI. DF3061:
~C
DEPT.M :
GR.API :
CALI.CM :
RXO.OHMM :
RI. :
RML.OHMM :
DEN.GM/CC :
SP.MV :
~A
# ...
  186.2500    66.3710    24.4150    92.3940   100.2170   126.2740     2.2420   -26.8980 
  186.3750    64.2450    24.0080    74.4890    92.1870   116.1560     2.2680   -26.9120 
  186.5000    62.1550    23.9710    68.7930    85.4410   107.6550     2.2780   -26.9010 
  186.6250    63.2490    24.1320    71.1100    80.3930   101.2950     2.2690   -26.8920 
  186.7500    65.8460    24.0880    73.1760    77.4050    97.5300     2.2580   -26.8710 
  186.8750    69.6340    23.8180    71.7540    76.5140    96.4070     2.2500   -26.8490 
  187.0000    74.5090    23.7780    67.6690    77.1120    97.1610     2.2430   -26.8400 
  187.1250    75.7770    23.8760    67.9950    78.4930    98.9010     2.2420   -26.8430 
  187.2500    72.7170    23.8420    73.9850    79.7870   100.5320     2.2490   -26.8610 
  187.3750    71.1940    23.8300    77.3070    80.3150   101.1970     2.2550   -26.8800 
  187.5000    71.9630    23.9460    79.7620    79.7980   100.5460     2.2500   -26.8950 
  187.6250    70.9800    24.4250    79.1420    77.9070    98.1630     2.2320   -26.8960 
  187.7500    68.4510    25.0750    77.5020    75.2220    94.7800     2.2160   -26.9070 
  187.8750    66.0240    25.3290    74.1830    72.3570    91.1700     2.2100   -26.9220 
  188.0000    65.4830    25.2340    65.6780    70.4690    88.7910     2.2170   -26.9620 
  188.1250    67.6340    25.1250    55.2290    71.2780    89.8100     2.2310   -27.0370 
  188.2500    71.4940    25.0600    47.3530    75.6330    95.2970     2.2420   -27.1360 
  188.3750    72.4720    25.0450    50.6420    83.9880   105.8240     2.2460   -27.2210 
  188.5000    67.4950    25.1940    72.1060    96.1920   121.2020     2.2420   -27.2730 
  188.6250    61.5000    25.1270   110.8660   111.8880   140.9790     2.2320   -27.2760 
  188.7500    59.7950    24.8240   142.3670   129.0600   162.6150     2.2170   -27.2670 
  188.8750    61.6320    24.4210   153.2830   145.5630   183.4100     2.2030   -27.2940 
  189.0000    64.4960    24.0820   154.0390   158.6830   199.9410     2.1940   -27.3580 
  189.1250    66.4060    23.9330   157.2030   165.1340   208.0690     2.1920   -27.4390 
  189.2500    67.2110    23.8860   155.5270   164.0140   206.6580     2.1920   -27.4930 
  189.3750    65.1120    23.8360   148.3800   155.5860   196.0390     2.1930   -27.5000 
  189.5000    61.6670    23.7130   145.6980   141.0210   177.6870     2.1960   -27.4560 
  189.6250    61.2560    23.5810   144.3710   121.8440   153.5240     2.2110   -27.3830 
  189.7500    61.8390    23.4930   136.2010   101.8390   128.3170     2.2450   -27.3280 
  189.8750    61.2850    23.3160   112.3520    83.7650   105.5440     2.2900   -27.2910 
  190.0000    60.7700    23.2930    79.4350    70.0720    88.2900     2.3240   -27.2850 
  190.1250    64.0140    23.3060    47.9180    64.8140    81.6650     2.3150   -27.3110 
  190.2500    70.2990    23.3720    28.7230    67.9640    85.6340     2.2770   -27.3620 
  190.3750    74.5430    23.5420    39.5370    78.9030    99.4170     2.2390   -27.4440 
  190.5000    73.1790    24.3120    84.5300    97.5700   122.9390     2.2230   -27.5600 
  190.6250    66.0780    24.9540   133.9470   125.6080   158.2660     2.2230   -27.7350 
  190.7500    59.9750    25.3090   149.8300   161.1360   203.0310     2.2160   -27.9530 
  190.8750    57.8220    25.4330   153.5950   200.7440   252.9370     2.1940   -28.2080 
  191.0000    57.2000    25.5000   165.6550   237.9400   299.8050     2.1660   -28.4870 
  191.1250    55.6110    25.5830   193.1340   260.7830   328.5870     2.1480   -28.7550 
  191.2500    55.1710    25.6360   226.6790   271.0690   341.5460     2.1460   -28.9720 
  191.3750    57.5100    25.6380   258.4190   277.8320   350.0690     2.1540   -29.1060 
  191.5000    60.6630    25.5970   281.0860   283.2560   356.9020     2.1630   -29.1820 
  191.6250    59.7310    25.5630   283.4930   280.3570   353.2490     2.1630   -29.2450 
  191.7500    56.1170    25.4310   282.1240   266.8020   336.1700     2.1570   -29.3290 
  191.8750    53.1370    25.3280   276.4170   242.8160   305.9490     2.1490   -29.4220 
  192.0000    52.8630    25.3170   260.6300   211.5690   266.5770     2.1480   -29.4630 
  192.1250    55.9630    25.3190   229.7030   178.0040   224.2850     2.1660   -29.4420 
  192.2500    60.4470    25.3070   185.7530   147.1070   185.3550     2.2030   -29.4050 
  192.3750    63.2480    25.1970   137.6020   121.3530   152.9050     2.2450   -29.3820 
  192.5000    64.3710    24.7320    99.1970   101.8520   128.3330     2.2760   -29.3470 
  192.6250    66.7330    24.2650    76.8650    89.3670   112.6030     2.2800   -29.2830 
  192.7500    68.2890    24.2260    68.5030    81.7110   102.9560     2.2700   -29.2010 
  192.8750    66.1310    24.5550    66.5200    77.6420    97.8290     2.2610   -29.1230 
  193.0000    61.6340    24.7770    69.5960    75.9300    95.6720     2.2620   -29.0660 
  193.1250    60.6520    25.1820    73.7600    75.6570    95.3280     2.2640   -29.0240 
  193.2500    63.1000    25.2910    75.4840    75.9240    95.6650     2.2540   -28.9840 
  193.3750    66.4280    25.3870    72.0140    76.1950    96.0060     2.2370   -28.9540 
  193.5000    69.7270    25.1040    64.8040    76.1520    95.9520     2.2210   -28.9630 
  193.6250    72.7870    25.0040    60.5540    75.8810    95.6100     2.2170   -28.9830 
  193.7500    73.3500    24.9070    59.4900    75.6120    95.2710     2.2270   -29.0240 
  193.8750    70.6930    24.5030    58.0980    75.5700    95.2190     2.2480   -29.0600 
  194.0000    68.0650    24.1330    55.0540    75.8820    95.6110     2.2690   -29.1150 
  194.1250    69.9720    24.0530    54.8740    76.5620    96.4680     2.2700   -29.1370 
  194.2500    73.2010    23.9130    55.5400    77.4860    97.6320     2.2540   -29.1580 
  194.3750    74.6500    23.9870    55.4100    78.9000    99.4140     2.2340   -29.1700 
  194.5000    73.9830    24.0830    55.8680    80.9460   101.9920     2.2190   -29.2800 
  194.6250    73.9480    24.1100    61.1770    83.5730   105.3020     2.2070   -29.5320 
  194.7500    74.4300    24.1110    64.1410    86.9160   109.5140     2.1980   -29.7710 
  194.8750    73.0590    24.1100    62.2540    90.9640   114.6150     2.2000   -29.9510 
  195.0000    69.0390    24.1330    66.2740    95.3700   120.1660     2.2170   -30.0120 
  195.1250    62.8710    24.2320    80.9810   100.1120   126.1410     2.2300   -30.0230 
  195.2500    58.8910    24.4640    90.0550   105.3010   132.6790     2.2160   -30.0210 
  195.3750    59.6520    24.7120    85.5580   110.9380   139.7820     2.1840   -30.0840 
  195.5000    64.6220    24.8870    81.2440   116.4730   146.7560     2.1600   -30.1580 
  195.6250    68.9180    24.8120    91.4410   120.8790   152.3080     2.1610   -30.1970 
  195.7500    67.9470    24.8230   111.5190   122.8400   154.7780     2.1650   -30.2290 
  195.8750    63.6230    25.1550   129.4240   121.5450   153.1470     2.1620   -30.2650 
  196.0000    61.6560    25.4360   135.4690   117.2470   147.7310     2.1620   -30.3350 
  196.1250    63.6880    25.4640   121.3660   110.2590   138.9270     2.1740   -30.4150 
  196.2500    66.0610    25.4130   103.3820   102.1390   128.6950     2.1900   -30.4540 
  196.3750    68.3190    25.3940    87.4870    94.1040   118.5710     2.1980   -30.4210 
  196.5000    70.0560    25.3410    76.5010    87.2340   109.9150     2.1980   -30.2990 
  196.6250    70.5200    25.3720    72.2520    82.3480   103.7580     2.1980   -30.1160 
  196.7500    71.2140    25.3740    70.8320    79.1190    99.6900     2.2010   -29.9480 
  196.8750    72.0090    25.3590    68.6420    77.2250    97.3030     2.2060   -29.8310 
  197.0000    70.6530    25.2930    69.3800    76.2730    96.1040     2.2060   -29.7920 
  197.1250    67.8310    25.1390    71.3070    76.4790    96.3640     2.1970   -29.8630 
  197.2500    68.0750    25.1950    67.5090    78.0460    98.3370     2.1850   -29.9780 
  197.3750    69.5250    25.2010    62.0010    81.3320   102.4780     2.1830   -30.1030 
