~V
VERS. 2.00: Ver 2.00
~W
STRT.M 62.0000:
STOP.M 265.0000:
STEP.M 0.1250:
NULL. -999.2500:
UWI. DF3071:
~C
DEPT.M :
GR.API :
CALI.CM :
RXO.OHMM :
RI. :
RML.OHMM :
DEN.GM/CC :
SP.MV :
~A
# ...
   95.7500    85.6090    23.6890     6.0900     4.9990     6.1640  -999.2500    -9.8370 
   95.8750    85.1260    23.7830     5.8940     4.9420     6.2080  -999.2500    -9.9040 
   96.0000    87.6140    23.8510     5.8980     4.8970     6.2170  -999.2500   -10.0920 
   96.1250    87.1000    23.8520     6.1500     4.7840     6.0680  -999.2500   -10.3430 
   96.2500    80.8960    23.7690     6.4170     4.5990     5.7960  -999.2500   -10.5510 
   96.3750    76.3850    23.6480     6.4900     4.4250     5.5620  -999.2500   -10.8150 
   96.5000    79.3870    23.5770     6.3200     4.4270     5.6280  -999.2500   -11.1590 
   96.6250    86.1710    23.5930     6.3680     4.8870     6.4280  -999.2500   -11.5530 
   96.7500    89.8050    23.6140     7.2610     5.9510     8.1000  -999.2500   -11.9640 
   96.8750    88.2420    23.6070     9.8540     7.7540    10.6090  -999.2500   -12.3750 
   97.0000    81.0900    23.5890    15.1730    10.2180    13.4520  -999.2500   -12.8500 
   97.1250    72.2330    23.6030    22.8250    12.4730    15.3590  -999.2500   -13.4450 
   97.2500    67.8010    23.6780    25.7250    13.2410    15.5350  -999.2500   -14.1650 
   97.3750    67.5470    23.7810    21.1920    12.3390    14.1180  -999.2500   -14.9050 
   97.5000    67.0300    23.8100    14.1060    10.6780    12.0180  -999.2500   -15.6010 
   97.6250    66.5000    23.6980    10.5800     9.2330    10.3420  -999.2500   -16.2380 
   97.7500    68.3900    23.5900     9.6530     8.3090     9.4320  -999.2500   -16.7880 
   97.8750    69.8760    23.5930     9.5810     7.8830     9.1690  -999.2500   -17.2530 
   98.0000    68.8800    23.6740     9.6710     7.8200     9.2870  -999.2500   -17.6070 
   98.1250    66.9930    23.7260     9.6780     7.9330     9.5130  -999.2500   -17.8700 
   98.2500    66.2800    23.7020     9.5890     8.0280     9.6550  -999.2500   -18.0570 
   98.3750    65.9570    23.6200     9.4360     8.0430     9.6710  -999.2500   -18.1520 
   98.5000    66.3840    23.5230     9.2640     7.9870     9.5910  -999.2500   -18.1770 
   98.6250    65.8000    23.4510     9.0580     7.8880     9.4680  -999.2500   -18.1620 
   98.7500    63.4830    23.3760     8.8530     7.7810     9.3490  -999.2500   -18.0970 
   98.8750    63.1900    23.2520     8.7230     7.6780     9.2550  -999.2500   -18.0010 
   99.0000    66.8450    23.1010     8.6830     7.5860     9.1960  -999.2500   -17.8890 
   99.1250    69.2160    22.9860     8.6630     7.5100     9.1820  -999.2500   -17.7110 
   99.2500    68.0410    22.9090     8.6290     7.4470     9.1950  -999.2500   -17.5060 
   99.3750    67.8560    22.8280     8.6030     7.3910     9.2070  -999.2500   -17.2920 
   99.5000    72.0460    22.7300     8.5700     7.3270     9.1830  -999.2500   -17.0900 
   99.6250    75.0770    22.6580     8.5200     7.2310     9.0790  -999.2500   -16.8610 
   99.7500    75.5540    22.6510     8.4720     7.1110     8.9190  -999.2500   -16.6910 
   99.8750    76.3510    22.7560     8.4380     7.0010     8.7690  -999.2500   -16.5120 
  100.0000    77.3310    22.9760     8.4270     6.9670     8.7320  -999.2500   -16.3520 
  100.1250    76.3510    23.2180     8.3900     7.1170     8.9560  -999.2500   -16.2480 
  100.2500    75.7670    23.3650     8.2940     7.4750     9.4450  -999.2500   -16.1610 
  100.3750    76.4070    23.3890     8.2610     8.0180    10.1330  -999.2500   -16.0590 
  100.5000    74.2550    23.3420     8.3800     8.6470    10.8540  -999.2500   -15.9360 
  100.6250    68.9400    23.2560     8.5160     9.1270    11.3000  -999.2500   -15.7570 
  100.7500    66.7750    23.1200     8.5080     9.2510    11.3010  -999.2500   -15.4800 
  100.8750    70.4860    22.9530     8.4010     8.9500    10.8350  -999.2500   -15.1380 
  101.0000    75.2550    22.8080     8.2600     8.3180    10.0310  -999.2500   -14.6680 
  101.1250    77.7130    22.7490     8.0330     7.5230     9.0920  -999.2500   -14.0420 
  101.2500    79.4850    22.7460     7.6680     6.7420     8.2100  -999.2500   -13.3160 
  101.3750    82.6270    22.7710     7.2020     6.0550     7.4650  -999.2500   -12.5190 
  101.5000    86.0150    22.8240     6.6860     5.5020     6.8860  -999.2500   -11.6890 
  101.6250    87.4150    22.9000     6.2030     5.1280     6.5230  -999.2500   -10.8720 
  101.7500    87.5430    22.9770     5.8200     4.9160     6.3460  -999.2500   -10.0920 
  101.8750    87.7430    23.0710     5.7240     4.8560     6.3340  -999.2500    -9.3770 
  102.0000    90.5940    23.2800     5.8850     4.9160     6.4350  -999.2500    -8.7830 
  102.1250    96.6050    23.7670     5.9800     5.0470     6.5720  -999.2500    -8.3540 
  102.2500   100.6210    24.3900     5.9320     5.1810     6.6720  -999.2500    -8.0650 
  102.3750    99.1190    24.8870     5.9020     5.2810     6.7100  -999.2500    -7.9380 
  102.5000    94.7070    25.0690     5.9620     5.3380     6.7020  -999.2500    -7.9250 
  102.6250    93.7220    24.9540     6.0390     5.3640     6.6870  -999.2500    -8.0030 
  102.7500    93.4990    24.7530     6.0610     5.3860     6.6920  -999.2500    -8.1660 
  102.8750    92.2790    24.5300     6.0370     5.4020     6.7110  -999.2500    -8.4240 
  103.0000    91.9390    24.3170     6.0380     5.3960     6.7240  -999.2500    -8.7100 
  103.1250    93.2880    24.1550     6.0760     5.3580     6.7100  -999.2500    -9.0480 
  103.2500    94.1330    24.0930     6.1040     5.3040     6.6770  -999.2500    -9.4710 
  103.3750    95.8420    24.1550     6.0430     5.2470     6.6280  -999.2500   -10.0050 
  103.5000    98.2180    24.3020     5.9060     5.1890     6.5620  -999.2500   -10.6090 
  103.6250    96.9020    24.4470     5.8720     5.1170     6.4680  -999.2500   -11.2960 
  103.7500    94.0440    24.5040     6.0230     5.0380     6.3700  -999.2500   -12.0010 
  103.8750    93.8600    24.4620     6.1910     4.9870     6.3220  -999.2500   -12.7000 
  104.0000    95.8320    24.3830     6.0710     5.0210     6.4010  -999.2500   -13.4800 
  104.1250    96.4340    24.3570     5.7130     5.2280     6.7180  -999.2500   -14.3260 
  104.2500    95.4690    24.3820     5.6790     5.6160     7.2520  -999.2500   -15.1750 
  104.3750    92.3030    24.3520     6.3140     6.1550     7.9250  -999.2500   -15.9430 
  104.5000    85.2860    24.1880     7.3790     6.7430     8.5640  -999.2500   -16.6680 
  104.6250    77.4980    23.8960     8.0910     7.1470     8.8860  -999.2500   -17.2750 
  104.7500    72.9120    23.5660     8.1620     7.2170     8.7970  -999.2500   -17.8080 
  104.8750    72.6310    23.2750     7.8530     6.9580     8.3630  -999.2500   -18.2560 
  105.0000    75.4210    23.1060     7.4300     6.5210     7.7840  -999.2500   -18.6610 
  105.1250    78.3970    23.1580     7.0360     6.1240     7.3330  -999.2500   -18.9990 
  105.2500    81.4190    23.3910     6.9450     5.8960     7.1410  -999.2500   -19.2980 
  105.3750    84.2460    23.7160     7.2620     5.8650     7.2180  -999.2500   -19.5920 
  105.5000    83.4430    23.9960     7.6360     6.0060     7.4980  -999.2500   -19.8350 
  105.6250    77.9650    24.0140     7.5680     6.2640     7.8700  -999.2500   -20.1180 
  105.7500    70.6530    23.7520     7.2600     6.5330     8.2030  -999.2500   -20.4150 
  105.8750    65.2760    23.3530     6.9820     6.7430     8.4270  -999.2500   -20.7670 
  106.0000    63.8500    23.0310     6.8710     6.8580     8.5230  -999.2500   -21.0630 
  106.1250    66.5630    23.0440     6.9670     6.8780     8.5070  -999.2500   -21.2790 
  106.2500    68.3520    23.4280     7.1150     6.8520     8.4490  -999.2500   -21.4220 
  106.3750    66.5200    23.8900     7.1110     6.8080     8.3840  -999.2500   -21.5040 
  106.5000    64.8720    23.8180     6.9520     6.7590     8.3300  -999.2500   -21.5660 
  106.6250    66.2180    22.8460     6.8790     6.7150     8.2940  -999.2500   -21.6030 
  106.7500    67.8080    21.7570     6.9900     6.6770     8.2750  -999.2500   -21.5990 
  106.8750    69.8870    21.2890     7.1280     6.6510     8.2800  -999.2500   -21.5310 
