~V
VERS. 2.00: Ver 2.00
~W
STRT.M 60.0000:
STOP.M 258.0000:
STEP.M 0.1250:
NULL. -999.2500:
UWI. DF3032:
~C
DEPT.M :
GR.API :
RML.OHMM :
RI. :
RXO.OHMM :
CALI.CM :
DEN.GM/CC :
SP.MV :
~A
# ...
   93.7500   100.8980     8.4080     6.9970     6.7790    24.7970  -999.2500   -16.8400 
   93.8750   102.9430     8.4350     6.9750     6.7320    24.7960  -999.2500   -16.6630 
   94.0000   103.0120     8.4330     6.9610     6.6930    24.7830  -999.2500   -16.5040 
   94.1250    98.8840     8.3100     6.8770     6.6580    24.7680  -999.2500   -16.4320 
   94.2500    93.9600     8.0740     6.7160     6.5690    24.7800  -999.2500   -16.6230 
   94.3750    92.6710     7.7760     6.5100     6.4710    24.8210  -999.2500   -16.8690 
   94.5000    93.3190     7.5230     6.3350     6.4280    24.8970  -999.2500   -17.0590 
   94.6250    93.8250     7.5150     6.3400     6.3640    24.9580  -999.2500   -17.4770 
   94.7500    94.0630     7.8440     6.6090     6.4940    24.9760  -999.2500   -18.0690 
   94.8750    93.6070     8.5230     7.1750     6.9710    24.9380  -999.2500   -18.6520 
   95.0000    89.8590     9.4440     7.9840     7.8760    24.7940  -999.2500   -19.4030 
   95.1250    82.1740    10.3720     8.8680     9.4550    24.4520  -999.2500   -20.4240 
   95.2500    75.2660    11.0400     9.5760    11.0630    23.9350  -999.2500   -21.3380 
   95.3750    73.6140    11.2970     9.9320    11.4320    23.4630  -999.2500   -22.1150 
   95.5000    77.0960    11.1220     9.8730    10.3310    23.2570  -999.2500   -22.8820 
   95.6250    81.3270    10.6000     9.4440     9.5950    23.3340  -999.2500   -23.5230 
   95.7500    83.9650     9.9890     8.8860     9.3740    23.5280  -999.2500   -23.8980 
   95.8750    87.3540     9.4580     8.3630     9.1930    23.7700  -999.2500   -24.0680 
   96.0000    90.0530     9.1200     7.9780     8.6930    24.0660  -999.2500   -24.0720 
   96.1250    88.9460     9.0420     7.7920     8.1050    24.2530  -999.2500   -24.0020 
   96.2500    86.7220     9.1270     7.7390     8.0110    24.2470  -999.2500   -24.0140 
   96.3750    86.2720     9.2730     7.7550     8.1390    24.1000  -999.2500   -24.0630 
   96.5000    86.8330     9.3710     7.7720     8.2430    23.9250  -999.2500   -24.1330 
   96.6250    85.6300     9.3360     7.7400     8.3760    23.8320  -999.2500   -24.3100 
   96.7500    84.8760     9.2260     7.6860     8.6330    23.7620  -999.2500   -24.5330 
   96.8750    85.2840     9.1990     7.7070     9.0480    23.6630  -999.2500   -24.8290 
   97.0000    84.4710     9.5060     7.9730     9.8420    23.5290  -999.2500   -25.2070 
   97.1250    79.0460    10.6110     8.8420    11.4650    23.4200  -999.2500   -25.3600 
   97.2500    71.9580    12.6730    10.5030    13.9540    23.3730  -999.2500   -25.2750 
   97.3750    68.4430    15.7040    13.0650    17.6230    23.4450  -999.2500   -25.2350 
   97.5000    66.7850    19.3640    16.3510    23.0600    23.6260  -999.2500   -25.2930 
   97.6250    63.6560    22.7370    19.6670    30.0330    23.8450  -999.2500   -25.2320 
   97.7500    62.5920    24.7580    21.9580    35.3400    24.0430  -999.2500   -25.3170 
   97.8750    63.9280    24.7300    22.4260    35.3980    24.1830  -999.2500   -25.6680 
   98.0000    64.2020    22.6420    20.8770    31.8780    24.1630  -999.2500   -26.0620 
   98.1250    63.5620    19.2100    17.8520    25.5320    23.8790  -999.2500   -26.6020 
   98.2500    66.3690    15.8390    14.6960    18.2100    23.5180  -999.2500   -27.4690 
   98.3750    69.9960    13.2210    12.0800    13.2140    23.3020  -999.2500   -28.4360 
   98.5000    70.2320    11.5600    10.2380    11.3090    23.2860  -999.2500   -29.2850 
   98.6250    70.0580    10.8310     9.2230    10.9760    23.3310  -999.2500   -30.2000 
   98.7500    71.7120    10.6140     8.7370    11.0020    23.3130  -999.2500   -31.1190 
   98.8750    72.7410    10.6720     8.6140    10.9860    23.2540  -999.2500   -31.8360 
   99.0000    70.9690    10.8300     8.7070    10.9580    23.2260  -999.2500   -32.4160 
   99.1250    68.4020    10.9890     8.9050    10.9300    23.2270  -999.2500   -32.9480 
   99.2500    68.4990    11.1320     9.1270    10.9570    23.2290  -999.2500   -33.4290 
   99.3750    71.7920    11.2750     9.3490    11.0210    23.2270  -999.2500   -33.8910 
   99.5000    76.3600    11.4200     9.5540    11.0440    23.2220  -999.2500   -34.3380 
   99.6250    78.0590    11.5220     9.6920    10.9170    23.2010  -999.2500   -34.6680 
   99.7500    77.4640    11.5160     9.7130    10.7450    23.1500  -999.2500   -34.9150 
   99.8750    78.6130    11.3520     9.5740    10.6440    23.0730  -999.2500   -35.0390 
  100.0000    83.3360    11.0210     9.2720    10.6510    23.0560  -999.2500   -35.0040 
  100.1250    87.0950    10.5740     8.8440    10.5990    23.1830  -999.2500   -34.8540 
  100.2500    86.2280    10.1480     8.4120    10.3420    23.3640  -999.2500   -34.4850 
  100.3750    83.0270     9.8460     8.0650     9.7760    23.4650  -999.2500   -33.8090 
  100.5000    81.6630     9.7270     7.8600     9.4390    23.4670  -999.2500   -33.0140 
  100.6250    82.3620     9.8170     7.8350     9.8180    23.4110  -999.2500   -32.2020 
  100.7500    82.3900    10.0310     7.9380    10.2030    23.3650  -999.2500   -31.2190 
  100.8750    80.7720    10.2950     8.1210    10.4140    23.3460  -999.2500   -30.3150 
  101.0000    76.8620    10.5440     8.3370    10.3590    23.3290  -999.2500   -29.7000 
  101.1250    73.0070    10.7210     8.5410    10.2930    23.2700  -999.2500   -29.1300 
  101.2500    71.5580    10.8230     8.7140    10.4980    23.1690  -999.2500   -28.5740 
  101.3750    71.6640    10.8640     8.8510    10.8020    23.0600  -999.2500   -28.2780 
  101.5000    73.1260    10.8650     8.9590    11.0360    22.9810  -999.2500   -28.1980 
  101.6250    74.7560    10.8580     9.0450    11.1220    22.9390  -999.2500   -28.0880 
  101.7500    73.2910    10.8710     9.1220    11.1180    22.9160  -999.2500   -28.0940 
  101.8750    70.3680    10.9150     9.1950    11.0410    22.9460  -999.2500   -28.1920 
  102.0000    70.4950    10.9830     9.2690    11.0030    23.0510  -999.2500   -28.1680 
  102.1250    73.3440    11.0550     9.3390    11.3230    23.2060  -999.2500   -27.9980 
  102.2500    72.0290    11.1000     9.3990    11.6310    23.3030  -999.2500   -27.7620 
  102.3750    69.3720    11.1050     9.4420    11.7270    23.2310  -999.2500   -27.4110 
  102.5000    70.5630    11.0830     9.4710    11.5180    22.9630  -999.2500   -26.9590 
  102.6250    73.9680    11.0800     9.5100    11.2060    22.5990  -999.2500   -26.4160 
  102.7500    74.9850    11.1410     9.5830    10.9270    22.6480  -999.2500   -25.6680 
  102.8750    74.9040    11.2650     9.6880    10.7590    22.8090  -999.2500   -24.7510 
  103.0000    75.4890    11.3860     9.7710    10.6600    22.8870  -999.2500   -23.7430 
  103.1250    76.2690    11.3290     9.6980    10.4590    22.8870  -999.2500   -22.5810 
  103.2500    77.3620    10.9750     9.3730    10.1820    22.8890  -999.2500   -21.3530 
  103.3750    79.2150    10.2860     8.7640     9.6660    22.9010  -999.2500   -20.0930 
  103.5000    82.9010     9.3420     7.9300     8.6680    22.9720  -999.2500   -18.6950 
  103.6250    87.4420     8.3340     7.0210     7.1990    23.2620  -999.2500   -17.3840 
  103.7500    92.7410     7.4730     6.2170     6.1250    23.8440  -999.2500   -16.4060 
  103.8750    96.7390     6.8660     5.6140     5.2920    24.5580  -999.2500   -15.5650 
  104.0000    96.8030     6.5420     5.2520     4.9760    25.1080  -999.2500   -14.8500 
  104.1250    95.3550     6.5230     5.1810     4.9510    25.2580  -999.2500   -14.6800 
  104.2500    94.8350     6.7440     5.3500     5.2490    25.2330  -999.2500   -14.9080 
  104.3750    95.0800     7.1890     5.7470     5.7340    25.1070  -999.2500   -15.3410 
  104.5000    92.4130     7.8330     6.3410     6.4430    24.8800  -999.2500   -16.1440 
  104.6250    87.0110     8.6210     7.0860     7.6120    24.5730  -999.2500   -17.3200 
  104.7500    82.8720     9.3930     7.8390     9.4700    24.1410  -999.2500   -18.4420 
  104.8750    79.1180     9.9930     8.4660    11.6910    23.6660  -999.2500   -19.5910 
