~V
VERS. 2.00: Ver 2.00
~W
STRT.M 65.0000:
STOP.M 273.0000:
STEP.M 0.1250:
NULL. -999.2500:
UWI. DF3011:
~C
DEPT.M :
DEN.GM/CC :
GR.API :
RML.OHMM :
RI. :
RXO.OHMM :
CALI.CM :
AC.US/MT :
SP.MV :
~A
# ...
  255.0000     2.4370    74.7570    17.0440    15.2010    19.1280    25.3370   221.5940    -6.5310 
  255.1250     2.4540    72.9080    16.8770    15.2430    19.4190    25.3510   221.8150    -6.5640 
  255.2500     2.4730    72.6140    16.4630    15.0640    19.2880    25.3510   224.6650    -6.5950 
  255.3750     2.4890    71.9620    15.9240    14.7340    19.4390    25.3490   227.6570    -6.5570 
  255.5000     2.4980    70.8920    15.4090    14.3500    18.8610    25.3500   228.0300    -6.4700 
  255.6250     2.5000    71.3030    15.0560    14.0170    17.8170    25.3510   225.3480    -6.4510 
  255.7500     2.4960    69.9080    14.8600    13.7710    16.4930    25.3520   222.8190    -6.4850 
  255.8750     2.4930    66.5920    14.7790    13.6080    15.3600    25.3520   225.0320    -6.4590 
  256.0000     2.4910    64.8690    14.7690    13.5090    14.7040    25.3520   232.3540    -6.2930 
  256.1250     2.4900    64.8290    14.8390    13.4690    14.4870    25.3520   238.1790    -6.0620 
  256.2500     2.4890    63.0750    15.0030    13.4850    14.6200    25.3520   239.6730    -5.8960 
  256.3750     2.4900    63.0910    15.2730    13.5700    14.9300    25.3520   238.7600    -5.8530 
  256.5000     2.4930    66.5570    15.6230    13.7410    15.4020    25.3520   237.5650    -5.8530 
  256.6250     2.4990    67.2760    15.9880    14.0220    16.2100    25.3520   235.8390    -5.8030 
  256.7500     2.5050    64.2920    16.3210    14.3810    17.0210    25.3520   234.3090    -5.7830 
  256.8750     2.5100    62.6210    16.6270    14.7870    17.6150    25.3530   233.3710    -5.8410 
  257.0000     2.5130    63.6750    16.9200    15.1970    17.7740    25.3550   233.0030    -5.9810 
  257.1250     2.5140    63.5230    17.1540    15.5490    17.7830    25.3590   232.8750    -6.1160 
  257.2500     2.5160    64.4320    17.2610    15.8020    18.2670    25.3590   232.7680    -6.1680 
  257.3750     2.5170    69.4820    17.1920    15.9210    18.6900    25.3530   232.5600    -6.1370 
  257.5000     2.5180    75.1880    16.9720    15.8850    18.5480    25.3420   232.2780    -6.1280 
  257.6250     2.5180    75.6440    16.6790    15.6650    17.7250    25.3260   232.1920    -6.1550 
  257.7500     2.5160    74.4950    16.3930    15.3170    16.5400    25.3190   232.5850    -6.1000 
  257.8750     2.5160    75.2020    16.1130    14.9050    15.5480    25.3160   233.4540    -5.9490 
  258.0000     2.5180    75.9850    15.8250    14.5260    14.5570    25.3240   234.6750    -5.7860 
  258.1250     2.5220    74.3900    15.6190    14.3450    13.9120    25.2940   236.1850    -5.7140 
  258.2500     2.5240    71.3660    15.6800    14.4760    13.3460    25.2130   237.9890    -5.7010 
  258.3750     2.5160    67.9050    16.1930    15.0060    12.8850    25.0900   239.7970    -5.6820 
  258.5000     2.4940    65.6290    17.2210    15.9390    12.7530    25.0030   240.5930    -5.6090 
  258.6250     2.4640    67.8630    18.6250    17.1650    12.9160    25.0540   239.1030    -5.4960 
  258.7500     2.4430    72.7400    19.9170    18.3390    13.1690    25.2030   234.2070    -5.4570 
  258.8750     2.4390    76.0570    20.6690    19.1310    13.3650    25.3140   226.2690    -5.5040 
  259.0000     2.4540    75.4080    20.6110    19.2870    13.5760    25.3740   218.9110    -5.5660 
  259.1250     2.4800    71.0380    19.6760    18.6490    13.8030    25.3740   217.1970    -5.5590 
  259.2500     2.5050    66.8950    18.3480    17.5480    13.8280    25.3610   222.8770    -5.5210 
  259.3750     2.5210    65.6950    16.9900    16.2880    13.5820    25.3560   233.3300    -5.5150 
  259.5000     2.5280    66.7600    15.8280    15.1410    13.3490    25.3620   243.9520    -5.5850 
  259.6250     2.5280    66.9620    15.1090    14.3600    13.0910    25.3680   252.5160    -5.6550 
  259.7500     2.5230    65.5750    14.8790    14.0170    12.8600    25.3710   259.5480    -5.7040 
  259.8750     2.5180    64.5600    15.2990    14.1840    12.8840    25.3740   265.9290    -5.7430 
  260.0000     2.5170    64.8140    16.3570    14.9010    13.4300    25.3830   266.1830    -5.7680 
  260.1250     2.5240    66.0090    18.2600    16.2150    15.3110    25.3910   255.0660    -5.8000 
  260.2500     2.5350    67.3530    20.4980    17.8690    18.6220    25.3740   234.8810    -5.8530 
  260.3750     2.5430    69.0950    22.4240    19.5910    23.2940    25.3530   214.8970    -5.9160 
  260.5000     2.5430    71.3800    23.7030    21.0560    28.7230    25.3420   201.9210    -5.9260 
  260.6250     2.5330    73.0670    24.2080    21.8930    31.8920    25.3410   195.8560    -5.9200 
  260.7500     2.5160    74.2030    24.1070    22.1390    32.6030    25.3330   198.6090    -5.8750 
  260.8750     2.5030    74.4650    23.6650    21.9500    31.3940    25.3070   208.2020    -5.8290 
  261.0000     2.4960    72.4710    23.1790    21.5580    29.2400    25.2340   215.7090    -5.8290 
  261.1250     2.4940    69.0330    22.8440    21.1570    27.8040    25.1000   217.3160    -5.8930 
  261.2500     2.4950    67.4990    22.6110    20.8070    27.8950    24.8670   216.2600    -5.9970 
  261.3750     2.4910    68.9150    22.3820    20.4820    28.6060    24.6860   215.0610    -6.0640 
  261.5000     2.4830    71.2260    22.0970    20.1530    28.8340    24.8300   213.1940    -6.1030 
  261.6250     2.4730    71.5550    21.7870    19.8470    26.2480    25.1380   211.5140    -6.2350 
  261.7500     2.4690    71.0550    21.5790    19.6380    23.5620    25.2810   210.4820    -6.4480 
  261.8750     2.4710    70.8060    21.5910    19.6100    21.1870    25.3110   209.7830    -6.6850 
  262.0000     2.4760    70.4140    21.8810    19.8160    19.8820    25.3100   208.4650    -6.9150 
  262.1250     2.4840    69.8980    22.4390    20.2800    19.8180    25.2760   206.1470    -7.0800 
  262.2500     2.4920    69.3720    23.0880    20.8760    20.9040    25.2190   203.3240    -7.2110 
  262.3750     2.5010    69.0390    23.6820    21.4860    22.4680    25.1830   201.1920    -7.3560 
  262.5000     2.5100    68.2380    24.1170    22.0030    23.7320    25.1670   200.9530    -7.4830 
  262.6250     2.5190    68.2380    24.3490    22.3460    24.2680    25.1700   202.2920    -7.5270 
  262.7500     2.5260    68.2380    24.4780    22.5610    23.7840    25.2290   204.9930    -7.4890 
  262.8750     2.5320    68.2380    24.5890    22.7090    22.7010    25.2390   208.8380    -7.4100 
  263.0000     2.5340    68.2380    24.7200    22.8370    21.7030    25.1820   212.3760    -7.3120 
  263.1250     2.5330    68.2380    24.8130    22.9300    21.3930    25.1040   213.1090    -7.2650 
  263.2500     2.5260    68.2380    24.7460    22.9220    21.0790    25.1100   210.1930    -7.1900 
  263.3750     2.5150    68.2380    24.4250    22.7370    20.7440    25.1070   204.7780    -7.0970 
  263.5000     2.5030    68.2380    23.8430    22.3410    20.3470    25.0580   199.6430    -7.0250 
  263.6250     2.4930    68.2380    23.1040    21.7700    19.7570    25.0090   199.1110    -6.9900 
  263.7500     2.4900    68.2380    22.4180    21.1910    19.7010    24.9930   203.7380    -6.9670 
  263.8750     2.4930    68.2380    21.9400    20.7470    20.3540    24.9880   210.0510    -6.9720 
  264.0000     2.5040    68.2380    21.7080    20.5380    21.5280    24.9630   213.4880    -6.9820 
  264.1250     2.5160    68.2380    21.8460    20.6310    22.8810    24.8890   214.7250    -6.9580 
  264.2500     2.5230    68.2380    22.1820    20.9190    24.3130    24.9230   216.2420    -6.9310 
  264.3750     2.5180    68.2380    22.6300    21.2960    25.6210    25.0690   218.4030    -6.9210 
  264.5000     2.5040    68.2380    23.1230    21.6520    26.0160    25.1650   219.6460    -6.9340 
  264.6250     2.4870    68.2380    23.3720    21.8750    25.1250    25.1610   217.8570    -6.9340 
  264.7500     2.4770    68.2380    23.5240    21.9490    23.9270    25.1360   211.8160    -6.9370 
  264.8750     2.4780    68.2380    23.3510    21.8930    23.7900    25.1260   200.8330    -6.9260 
