~V
VERS. 2.00: Ver 2.00
~W
STRT.M 58.0000:
STOP.M 259.0000:
STEP.M 0.1250:
NULL. -999.2500:
UWI. DF3010:
~C
DEPT.M :
GR.API :
RML.OHMM :
RI. :
RXO.OHMM :
CALI.CM :
DEN.GM/CC :
SP.MV :
~A
# ...
  170.5000    63.8350   156.6800   136.9260   106.2290    24.3010     2.2290   -29.1930 
  170.6250    62.3180   155.0560   135.5840   113.3700    24.6080     2.2230   -29.0980 
  170.7500    61.1790   151.7740   132.6570   116.5900    24.7210     2.2180   -29.0190 
  170.8750    59.6070   146.9550   128.3190   115.8860    24.7480     2.2160   -28.9580 
  171.0000    58.0650   140.9590   122.9240   110.3750    24.7470     2.2180   -28.8630 
  171.1250    59.2900   134.6240   117.1860   100.4660    24.7290     2.2250   -28.9030 
  171.2500    62.6680   129.2860   112.2410    90.5890    24.6710     2.2350   -28.9090 
  171.3750    67.5450   126.1790   109.1560    79.8310    24.5800     2.2440   -28.8790 
  171.5000    72.4800   126.4360   108.9210    68.7130    24.4580     2.2500   -28.8820 
  171.6250    72.4230   131.7100   112.9760    61.5090    24.3770     2.2500   -28.8920 
  171.7500    67.6340   141.3800   120.8570    62.9660    24.3810     2.2480   -28.9400 
  171.8750    63.1600   154.3260   131.5880    73.7180    24.4680     2.2470   -28.9410 
  172.0000    60.5820   167.4630   142.8090    88.0660    24.5750     2.2470   -28.9310 
  172.1250    57.1420   174.5040   149.6540    99.9810    24.6560     2.2470   -28.9050 
  172.2500    55.3310   171.0100   148.5230   106.8870    24.6880     2.2440   -28.7990 
  172.3750    57.8660   155.7370   138.0910   110.8590    24.6760     2.2380   -28.7260 
  172.5000    62.1400   131.7110   120.7140   112.4610    24.6560     2.2310   -28.6680 
  172.6250    63.0940   107.6790   102.2020   109.2770    24.6420     2.2310   -28.5670 
  172.7500    63.6860    90.9510    88.1940    83.4170    24.6220     2.2370   -28.5000 
  172.8750    65.8280    84.3790    80.8760    61.8040    24.5900     2.2450   -28.4970 
  173.0000    66.7890    84.8570    80.2370    58.2270    24.5560     2.2490   -28.5340 
  173.1250    65.2030    91.1710    85.4760    74.3260    24.5400     2.2470   -28.4190 
  173.2500    64.8150    99.8620    93.3800    88.6160    24.5450     2.2430   -28.4390 
  173.3750    65.7560   108.5800   101.7170    97.1540    24.5660     2.2390   -28.4910 
  173.5000    66.2990   115.4280   108.5670    99.8580    24.5860     2.2390   -28.4360 
  173.6250    67.8440   119.1020   112.4460    98.4570    24.5990     2.2410   -28.5510 
  173.7500    71.6800   120.7280   114.1520    94.2540    24.6220     2.2440   -28.6190 
  173.8750    74.8890   121.5960   114.7760    90.2800    24.6660     2.2480   -28.6510 
  174.0000    74.2960   122.8230   115.3550    88.4120    24.7330     2.2530   -28.7660 
  174.1250    71.4600   125.2240   116.6620    90.7190    24.7980     2.2590   -28.9460 
  174.2500    69.9850   128.7270   118.7620    95.9190    24.8290     2.2620   -29.1110 
  174.3750    68.9570   133.1030   121.5230   100.8510    24.8090     2.2610   -29.2340 
  174.5000    67.0860   138.0240   124.7250   105.7140    24.7430     2.2560   -29.4430 
  174.6250    65.1920   143.2950   128.2700   113.2150    24.7070     2.2470   -29.5420 
  174.7500    65.5680   148.9680   132.2190   120.6040    24.7530     2.2410   -29.6600 
  174.8750    68.4170   155.5670   136.9960   124.7930    24.8350     2.2390   -29.7770 
  175.0000    70.8320   164.0330   143.3420   129.3050    24.8820     2.2420   -29.7910 
  175.1250    68.9550   176.3890   152.8570   133.4970    24.8890     2.2470   -29.9100 
  175.2500    64.7160   193.6110   166.2640   138.6260    24.8890     2.2500   -29.9900 
  175.3750    62.6430   216.6190   184.2300   146.7340    24.8890     2.2460   -30.0280 
  175.5000    64.2050   245.4110   206.6810   161.2440    24.8890     2.2370   -30.0720 
  175.6250    65.0120   278.9360   232.7180   181.6650    24.8890     2.2260   -30.1270 
  175.7500    62.8070   313.2720   259.3310   200.6350    24.8850     2.2160   -30.0870 
  175.8750    58.7900   345.4010   284.3230   209.1240    24.8730     2.2090   -30.0340 
  176.0000    54.7730   373.8570   306.7060   206.7310    24.8510     2.2040   -30.0480 
  176.1250    54.1820   400.0100   327.5700   198.1250    24.7920     2.1980   -29.8660 
  176.2500    57.0600   427.4300   349.6640   191.4720    24.7500     2.1890   -29.6720 
  176.3750    60.0970   455.9930   373.2660   196.3200    24.7760     2.1780   -29.6020 
  176.5000    58.8870   479.3660   394.1240   217.0540    24.8680     2.1670   -29.3700 
  176.6250    54.6790   479.6590   399.1800   232.8240    24.9330     2.1590   -29.1980 
  176.7500    53.9530   445.7290   378.9590   237.6420    24.9470     2.1530   -29.0710 
  176.8750    55.9290   375.4060   329.8200   244.0060    24.9550     2.1510   -28.8300 
  177.0000    58.9150   282.7700   259.4140   242.6240    24.9690     2.1540   -28.6560 
  177.1250    62.1140   196.3120   186.8730   198.0330    24.9760     2.1680   -28.5000 
  177.2500    66.1650   132.5930   128.9300   135.1730    24.9720     2.1910   -28.2620 
  177.3750    70.9450    91.7050    89.5170    82.8630    24.9600     2.2220   -28.0470 
  177.5000    76.5730    67.8530    65.8570    50.2520    24.9300     2.2540   -27.8870 
  177.6250    82.7250    56.3640    54.4550    39.4860    24.8860     2.2780   -27.7560 
  177.7500    84.5430    51.0390    49.2710    37.4100    24.7850     2.2940   -27.6640 
  177.8750    80.7700    49.4030    47.8060    40.2820    24.6220     2.3030   -27.6140 
  178.0000    75.0290    49.7440    48.3770    41.6530    24.6510     2.3100   -27.5570 
  178.1250    71.7410    50.8620    49.8290    41.1990    24.6990     2.3170   -27.5310 
  178.2500    73.3770    51.8500    51.1970    41.7950    24.7370     2.3210   -27.6120 
  178.3750    77.7970    52.4500    52.1170    42.9350    24.7400     2.3210   -27.6470 
  178.5000    79.5630    52.7300    52.5480    42.2900    24.7430     2.3150   -27.7160 
  178.6250    78.1660    52.9980    52.6760    41.3110    24.7370     2.3050   -27.7630 
  178.7500    77.5640    53.6270    52.8810    41.0590    24.7260     2.2960   -27.7890 
  178.8750    77.5770    54.9260    53.4730    42.4340    24.7100     2.2910   -27.8930 
  179.0000    75.5940    57.1670    54.7380    44.6910    24.6990     2.2890   -28.0270 
  179.1250    73.3760    60.7360    57.0640    47.8000    24.7360     2.2900   -28.1970 
  179.2500    74.1250    65.4730    60.3870    51.9060    24.7840     2.2910   -28.3110 
  179.3750    75.9050    71.2190    64.6250    57.7840    24.8380     2.2880   -28.5170 
  179.5000    75.8840    77.6360    69.5340    66.5130    24.8760     2.2820   -28.7350 
  179.6250    72.5770    84.1790    74.6840    75.6160    24.8870     2.2710   -28.8240 
  179.7500    70.7500    90.2130    79.4990    81.2860    24.8760     2.2610   -29.0340 
  179.8750    73.3990    95.2640    83.5540    82.8580    24.8280     2.2540   -29.1350 
  180.0000    77.7320    98.9380    86.5050    82.6560    24.7280     2.2530   -29.1260 
  180.1250    77.4400   100.5920    87.8320    80.9710    24.6060     2.2580   -29.1610 
  180.2500    74.3000   100.3470    87.6360    83.0340    24.4120     2.2650   -29.1470 
  180.3750    73.2360    98.3960    86.0660    89.6870    24.3490     2.2690   -29.1010 
  180.5000    74.6640    95.3470    83.5940    95.5810    24.5450     2.2700   -29.0220 
  180.6250    74.2970    92.3360    81.1240    88.8680    24.6920     2.2690   -29.0390 
  180.7500    69.0170    90.6230    79.7130    77.8620    24.6770     2.2680   -28.9890 
  180.8750    63.0660    91.1070    80.1660    72.1300    24.5030     2.2680   -28.9430 
  181.0000    62.3600    94.2200    82.9440    77.5270    24.3190     2.2690   -28.9860 
  181.1250    66.6020    99.8970    88.1640    83.5900    24.4440     2.2690   -28.9640 
  181.2500    67.8490   106.2380    94.2660    88.4820    24.5800     2.2680   -28.9950 
  181.3750    64.3150   111.1590    99.4670    92.0380    24.6060     2.2680   -29.0020 
  181.5000    61.6020   112.6120   101.8910    96.4850    24.5300     2.2690   -28.9670 
  181.6250    64.0680   108.7870    99.7040    97.5580    24.4920     2.2710   -28.9840 
