~V
VERS. 2.00: Ver 2.00
~W
STRT.M 67.0000:
STOP.M 279.0000:
STEP.M 0.1250:
NULL. -999.2500:
UWI. DF3057:
~C
DEPT.M :
GR.API :
CALI.CM :
RXO.OHMM :
RI. :
RML.OHMM :
DEN.GM/CC :
SP.MV :
~A
# ...
  213.2500    63.1050    25.0550    64.0870    88.5440    96.4060     2.2440   -34.1390 
  213.3750    67.8070    25.0700    65.0030    91.4330    99.3210     2.2370   -34.1860 
  213.5000    71.8700    25.0840    71.8450    94.5130   102.2480     2.2320   -34.2090 
  213.6250    72.2400    25.0980    82.5510    96.9660   104.1580     2.2340   -34.3570 
  213.7500    69.6920    25.1430    86.8140    98.2170   104.7800     2.2390   -34.5780 
  213.8750    66.4560    25.1760    81.3890    98.2700   104.2790     2.2420   -34.7850 
  214.0000    64.8180    25.2000    73.9300    97.4180   103.0120     2.2450   -34.8920 
  214.1250    64.8900    25.0700    72.5180    96.2320   101.6530     2.2420   -34.8720 
  214.2500    64.6960    25.0520    74.1910    94.7880   100.0790     2.2330   -34.8550 
  214.3750    63.7310    25.0440    73.5240    93.0380    98.3720     2.2250   -34.9440 
  214.5000    63.1840    25.0980    72.3740    91.2200    96.6710     2.2280   -35.1540 
  214.6250    64.2410    25.0330    74.0080    89.3660    95.0230     2.2380   -35.3390 
  214.7500    67.4500    24.9260    75.7200    87.5840    93.5600     2.2450   -35.4040 
  214.8750    70.2990    24.9660    72.8750    86.4990    93.0450     2.2470   -35.3880 
  215.0000    70.5370    25.0680    65.4560    87.2020    94.6990     2.2480   -35.3560 
  215.1250    67.4890    25.1120    57.9160    91.2240   100.1510     2.2510   -35.3970 
  215.2500    64.7120    25.0660    57.8610    99.0960   109.9120     2.2520   -35.5020 
  215.3750    64.3150    25.1020    67.0430   111.3180   124.5430     2.2510   -35.6440 
  215.5000    64.0570    25.3790    82.3040   127.8480   144.1930     2.2500   -35.7400 
  215.6250    63.9210    25.5090    96.6860   149.1590   169.6780     2.2480   -35.7510 
  215.7500    64.5000    25.4430   111.7310   173.6970   199.3100     2.2410   -35.7370 
  215.8750    63.8180    25.3760   127.5850   199.4470   230.9950     2.2260   -35.7140 
  216.0000    59.1190    25.3840   138.2010   223.7940   261.6210     2.2040   -35.7340 
  216.1250    53.8150    25.4930   137.5180   243.7480   286.7360     2.1870   -35.8160 
  216.2500    52.9480    25.4530   131.6940   258.0970   304.7590     2.1820   -35.9050 
  216.3750    54.7580    25.3750   128.3090   265.6130   313.7010     2.1870   -35.9020 
  216.5000    55.4190    25.3790   129.5170   265.6660   312.6210     2.2000   -35.7700 
  216.6250    55.4180    25.4750   128.5830   256.8060   299.6760     2.2210   -35.5900 
  216.7500    55.9630    25.4980   137.9190   241.8040   279.4700     2.2400   -35.4870 
  216.8750    57.4450    25.3970   148.0660   223.5580   256.1410     2.2450   -35.4790 
  217.0000    59.4390    25.1950   143.7350   204.5640   232.7970     2.2330   -35.5020 
  217.1250    62.0880    25.3480   131.6900   186.9520   212.2870     2.2230   -35.4260 
  217.2500    62.8800    25.4000   119.1790   172.5360   196.1600     2.2210   -35.2240 
  217.3750    60.4120    25.3730   105.2600   162.3060   185.3200     2.2230   -34.9550 
  217.5000    56.0970    25.1650    96.2160   156.5670   179.9300     2.2220   -34.7210 
  217.6250    54.5200    25.2030    98.9990   156.3670   180.7150     2.2170   -34.6660 
  217.7500    58.9750    25.3960   102.4990   160.1770   185.8920     2.2100   -34.6480 
  217.8750    65.2010    25.4270   103.8370   166.9920   194.3670     2.2030   -34.5520 
  218.0000    65.5600    25.4150   105.7680   175.5080   204.7410     2.2010   -34.3370 
  218.1250    60.7260    25.4040   116.1030   184.0030   214.8060     2.2100   -34.0430 
  218.2500    58.8040    25.4220   126.9880   190.5320   222.0400     2.2280   -33.7850 
  218.3750    60.5930    25.4300   130.5130   193.7180   224.7580     2.2410   -33.6140 
  218.5000    60.1400    25.4150   125.0870   192.8010   222.1950     2.2420   -33.5440 
  218.6250    55.5970    25.4000   119.2170   187.3140   214.1040     2.2350   -33.4310 
  218.7500    53.2900    25.3970   113.9680   178.8380   202.3970     2.2300   -33.2110 
  218.8750    54.9820    25.4400   109.6700   168.2000   188.4050     2.2240   -32.9370 
  219.0000    58.7980    25.3880   108.3690   156.2090   173.3790     2.2110   -32.6660 
  219.1250    61.5940    25.2430   106.1240   143.8710   158.4740     2.2010   -32.4890 
  219.2500    63.5650    25.3670    97.1650   131.9660   144.7450     2.2040   -32.3910 
  219.3750    63.9770    25.3990    86.5290   121.2420   132.7930     2.2180   -32.3480 
  219.5000    63.9260    25.4120    78.4500   112.3270   123.1650     2.2290   -32.2750 
  219.6250    65.1230    25.4130    71.7990   105.6220   116.3750     2.2260   -32.0980 
  219.7500    65.5790    25.4020    65.9710   101.0450   112.1540     2.2100   -31.8850 
  219.8750    63.2970    25.3910    63.5780    98.9020   110.6900     2.1880   -31.7120 
  220.0000    60.1090    25.1550    65.3160    99.2540   112.0500     2.1770   -31.6470 
  220.1250    61.5700    24.9950    70.4460   102.5320   116.7780     2.2000   -31.6710 
  220.2500    65.8180    24.6890    74.5750   108.3550   124.5500     2.2440   -31.6680 
  220.3750    69.7970    24.4650    76.1260   116.9150   135.5190     2.2810   -31.5420 
  220.5000    71.7770    24.7620    76.2730   127.7200   149.2400     2.2930   -31.3050 
  220.6250    69.6620    25.0010    88.9160   139.6470   164.4770     2.2810   -31.0990 
  220.7500    65.7130    25.4120   105.8490   150.3110   178.2440     2.2620   -31.0640 
  220.8750    62.9220    25.4450   115.9430   157.4040   187.4510     2.2420   -31.1160 
  221.0000    62.9920    25.4210   112.8500   159.4940   190.0730     2.2250   -31.1410 
  221.1250    64.9460    25.3970   108.0330   155.9580   185.3940     2.2160   -31.0280 
  221.2500    67.6400    25.2960    99.9510   149.0680   176.4830     2.2220   -30.8140 
  221.3750    68.7300    25.1900    88.9560   140.7000   165.8710     2.2470   -30.6100 
  221.5000    66.4310    25.1170    78.6890   132.7750   156.2340     2.2800   -30.4820 
  221.6250    63.9460    25.1380    75.2370   126.9820   149.3220     2.2940   -30.4570 
  221.7500    66.0850    25.3070    79.2490   122.8960   144.3700     2.2870   -30.4050 
  221.8750    69.5530    25.6070    86.2860   119.9560   140.6360     2.2760   -30.2990 
  222.0000    68.8300    25.7100    92.0290   117.4940   137.4100     2.2680   -30.1160 
  222.1250    66.0820    25.6810    87.6880   114.9700   134.1310     2.2520   -29.8920 
  222.2500    66.8210    25.4390    80.2740   112.3750   130.8190     2.2290   -29.7620 
  222.3750    68.9270    25.0110    81.4720   109.7990   127.6690     2.2180   -29.7420 
  222.5000    67.8360    24.8840    82.5710   107.4320   124.8660     2.2310   -29.7800 
  222.6250    62.8690    25.1590    79.9930   105.6710   122.8350     2.2520   -29.7500 
  222.7500    59.2130    25.3750    74.5120   104.6480   121.8120     2.2540   -29.6030 
  222.8750    57.6760    25.2910    81.8410   104.2660   121.6640     2.2430   -29.4070 
  223.0000    58.1440    25.0540    95.1730   104.3360   122.0030     2.2370   -29.2560 
  223.1250    60.0460    24.9590    97.5310   104.7190   122.7180     2.2420   -29.2360 
  223.2500    62.8900    25.2810    90.4690   105.2170   123.4640     2.2440   -29.2620 
  223.3750    65.0160    25.4840    87.3830   105.7370   124.1250     2.2380   -29.2600 
  223.5000    65.2820    25.4340    90.0120   106.3300   124.7480     2.2360   -29.1700 
  223.6250    64.0310    25.4210    89.3540   107.0080   125.4550     2.2470   -28.9870 
  223.7500    62.1150    25.4270    85.7720   107.9750   126.4710     2.2550   -28.8320 
  223.8750    60.3860    25.4890    84.1540   109.2280   127.8330     2.2520   -28.7720 
  224.0000    59.4650    25.5040    83.8200   110.5600   129.2970     2.2380   -28.7980 
  224.1250    60.3780    25.3290    83.3880   111.3890   130.0790     2.2210   -28.8440 
  224.2500    63.0040    25.1370    79.2980   111.0360   129.3000     2.2060   -28.8070 
  224.3750    65.8590    25.0990    77.9580   109.0970   126.4000     2.2010   -28.6470 
