~V
VERS. 2.00: Ver 2.00
~W
STRT.M 115.0000:
STOP.M 288.0000:
STEP.M 0.1250:
NULL. -999.2500:
UWI. DF3049:
~C
DEPT.M :
GR.API :
CALI.CM :
RXO.OHMM :
RI. :
RML.OHMM :
SP.MV :
DEN.GM/CC :
AC.US/MT :
~A
# ...
  125.0000    70.7780    24.5240     8.8070     8.6320    10.1410   -25.7240     2.2260   399.4040 
  125.1250    71.7930    24.5240     8.8630     8.6180    10.1350   -25.6050     2.2300   402.0570 
  125.2500    75.1760    24.5240     8.7860     8.5230    10.0000   -25.4640     2.2230   404.1430 
  125.3750    73.4940    24.5240     8.5660     8.3740     9.7930   -25.3200     2.2080   405.8320 
  125.5000    67.5950    24.5240     8.3440     8.2130     9.5810   -25.1750     2.1950   407.2750 
  125.6250    65.5250    24.5220     8.2600     8.0800     9.4160   -25.0500     2.1920   408.4810 
  125.7500    69.3270    24.5040     8.3310     8.0050     9.3330   -24.9580     2.2010   409.2270 
  125.8750    69.4690    24.4690     8.4210     7.9720     9.3070   -24.9170     2.2120   409.4550 
  126.0000    66.1770    24.4380     8.4550     7.9610     9.3070   -24.9120     2.2220   409.2030 
  126.1250    64.9190    24.4260     8.4400     7.9510     9.3040   -24.9250     2.2300   408.6980 
  126.2500    67.8370    24.4180     8.4030     7.9280     9.2740   -24.9550     2.2370   408.0130 
  126.3750    70.4190    24.3690     8.3470     7.8940     9.2220   -24.9810     2.2430   406.7890 
  126.5000    68.9540    24.2610     8.3290     7.8590     9.1630   -25.0340     2.2450   404.5110 
  126.6250    64.7050    24.1770     8.3720     7.8320     9.1120   -25.1410     2.2440   401.1830 
  126.7500    63.3700    24.1310     8.4230     7.8230     9.0790   -25.2480     2.2440   398.0070 
  126.8750    65.7990    24.0980     8.5050     7.8420     9.0660   -25.3680     2.2460   396.4780 
  127.0000    69.6680    24.0740     8.6240     7.9020     9.0920   -25.5220     2.2520   396.8450 
  127.1250    72.1890    24.0630     8.7130     8.0180     9.1840   -25.6640     2.2550   397.9600 
  127.2500    70.7290    24.0620     8.7240     8.1990     9.3880   -25.7480     2.2450   398.2580 
  127.3750    66.6100    24.0600     8.6980     8.4060     9.6640   -25.7860     2.2230   398.1000 
  127.5000    63.0180    24.0610     8.7500     8.5520     9.8980   -25.7480     2.2010   398.8090 
  127.6250    62.7500    24.0590     8.8170     8.4990     9.8870   -25.5790     2.1930   400.9240 
  127.7500    67.2390    24.0580     8.7420     8.0780     9.3700   -25.3060     2.1970   403.4780 
  127.8750    76.1640    24.0660     8.4030     7.3880     8.4760   -24.9230     2.2040   405.6640 
  128.0000    86.4610    24.1270     7.6810     6.6050     7.4600   -24.4730     2.2160   408.3840 
  128.1250    91.1300    24.3020     6.5240     5.9110     6.5910   -24.0970     2.2450   412.3990 
  128.2500    86.9110    24.5760     5.7070     5.4800     6.1150   -23.8330     2.2890   416.0360 
  128.3750    82.3870    24.7470     5.7430     5.3300     6.0360   -23.6880     2.3220   416.7900 
  128.5000    79.7280    24.8020     6.4690     5.4540     6.3220   -23.6980     2.3230   414.3540 
  128.6250    76.7340    24.8110     7.1720     5.8180     6.8990   -23.8920     2.2950   409.8390 
  128.7500    72.0340    24.8180     7.5490     6.3840     7.6800   -24.2470     2.2630   403.6230 
  128.8750    67.6230    24.8200     8.2700     7.0220     8.4940   -24.7630     2.2490   396.8300 
  129.0000    65.5370    24.8120     9.2450     7.6190     9.2060   -25.3580     2.2530   392.3560 
  129.1250    65.6530    24.8070     9.7550     8.0670     9.7030   -25.9140     2.2560   393.4750 
  129.2500    64.8680    24.7910     9.5880     8.2440     9.8590   -26.4220     2.2480   400.6450 
  129.3750    62.8490    24.7400     9.3050     8.1740     9.7140   -26.8430     2.2380   408.5300 
  129.5000    61.5920    24.6490     8.9830     7.9190     9.3420   -27.1510     2.2360   413.5180 
  129.6250    63.0600    24.5380     8.6110     7.5910     8.8930   -27.3570     2.2420   414.5760 
  129.7500    65.2030    24.3610     8.2850     7.3160     8.5490   -27.4680     2.2490   412.6550 
  129.8750    66.1390    24.1680     8.1050     7.1630     8.3970   -27.4930     2.2490   410.2480 
  130.0000    65.6190    24.0200     8.1880     7.1720     8.4860   -27.4740     2.2440   408.8000 
  130.1250    62.6100    23.9570     8.4910     7.3650     8.8250   -27.4100     2.2400   408.3960 
  130.2500    59.2590    23.9530     8.9070     7.7360     9.3770   -27.2910     2.2520   405.3080 
  130.3750    58.9430    24.0010     9.6110     8.1610     9.9660   -27.1590     2.2860   394.7240 
  130.5000    62.0560    24.1490    11.0180     8.5190    10.4210   -27.0410     2.3420   376.5450 
  130.6250    65.1540    24.3810    11.9980     8.6880    10.5820   -26.9420     2.4020   358.4230 
  130.7500    64.7190    24.5710    11.3880     8.5840    10.3430   -26.8370     2.4200   354.4880 
  130.8750    64.2860    24.6290     9.9500     8.3240     9.8950   -26.6950     2.3840   365.9400 
  131.0000    65.5610    24.5690     9.1490     8.0280     9.4270   -26.4980     2.3140   384.6270 
  131.1250    67.1510    24.4040     8.9810     7.7930     9.0810   -26.2440     2.2530   400.0890 
  131.2500    67.4050    24.2320     9.0800     7.6970     8.9580   -25.9310     2.2300   406.0440 
  131.3750    68.3360    24.1590     9.1820     7.7250     9.0090   -25.5730     2.2360   406.6890 
  131.5000    70.1090    24.1440     9.1730     7.8360     9.1570   -25.1380     2.2550   405.7770 
  131.6250    71.9110    24.1440     9.0850     7.9450     9.2780   -24.5950     2.2740   403.9610 
  131.7500    74.6870    24.1440     9.3890     7.9080     9.1830   -24.0130     2.2830   396.5750 
  131.8750    77.5090    24.1440    10.6050     7.6530     8.7940   -23.4350     2.2830   380.6830 
  132.0000    81.3610    24.1460    11.9440     7.1810     8.1260   -22.8570     2.2830   359.5110 
  132.1250    87.6340    24.1600    11.0300     6.5860     7.3200   -22.3140     2.2940   343.4150 
  132.2500    91.6660    24.1950     8.1540     6.0290     6.6130   -21.8470     2.3200   346.8730 
  132.3750    87.0070    24.2270     6.0360     5.6110     6.1390   -21.4490     2.3430   366.4530 
  132.5000    77.0190    24.2410     5.5990     5.3420     5.8970   -21.1370     2.3460   390.1220 
  132.6250    71.9300    24.2780     5.8760     5.1650     5.7790   -20.8710     2.3280   405.8180 
  132.7500    75.8830    24.4400     6.0060     4.9720     5.5940   -20.6180     2.3040   409.7660 
  132.8750    81.3040    24.7280     5.7540     4.7000     5.2420   -20.3830     2.2910   410.5090 
  133.0000    84.9180    24.9770     5.2580     4.3880     4.7960   -20.2030     2.2880   413.1530 
  133.1250    87.0680    25.0890     4.8020     4.1450     4.4380   -20.1440     2.2930   418.5210 
  133.2500    88.7510    25.1080     4.6390     4.1140     4.3990   -20.1640     2.3110   424.3900 
  133.3750    87.6450    25.1040     4.8710     4.3070     4.6920   -20.1970     2.3420   427.4250 
  133.5000    82.9790    25.1040     5.5850     4.6790     5.2370   -20.2280     2.3760   425.7250 
  133.6250    78.4760    25.0980     6.4480     5.1060     5.8380   -20.2670     2.3980   419.8070 
  133.7500    77.2900    25.0530     6.7150     5.3740     6.1760   -20.3130     2.3970   412.5470 
  133.8750    80.4050    24.9640     6.4460     5.3970     6.1450   -20.3590     2.3830   406.0410 
  134.0000    89.0270    24.8030     6.0420     5.2280     5.8490   -20.4110     2.3660   400.8390 
  134.1250    99.1820    24.5350     5.7870     5.0030     5.5160   -20.4330     2.3540   400.5020 
  134.2500   102.0160    24.2970     5.6400     4.8720     5.3810   -20.4350     2.3510   404.7280 
  134.3750    96.8150    24.2490     5.7440     4.8740     5.4690   -20.4910     2.3490   407.5560 
  134.5000    91.5470    24.2880     6.0340     4.9780     5.7030   -20.6180     2.3420   405.6050 
  134.6250    90.7210    24.3030     6.2620     5.1150     5.9550   -20.8540     2.3300   397.9640 
  134.7500    89.2340    24.2660     6.2800     5.2100     6.0930   -21.2100     2.3220   387.4890 
  134.8750    84.4540    24.2470     6.2910     5.2610     6.1390   -21.6240     2.3170   382.1250 
