~V
VERS. 2.00: Ver 2.00
~W
STRT.M 61.0000:
STOP.M 318.0000:
STEP.M 0.1250:
NULL. -999.2500:
UWI. DF302:
~C
DEPT.M :
DEN.GM/CC :
SP.MV :
AC.US/MT :
GR.API :
CALI.CM :
RXO.OHMM :
RI. :
RML.OHMM :
~A
# ...
   81.0000  -999.2500   -18.0140  -999.2500    92.9130    24.1900     6.1410     5.7770     8.5640 
   81.1250  -999.2500   -18.3030  -999.2500    87.3910    24.3260     6.3220     5.9980     9.1540 
   81.2500  -999.2500   -18.7960  -999.2500    79.9360    24.2670     6.8000     6.3760    10.0380 
   81.3750  -999.2500   -19.4830  -999.2500    75.1330    23.9110     7.5580     6.8730    11.0850 
   81.5000  -999.2500   -20.3330  -999.2500    73.0490    23.4030     8.3700     7.4040    12.0780 
   81.6250  -999.2500   -21.2930  -999.2500    73.5000    23.0640     8.8890     7.8280    12.7180 
   81.7500  -999.2500   -22.2670  -999.2500    73.8990    22.9310     9.0790     8.0670    12.9410 
   81.8750  -999.2500   -23.1860  -999.2500    71.1880    22.8570     9.0550     8.1140    12.8170 
   82.0000  -999.2500   -23.9920  -999.2500    68.7460    22.7700     8.9420     8.0240    12.5130 
   82.1250  -999.2500   -24.6220  -999.2500    69.4260    22.7120     8.8200     7.8870    12.2220 
   82.2500  -999.2500   -25.0530  -999.2500    69.9780    22.6940     8.7140     7.7800    12.0490 
   82.3750  -999.2500   -25.2890  -999.2500    67.0750    22.6840     8.6530     7.7210    12.0190 
   82.5000  -999.2500   -25.3540  -999.2500    61.9550    22.6810     8.6910     7.7040    12.1080 
   82.6250  -999.2500   -25.2510  -999.2500    59.1030    22.7030     8.8010     7.6990    12.2280 
   82.7500  -999.2500   -25.0450  -999.2500    59.6420    22.7050     8.8260     7.6580    12.2450 
   82.8750  -999.2500   -24.7680  -999.2500    63.3580    22.6590     8.6840     7.5530    12.0800 
   83.0000  -999.2500   -24.4580  -999.2500    68.3300    22.5910     8.3910     7.3910    11.7640 
   83.1250  -999.2500   -24.1420  -999.2500    72.6870    22.5610     8.0030     7.2210    11.4510 
   83.2500  -999.2500   -23.8620  -999.2500    77.0220    22.5780     7.6700     7.1110    11.3150 
   83.3750  -999.2500   -23.6370  -999.2500    80.5560    22.6490     7.5510     7.1030    11.4380 
   83.5000  -999.2500   -23.4750  -999.2500    81.6330    22.7650     7.7120     7.2080    11.7940 
   83.6250  -999.2500   -23.4030  -999.2500    79.7160    22.8690     8.0260     7.4000    12.2510 
   83.7500  -999.2500   -23.3750  -999.2500    78.3050    22.9220     8.2700     7.5960    12.6010 
   83.8750  -999.2500   -23.3890  -999.2500    77.8090    22.9150     8.3970     7.7310    12.7170 
   84.0000  -999.2500   -23.4290  -999.2500    75.5430    22.8510     8.4650     7.7700    12.5800 
   84.1250  -999.2500   -23.4770  -999.2500    71.4330    22.7460     8.5170     7.7130    12.2670 
   84.2500  -999.2500   -23.5200  -999.2500    69.4070    22.6350     8.5520     7.6240    11.9520 
   84.3750  -999.2500   -23.5480  -999.2500    70.0070    22.5890     8.6020     7.5440    11.7310 
   84.5000  -999.2500   -23.5570  -999.2500    71.3820    22.6580     8.7250     7.5010    11.6420 
   84.6250  -999.2500   -23.5690  -999.2500    71.3340    22.8090     8.9390     7.5010    11.6780 
   84.7500  -999.2500   -23.5990  -999.2500    68.9600    22.9270     9.1790     7.5240    11.7640 
   84.8750  -999.2500   -23.6610  -999.2500    65.8680    22.9690     9.3830     7.5480    11.8420 
   85.0000  -999.2500   -23.7620  -999.2500    64.6530    22.9900     9.4570     7.5550    11.8670 
   85.1250  -999.2500   -23.8940  -999.2500    66.9910    23.0170     9.3050     7.5280    11.7940 
   85.2500  -999.2500   -24.0540  -999.2500    70.7940    22.9610     9.0590     7.4740    11.6480 
   85.3750  -999.2500   -24.2490  -999.2500    74.2260    22.7980     8.9140     7.4070    11.4830 
   85.5000  -999.2500   -24.4750  -999.2500    75.6000    22.6160     8.9620     7.3490    11.3680 
   85.6250  -999.2500   -24.7230  -999.2500    73.0240    22.5550     9.0970     7.3310    11.3760 
   85.7500  -999.2500   -24.9890  -999.2500    69.6290    22.5950     9.1440     7.3640    11.5060 
   85.8750  -999.2500   -25.2610  -999.2500    66.0890    22.6900     9.1380     7.4470    11.7270 
   86.0000  -999.2500   -25.5250  -999.2500    62.8050    22.8400     9.2310     7.5600    11.9750 
   86.1250  -999.2500   -25.7820  -999.2500    63.8150    22.9460     9.4390     7.6650    12.1620 
   86.2500  -999.2500   -26.0100  -999.2500    66.7640    22.8700     9.5220     7.7280    12.2450 
   86.3750  -999.2500   -26.1990  -999.2500    67.3010    22.6510     9.4040     7.7370    12.2290 
   86.5000  -999.2500   -26.3360  -999.2500    65.4790    22.4780     9.2460     7.7030    12.1550 
   86.6250  -999.2500   -26.3830  -999.2500    65.0900    22.5110     9.2510     7.6510    12.0830 
   86.7500  -999.2500   -26.3560  -999.2500    64.1200    22.6660     9.3900     7.6010    12.0180 
   86.8750  -999.2500   -26.2480  -999.2500    61.6310    22.8580     9.6440     7.5420    11.9120 
   87.0000  -999.2500   -26.0800  -999.2500    61.6490    23.0520    10.0260     7.4560    11.7170 
   87.1250  -999.2500   -25.8730  -999.2500    65.1630    23.1830    10.3290     7.3260    11.4260 
   87.2500  -999.2500   -25.6770  -999.2500    68.7810    23.1930    10.2310     7.1800    11.1350 
   87.3750  -999.2500   -25.5120  -999.2500    70.0590    23.0950     9.9120     7.0590    10.9400 
   87.5000  -999.2500   -25.4230  -999.2500    68.3570    22.9760    10.0120     7.0060    10.9090 
   87.6250  -999.2500   -25.4490  -999.2500    64.9340    22.9320    10.9310     7.0550    11.0690 
   87.7500  -999.2500   -25.5720  -999.2500    62.7110    22.9460    11.8680     7.1730    11.3190 
   87.8750  -999.2500   -25.7810  -999.2500    62.6150    22.9740    12.2030     7.3160    11.5720 
   88.0000  -999.2500   -26.0590  -999.2500    62.9530    22.9930    12.0440     7.4370    11.7510 
   88.1250  -999.2500   -26.3920  -999.2500    61.7200    23.0030    11.8500     7.4970    11.8120 
   88.2500  -999.2500   -26.7380  -999.2500    56.8900    23.0210    11.6650     7.5110    11.8090 
   88.3750  -999.2500   -27.0870  -999.2500    50.3990    23.0510    11.4300     7.5100    11.7980 
   88.5000  -999.2500   -27.4120  -999.2500    49.0210    23.1030    11.2410     7.5160    11.8150 
   88.6250  -999.2500   -27.6900  -999.2500    54.4410    23.1690    11.1650     7.5400    11.8650 
   88.7500  -999.2500   -27.9380  -999.2500    58.2100    23.2150    11.1360     7.5670    11.9220 
   88.8750  -999.2500   -28.1720  -999.2500    57.5740    23.2260    11.1430     7.5870    11.9570 
   89.0000  -999.2500   -28.4070  -999.2500    56.7800    23.2260    11.1800     7.5890    11.9430 
   89.1250  -999.2500   -28.6380  -999.2500    58.0580    23.2520    11.2140     7.5690    11.8620 
   89.2500  -999.2500   -28.8680  -999.2500    58.1720    23.2800    11.2590     7.5370    11.7490 
   89.3750  -999.2500   -29.0800  -999.2500    56.8400    23.2910    11.3610     7.5080    11.6480 
   89.5000  -999.2500   -29.2610  -999.2500    56.0160    23.3020    11.5030     7.4930    11.5980 
   89.6250  -999.2500   -29.3970  -999.2500    56.0420    23.3650    11.5920     7.4930    11.6070 
   89.7500  -999.2500   -29.4430  -999.2500    55.5850    23.4700    11.6040     7.4890    11.6050 
   89.8750  -999.2500   -29.3830  -999.2500    55.0410    23.5620    11.5440     7.4600    11.5330 
   90.0000  -999.2500   -29.1970  -999.2500    57.0050    23.6070    11.3110     7.4020    11.3970 
   90.1250  -999.2500   -28.8270  -999.2500    62.1680    23.6070    10.7020     7.3430    11.2960 
   90.2500  -999.2500   -28.2880  -999.2500    66.8560    23.5510     9.9570     7.3300    11.3450 
   90.3750  -999.2500   -27.5850  -999.2500    67.8580    23.4250     9.4950     7.3850    11.5790 
   90.5000  -999.2500   -26.7120  -999.2500    65.9360    23.2870     9.5190     7.4910    11.9210 
   90.6250  -999.2500   -25.6600  -999.2500    66.4450    23.2230     9.7830     7.5570    12.1120 
   90.7500  -999.2500   -24.4900  -999.2500    71.9010    23.2170     9.7010     7.4730    11.9040 
   90.8750  -999.2500   -23.2430  -999.2500    80.5980    23.2500     8.9190     7.1760    11.2020 
