~V
VERS. 2.00: Ver 2.00
~W
STRT.M 60.0000:
STOP.M 238.0000:
STEP.M 0.1250:
NULL. -999.2500:
UWI. DF308:
~C
DEPT.M :
DEN.GM/CC :
SP.MV :
AC.US/MT :
GR.API :
CALI.CM :
RXO.OHMM :
RI. :
RML.OHMM :
~A
# ...
  220.0000     2.4610   -17.0130   316.7590    73.3240    23.7710     8.5780     8.7670    10.6140 
  220.1250     2.4620   -17.0770   320.4860    76.5120    23.8500     8.5480     8.8280    10.6140 
  220.2500     2.4500   -17.1140   318.2680    77.0990    23.8320     8.7500     8.8430    10.5540 
  220.3750     2.4340   -17.1270   312.4040    75.7870    23.7120     9.0400     8.8140    10.4800 
  220.5000     2.4320   -17.1230   309.8480    75.1410    23.5390     9.3570     8.7520    10.4350 
  220.6250     2.4420   -17.1170   314.0380    74.9990    23.4660     9.6230     8.6770    10.4340 
  220.7500     2.4510   -17.1170   323.0270    74.3910    23.5940     9.7260     8.6020    10.4320 
  220.8750     2.4420   -17.1170   331.8530    73.8550    23.7000     9.6330     8.5270    10.3920 
  221.0000     2.4280   -17.1230   335.2220    74.8380    23.7500     9.4720     8.4480    10.2930 
  221.1250     2.4260   -17.1580   333.7360    76.3800    23.7360     9.2810     8.3680    10.1500 
  221.2500     2.4350   -17.2110   330.5040    76.3950    23.6800     9.5650     8.2950    10.0180 
  221.3750     2.4440   -17.2600   328.8270    74.9720    23.5710    10.1760     8.2420     9.9330 
  221.5000     2.4500   -17.3000   329.9330    73.1940    23.5260    10.6330     8.2190     9.9030 
  221.6250     2.4580   -17.3300   331.0680    75.0130    23.5380    10.1690     8.2310     9.9260 
  221.7500     2.4730   -17.3610   329.8190    78.3740    23.6070     9.6360     8.2580     9.9730 
  221.8750     2.4860   -17.3910   325.8490    77.9770    23.6870     9.5270     8.2820    10.0160 
  222.0000     2.4890   -17.4160   321.4300    73.6510    23.7310     9.7470     8.2810    10.0280 
  222.1250     2.4900   -17.4110   319.3080    70.3320    23.7060     9.8490     8.2390     9.9870 
  222.2500     2.4960   -17.3880   320.4550    70.8760    23.6710     9.9350     8.1670     9.9070 
  222.3750     2.4990   -17.3650   324.2390    73.8330    23.6550    10.0470     8.0800     9.8040 
  222.5000     2.4880   -17.3360   328.1350    76.1090    23.7360     9.8720     7.9960     9.7040 
  222.6250     2.4720   -17.2840   329.3030    75.8100    23.7680     9.3040     7.9390     9.6500 
  222.7500     2.4630   -17.2050   327.1210    75.1860    23.7210     8.8900     7.9220     9.6590 
  222.8750     2.4640   -17.1300   323.4870    76.0190    23.6250     8.8600     7.9520     9.7280 
  223.0000     2.4620   -17.0620   321.7530    77.8170    23.4850     9.3760     8.0240     9.8400 
  223.1250     2.4520   -16.9670   322.6020    78.1930    23.3800    10.2230     8.1350     9.9730 
  223.2500     2.4390   -16.8540   324.4270    76.7090    23.3990    10.6650     8.2610    10.1030 
  223.3750     2.4330   -16.7320   325.1340    73.7600    23.5620    10.6740     8.3870    10.2270 
  223.5000     2.4490   -16.6290   323.3660    70.3200    23.6800    10.6160     8.4950    10.3420 
  223.6250     2.4840   -16.5420   320.0440    69.2630    23.5870    10.6150     8.5630    10.4290 
  223.7500     2.5190   -16.4760   315.9510    71.0680    23.5010    10.4970     8.5830    10.4700 
  223.8750     2.5290   -16.4110   311.6910    73.3600    23.4870    10.3980     8.5530    10.4530 
  224.0000     2.5190   -16.3420   307.8930    74.9750    23.5020    10.1900     8.4820    10.3750 
  224.1250     2.5010   -16.2900   305.3480    76.3430    23.4840     9.9040     8.3870    10.2520 
  224.2500     2.4810   -16.2500   304.8660    77.8030    23.4660     9.5540     8.2990    10.1360 
  224.3750     2.4590   -16.2240   307.7140    78.4540    23.4880     9.4810     8.2360    10.0620 
  224.5000     2.4450   -16.1890   313.5430    76.7720    23.6020    10.0360     8.2060    10.0410 
  224.6250     2.4540   -16.1570   318.2250    72.9740    23.7660    10.8200     8.2030    10.0640 
  224.7500     2.4840   -16.1220   317.1070    70.4620    23.9200    11.5690     8.2020    10.0910 
  224.8750     2.4940   -16.0870   312.7660    71.6200    23.9400    11.7430     8.1820    10.0880 
  225.0000     2.4550   -16.0490   309.7910    73.9260    23.8640    11.2130     8.1370    10.0410 
  225.1250     2.3930   -16.0190   309.2360    74.9900    23.7980    10.4250     8.0660     9.9540 
  225.2500     2.3640   -15.9910   310.2860    73.7790    23.7610     9.9040     7.9820     9.8500 
  225.3750     2.4000   -15.9640   311.9000    71.0020    23.7150     9.6960     7.8910     9.7420 
  225.5000     2.4570   -15.9390   313.5940    69.4680    23.6580     9.7320     7.7960     9.6310 
  225.6250     2.4960   -15.9330   315.7500    69.4680    23.6450    10.0640     7.7080     9.5290 
  225.7500     2.5100   -15.9300   319.6500    69.4680    23.6330    10.3680     7.6520     9.4650 
  225.8750     2.5010   -15.9270   324.7240    69.4680    23.6060    10.0510     7.6630     9.4860 
  226.0000     2.4860   -15.9450   326.7860    69.4680    23.6360     9.0870     7.7720     9.6330 
  226.1250     2.4740   -15.9850   324.2950    69.4680    23.6820     8.0760     7.9910     9.9160 
  226.2500     2.4650   -16.0310   320.0380    69.4680    23.7250     7.3780     8.2530    10.2380 
  226.3750     2.4430   -16.0810   317.2070    69.4680    23.7920     6.7340     8.4830    10.4970 
  226.5000     2.4050   -16.1280   315.3120    69.4680    23.8790     6.0830     8.6080    10.6030 
  226.6250     2.3690   -16.1590   312.2290    69.4680    23.9170     5.5190     8.5710    10.4980 
  226.7500     2.3520   -16.1860   308.5360    69.4680    23.9380     5.1970     8.4290    10.2760 
  226.8750     2.3610   -16.2050   306.1950    69.4680    23.9520     5.0990     8.2490    10.0340 
  227.0000     2.3800   -16.2140   307.8160    69.4680    23.9460     5.1850     8.0920     9.8550 
  227.1250     2.3960   -16.2140   311.3320    69.4680    23.9380     5.4230     8.0060     9.7910 
  227.2500     2.4020   -16.2110   311.7390    69.4680    23.9180     5.7730     7.9790     9.8000 
  227.3750     2.4030   -16.2030   306.3020    69.4680    23.9050     6.1790     7.9880     9.8360 
  227.5000     2.4070   -16.2020   298.6340    69.4680    23.9620     6.4570     8.0110     9.8610 
  227.6250     2.4140   -16.1940   293.4230    69.4680    23.9970     6.4540     8.0460     9.8810 
  227.7500     2.4230   -16.1890   288.7240    69.4680    24.0070     6.2800     8.1140     9.9450 
  227.8750     2.4270   -16.1890   282.3940    69.4680    24.0180     6.1760     8.2340    10.0880 
  228.0000     2.4300   -16.1890   277.1020    69.4680    24.0480     6.2930     8.4070    10.3130 
  228.1250     2.4410   -16.1800   273.9030    69.4680    24.0580     6.4490     8.6040    10.5660 
  228.2500     2.4620   -16.1620   271.0020    69.4680    24.0340     6.3220     8.7590    10.7470 
  228.3750     2.4760   -16.1300   268.8870    69.4680    23.9350     6.0510     8.8200    10.7840 
  228.5000     2.4680   -16.0980   271.8560    69.4680    23.7960     6.0410     8.7690    10.6670 
  228.6250     2.4480   -16.0730   278.8470    69.4680    23.8560     6.3930     8.6300    10.4500 
  228.7500     2.4370   -16.0430   286.0170    69.4680    23.9490     6.8670     8.4810    10.2450 
  228.8750     2.4550   -16.0130   291.4430    69.4680    23.9560     7.6680     8.3630    10.1060 
  229.0000     2.4840   -15.9880   296.0890    69.4680    23.9200     8.8370     8.2940    10.0420 
  229.1250     2.5080   -15.9670   300.5220    69.4680    23.9230     9.8840     8.2680    10.0300 
  229.2500     2.5200   -15.9610   302.8180    69.4680    23.9330    10.6630     8.2600    10.0300 
  229.3750     2.5250   -15.9730   300.7930    69.4680    23.9460    11.4200     8.2540    10.0260 
  229.5000     2.5330   -15.9760   294.3490    69.4680    23.9350    12.1400     8.2410    10.0120 
  229.6250     2.5470   -15.9470   287.7700    69.4680    23.8200    12.4430     8.2100     9.9840 
  229.7500     2.5670   -15.8870   284.0320    69.4680    23.6750    12.0950     8.1700     9.9490 
  229.8750     2.5780   -15.8280   284.0150    69.4680    23.6870    11.5950     8.1390     9.9210 
