~V
VERS. 2.00: Ver 2.00
~W
STRT.M 105.0000:
STOP.M 279.0000:
STEP.M 0.1250:
NULL. -999.2500:
UWI. DF3027:
~C
DEPT.M :
DEN.GM/CC :
AC.US/MT :
GR.API :
CALI.CM :
RXO.OHMM :
RI. :
RML.OHMM :
SP.MV :
~A
# ...
  245.0000     2.5610   257.9720    72.6030    25.4660    11.6160    10.0240    12.1070    -8.0920 
  245.1250     2.5640   253.5070    71.4540    25.3830    12.7120    10.4530    12.7700    -8.1330 
  245.2500     2.5640   250.3550    71.3200    25.2650    13.5510    11.0200    13.5240    -8.1780 
  245.3750     2.5660   249.4090    71.7550    25.1080    14.4080    11.6370    14.2600    -8.2290 
  245.5000     2.5810   249.5160    71.2020    24.9670    14.8120    12.2330    14.9250    -8.2790 
  245.6250     2.5980   249.8180    70.4770    24.8860    13.6490    12.7620    15.4990    -8.3320 
  245.7500     2.5970   249.9480    69.7720    24.8400    11.5540    13.2160    15.9820    -8.3720 
  245.8750     2.5690   249.9170    70.0370    24.8290     9.7750    13.5690    16.3330    -8.3960 
  246.0000     2.5420   249.8630    70.9890    24.8560     9.0610    13.7800    16.5070    -8.4030 
  246.1250     2.5360   249.8200    72.3300    24.8700     9.3090    13.7940    16.4610    -8.4020 
  246.2500     2.5450   249.7480    72.3470    24.8180     9.7370    13.6580    16.2680    -8.3890 
  246.3750     2.5510   249.5540    70.2780    24.7050    10.1880    13.4190    15.9840    -8.3730 
  246.5000     2.5470   249.3240    69.5590    24.5940    10.8390    13.1240    15.6470    -8.3590 
  246.6250     2.5370   249.2300    71.3220    24.5480    11.5740    12.8050    15.2660    -8.3440 
  246.7500     2.5260   249.2910    72.7850    24.5390    11.7690    12.5040    14.8830    -8.3430 
  246.8750     2.5200   249.0650    73.3650    24.5270    11.1130    12.2640    14.5640    -8.3450 
  247.0000     2.5310   248.1090    74.2100    24.4940    10.0510    12.1390    14.3960    -8.3450 
  247.1250     2.5600   246.4940    75.3040    24.4800     9.5720    12.2130    14.5090    -8.3450 
  247.2500     2.5890   244.9550    75.5700    24.5290     9.8230    12.4790    14.8860    -8.3520 
  247.3750     2.5920   244.8810    75.1850    24.6090    10.4190    12.8970    15.4450    -8.3810 
  247.5000     2.5750   246.5330    73.3180    24.6180    11.2390    13.3730    16.0340    -8.4220 
  247.6250     2.5620   249.0430    68.5180    24.5360    12.6300    13.7670    16.4460    -8.4610 
  247.7500     2.5640   250.7180    65.8990    24.5040    14.1870    14.0060    16.6200    -8.4910 
  247.8750     2.5770   249.4650    68.5340    24.5680    15.1200    14.1040    16.6130    -8.5160 
  248.0000     2.5860   245.3740    73.7030    24.6600    15.5220    14.1380    16.5580    -8.5420 
  248.1250     2.5870   239.5710    77.5500    24.6800    16.7720    14.2060    16.5930    -8.5850 
  248.2500     2.5850   233.9500    78.5350    24.6140    18.5750    14.3330    16.7220    -8.6300 
  248.3750     2.5800   230.8120    78.4520    24.4840    18.8640    14.4920    16.8930    -8.6560 
  248.5000     2.5680   230.5480    77.0680    24.3280    16.6470    14.6380    17.0420    -8.6670 
  248.6250     2.5520   232.5930    73.9220    24.2260    13.6660    14.7270    17.1240    -8.6550 
  248.7500     2.5430   235.7120    71.3330    24.2860    12.1020    14.7610    17.1490    -8.6320 
  248.8750     2.5530   238.3470    72.2690    24.5360    11.9490    14.7420    17.1120    -8.6120 
  249.0000     2.5740   239.6490    75.2890    24.8560    12.3100    14.6470    16.9680    -8.5940 
  249.1250     2.5920   239.3890    76.5020    25.0320    12.3400    14.4180    16.6330    -8.5700 
  249.2500     2.5960   237.5600    74.7870    25.0050    12.0010    14.0760    16.1530    -8.5440 
  249.3750     2.5760   234.0230    73.5800    24.8320    11.5120    13.6920    15.6490    -8.5270 
  249.5000     2.5380   229.4220    74.2530    24.6460    11.0370    13.3910    15.3010    -8.5200 
  249.6250     2.5010   224.4780    75.3820    24.5500    11.1180    13.3540    15.3510    -8.5370 
  249.7500     2.4850   220.1180    75.5430    24.4480    12.3510    13.6200    15.8100    -8.5590 
  249.8750     2.4920   217.5270    74.2390    24.2610    14.7100    14.1670    16.5960    -8.5730 
  250.0000     2.4950   216.7490    72.1420    24.0740    17.2610    14.8960    17.5340    -8.5860 
  250.1250     2.4820   217.1790    71.3450    24.1020    18.8280    15.6340    18.3670    -8.5860 
  250.2500     2.4630   217.6310    72.9830    24.3090    19.3760    16.2160    18.9330    -8.5880 
  250.3750     2.4590   216.6020    74.2450    24.5290    18.9330    16.5670    19.1950    -8.5900 
  250.5000     2.4730   213.8650    74.6870    24.6200    17.8760    16.7070    19.2240    -8.5860 
  250.6250     2.4950   210.0250    76.9370    24.5300    18.4550    16.7190    19.1590    -8.5860 
  250.7500     2.5130   206.3030    81.2420    24.3400    22.2400    16.7380    19.1500    -8.5880 
  250.8750     2.5270   204.2880    82.9200    24.1050    26.5100    16.8340    19.2730    -8.5980 
  251.0000     2.5420   204.2720    80.7810    23.9230    26.9520    17.0610    19.5840    -8.6230 
  251.1250     2.5610   205.8830    76.9750    23.9640    23.9610    17.4860    20.1640    -8.6600 
  251.2500     2.5770   208.3400    74.2450    24.2020    22.9900    18.0870    20.9630    -8.7030 
  251.3750     2.5790   210.6780    74.4360    24.5290    24.2870    18.8140    21.8850    -8.7460 
  251.5000     2.5710   212.1270    76.0430    24.8230    25.0440    19.5700    22.7790    -8.7800 
  251.6250     2.5620   212.2400    76.9510    24.9970    23.8030    20.2230    23.4400    -8.8070 
  251.7500     2.5660   210.9320    76.5570    25.0490    22.5880    20.7110    23.8300    -8.8300 
  251.8750     2.5820   208.4050    75.5400    25.0180    22.5700    21.0500    24.0220    -8.8530 
  252.0000     2.5920   205.4430    72.8700    24.9950    23.4910    21.3190    24.1730    -8.8680 
  252.1250     2.5890   202.6050    70.3100    25.0280    25.6370    21.6050    24.4330    -8.8760 
  252.2500     2.5730   200.4570    71.9040    25.0200    29.0190    21.9160    24.7940    -8.8680 
  252.3750     2.5450   199.8430    76.1300    24.9230    31.9980    22.2000    25.1610    -8.8550 
  252.5000     2.5180   200.9040    79.9310    24.8120    32.3720    22.3610    25.3880    -8.8610 
  252.6250     2.5090   203.5010    81.7590    24.8130    31.0240    22.2250    25.2410    -8.8590 
  252.7500     2.5310   207.1290    79.1600    24.8590    33.2130    21.7380    24.6590    -8.8500 
  252.8750     2.5760   211.1330    74.3240    24.8850    41.0160    20.9080    23.6640    -8.8350 
  253.0000     2.6110   214.8530    73.1880    24.8890    46.7710    19.8470    22.4070    -8.8170 
  253.1250     2.6190   217.8070    77.4160    24.8930    39.1040    18.7770    21.1840    -8.8220 
  253.2500     2.6080   219.4950    81.2560    24.9150    26.0480    17.9500    20.3110    -8.8540 
  253.3750     2.6030   219.3270    81.4160    24.9580    19.3560    17.5240    19.9800    -8.9050 
  253.5000     2.6110   217.8900    81.2690    24.8640    22.0020    17.5670    20.2500    -8.9600 
  253.6250     2.6170   216.1190    82.0710    24.5570    28.9850    18.1000    21.0860    -9.0160 
  253.7500     2.6050   215.2110    79.2890    24.4810    32.9830    18.8810    22.1360    -9.0880 
  253.8750     2.5870   216.3260    75.4070    24.7330    32.7200    19.7000    23.1160    -9.1760 
  254.0000     2.5870   218.8710    74.7060    24.8230    31.1420    20.3860    23.8320    -9.2670 
  254.1250     2.5950   221.5380    78.0050    24.4200    30.2520    20.8760    24.2510    -9.3450 
  254.2500     2.5920   222.6980    82.0470    24.1460    28.6320    21.3190    24.6190    -9.3920 
  254.3750     2.5830   220.7480    83.4860    24.3220    25.8500    21.8460    25.1240    -9.3940 
  254.5000     2.5890   216.4820    82.6240    24.6370    23.4270    22.5070    25.8210    -9.3590 
  254.6250     2.6070   211.5290    80.6570    24.7810    23.1980    23.1860    26.5460    -9.3060 
  254.7500     2.6170   207.9270    80.7510    24.8760    23.3660    23.6350    26.9880    -9.2340 
  254.8750     2.6120   207.5500    82.1620    24.9780    22.0290    23.6640    26.9360    -9.1440 
