~V
VERS. 2.00: Ver 2.00
~W
STRT.M 64.0000:
STOP.M 262.0000:
STEP.M 0.1250:
NULL. -999.2500:
UWI. DF3019:
~C
DEPT.M :
GR.API :
RML.OHMM :
RI. :
RXO.OHMM :
CALI.CM :
DEN.GM/CC :
SP.MV :
~A
# ...
  131.5000    94.8460     7.5300     6.0190     5.9090    23.9220     2.3100   -21.3230 
  131.6250    99.0080     7.5310     5.9300     5.8320    23.9160     2.3240   -21.3050 
  131.7500   100.4850     7.5170     5.8600     5.8060    23.8880     2.3330   -21.3690 
  131.8750    99.2260     7.4760     5.7960     5.7410    23.8360     2.3320   -21.5750 
  132.0000    97.8650     7.4380     5.7490     5.7510    23.8140     2.3140   -21.8540 
  132.1250    99.7720     7.4900     5.7720     5.7690    23.7850     2.2810   -22.3410 
  132.2500   101.4490     7.6930     5.9030     5.8100    23.6740     2.2420   -22.8710 
  132.3750    98.5030     8.0590     6.1610     5.9980    23.4640     2.2080   -23.4320 
  132.5000    91.7800     8.5350     6.5240     6.5790    23.3110     2.1840   -24.0330 
  132.6250    85.3650     9.0060     6.9280     7.6200    23.3690     2.1660   -24.5030 
  132.7500    80.4830     9.3910     7.2930     8.3870    23.4610     2.1450   -24.9000 
  132.8750    78.5040     9.7210     7.6060     8.8340    23.5080     2.1170   -25.1460 
  133.0000    78.6320    10.1230     7.9270     8.8470    23.5260     2.0890   -25.1810 
  133.1250    79.1340    10.7850     8.3740     8.8740    23.5310     2.0870   -24.9320 
  133.2500    78.2470    11.6440     8.9430     9.0770    23.5550     2.1260   -24.5160 
  133.3750    76.3440    12.4490     9.5070     9.7080    23.6280     2.2070   -23.9200 
  133.5000    75.5100    12.8450     9.8400    10.6390    23.7320     2.3090   -23.0870 
  133.6250    78.1530    12.4160     9.6400    12.5230    23.8470     2.3900   -22.3400 
  133.7500    84.2120    11.3210     8.9530    13.9670    23.9360     2.4230   -21.5980 
  133.8750    92.7810     9.9030     7.9780    11.3650    23.9520     2.4110   -20.9110 
  134.0000   102.8780     8.6000     7.0130     7.6830    23.8770     2.3800   -20.4380 
  134.1250   110.2440     7.8220     6.3690     6.2780    23.7660     2.3580   -20.1130 
  134.2500   109.5970     7.5880     6.1160     6.0910    23.6700     2.3500   -19.9290 
  134.3750   102.2580     7.8400     6.2540     6.1710    23.5660     2.3500   -19.9000 
  134.5000    94.7700     8.4450     6.7120     6.3560    23.4790     2.3480   -20.1030 
  134.6250    91.6740     9.2230     7.3640     6.6010    23.3810     2.3350   -20.2900 
  134.7500    91.9980     9.9150     7.9890     7.0330    23.3130     2.3090   -20.5450 
  134.8750    94.3960    10.3290     8.4170     7.6390    23.3800     2.2730   -20.7730 
  135.0000    96.9000    10.3410     8.5270     8.3270    23.6470     2.2370   -20.8780 
  135.1250    96.5640     9.8860     8.2440     8.5130    23.8760     2.2130   -21.0550 
  135.2500    94.5180     9.1940     7.7380     8.1890    23.9950     2.2040   -21.1190 
  135.3750    92.1250     8.4930     7.1860     7.7180    24.0320     2.2070   -21.2110 
  135.5000    89.6580     8.0200     6.7710     7.3480    23.9800     2.2100   -21.3300 
  135.6250    86.3080     8.1120     6.7470     7.0200    23.7500     2.2020   -21.3750 
  135.7500    82.4260     8.8910     7.2330     7.3430    23.4430     2.1880   -21.4030 
  135.8750    80.5060    10.4050     8.3100     8.4430    23.3710     2.1880   -21.3710 
  136.0000    80.0380    12.4700     9.9000    10.3680    23.5740     2.2230   -21.2500 
  136.1250    77.0480    14.5080    11.6460    13.7280    23.7380     2.3050   -21.0500 
  136.2500    71.6720    15.7420    12.9080    18.4260    23.7980     2.4070   -20.8140 
  136.3750    68.9190    15.6480    13.1730    23.2810    23.8520     2.4920   -20.4490 
  136.5000    73.7610    14.1960    12.2690    24.7710    23.9350     2.5320   -20.0110 
  136.6250    85.0940    11.9350    10.5140    18.4490    24.0650     2.5120   -19.6010 
  136.7500    94.8130     9.8930     8.7640    11.6520    24.2290     2.4660   -19.1410 
  136.8750    98.3400     8.5790     7.4700     7.5390    24.3690     2.4140   -18.7830 
  137.0000    95.4120     8.0880     6.7740     6.3860    24.4320     2.3690   -18.5340 
  137.1250    91.1410     8.2850     6.6650     6.6720    24.4420     2.3350   -18.3170 
  137.2500    91.4100     8.7020     6.8450     7.1880    24.4580     2.3090   -18.1280 
  137.3750    96.0470     9.0370     7.0990     7.8110    24.4920     2.2890   -17.9800 
  137.5000   101.0680     9.1100     7.2600     8.5360    24.5170     2.2740   -17.8510 
  137.6250   101.3710     8.9350     7.2670     8.7620    24.5240     2.2630   -17.6930 
  137.7500    97.0450     8.8330     7.2890     8.4310    24.5260     2.2580   -17.5880 
  137.8750    92.3730     9.1270     7.5490     8.2800    24.5250     2.2620   -17.4420 
  138.0000    89.0650    10.0520     8.2550     8.9600    24.5210     2.2850   -17.2890 
  138.1250    84.5590    11.7740     9.6120    10.7010    24.5180     2.3340   -17.1440 
  138.2500    78.0060    13.9690    11.4480    13.8150    24.5040     2.4030   -16.9750 
  138.3750    72.2310    16.2690    13.5060    17.5900    24.4530     2.4790   -16.9010 
  138.5000    69.3210    18.2490    15.4230    20.0510    24.3130     2.5480   -16.7700 
  138.6250    67.0920    19.4550    16.7420    21.2660    24.0570     2.5950   -16.6700 
  138.7500    63.6850    19.9580    17.4210    20.2390    23.7670     2.6230   -16.6080 
  138.8750    60.4550    19.9740    17.5970    18.6160    23.5840     2.6390   -16.5020 
  139.0000    58.0820    19.7730    17.4980    17.5770    23.5340     2.6480   -16.5020 
  139.1250    58.0180    19.5320    17.2890    17.4020    23.5580     2.6520   -16.4070 
  139.2500    58.7110    19.2740    17.0380    17.9730    23.5650     2.6480   -16.3220 
  139.3750    58.0300    18.9560    16.7350    19.2350    23.5720     2.6320   -16.2730 
  139.5000    55.9210    18.5740    16.3900    19.7110    23.6250     2.6050   -16.2640 
  139.6250    53.5230    18.2180    16.0730    18.5150    23.7820     2.5710   -16.2150 
  139.7500    53.1660    17.9900    15.8680    16.8640    24.0040     2.5390   -16.1690 
  139.8750    54.4990    17.9190    15.8050    15.5370    24.2210     2.5130   -16.1780 
  140.0000    56.5780    17.9420    15.8510    15.2590    24.3160     2.4950   -16.0740 
  140.1250    59.2850    17.9250    15.9100    15.8020    24.3230     2.4880   -16.1000 
  140.2500    62.6670    17.7850    15.8960    16.2410    24.3430     2.4910   -16.1570 
  140.3750    65.9760    17.5440    15.7980    15.9920    24.4240     2.5020   -16.1350 
  140.5000    67.3040    17.3040    15.6690    15.1750    24.5560     2.5180   -16.1050 
  140.6250    65.2970    17.1890    15.5970    14.6570    24.5850     2.5320   -16.0840 
  140.7500    62.8640    17.1910    15.5990    14.4850    24.5540     2.5390   -16.0810 
  140.8750    62.0610    17.2350    15.6350    15.0490    24.5340     2.5370   -16.0500 
  141.0000    62.8440    17.2400    15.6520    15.9910    24.5460     2.5250   -16.1110 
  141.1250    64.8260    17.1820    15.6280    16.1570    24.5730     2.5090   -16.0990 
  141.2500    66.6280    17.1470    15.6160    15.5750    24.5690     2.4950   -16.0590 
  141.3750    67.3150    17.2280    15.6900    14.9880    24.5500     2.4860   -16.1110 
  141.5000    67.8570    17.4700    15.8980    15.1400    24.5280     2.4850   -16.1170 
  141.6250    68.7100    17.8500    16.2470    16.3640    24.5060     2.4900   -16.1950 
  141.7500    68.7890    18.2420    16.6420    17.8160    24.4960     2.4960   -16.2420 
  141.8750    66.6590    18.5570    16.9970    18.6190    24.5020     2.5030   -16.2530 
  142.0000    64.0410    18.7460    17.2420    17.9090    24.4790     2.5090   -16.2700 
  142.1250    64.7180    18.7850    17.3250    17.1960    24.3860     2.5140   -16.2320 
  142.2500    66.7290    18.7140    17.2740    16.9940    24.3000     2.5200   -16.2730 
  142.3750    66.9250    18.5360    17.0990    17.0710    24.3110     2.5260   -16.2680 
  142.5000    64.2880    18.2450    16.8110    17.2530    24.4090     2.5320   -16.2210 
  142.6250    61.7350    17.8410    16.4190    17.3120    24.4890     2.5340   -16.2440 
