~V
VERS. 2.00: Ver 2.00
~W
STRT.M 110.0000:
STOP.M 277.0000:
STEP.M 0.1250:
NULL. -999.2500:
UWI. DF3015:
~C
DEPT.M :
DEN.GM/CC :
SP.MV :
AC.US/MT :
GR.API :
CALI.CM :
RXO.OHMM :
RI. :
RML.OHMM :
~A
# ...
  220.0000     2.2730   -21.7520   371.8740    67.2660    24.3520    43.2160    64.6050    73.1190 
  220.1250     2.2800   -21.6190   363.6790    69.7590    24.3520    41.2690    65.9010    74.3500 
  220.2500     2.2670   -21.3830   350.2320    69.1390    24.3520    41.3360    69.8900    78.8720 
  220.3750     2.2480   -21.0150   332.6750    66.2810    24.3520    43.2780    77.4530    87.5200 
  220.5000     2.2580   -20.5310   315.8630    66.0580    24.3520    48.8820    87.7560    98.8640 
  220.6250     2.3310   -19.9030   308.1250    68.8240    24.3520    62.0710    93.3770   101.9440 
  220.7500     2.4370   -19.1890   311.3660    72.1490    24.3520    82.5250    84.9000    86.3270 
  220.8750     2.5240   -18.3980   323.7900    73.7530    24.3520    90.2380    63.0070    58.9700 
  221.0000     2.5520   -17.6050   340.6850    76.2300    24.3520    68.3800    39.1550    34.9090 
  221.1250     2.5180   -17.0230   356.4810    80.6490    24.3520    32.3390    23.3550    20.8960 
  221.2500     2.4780   -16.7460   368.9170    84.3580    24.3520    13.8400    14.5300    13.2290 
  221.3750     2.4600   -16.8060   377.9650    84.1860    24.3520     9.0050    10.1940     9.4900 
  221.5000     2.4610   -17.1550   384.1750    81.9740    24.3830     8.5690     8.3580     8.1020 
  221.6250     2.4610   -17.7840   388.0820    80.1390    24.5090     8.4570     8.0670     8.2560 
  221.7500     2.4450   -18.5480   390.5010    79.4480    24.7340     8.1920     8.5430     9.0300 
  221.8750     2.4210   -19.3960   391.6770    83.3630    24.9360     8.0550     9.3720     9.8990 
  222.0000     2.4080   -20.2490   391.4360    92.0630    25.0350     8.1550    10.1250    10.4830 
  222.1250     2.4150   -20.9200   390.0770   103.0020    25.0550     8.2920    10.4730    10.5950 
  222.2500     2.4250   -21.3830   388.7910   113.3560    25.0530     8.3650    10.4840    10.4150 
  222.3750     2.4270   -21.6440   387.9110   122.8340    25.0550     8.4160    10.2580    10.0570 
  222.5000     2.4250   -21.7850   386.9670   130.4330    25.0570     8.4580     9.9150     9.6400 
  222.6250     2.4330   -21.8780   384.6950   133.2700    25.0550     8.4680     9.6360     9.3810 
  222.7500     2.4410   -22.0400   380.6580   130.1900    25.0520     8.5150     9.5870     9.4840 
  222.8750     2.4360   -22.3190   375.3010   123.1050    25.0520     8.9080     9.8990    10.1340 
  223.0000     2.4110   -22.7050   369.8500   117.6680    25.0530    10.0750    10.6770    11.4640 
  223.1250     2.3780   -23.2130   366.0880   112.5630    25.0510    12.8100    12.0890    13.6400 
  223.2500     2.3510   -23.7950   364.5430   104.8180    25.0500    16.1550    14.0230    16.4190 
  223.3750     2.3400   -24.4270   364.9330    96.4120    25.0500    19.2140    16.2980    19.4880 
  223.5000     2.3470   -25.0600   366.4840    91.6840    25.0500    21.5150    18.5730    22.3850 
  223.6250     2.3580   -25.6280   368.5750    90.8560    25.0500    22.9960    20.3310    24.4880 
  223.7500     2.3580   -26.0760   370.9480    90.6830    25.0500    23.9270    21.3920    25.6850 
  223.8750     2.3460   -26.3930   373.6270    87.4970    25.0500    23.9190    21.7950    26.0990 
  224.0000     2.3310   -26.5960   376.3590    83.0290    25.0500    22.9200    21.7460    26.0300 
  224.1250     2.3260   -26.6750   378.2940    80.4940    25.0500    21.7700    21.5020    25.8140 
  224.2500     2.3270   -26.6770   378.8740    80.5230    25.0500    21.3430    21.3330    25.7420 
  224.3750     2.3270   -26.6180   378.1820    80.8530    25.0500    21.7000    21.3980    25.9670 
  224.5000     2.3250   -26.5230   376.9580    81.1700    25.0500    22.5650    21.8000    26.5630 
  224.6250     2.3220   -26.4390   376.2330    82.0360    25.0500    23.4470    22.5950    27.5150 
  224.7500     2.3150   -26.3980   376.2540    82.6790    25.0500    24.4770    23.6150    28.6000 
  224.8750     2.3050   -26.3880   376.6470    83.8230    25.0500    26.0170    24.7580    29.7160 
  225.0000     2.2940   -26.4150   376.9000    85.3140    25.0500    27.4450    26.0010    30.9090 
  225.1250     2.2870   -26.4550   376.7040    84.3500    25.0500    27.5800    27.4490    32.4040 
  225.2500     2.2870   -26.4760   376.1420    81.6110    25.0500    27.0110    29.1640    34.3210 
  225.3750     2.2940   -26.4300   375.1790    81.2120    25.0500    28.1800    31.0520    36.5070 
  225.5000     2.3020   -26.3010   373.7650    82.0150    25.0450    31.8590    32.5970    38.2130 
  225.6250     2.3090   -26.0580   372.2130    82.3910    25.0260    34.6370    32.4780    37.6860 
  225.7500     2.3240   -25.6770   371.2220    83.7110    24.9950    34.0060    30.2520    34.5070 
  225.8750     2.3500   -25.1960   371.1450    87.4760    24.9750    30.4090    26.5200    29.6420 
  226.0000     2.3760   -24.6500   371.6410    91.8760    24.9610    24.3170    22.6110    24.8590 
  226.1250     2.3810   -24.1720   371.6220    94.1710    24.9210    17.6670    19.9520    21.9390 
  226.2500     2.3720   -23.8150   370.4250    91.9730    24.7760    14.5270    18.9530    21.2490 
  226.3750     2.3650   -23.6340   368.2210    85.0880    24.5010    16.7000    19.8000    22.8880 
  226.5000     2.3680   -23.6310   365.8070    78.3760    24.2770    22.2600    22.6050    26.8030 
  226.6250     2.3650   -23.8300   364.2040    75.4040    24.2030    28.9410    27.5980    32.9640 
  226.7500     2.3470   -24.2080   363.7070    75.3870    24.2560    34.2510    33.7610    40.0320 
  226.8750     2.3190   -24.7210   364.2660    75.9780    24.4400    39.0500    39.8510    46.5330 
  227.0000     2.2960   -25.3280   365.5880    75.7070    24.7270    44.0430    44.6930    51.2650 
  227.1250     2.2850   -25.8900   367.2620    74.6630    24.9540    48.2620    47.7450    53.9480 
  227.2500     2.2800   -26.3480   368.7060    73.1160    25.0360    50.5370    49.7860    55.7470 
  227.3750     2.2850   -26.7000   369.5770    71.5230    25.0500    50.8540    51.2790    57.2360 
  227.5000     2.2970   -26.9650   369.8540    69.9970    25.0490    51.6590    52.4620    58.6350 
  227.6250     2.3100   -27.1570   369.7760    68.9840    25.0350    54.6050    53.4770    60.0730 
  227.7500     2.3190   -27.2910   369.6820    69.0600    25.0060    57.3180    54.5410    61.7070 
  227.8750     2.3260   -27.3850   369.5930    70.2030    24.9790    57.2400    55.8270    63.6730 
  228.0000     2.3340   -27.4490   369.3530    71.5840    24.9680    55.3930    57.4240    65.9980 
  228.1250     2.3330   -27.5170   368.6860    72.5440    24.9550    54.8620    59.2180    68.4130 
  228.2500     2.3250   -27.5790   367.4630    72.3120    24.8950    56.7400    60.7390    70.2680 
  228.3750     2.3160   -27.6010   365.6490    72.0610    24.7400    57.1400    61.5440    71.0050 
  228.5000     2.3100   -27.5890   363.3910    71.5470    24.4830    53.8660    61.4800    70.5400 
  228.6250     2.3110   -27.5270   360.6750    71.5280    24.2750    48.7990    60.8860    69.4960 
  228.7500     2.3140   -27.4590   357.4350    72.8430    24.1990    45.9410    60.6440    69.0680 
  228.8750     2.3160   -27.3950   353.7590    73.5190    24.1980    46.5340    61.4560    70.0890 
  229.0000     2.3170   -27.3010   350.3250    70.7770    24.2310    53.6030    63.7080    72.9290 
  229.1250     2.3270   -27.1310   348.7560    66.2570    24.3520    66.6690    67.3920    77.4510 
  229.2500     2.3440   -26.9120   349.7970    64.5400    24.5880    76.5180    71.4770    82.2880 
  229.3750     2.3540   -26.6620   353.2380    66.9630    24.8940    79.9410    75.0640    86.2450 
  229.5000     2.3470   -26.3820   357.7090    67.6180    25.0780    80.0970    77.5760    88.6220 
  229.6250     2.3230   -26.0550   360.4680    65.4860    25.1220    80.6140    78.9770    89.5490 
  229.7500     2.2980   -25.6770   359.3510    63.6130    25.1220    81.2460    80.0940    90.2310 
  229.8750     2.2900   -25.2390   352.8170    62.5510    25.1220    83.5410    81.4140    91.2730 
