~V
VERS. 2.00: Ver 2.00
~W
STRT.M 64.0000:
STOP.M 268.0000:
STEP.M 0.1250:
NULL. -999.2500:
UWI. DF3073:
~C
DEPT.M :
SP.MV :
GR.API :
CALI.CM :
RXO.OHMM :
RI. :
RML.OHMM :
DEN.GM/CC :
~A
# ...
   86.5000   -26.5350    98.1130    23.4960     5.9270     4.7150     7.0880  -999.2500 
   86.6250   -26.6400    99.9490    23.4720     5.9810     4.6010     6.9250  -999.2500 
   86.7500   -26.8160    98.8370    23.4190     5.9590     4.6310     6.9850  -999.2500 
   86.8750   -27.0280    96.4520    23.4670     5.8980     4.8180     7.2440  -999.2500 
   87.0000   -27.2670    94.3500    23.4820     5.8960     5.1190     7.6040  -999.2500 
   87.1250   -27.5340    90.3920    23.4870     6.1140     5.4780     7.9640  -999.2500 
   87.2500   -27.7850    85.2910    23.4440     6.6240     5.8090     8.2840  -999.2500 
   87.3750   -27.9960    81.4980    23.4820     7.4600     6.0520     8.5280  -999.2500 
   87.5000   -28.1820    80.4180    23.5100     8.0820     6.1530     8.6390  -999.2500 
   87.6250   -28.3180    82.4800    23.4840     7.8830     6.0780     8.5840  -999.2500 
   87.7500   -28.4170    87.2700    23.4210     7.3460     5.9040     8.4430  -999.2500 
   87.8750   -28.5160    90.6710    23.4690     6.7370     5.7080     8.3260  -999.2500 
   88.0000   -28.5910    89.7960    23.4940     6.4130     5.5350     8.2770  -999.2500 
   88.1250   -28.6490    88.2980    23.4990     6.4450     5.3810     8.1410  -999.2500 
   88.2500   -28.7190    89.9100    23.5650     6.6010     5.2250     7.8780  -999.2500 
   88.3750   -28.7800    92.4990    23.8100     6.6600     5.0940     7.5500  -999.2500 
   88.5000   -28.8770    93.8450    24.1230     6.6910     5.0030     7.2450  -999.2500 
   88.6250   -29.0360    94.0570    24.0540     6.6830     4.9810     7.0850  -999.2500 
   88.7500   -29.2220    92.7670    24.0520     6.4790     5.0720     7.1350  -999.2500 
   88.8750   -29.4360    87.8190    24.0980     6.1020     5.3300     7.4740  -999.2500 
   89.0000   -29.6830    79.8000    24.0590     6.1040     5.7410     8.0450  -999.2500 
   89.1250   -29.9330    74.0140    23.7780     8.4820     6.2650     8.7810  -999.2500 
   89.2500   -30.1830    71.9890    23.7310     9.9390     6.8000     9.4940  -999.2500 
   89.3750   -30.4370    71.9210    23.6680     9.5540     7.2260     9.9590  -999.2500 
   89.5000   -30.6340    72.5460    24.2130     8.8600     7.4770    10.1080  -999.2500 
   89.6250   -30.7360    75.0120    23.4980     8.6730     7.5640    10.0450  -999.2500 
   89.7500   -30.7500    76.8250    23.2900     8.5610     7.5590     9.9600  -999.2500 
   89.8750   -30.6310    75.9470    23.1350     8.4730     7.5320     9.9320  -999.2500 
   90.0000   -30.4150    73.1700    23.1120     8.4190     7.5700    10.0380  -999.2500 
   90.1250   -30.0960    70.9520    23.1210     8.4680     7.6770    10.2280  -999.2500 
   90.2500   -29.6670    71.6210    23.2690     8.5790     7.7100    10.3290  -999.2500 
   90.3750   -29.1930    75.8480    23.5840     8.6420     7.5890    10.2470  -999.2500 
   90.5000   -28.6640    83.8970    23.7150     8.6220     7.2790     9.9160  -999.2500 
   90.6250   -28.1010    91.6250    23.8030     8.4950     6.7870     9.3600  -999.2500 
   90.7500   -27.5480    95.9770    23.8840     8.0880     6.2270     8.7290  -999.2500 
   90.8750   -27.0310    99.8480    23.6350     7.2800     5.6770     8.1530  -999.2500 
   91.0000   -26.5900   105.6540    23.4430     6.3200     5.1990     7.7200  -999.2500 
   91.1250   -26.2350   111.5670    23.4140     5.7930     4.8620     7.4790  -999.2500 
   91.2500   -25.9950   112.9850    23.4280     5.6000     4.6430     7.3830  -999.2500 
   91.3750   -25.8520   110.2800    23.5020     5.6280     4.5120     7.3640  -999.2500 
   91.5000   -25.8150   107.8380    23.5880     5.7640     4.4440     7.3470  -999.2500 
   91.6250   -25.9080   105.9460    23.6940     5.6900     4.4390     7.3180  -999.2500 
   91.7500   -26.1080   101.3030    23.7030     5.5330     4.4830     7.2800  -999.2500 
   91.8750   -26.3990    94.9870    23.7000     5.4870     4.5960     7.2820  -999.2500 
   92.0000   -26.7360    90.3070    23.7090     5.5490     4.7990     7.3650  -999.2500 
   92.1250   -27.1280    85.4150    23.7320     5.6680     5.1110     7.5560  -999.2500 
   92.2500   -27.5170    77.7530    23.9500     6.0500     5.5050     7.8350  -999.2500 
   92.3750   -27.8740    71.3210    24.2990     6.7630     5.9540     8.1770  -999.2500 
   92.5000   -28.2190    69.4070    24.5740     7.4970     6.4130     8.5370  -999.2500 
   92.6250   -28.5010    68.5890    24.6210     7.8730     6.8100     8.8370  -999.2500 
   92.7500   -28.6940    67.4370    24.6590     8.0240     7.1130     9.0610  -999.2500 
   92.8750   -28.8100    68.5760    24.6760     8.1040     7.3220     9.2440  -999.2500 
   93.0000   -28.8410    70.7660    24.6360     8.2440     7.4600     9.4020  -999.2500 
   93.1250   -28.7750    70.9580    24.6440     8.5780     7.5360     9.5620  -999.2500 
   93.2500   -28.6760    70.2480    24.6690     8.9940     7.5550     9.7100  -999.2500 
   93.3750   -28.5220    69.4180    24.6820     8.9390     7.5010     9.8140  -999.2500 
   93.5000   -28.3220    66.2030    24.6490     8.4680     7.3360     9.8200  -999.2500 
   93.6250   -28.0720    63.4910    24.6380     8.3500     7.0300     9.6480  -999.2500 
   93.7500   -27.7920    66.5080    24.6600     8.2580     6.5960     9.2430  -999.2500 
   93.8750   -27.5160    73.1310    24.6720     7.9860     6.0670     8.5770  -999.2500 
   94.0000   -27.2670    79.3320    24.6390     7.3340     5.5170     7.7500  -999.2500 
   94.1250   -27.0500    84.6770    24.6620     6.6540     5.0880     6.9730  -999.2500 
   94.2500   -26.8800    88.0010    24.6930     6.3060     4.8810     6.4570  -999.2500 
   94.3750   -26.8000    86.6310    24.6910     6.2480     4.9930     6.4370  -999.2500 
   94.5000   -26.7850    82.3130    24.6480     6.2700     5.5410     7.1130  -999.2500 
   94.6250   -26.8640    79.4890    24.6870     6.7130     6.7250     8.6900  -999.2500 
   94.7500   -27.0440    77.5820    24.7190     8.8730     8.5050    10.9780  -999.2500 
   94.8750   -27.2700    73.9930    24.4730    13.4430    10.8190    13.7300  -999.2500 
   95.0000   -27.5290    68.3610    24.3330    18.1140    13.3180    16.3950  -999.2500 
   95.1250   -27.8710    64.4020    24.2360    20.3360    15.1470    17.9920  -999.2500 
   95.2500   -28.2430    65.3080    24.5350    20.1190    15.7070    18.1540  -999.2500 
   95.3750   -28.6330    69.9480    24.7550    18.0720    14.9260    16.9140  -999.2500 
   95.5000   -29.0240    74.2140    24.8620    15.4360    13.2490    14.7670  -999.2500 
   95.6250   -29.3850    73.3800    24.5770    13.3200    11.3790    12.5360  -999.2500 
   95.7500   -29.7130    70.7230    24.2770    10.8350     9.7900    10.7580  -999.2500 
   95.8750   -29.9220    69.3710    24.0110     9.0620     8.5870     9.5440  -999.2500 
   96.0000   -30.0670    69.4020    23.7050     8.4660     7.7800     8.8690  -999.2500 
   96.1250   -30.3080    69.6020    23.4320     8.3570     7.3770     8.6820  -999.2500 
   96.2500   -30.4690    70.0500    23.2380     8.3350     7.2340     8.7440  -999.2500 
   96.3750   -30.5210    70.9290    23.1130     8.3130     7.2480     8.9210  -999.2500 
   96.5000   -30.4700    69.6240    23.0910     8.2020     7.3020     9.0920  -999.2500 
   96.6250   -30.3220    66.0120    23.0430     8.0450     7.2550     9.0940  -999.2500 
   96.7500   -30.1000    64.7260    22.8570     7.9800     7.0590     8.8940  -999.2500 
   96.8750   -29.8150    67.7850    22.5890     8.0140     6.6990     8.4640  -999.2500 
   97.0000   -29.5240    74.4230    22.5060     7.9750     6.2000     7.8460  -999.2500 
   97.1250   -29.2400    81.2550    22.5660     7.4750     5.6650     7.1710  -999.2500 
   97.2500   -29.0210    84.1870    22.7080     6.5450     5.2010     6.6030  -999.2500 
   97.3750   -28.9060    82.2940    22.7610     5.8680     4.8760     6.2240  -999.2500 
   97.5000   -28.9020    78.4710    22.8320     5.8140     4.7420     6.0760  -999.2500 
   97.6250   -29.0740    75.5820    23.1580     5.9040     4.8300     6.1950  -999.2500 
