~V
VERS. 2.00: Ver 2.00
~W
STRT.M 120.0000:
STOP.M 268.0000:
STEP.M 0.1250:
NULL. -999.2500:
UWI. DF3028:
~C
DEPT.M :
DEN.GM/CC :
GR.API :
CALI.CM :
RXO.OHMM :
RI. :
RML.OHMM :
SP.MV :
~A
# ...
  165.0000     2.2710    69.8090    27.6490    62.9420    81.7220    90.7750   -32.6910 
  165.1250     2.2610    70.3090    27.6080    59.8430    86.4600    97.3490   -33.1600 
  165.2500     2.2530    69.2330    27.5850    59.8500    92.3460   105.3160   -33.7140 
  165.3750     2.2430    65.9570    27.5750    63.8680   100.4990   115.9870   -34.3540 
  165.5000     2.2370    63.2890    27.5660    71.3100   112.1590   130.8630   -35.0950 
  165.6250     2.2380    60.4150    27.5780    78.4990   128.9320   152.0590   -35.9300 
  165.7500     2.2360    56.3550    27.6110    82.1620   149.9560   178.7920   -36.8610 
  165.8750     2.2270    53.7750    27.6420    83.1770   173.7430   209.4290   -37.8590 
  166.0000     2.2150    55.7820    27.6570    84.7800   197.4560   240.3110   -38.9250 
  166.1250     2.2120    59.0760    27.6420    89.9170   216.8280   265.5800   -40.0370 
  166.2500     2.2130    59.5530    27.6040    96.1280   230.6550   283.5720   -41.1820 
  166.3750     2.2150    59.5780    27.5610    99.1800   240.0940   296.0630   -42.3340 
  166.5000     2.2130    61.3140    27.5470    98.7010   248.3740   307.4830   -43.4470 
  166.6250     2.2030    62.9760    27.5630   100.2070   260.4380   324.0270   -44.4450 
  166.7500     2.1880    63.0140    27.5740   104.5580   278.4670   347.8180   -45.2810 
  166.8750     2.1790    61.6170    27.5680   107.6280   301.7630   377.3340   -45.9150 
  167.0000     2.1800    59.7570    27.5530   108.0850   326.2980   406.6640   -46.2780 
  167.1250     2.1840    58.9950    27.5430   108.8440   343.6380   423.8040   -46.3090 
  167.2500     2.1820    59.9120    27.5400   109.8340   348.5790   423.2620   -46.0110 
  167.3750     2.1790    60.8040    27.5380   109.7440   340.7260   406.9220   -45.3770 
  167.5000     2.1810    60.7740    27.5430   109.0110   324.4900   382.4100   -44.4250 
  167.6250     2.1880    61.0780    27.5800   105.5480   306.3320   358.4080   -43.2110 
  167.7500     2.1910    61.9650    27.6420    97.6940   291.0250   339.3760   -41.8650 
  167.8750     2.1890    62.7600    27.6910    89.8120   279.9310   326.1780   -40.4450 
  168.0000     2.1840    63.0600    27.6910    89.4780   273.0010   318.2310   -39.0360 
  168.1250     2.1780    60.9880    27.6630   100.5240   269.7190   314.5950   -37.6970 
  168.2500     2.1780    57.0390    27.6560   112.3330   268.2600   313.0320   -36.4870 
  168.3750     2.1840    54.8480    27.6570   114.3250   267.8400   312.5470   -35.4380 
  168.5000     2.1920    55.8630    27.6270   105.9170   268.0760   312.4470   -34.5740 
  168.6250     2.1900    56.4720    27.5600    99.0420   268.7800   311.9030   -33.8750 
  168.7500     2.1830    55.0980    27.5000   101.3020   269.5740   310.1660   -33.2610 
  168.8750     2.1810    55.2570    27.4580   107.5180   270.0220   306.4630   -32.7210 
  169.0000     2.1850    57.6820    27.4230   108.8870   269.2370   299.6880   -32.2430 
  169.1250     2.1900    59.0820    27.3900   104.2750   265.3400   287.9690   -31.7900 
  169.2500     2.1880    58.4010    27.3840   100.8830   257.8860   272.2180   -31.3520 
  169.3750     2.1810    56.8880    27.4440    99.5570   247.1450   253.8800   -30.9370 
  169.5000     2.1730    56.6470    27.5420    99.0250   233.6300   233.8890   -30.5130 
  169.6250     2.1720    59.2250    27.5780   103.8270   215.9690   210.4900   -30.0650 
  169.7500     2.1790    63.5210    27.5170   115.3700   191.9870   181.0600   -29.6230 
  169.8750     2.1950    66.5240    27.4140   123.1510   159.2760   144.4240   -29.1780 
  170.0000     2.2200    67.6870    27.3390   113.4190   119.9700   104.7820   -28.7110 
  170.1250     2.2490    70.8660    27.3090    83.5480    82.7990    71.0570   -28.2290 
  170.2500     2.2700    77.4890    27.2970    52.3310    54.4950    46.6580   -27.7420 
  170.3750     2.2810    85.6080    27.2930    29.8290    36.0660    30.9920   -27.2750 
  170.5000     2.2920    89.9330    27.2820    18.0030    25.5340    21.9810   -26.8540 
  170.6250     2.3220    89.1810    27.2220    14.1680    20.9640    18.2060   -26.5370 
  170.7500     2.3620    88.6370    27.1270    13.6260    19.6630    17.6180   -26.3140 
  170.8750     2.3920    88.3300    27.0460    15.0810    21.0470    19.8220   -26.2090 
  171.0000     2.3950    84.8410    27.0250    19.3400    25.1980    24.8390   -26.2140 
  171.1250     2.3720    79.0260    27.1660    30.2320    32.9150    33.1960   -26.3340 
  171.2500     2.3400    77.4340    27.4970    46.3840    43.3300    43.9250   -26.5320 
  171.3750     2.3060    79.8640    27.9240    60.3180    55.0030    55.7440   -26.7770 
  171.5000     2.2780    80.7800    28.2540    65.7060    65.9290    66.9480   -27.0500 
  171.6250     2.2680    77.3540    28.3610    66.5280    74.5200    76.2610   -27.3310 
  171.7500     2.2720    72.0600    28.3650    73.2020    81.6190    84.6520   -27.6010 
  171.8750     2.2750    69.2050    28.3480    87.1480    88.3090    93.3800   -27.8620 
  172.0000     2.2690    72.9350    28.3380   102.3140    95.0980   103.0500   -28.1260 
  172.1250     2.2620    79.2050    28.3380   110.2370   101.3160   112.8950   -28.4340 
  172.2500     2.2660    79.4420    28.3480   111.2650   105.9160   121.1310   -28.7500 
  172.3750     2.2780    73.2150    28.3600   109.3760   108.4370   126.6170   -29.0560 
  172.5000     2.2870    67.0220    28.3580   108.0250   109.3070   129.3790   -29.3650 
  172.6250     2.2800    67.0680    28.3350   108.1190   109.3420   130.0460   -29.6860 
  172.7500     2.2620    69.5470    28.3070   108.4650   109.2480   129.7320   -29.9970 
  172.8750     2.2430    71.1400    28.2900   109.0810   109.1910   128.8800   -30.2720 
  173.0000     2.2350    71.3740    28.2850   109.6890   109.2190   127.8240   -30.5130 
  173.1250     2.2440    72.7290    28.2850   107.9260   109.3820   126.8780   -30.6910 
  173.2500     2.2580    73.4850    28.2870   103.8790   109.6580   126.1000   -30.8380 
  173.3750     2.2620    71.8870    28.2850    99.9140   109.5610   124.7130   -30.9530 
  173.5000     2.2570    69.9170    28.2670    97.6620   107.4030   120.4380   -31.0390 
  173.6250     2.2520    70.0720    28.2470    97.4380    99.7650   109.4150   -31.0800 
  173.7500     2.2450    72.1890    28.2610    97.3750    87.0550    93.1860   -31.1200 
  173.8750     2.2260    75.5060    28.3060    88.6560    72.1580    75.8570   -31.1690 
  174.0000     2.2000    78.7430    28.3510    67.1130    58.9350    61.7440   -31.2480 
  174.1250     2.1950    79.4560    28.3640    45.1290    51.1500    54.5650   -31.4040 
  174.2500     2.2150    77.4530    28.3620    37.4120    49.3650    54.3370   -31.6260 
  174.3750     2.2410    75.0200    28.3520    45.2830    54.1620    61.5130   -31.9090 
  174.5000     2.2490    73.8260    28.3260    65.8690    66.3080    76.8690   -32.2470 
  174.6250     2.2360    73.6890    28.2970    92.4970    88.1260   103.1490   -32.6380 
  174.7500     2.2200    72.6140    28.2810   117.8500   117.4530   138.4800   -33.0630 
  174.8750     2.2100    70.5070    28.2770   138.7970   150.1620   178.5350   -33.5030 
  175.0000     2.2010    70.2270    28.2770   154.2960   179.6130   214.9640   -33.9340 
  175.1250     2.1940    70.9160    28.2760   164.2920   198.4840   238.0170   -34.3120 
  175.2500     2.1970    68.7910    28.2800   168.8270   207.2720   248.7430   -34.6300 
  175.3750     2.2100    65.3930    28.2840   166.7280   208.0300   250.2050   -34.9060 
  175.5000     2.2210    64.4460    28.2860   160.8310   203.8210   246.3450   -35.1290 
  175.6250     2.2240    65.5830    28.2840   154.7300   197.3410   240.3470   -35.2980 
  175.7500     2.2280    66.0910    28.2770   147.9110   190.6320   234.1900   -35.4370 
  175.8750     2.2320    66.2250    28.2640   140.3290   184.2170   228.0850   -35.5760 
  176.0000     2.2260    67.4660    28.2430   134.4450   177.9480   221.4860   -35.6970 
  176.1250     2.2100    69.7270    28.2200   132.2100   171.2870   213.4490   -35.8050 
