~V
VERS. 2.00: Ver 2.00
~W
STRT.M 130.0000:
STOP.M 279.0000:
STEP.M 0.1250:
NULL. -999.2500:
UWI. DF307:
~C
DEPT.M :
DEN.GM/CC :
AC.US/MT :
GR.API :
CALI.CM :
RXO.OHMM :
RI. :
RML.OHMM :
SP.MV :
~A
# ...
  140.0000     2.1460   417.0790    79.0600    24.3560     9.0530     8.2210    10.0080   -20.7850 
  140.1250     2.1520   419.1850    73.9880    24.3160     9.0230     8.4120    10.1270   -21.1700 
  140.2500     2.1640   418.3960    70.5860    24.3000     8.9680     8.5340    10.1840   -21.3850 
  140.3750     2.1710   415.5240    71.8950    24.2910     8.9470     8.6190    10.2410   -21.4090 
  140.5000     2.1680   412.3570    76.3020    24.3300     8.9420     8.6700    10.2850   -21.2120 
  140.6250     2.1560   411.4050    79.4130    24.4650     8.8650     8.5960    10.1370   -20.7910 
  140.7500     2.1430   413.3850    79.4250    24.6320     8.7190     8.2990     9.6390   -20.2150 
  140.8750     2.1420   417.4130    78.4870    24.7650     8.5030     7.7400     8.7640   -19.5150 
  141.0000     2.1610   421.2030    80.6180    24.8620     8.0190     6.9960     7.6790   -18.7570 
  141.1250     2.1970   421.5430    85.8540    24.9700     7.0270     6.2520     6.6980   -18.0770 
  141.2500     2.2240   418.0080    90.4210    25.0800     6.0310     5.6760     6.0370   -17.5590 
  141.3750     2.2290   411.9200    92.9520    25.1480     5.6180     5.3440     5.7680   -17.2370 
  141.5000     2.2190   405.6280    93.0220    25.1650     5.8830     5.2620     5.8630   -17.1170 
  141.6250     2.2050   401.6840    91.2240    25.1610     6.3580     5.4090     6.2430   -17.2070 
  141.7500     2.1930   400.3650    90.1870    25.1610     6.5950     5.6540     6.6940   -17.4440 
  141.8750     2.1840   400.6600    88.3620    25.1630     6.6140     5.9000     7.0590   -17.8030 
  142.0000     2.1770   400.7810    83.3670    25.1640     6.5740     6.0740     7.2440   -18.2280 
  142.1250     2.1710   398.4870    78.5570    25.1610     6.5880     6.1490     7.2410   -18.6040 
  142.2500     2.1610   393.4130    78.5440    25.1590     6.7180     6.1850     7.1850   -18.8640 
  142.3750     2.1570   385.3060    82.1160    25.1580     7.0230     6.2490     7.2020   -18.9980 
  142.5000     2.1710   372.6190    85.4730    25.1560     7.4990     6.4330     7.4470   -19.0350 
  142.6250     2.2180   351.5680    85.3520    25.1580     8.2140     6.9230     8.2060   -18.9960 
  142.7500     2.2900   323.9300    82.2570    25.2010     9.6930     7.8220     9.5960   -18.9320 
  142.8750     2.3800   295.3650    76.6110    25.3140    13.1090     9.1920    11.6630   -18.8780 
  143.0000     2.4670   274.4040    71.5320    25.4960    19.5650    10.9380    14.1950   -18.8640 
  143.1250     2.5160   271.2120    69.7690    25.6910    27.4040    12.5410    16.2930   -18.9720 
  143.2500     2.5090   284.2540    72.4380    25.7840    30.0430    13.2570    16.8590   -19.2080 
  143.3750     2.4420   308.0750    78.0720    25.6700    25.0540    12.7720    15.6140   -19.5330 
  143.5000     2.3410   334.8410    81.9740    25.3780    16.9030    11.4640    13.4020   -19.9100 
  143.6250     2.2510   357.0810    82.2130    25.1080    11.9110    10.0740    11.4650   -20.3280 
  143.7500     2.1970   372.9330    81.2170    24.9950     9.8930     9.0740    10.3100   -20.7470 
  143.8750     2.1790   383.0670    80.8810    25.0190     9.4150     8.5670     9.9480   -21.1300 
  144.0000     2.1820   388.8100    81.3930    25.1180     9.5920     8.5070    10.2040   -21.4510 
  144.1250     2.1940   390.3390    81.2580    25.2370    10.0590     8.7900    10.8370   -21.6520 
  144.2500     2.2070   388.2940    81.8400    25.3190    10.5200     9.1680    11.4630   -21.7570 
  144.3750     2.2150   382.7600    84.2000    25.3590    10.7490     9.4690    11.8420   -21.8170 
  144.5000     2.2150   374.2130    88.8440    25.3830    10.6710     9.5870    11.8660   -21.8700 
  144.6250     2.2030   363.2320    92.6990    25.3990    10.3310     9.4980    11.5830   -21.9220 
  144.7500     2.1830   351.5760    91.5230    25.4020     9.8960     9.3350    11.2510   -21.9680 
  144.8750     2.1600   341.2630    86.8460    25.3850     9.5360     9.2040    11.0360   -22.0080 
  145.0000     2.1440   335.0910    82.5140    25.3180     9.4580     9.1680    11.0160   -22.0450 
  145.1250     2.1460   337.3190    78.8260    25.2050     9.7470     9.2380    11.1700   -22.0780 
  145.2500     2.1610   347.4760    74.2850    25.1050    10.0410     9.3250    11.3290   -22.0790 
  145.3750     2.1810   362.9720    69.5420    25.0330    10.0540     9.3420    11.3490   -22.0350 
  145.5000     2.1960   379.3740    67.4330    24.9720     9.8070     9.2280    11.1570   -21.9550 
  145.6250     2.1960   391.8790    70.8880    24.9270     9.5380     8.9690    10.7680   -21.8690 
  145.7500     2.1830   399.4960    76.2460    24.8930     9.2980     8.6440    10.3220   -21.8120 
  145.8750     2.1650   402.7390    81.2850    24.8420     9.0220     8.3190     9.9180   -21.7850 
  146.0000     2.1600   402.7330    85.0790    24.7610     8.7600     8.0430     9.6090   -21.7670 
  146.1250     2.1750   400.8510    86.0100    24.7140     8.6250     7.8480     9.4240   -21.7740 
  146.2500     2.1890   399.2580    82.7680    24.7630     8.5320     7.7260     9.3360   -21.8210 
  146.3750     2.1830   399.2670    77.1160    24.8980     8.3990     7.6730     9.3370   -21.9030 
  146.5000     2.1610   401.1840    73.0880    25.0480     8.2710     7.6800     9.4030   -21.9940 
  146.6250     2.1460   404.1730    70.9540    25.1270     8.2820     7.7240     9.4940   -22.0560 
  146.7500     2.1450   406.5510    69.3720    25.1380     8.4120     7.7680     9.5620   -22.0750 
  146.8750     2.1500   407.3410    71.3150    25.1160     8.5380     7.7880     9.5900   -22.0650 
  147.0000     2.1510   406.2040    77.5950    25.0810     8.5410     7.7770     9.5800   -22.0410 
  147.1250     2.1490   403.2640    82.2700    25.0110     8.4780     7.7430     9.5540   -22.0090 
  147.2500     2.1460   400.0780    82.1700    24.8990     8.5360     7.7160     9.5580   -21.9750 
  147.3750     2.1370   398.5980    80.0000    24.7870     8.6880     7.7170     9.6160   -21.9280 
  147.5000     2.1210   400.6690    80.1180    24.7230     8.7350     7.7490     9.7190   -21.8660 
  147.6250     2.1030   407.1000    80.6860    24.7140     8.5920     7.7780     9.8010   -21.8020 
  147.7500     2.0960   415.0080    78.2990    24.7240     8.5060     7.7600     9.7920   -21.7350 
  147.8750     2.1020   421.5510    76.0810    24.7490     8.5580     7.6780     9.6670   -21.6630 
  148.0000     2.1170   424.8470    77.1680    24.7890     8.5460     7.5510     9.4680   -21.5920 
  148.1250     2.1320   424.6580    80.9550    24.8110     8.3310     7.4400     9.3090   -21.5320 
  148.2500     2.1370   423.3580    82.2860    24.7490     8.2570     7.4020     9.2870   -21.4940 
  148.3750     2.1350   422.1770    81.8990    24.5940     8.6180     7.4650     9.4390   -21.4920 
  148.5000     2.1310   420.9260    82.2150    24.4240     9.3990     7.6160     9.7270   -21.5240 
  148.6250     2.1300   418.1830    83.6870    24.3430    10.3760     7.8110    10.0460   -21.5670 
  148.7500     2.1340   413.8640    84.0490    24.3280    11.2480     7.9780    10.2750   -21.6050 
  148.8750     2.1430   409.3070    82.5640    24.3220    11.7590     8.0760    10.3630   -21.6280 
  149.0000     2.1540   406.3950    81.8630    24.3240    11.7770     8.0990    10.3350   -21.6050 
  149.1250     2.1630   406.2490    83.7970    24.3680    11.3130     8.0640    10.2450   -21.4490 
  149.2500     2.1630   406.9620    85.0080    24.4370    10.5780     7.9820    10.0940   -21.1160 
  149.3750     2.1570   406.2330    84.1510    24.4960     9.7560     7.8160     9.8010   -20.5880 
  149.5000     2.1520   402.1080    83.3100    24.5080     9.1240     7.5250     9.3030   -19.8720 
  149.6250     2.1590   392.5040    84.9140    24.4690     8.7250     7.1260     8.6600   -18.9860 
  149.7500     2.1830   378.1490    88.3330    24.4570     8.1320     6.7450     8.0940   -18.0210 
  149.8750     2.2310   361.1730    90.4730    24.5920     7.2800     6.4820     7.7590   -17.0240 
