~V
VERS. 2.00: Ver 2.00
~W
STRT.M 60.0000:
STOP.M 275.0000:
STEP.M 0.1250:
NULL. -999.2500:
UWI. DF3003:
~C
DEPT.M :
DEN.GM/CC :
SP.MV :
AC.US/MT :
GR.API :
RML.OHMM :
RI. :
RXO.OHMM :
CALI.CM :
~A
# ...
  210.0000     2.2060   -23.4890   401.0760    65.0240   118.3410   112.5530   116.2900    24.3080 
  210.1250     2.2030   -23.3650   403.1190    67.5410   106.1630   100.9560    91.2840    24.2430 
  210.2500     2.1990   -23.3550   404.6540    68.7460    97.0930    92.3180    75.4840    24.1720 
  210.3750     2.1950   -23.4170   405.1040    70.4370    91.3280    86.8270    72.2360    24.1050 
  210.5000     2.1930   -23.4400   404.5620    72.7260    88.1500    83.8000    74.9540    24.0870 
  210.6250     2.1910   -23.4070   403.9860    71.3540    86.5880    82.3120    76.6180    24.1730 
  210.7500     2.1920   -23.3890   403.9780    69.0180    85.3880    81.1690    74.7740    24.3350 
  210.8750     2.1940   -23.4070   404.4900    69.9930    84.0580    79.9030    71.8710    24.4760 
  211.0000     2.1960   -23.4350   405.3300    72.0860    82.5190    78.4380    70.1670    24.5340 
  211.1250     2.1960   -23.3810   405.8490    71.7360    81.0390    77.0280    69.9030    24.5320 
  211.2500     2.1920   -23.1360   405.3840    70.1010    79.8960    75.9390    69.6120    24.5220 
  211.3750     2.1850   -22.8030   404.0180    68.6720    79.1690    75.2470    67.8540    24.5020 
  211.5000     2.1750   -22.4710   402.3880    66.6110    78.7810    74.8770    65.4670    24.4670 
  211.6250     2.1670   -22.3070   400.6730    65.3270    78.5770    74.6830    65.8840    24.4330 
  211.7500     2.1620   -22.2540   398.7320    66.7780    78.3590    74.4750    66.5490    24.3930 
  211.8750     2.1620   -22.1280   397.0620    67.7120    78.0300    74.1620    66.6860    24.3410 
  212.0000     2.1660   -21.9520   396.3520    67.3480    77.5480    73.7030    66.1410    24.2890 
  212.1250     2.1730   -21.9370   397.1730    67.5870    76.8850    73.0710    66.4410    24.2580 
  212.2500     2.1800   -22.1020   398.9330    68.5600    76.1250    72.3480    66.5810    24.2290 
  212.3750     2.1860   -22.2530   400.8450    68.9360    75.3740    71.6320    65.2000    24.1760 
  212.5000     2.1890   -22.4230   402.0570    69.1370    74.7270    71.0160    62.8970    24.0700 
  212.6250     2.1890   -22.5600   402.5300    69.8520    74.2070    70.5290    60.4050    23.9040 
  212.7500     2.1880   -22.5630   403.3280    70.4240    73.7530    70.0840    60.0030    23.7430 
  212.8750     2.1880   -22.5390   404.8260    70.4590    73.3450    69.6610    62.2280    23.6560 
  213.0000     2.1910   -22.5570   407.3110    70.2900    73.0700    69.3900    65.0940    23.6220 
  213.1250     2.1990   -22.6050   410.1860    68.7330    73.4670    69.8150    65.5540    23.6170 
  213.2500     2.2080   -22.6520   409.9500    68.4020    75.0300    71.5080    64.0010    23.6640 
  213.3750     2.2140   -22.7590   405.8680    70.2540    78.3490    74.9990    65.4720    23.8020 
  213.5000     2.2120   -22.9120   401.5080    71.5440    83.6370    80.4030    72.5770    24.0480 
  213.6250     2.2010   -23.0200   400.7860    68.5560    90.3450    87.1610    83.5810    24.2980 
  213.7500     2.1850   -23.1320   400.4100    64.1950    97.0190    93.4680    93.5930    24.4460 
  213.8750     2.1730   -23.3120   396.1590    61.4590   101.1100    97.6500    98.4050    24.4990 
  214.0000     2.1740   -23.5530   387.0670    62.1270   101.4370    98.5500    95.2360    24.4780 
  214.1250     2.1950   -23.7240   373.0340    64.2880    97.9660    95.8120    87.7130    24.4140 
  214.2500     2.2290   -23.8040   357.9110    64.1890    93.2780    91.5090    81.5350    24.3670 
  214.3750     2.2680   -23.8140   346.1840    63.8460    89.1020    87.2520    77.2970    24.3280 
  214.5000     2.2970   -23.7430   342.3910    65.4620    86.1870    83.9870    75.1000    24.2880 
  214.6250     2.3040   -23.6090   348.5720    67.7350    84.4560    81.9000    75.7970    24.2850 
  214.7500     2.2900   -23.4320   357.7460    66.2660    83.0190    80.2340    79.3460    24.3020 
  214.8750     2.2620   -23.1220   368.3030    64.9380    81.3410    78.4730    80.3960    24.3420 
  215.0000     2.2300   -22.6990   381.1060    66.8450    79.2690    76.4190    73.2630    24.4040 
  215.1250     2.2040   -22.1990   392.3730    68.1910    77.0900    74.2620    63.6560    24.4480 
  215.2500     2.1890   -21.7230   395.9210    68.2220    75.2570    72.3800    61.1950    24.4610 
  215.3750     2.1850   -21.3110   391.2490    67.7900    73.9560    70.9570    62.6520    24.4600 
  215.5000     2.1880   -20.8690   384.4710    65.5910    73.1300    69.9790    64.0530    24.4520 
  215.6250     2.1970   -20.3880   378.1370    63.8800    72.6340    69.3530    63.1050    24.4340 
  215.7500     2.2080   -19.9900   367.0590    65.8210    72.3380    68.9430    60.6820    24.3950 
  215.8750     2.2180   -19.6650   349.1200    70.7380    72.3880    68.8480    58.3770    24.3350 
  216.0000     2.2250   -19.3680   331.7040    72.5070    73.0620    69.2820    57.5500    24.2190 
  216.1250     2.2240   -19.2460   329.0820    68.7110    74.7210    70.5450    59.8680    24.0440 
  216.2500     2.2160   -19.2150   342.2410    64.1160    77.1400    72.4320    63.4900    23.9050 
  216.3750     2.2040   -19.1440   364.0860    61.4560    79.9650    74.6220    67.4370    23.8730 
  216.5000     2.1920   -19.1300   385.1310    60.5840    82.6780    76.6720    71.2330    23.9190 
  216.6250     2.1830   -19.2570   396.8290    61.0710    84.5340    78.0020    74.0900    24.0560 
  216.7500     2.1780   -19.3710   400.4820    62.5230    85.1900    78.4160    76.0080    24.3020 
  216.8750     2.1740   -19.5000   402.1960    64.1210    84.3170    77.8660    76.7280    24.6080 
  217.0000     2.1700   -19.6620   403.4240    65.2030    82.0250    76.4830    76.2090    24.8310 
  217.1250     2.1660   -19.7640   401.1760    67.0650    78.7680    74.5410    73.7640    24.8890 
  217.2500     2.1630   -19.8200   397.9500    67.9110    75.8670    72.7170    70.6800    24.8750 
  217.3750     2.1640   -19.8820   397.3500    64.0220    74.5770    71.7620    67.8040    24.8170 
  217.5000     2.1690   -20.0340   399.5680    58.9980    76.3490    72.4470    65.7130    24.7080 
  217.6250     2.1750   -20.2220   400.9250    60.3140    80.9060    75.3670    64.8190    24.5490 
  217.7500     2.1800   -20.3210   400.3950    63.5730    85.3010    79.1510    66.6120    24.4410 
  217.8750     2.1840   -20.2880   398.5960    62.9920    85.6560    81.5000    70.6210    24.4030 
  218.0000     2.1880   -20.0650   394.9440    58.9960    80.7840    79.4960    74.1100    24.3970 
  218.1250     2.1970   -19.6990   388.7120    57.6160    68.1090    69.9060    76.0170    24.3880 
  218.2500     2.2110   -19.2660   381.1410    61.1740    51.4310    55.0110    71.2480    24.3680 
  218.3750     2.2330   -18.8690   375.3800    68.5780    35.5930    38.8520    59.6840    24.3280 
  218.5000     2.2600   -18.3690   375.4790    75.2870    23.8700    25.4960    42.8020    24.2700 
  218.6250     2.2890   -17.7370   382.9460    78.0270    17.2020    17.3170    24.7920    24.2070 
  218.7500     2.3150   -17.1970   390.2050    79.5640    13.7780    12.8410    13.1360    24.1740 
  218.8750     2.3370   -16.7990   390.7950    83.4320    12.8770    11.1110     8.8510    24.1560 
  219.0000     2.3530   -16.5140   383.0780    88.7340    14.2100    11.7060     9.9310    24.1310 
  219.1250     2.3690   -16.3250   371.4510    89.6000    18.3560    15.1410    15.2210    24.0890 
  219.2500     2.3860   -16.3190   363.2560    84.9120    24.7130    21.1370    23.2990    24.0490 
  219.3750     2.4010   -16.3540   360.4220    77.3680    32.7170    29.2300    32.9170    24.0430 
  219.5000     2.4070   -16.3500   360.3610    71.2700    41.0460    38.1470    39.8300    24.0710 
  219.6250     2.3930   -16.3850   359.8360    68.0640    47.2630    45.4980    40.7020    24.1470 
  219.7500     2.3610   -16.4380   360.7050    66.3480    51.2240    49.7250    39.0860    24.2770 
  219.8750     2.3180   -16.4410   364.8980    67.6450    51.8020    50.6170    38.9910    24.4910 
