~V
VERS. 2.00: Ver 2.00
~W
STRT.M 60.0000:
STOP.M 282.0000:
STEP.M 0.1250:
NULL. -999.2500:
UWI. DF3058:
~C
DEPT.M :
GR.API :
RML.OHMM :
RI. :
RXO.OHMM :
CALI.CM :
DEN.GM/CC :
SP.MV :
~A
# ...
  127.5000    60.3460    14.0120    14.1710    17.4140    22.8170     2.2880   -25.5740 
  127.6250    59.1060    12.2740    12.0140    13.1460    22.2590     2.2440   -26.1520 
  127.7500    58.0460    11.4420    10.7630    11.5200    22.0030     2.2210   -26.6630 
  127.8750    56.8530    11.2390    10.1900    11.0370    21.8740     2.2110   -27.0640 
  128.0000    54.1870    11.3910    10.0680    10.9000    21.7740     2.2060   -27.3440 
  128.1250    52.4510    11.6530    10.2010    10.7650    21.7360     2.2020   -27.4830 
  128.2500    54.7860    11.8350    10.3670    10.5550    21.7520     2.1990   -27.4990 
  128.3750    59.6670    11.8840    10.4730    10.3330    21.8510     2.1970   -27.4290 
  128.5000    62.1690    11.8090    10.4810    10.2200    22.0370     2.1940   -27.3130 
  128.6250    60.9140    11.6420    10.3860    10.3690    22.0060     2.1900   -27.1590 
  128.7500    58.9730    11.4450    10.2380    10.6930    21.9110     2.1830   -26.9590 
  128.8750    57.0870    11.2750    10.0810    11.1480    21.9440     2.1740   -26.7360 
  129.0000    55.3870    11.2060     9.9800    11.6230    22.1020     2.1660   -26.5140 
  129.1250    55.9060    11.3620    10.0420    11.9190    22.1720     2.1710   -26.3240 
  129.2500    59.3630    11.7490    10.2880    12.0710    22.1520     2.1960   -26.1600 
  129.3750    63.0540    12.2970    10.6850    12.0370    22.1670     2.2450   -26.0410 
  129.5000    64.6760    12.8490    11.1210    11.7160    22.1640     2.3080   -25.9400 
  129.6250    64.4150    13.1480    11.3950    11.2330    22.0780     2.3570   -25.8590 
  129.7500    62.8260    13.0780    11.3900    10.7740    21.9730     2.3670   -25.7930 
  129.8750    60.4450    12.6580    11.0910    10.5150    21.9210     2.3360   -25.7510 
  130.0000    59.6020    12.0480    10.6020    10.4220    21.8540     2.2830   -25.7140 
  130.1250    62.0880    11.4950    10.1110    10.3990    21.8350     2.2380   -25.6210 
  130.2500    64.9540    11.1510     9.7680    10.3240    21.8080     2.2120   -25.5130 
  130.3750    66.4310    11.0470     9.6210    10.2180    21.6760     2.2030   -25.3950 
  130.5000    66.5740    11.1420     9.6540    10.1650    21.5050     2.2020   -25.2500 
  130.6250    65.7510    11.3660     9.8160    10.2410    21.3920     2.2030   -25.0550 
  130.7500    64.4090    11.6030    10.0030    10.3470    21.3730     2.2030   -24.8320 
  130.8750    64.4180    11.7610    10.1370    10.3300    21.4020     2.2030   -24.5680 
  131.0000    65.1700    11.7380    10.1350    10.1070    21.4320     2.2050   -24.2190 
  131.1250    64.7430    11.3710     9.8740     9.6940    21.4620     2.2130   -23.8340 
  131.2500    64.4510    10.6700     9.3480     9.2160    21.5920     2.2250   -23.3890 
  131.3750    65.8510     9.7050     8.6030     8.6720    21.9310     2.2370   -22.8840 
  131.5000    70.2570     8.6470     7.7550     8.0490    22.3950     2.2410   -22.3820 
  131.6250    75.7990     7.7870     7.0120     7.3910    22.8200     2.2250   -21.9410 
  131.7500    78.5550     7.3330     6.5450     6.8390    23.2620     2.1900   -21.5670 
  131.8750    77.9490     7.3850     6.4530     6.6090    23.7350     2.1500   -21.2840 
  132.0000    77.0990     7.8920     6.7340     6.8570    23.8360     2.1210   -21.1060 
  132.1250    77.6670     8.6290     7.2770     7.3150    23.6320     2.1200   -20.9470 
  132.2500    74.2840     9.1890     7.7820     8.0640    23.2230     2.1420   -20.7890 
  132.3750    67.4090     9.2830     8.0030     8.6870    22.9550     2.1740   -20.6120 
  132.5000    64.1410     8.8090     7.8000     8.6700    23.1360     2.1980   -20.3920 
  132.6250    68.5320     7.9130     7.1950     7.7210    23.5700     2.1970   -20.1170 
  132.7500    74.0930     7.0230     6.4970     6.5580    24.3020     2.1820   -19.8300 
  132.8750    77.3040     6.3780     5.9110     5.8460    24.7250     2.1670   -19.5020 
  133.0000    79.2070     6.0510     5.5380     5.6900    24.8270     2.1630   -19.1650 
  133.1250    79.2950     6.0110     5.4090     5.9190    24.8010     2.1780   -18.8810 
  133.2500    78.4300     6.1000     5.4230     6.1240    24.7380     2.2020   -18.6920 
  133.3750    78.6800     6.2360     5.5210     6.1760    24.6990     2.2230   -18.6030 
  133.5000    80.0450     6.3830     5.6590     6.1240    24.6970     2.2360   -18.6220 
  133.6250    80.4770     6.5360     5.8190     6.1300    24.7110     2.2380   -18.7220 
  133.7500    79.0230     6.6850     5.9820     6.3420    24.6460     2.2390   -18.8260 
  133.8750    77.2730     6.8020     6.1280     6.5970    24.4060     2.2450   -18.9210 
  134.0000    76.7540     6.8570     6.2300     6.7380    24.3080     2.2570   -19.0060 
  134.1250    78.0600     6.8240     6.2530     6.7030    24.6530     2.2710   -19.0870 
  134.2500    78.6980     6.7490     6.2110     6.4840    24.8350     2.2820   -19.1860 
  134.3750    79.1050     6.6780     6.1350     6.4400    24.8250     2.2890   -19.2900 
  134.5000    80.4670     6.6410     6.0550     6.4950    24.7860     2.2900   -19.4090 
  134.6250    80.1610     6.6260     5.9980     6.5690    24.7870     2.2860   -19.5330 
  134.7500    78.0340     6.5900     5.9540     6.5910    24.7870     2.2800   -19.6840 
  134.8750    76.8240     6.5270     5.9100     6.5850    24.7780     2.2710   -19.9040 
  135.0000    77.3750     6.4790     5.8620     6.4790    24.7850     2.2620   -20.1960 
  135.1250    78.7260     6.4770     5.8260     6.4400    24.7350     2.2560   -20.5930 
  135.2500    79.2580     6.6010     5.8370     6.5130    24.5100     2.2570   -21.0420 
  135.3750    78.7270     6.8280     5.9360     6.6710    24.0190     2.2620   -21.5550 
  135.5000    76.6560     7.1560     6.1660     7.1300    23.4910     2.2700   -22.1010 
  135.6250    74.8810     7.7120     6.5930     7.9500    23.2340     2.2730   -22.7170 
  135.7500    73.6370     8.4560     7.1910     9.0730    23.1350     2.2690   -23.3460 
  135.8750    71.8960     9.3090     7.9120    10.4350    23.0820     2.2550   -23.9560 
  136.0000    68.7150    10.1430     8.6640    12.0220    23.0170     2.2330   -24.5480 
  136.1250    64.2530    10.7780     9.3000    12.9780    22.9020     2.2090   -25.0640 
  136.2500    60.5970    11.1700     9.7500    12.5710    22.8400     2.1900   -25.5100 
  136.3750    60.8690    11.3780    10.0290    11.2930    22.7910     2.1800   -25.8910 
  136.5000    64.1210    11.5480    10.2330    10.8630    22.8100     2.1800   -26.1900 
  136.6250    64.8440    11.8590    10.5000    12.0580    22.6990     2.1860   -26.4040 
  136.7500    61.1250    12.3200    10.8750    13.8680    22.7330     2.1920   -26.5750 
  136.8750    56.7950    12.8240    11.2990    15.7420    22.7440     2.1920   -26.7040 
  137.0000    56.3760    13.1970    11.6510    16.9490    22.7740     2.1850   -26.8000 
  137.1250    60.2970    13.2500    11.7710    15.0090    22.8240     2.1730   -26.8870 
  137.2500    63.3500    13.0350    11.6620    12.7710    22.9020     2.1610   -26.9680 
  137.3750    63.9200    12.6900    11.4050    11.1960    22.9480     2.1530   -27.0630 
  137.5000    63.4810    12.3820    11.1270    10.4750    22.7780     2.1490   -27.1790 
  137.6250    63.9190    12.2430    10.9520    10.3570    22.6870     2.1470   -27.2800 
  137.7500    64.8960    12.2340    10.8940    10.5120    22.6320     2.1460   -27.3960 
  137.8750    65.0160    12.2750    10.9110    10.8130    22.6220     2.1430   -27.5020 
  138.0000    64.3080    12.2720    10.9360    11.1010    22.6170     2.1410   -27.5760 
  138.1250    63.3390    12.1560    10.9000    11.1540    22.6250     2.1400   -27.6370 
  138.2500    62.4480    11.9600    10.7960    11.0460    22.6400     2.1410   -27.7250 
  138.3750    63.0870    11.7380    10.6490    10.8950    22.6570     2.1410   -27.7860 
  138.5000    67.0680    11.5470    10.5000    10.8250    22.6700     2.1430   -27.8320 
  138.6250    69.8800    11.4400    10.3970    10.8570    22.6740     2.1430   -27.8720 
