~V
VERS. 2.00: Ver 2.00
~W
STRT.M 60.0000:
STOP.M 282.0000:
STEP.M 0.1250:
NULL. -999.2500:
UWI. DF3058:
~C
DEPT.M :
GR.API :
RML.OHMM :
RI. :
RXO.OHMM :
CALI.CM :
DEN.GM/CC :
SP.MV :
~A
# ...
   71.2500    85.9200     8.7450     9.0250     9.4400    22.7680  -999.2500  -999.2500 
   71.3750    91.5470     7.8510     8.0440     7.8510    22.8160  -999.2500  -999.2500 
   71.5000    91.5950     7.7280     7.6250     7.6520    22.7600  -999.2500  -999.2500 
   71.6250    84.7460     8.3830     7.9020     8.2270    22.6150  -999.2500  -999.2500 
   71.7500    76.8300     9.3700     8.5530     9.0790    22.4670  -999.2500  -999.2500 
   71.8750    69.8990    10.2840     9.2580     9.7270    22.3280  -999.2500  -999.2500 
   72.0000    64.4740    10.7400     9.6930     9.6380    22.3790  -999.2500  -999.2500 
   72.1250    65.5550    10.4410     9.5640     9.2240    22.6200  -999.2500  -999.2500 
   72.2500    72.3550     9.6800     9.0070     8.8230    22.8870  -999.2500  -999.2500 
   72.3750    80.1000     8.8090     8.2550     8.2500    22.9790  -999.2500  -999.2500 
   72.5000    83.7110     8.1370     7.5620     7.4770    23.1530  -999.2500  -999.2500 
   72.6250    80.2520     7.9230     7.1720     7.1010    23.3690  -999.2500  -999.2500 
   72.7500    75.1020     8.1530     7.1320     7.5730    23.3710  -999.2500  -999.2500 
   72.8750    71.9810     8.7660     7.4360     8.4850    23.1680  -999.2500  -999.2500 
   73.0000    71.1390     9.6220     8.0100     9.3000    22.9600  -999.2500  -999.2500 
   73.1250    69.4210    10.4800     8.7080     9.6850    22.8820  -999.2500  -999.2500 
   73.2500    67.5690    11.0960     9.3090     9.5330    22.9060  -999.2500  -999.2500 
   73.3750    67.7510    11.3450     9.6720     8.8410    22.9740  -999.2500  -999.2500 
   73.5000    67.8020    11.2480     9.7450     7.7910    23.1920  -999.2500  -999.2500 
   73.6250    64.4510    10.9430     9.5600     7.3230    23.5030  -999.2500  -999.2500 
   73.7500    60.8070    10.6540     9.2900     7.8740    23.7830  -999.2500  -999.2500 
   73.8750    61.6160    10.4900     9.0400     9.3860    23.6270  -999.2500  -999.2500 
   74.0000    65.3750    10.4690     8.8620    11.5230    23.0160  -999.2500  -999.2500 
   74.1250    65.8290    10.5310     8.7520    13.6630    22.4160  -999.2500  -999.2500 
   74.2500    64.3530    10.5600     8.6490    14.5450    22.1040  -999.2500  -999.2500 
   74.3750    64.1880    10.4930     8.5140    13.1070    21.9850  -999.2500  -999.2500 
   74.5000    64.5940    10.3260     8.3400    11.2470    21.9780  -999.2500  -999.2500 
   74.6250    60.6870    10.1290     8.1740    10.6020    21.7150  -999.2500  -999.2500 
   74.7500    56.7270    10.0390     8.1010    10.5420    21.6190  -999.2500  -999.2500 
   74.8750    57.7120    10.1910     8.2120    10.6800    21.5800  -999.2500  -999.2500 
   75.0000    62.3130    10.6870     8.5820    10.8900    21.6220  -999.2500  -999.2500 
   75.1250    64.8140    11.5740     9.2710    11.1190    21.6420  -999.2500  -999.2500 
   75.2500    64.2750    12.6230    10.1290    11.3210    21.6160  -999.2500  -999.2500 
   75.3750    62.0620    13.5640    10.9690    11.3990    21.5590  -999.2500  -999.2500 
   75.5000    60.7330    14.1210    11.5660    11.3430    21.5310  -999.2500  -999.2500 
   75.6250    60.8830    14.0380    11.6680    11.1430    21.6630  -999.2500  -999.2500 
   75.7500    61.4310    13.4880    11.3390    10.9670    21.9580  -999.2500  -999.2500 
   75.8750    62.0730    12.6830    10.7110    10.8970    22.2710  -999.2500  -999.2500 
   76.0000    63.4610    11.8150     9.9430    10.9300    22.4470  -999.2500  -999.2500 
   76.1250    66.8180    10.9680     9.1470    10.8700    22.5470  -999.2500  -999.2500 
   76.2500    71.5020    10.1370     8.3750    10.4790    22.6830  -999.2500  -999.2500 
   76.3750    76.4480     9.3540     7.6640     9.6550    22.7910  -999.2500  -999.2500 
   76.5000    81.2850     8.7300     7.0830     8.5180    22.7700  -999.2500  -999.2500 
   76.6250    84.7190     8.5140     6.7890     7.5950    22.7580  -999.2500  -999.2500 
   76.7500    86.6420     8.7690     6.8300     7.3800    22.7340  -999.2500  -999.2500 
   76.8750    85.2140     9.4350     7.2020     7.9900    22.6670  -999.2500  -999.2500 
   77.0000    79.5910    10.2910     7.7950     9.1590    22.7490  -999.2500  -999.2500 
   77.1250    72.3080    10.9430     8.3760    10.3390    22.8440  -999.2500  -999.2500 
   77.2500    68.6930    11.1280     8.7130    10.8890    22.8740  -999.2500  -999.2500 
   77.3750    69.7700    10.8210     8.7120    10.6680    22.7670  -999.2500  -999.2500 
   77.5000    72.1540    10.2350     8.4480     9.8960    22.4590  -999.2500  -999.2500 
   77.6250    72.0760     9.7450     8.1370     9.2610    22.3080  -999.2500  -999.2500 
   77.7500    70.9010     9.5830     7.9870     9.2440    22.2880  -999.2500  -999.2500 
   77.8750    70.0890     9.7710     8.0690     9.8250    22.3650  -999.2500  -999.2500 
   78.0000    70.3960    10.2050     8.3510    10.6970    22.4760  -999.2500  -999.2500 
   78.1250    71.8100    10.7070     8.7400    11.2740    22.4770  -999.2500  -999.2500 
   78.2500    73.0730    11.1000     9.0910    11.4940    22.4390  -999.2500  -999.2500 
   78.3750    73.3400    11.3000     9.3210    11.4930    22.4030  -999.2500  -999.2500 
   78.5000    70.6510    11.2820     9.3930    11.4110    22.3920  -999.2500  -999.2500 
   78.6250    65.0520    11.0380     9.2860    11.3210    22.3940  -999.2500  -999.2500 
   78.7500    62.3540    10.6640     9.0640    11.1550    22.3940  -999.2500  -999.2500 
   78.8750    64.0340    10.2780     8.7950    10.9070    22.3940  -999.2500  -999.2500 
   79.0000    66.1530    10.0890     8.6030    10.6930    22.3970  -999.2500  -999.2500 
   79.1250    64.4940    10.4730     8.7320    10.6610    22.4350  -999.2500  -999.2500 
   79.2500    63.0600    11.4960     9.2740    11.0300    22.5310  -999.2500  -999.2500 
   79.3750    64.4920    12.9630    10.1680    12.3530    22.6720  -999.2500  -999.2500 
   79.5000    67.3540    14.3560    11.1290    15.2150    22.8320  -999.2500  -999.2500 
   79.6250    69.9830    14.7740    11.5820    18.6080    23.0480  -999.2500  -999.2500 
   79.7500    72.3220    13.8730    11.1910    21.3660    23.3700  -999.2500  -999.2500 
   79.8750    76.2920    11.8780     9.9830    21.3420    23.7350  -999.2500  -999.2500 
   80.0000    83.3760     9.5780     8.3990    15.1200    24.0070  -999.2500  -999.2500 
   80.1250    91.9390     8.0040     7.1290     8.6310    24.0640  -999.2500  -999.2500 
   80.2500    97.5630     7.4430     6.4910     6.7300    23.8730  -999.2500  -999.2500 
   80.3750    96.2100     7.7860     6.5130     6.7790    23.4450  -999.2500  -999.2500 
   80.5000    88.0890     8.7160     7.0600     7.5580    22.9510  -999.2500  -999.2500 
   80.6250    77.9290     9.7600     7.8660     8.3980    22.7360  -999.2500  -999.2500 
   80.7500    71.5510    10.4320     8.5270     8.7790    22.8270  -999.2500  -999.2500 
   80.8750    72.9780    10.5000     8.7910     8.6340    22.8410  -999.2500  -999.2500 
   81.0000    82.6490    10.0020     8.5890     8.2100    22.6580  -999.2500  -999.2500 
   81.1250    94.9870     9.1980     8.0400     7.7190    22.7290  -999.2500  -999.2500 
   81.2500   101.3320     8.4780     7.4560     7.2560    22.8870  -999.2500  -999.2500 
   81.3750   100.7950     8.0430     7.0200     6.9960    23.0670  -999.2500  -999.2500 
   81.5000    99.3240     7.9670     6.8250     7.1740    23.1600  -999.2500  -999.2500 
   81.6250    97.6410     8.2580     6.9120     7.8240    23.0990  -999.2500  -999.2500 
   81.7500    92.3360     8.7360     7.1760     8.6860    22.7780  -999.2500  -999.2500 
   81.8750    85.7950     9.2580     7.5260     9.4880    22.3080  -999.2500  -999.2500 
   82.0000    81.9830     9.7130     7.8820     9.7990    22.0320  -999.2500  -999.2500 
   82.1250    80.1740    10.0670     8.2000     9.9040    22.0590  -999.2500  -999.2500 
   82.2500    77.2890    10.4200     8.5160    10.1730    22.2080  -999.2500  -999.2500 
   82.3750    78.1250    10.8620     8.8750    10.7560    22.3150  -999.2500  -999.2500 
