~V
VERS. 2.00: Ver 2.00
~W
STRT.M 65.0000:
STOP.M 273.0000:
STEP.M 0.1250:
NULL. -999.2500:
UWI. DF3011:
~C
DEPT.M :
DEN.GM/CC :
GR.API :
RML.OHMM :
RI. :
RXO.OHMM :
CALI.CM :
AC.US/MT :
SP.MV :
~A
# ...
  145.0000     2.4910    61.5140    18.5860    17.5190    16.3740    24.4900   260.3520    -4.1870 
  145.1250     2.4880    64.5760    17.7010    16.8880    16.1160    24.3660   261.6820    -4.3460 
  145.2500     2.4890    66.0650    16.6160    15.9670    15.4340    24.2950   264.1160    -4.5230 
  145.3750     2.4900    65.4750    15.6660    15.0180    14.2210    24.2840   268.1200    -4.6630 
  145.5000     2.4900    64.0090    15.1010    14.2940    13.1680    24.3130   273.8530    -4.7670 
  145.6250     2.4890    61.3350    15.0710    14.0190    13.1390    24.3660   279.1560    -4.8600 
  145.7500     2.4890    57.5330    15.4090    14.1300    14.1750    24.3700   280.7250    -4.9190 
  145.8750     2.4890    53.8620    15.9540    14.5210    15.4140    24.3510   277.9240    -4.9470 
  146.0000     2.4890    53.4880    16.5320    15.0380    15.8860    24.3400   273.6080    -4.9440 
  146.1250     2.4890    55.9820    16.9640    15.5000    15.3210    24.3450   272.2810    -4.9220 
  146.2500     2.4870    56.9370    17.1960    15.8070    14.9810    24.3670   275.1490    -4.8710 
  146.3750     2.4840    56.3700    17.2480    15.9490    15.1040    24.4140   280.5320    -4.8100 
  146.5000     2.4770    56.7080    17.1900    15.9730    15.1900    24.4620   285.0670    -4.7420 
  146.6250     2.4670    56.8190    17.0990    15.9390    14.8420    24.4820   285.6140    -4.6550 
  146.7500     2.4580    56.0980    17.0220    15.8890    14.2980    24.4850   283.7880    -4.5990 
  146.8750     2.4520    55.2610    16.9440    15.8120    13.8060    24.4850   281.7960    -4.5790 
  147.0000     2.4530    55.0880    16.8270    15.6790    13.4450    24.4850   280.1130    -4.6080 
  147.1250     2.4600    54.4000    16.5860    15.4410    13.4230    24.5060   278.1730    -4.6520 
  147.2500     2.4680    52.5820    16.2080    15.0920    13.1410    24.5560   276.5960    -4.6810 
  147.3750     2.4740    51.9210    15.7270    14.6480    12.6710    24.6070   276.4120    -4.6830 
  147.5000     2.4750    53.3090    15.2050    14.1560    12.1870    24.6370   278.0110    -4.6570 
  147.6250     2.4710    56.3230    14.7230    13.7010    11.9340    24.6830   281.3800    -4.5970 
  147.7500     2.4650    60.3950    14.3530    13.3520    11.9270    24.7940   285.6690    -4.4980 
  147.8750     2.4590    63.1220    14.1460    13.1570    12.0770    24.9870   289.9480    -4.3580 
  148.0000     2.4550    64.1020    14.1310    13.1420    12.5440    25.2700   293.2070    -4.1810 
  148.1250     2.4520    62.8670    14.3330    13.3330    13.3850    25.5060   294.2700    -3.9980 
  148.2500     2.4480    61.2480    14.6680    13.6490    14.2870    25.5530   293.5560    -3.8700 
  148.3750     2.4440    60.6770    15.0530    14.0130    15.1510    25.4250   292.0650    -3.8060 
  148.5000     2.4430    60.3310    15.3820    14.3220    15.7700    25.2250   290.9190    -3.7780 
  148.6250     2.4460    57.6300    15.5230    14.4560    15.9860    25.1880   290.6950    -3.7810 
  148.7500     2.4510    54.5280    15.4660    14.4020    15.3580    25.2080   290.9500    -3.8090 
  148.8750     2.4560    53.1670    15.2540    14.2020    14.4740    25.1580   291.6190    -3.8770 
  149.0000     2.4590    53.3680    14.9800    13.9430    13.6730    25.0170   292.5760    -3.9730 
  149.1250     2.4620    52.9390    14.7680    13.7440    13.0470    24.8190   292.3880    -4.0790 
  149.2500     2.4680    51.5340    14.6890    13.6680    12.5320    24.6010   289.5720    -4.1690 
  149.3750     2.4780    52.6400    14.7440    13.7210    11.9850    24.4230   284.0510    -4.2360 
  149.5000     2.4880    57.7140    14.8860    13.8550    11.6210    24.2380   277.3410    -4.2970 
  149.6250     2.4920    64.0780    15.0250    13.9860    11.5520    24.0830   271.9200    -4.3430 
  149.7500     2.4910    68.2680    15.0760    14.0340    11.6560    24.0080   269.4240    -4.3980 
  149.8750     2.4880    69.1800    14.9980    13.9600    11.5350    23.9880   270.3620    -4.4710 
  150.0000     2.4840    67.3360    14.7810    13.7560    11.1800    24.0020   273.8610    -4.5590 
  150.1250     2.4820    62.6840    14.4270    13.4210    10.7550    24.0430   278.0620    -4.6800 
  150.2500     2.4790    58.7220    13.9830    13.0030    10.3790    24.0720   282.1590    -4.8400 
  150.3750     2.4740    57.6100    13.4810    12.5200    10.0460    24.0390   286.8140    -5.0320 
  150.5000     2.4650    57.5090    12.9420    11.9950     9.8010    24.0010   292.1930    -5.2180 
  150.6250     2.4510    57.6260    12.3480    11.5040     9.6400    23.9850   297.0980    -5.4150 
  150.7500     2.4320    59.1760    11.9590    11.2060     9.6980    23.9880   301.4530    -5.6430 
  150.8750     2.4090    61.8210    12.0430    11.3360    10.1400    24.0260   308.0590    -5.9020 
  151.0000     2.3820    64.6420    13.2950    12.1940    11.4350    24.1570   320.0410    -6.2010 
  151.1250     2.3510    69.0050    16.1950    14.2820    14.4390    24.4330   336.8290    -6.4900 
  151.2500     2.3210    73.9620    21.0190    17.5680    19.4280    24.6180   355.3830    -6.7750 
  151.3750     2.2950    76.9620    27.1760    21.8320    25.9610    24.6510   371.9010    -7.0740 
  151.5000     2.2740    76.8430    32.6770    26.4690    31.9570    24.5780   382.0920    -7.4160 
  151.6250     2.2600    76.6680    36.6480    30.3710    34.7570    24.4800   392.6090    -7.7850 
  151.7500     2.2520    78.6370    38.6560    32.8220    34.9390    24.3790   399.5510    -8.1180 
  151.8750     2.2490    81.3290    38.8110    33.7380    34.0300    24.2680   405.1900    -8.3860 
  152.0000     2.2500    82.7750    38.0650    33.6830    32.6370    24.1500   411.2180    -8.6000 
  152.1250     2.2530    81.0220    37.7450    33.6130    31.6180    24.0800   417.5570    -8.8300 
  152.2500     2.2590    77.8790    38.5820    34.2440    31.4370    24.0540   419.6490    -9.0580 
  152.3750     2.2650    76.8340    40.7620    35.8260    32.6910    24.0570   415.6800    -9.2620 
  152.5000     2.2700    78.8650    44.2710    38.3250    35.3860    24.0830   409.2770    -9.4480 
  152.6250     2.2700    80.9030    48.5890    41.5390    38.5380    24.1500   406.1120    -9.6220 
  152.7500     2.2670    82.6550    52.7820    44.9320    40.5920    24.2220   405.6110    -9.7900 
  152.8750     2.2620    83.8570    56.1270    48.1630    41.4420    24.2760   405.2980    -9.9530 
  153.0000     2.2540    82.3320    58.9510    51.0350    42.6520    24.3270   405.3010   -10.0890 
  153.1250     2.2470    76.8400    61.2160    53.4400    45.4500    24.4520   405.7280   -10.1420 
  153.2500     2.2420    72.4140    63.0950    55.4900    50.3500    24.7720   406.1540   -10.1620 
  153.3750     2.2390    70.7590    64.5890    57.1910    55.7750    25.2450   406.2680   -10.1780 
  153.5000     2.2390    71.6320    65.6120    58.4850    59.2490    25.6280   405.7040   -10.1870 
  153.6250     2.2410    73.1510    65.9830    59.1930    59.7470    25.7560   404.2350   -10.1710 
  153.7500     2.2430    73.1140    65.8800    59.3970    59.2480    25.7790   402.4590   -10.1560 
  153.8750     2.2440    73.5220    65.5800    59.2780    59.8730    25.7770   401.1660   -10.1550 
  154.0000     2.2450    75.8300    65.5100    59.2030    61.6380    25.7790   400.9910   -10.1930 
  154.1250     2.2460    77.4280    66.4360    59.9140    61.5810    25.7780   402.0260   -10.2810 
  154.2500     2.2460    76.8640    68.9700    62.0850    60.8660    25.7760   403.3000   -10.3940 
  154.3750     2.2450    77.3000    73.8360    66.4540    62.7880    25.7720   404.1280   -10.5300 
  154.5000     2.2420    81.0410    81.6090    73.5870    69.1380    25.7630   404.3540   -10.6870 
  154.6250     2.2360    82.6750    92.7530    83.9690    82.1040    25.7260   404.0630   -10.8950 
  154.7500     2.2300    77.6700   105.4570    96.1400    98.7610    25.6460   403.4650   -11.1540 
  154.8750     2.2270    68.8390   117.3960   108.2380   115.2060    25.5220   402.5160   -11.4410 
