~V
VERS. 2.00: Ver 2.00
~W
STRT.M 60.0000:
STOP.M 283.0000:
STEP.M 0.1250:
NULL. -999.2500:
UWI. DF3045:
~C
DEPT.M :
DEN.GM/CC :
SP.MV :
AC.US/MT :
GR.API :
CALI.CM :
RXO.OHMM :
RI. :
RML.OHMM :
~A
   60.0000  -999.2500    15.0180  -999.2500  -999.2500  -999.2500  -999.2500  -999.2500  -999.2500 
   60.1250  -999.2500    14.8630  -999.2500    41.1400    25.3750     0.3500     0.5520     0.1560 
   60.2500  -999.2500    14.7800  -999.2500    41.1400    25.3750     0.3500     0.5520     0.1560 
   60.3750  -999.2500    14.7530  -999.2500    38.6890    25.3760     0.3590     0.5660     0.1940 
   60.5000  -999.2500    14.7740  -999.2500    34.5540    25.3960     0.6900     0.5980     0.2810 
   60.6250  -999.2500    14.8690  -999.2500    34.4920    25.3970     1.7040     0.6280     0.3810 
   60.7500  -999.2500    15.0300  -999.2500    36.7850    25.3430     1.7270     0.6460     0.4110 
   60.8750  -999.2500    15.2740  -999.2500    38.7060    25.3500     1.2480     0.6590     0.3620 
   61.0000  -999.2500    15.6040  -999.2500    39.1930    25.3670     0.9890     0.6810     0.2850 
   61.1250  -999.2500    16.0290  -999.2500    37.6720    25.3420     0.3250     0.7120     0.2060 
   61.2500  -999.2500    16.5340  -999.2500    35.4890    25.3700     0.2670     0.7350     0.1390 
   61.3750  -999.2500    17.1210  -999.2500    34.9740    25.3660     0.4330     0.7580     0.0700 
   61.5000  -999.2500    17.7810  -999.2500    38.4720    25.2180     0.5090     0.7830     0.0230 
   61.6250  -999.2500    18.5210  -999.2500    44.1080    25.2090     0.5330     0.8060    -0.0180 
   61.7500  -999.2500    19.3490  -999.2500    47.5070    25.2910     0.6320     0.8270    -0.0080 
   61.8750  -999.2500    20.2370  -999.2500    47.7510    25.3770     1.3800     0.8330     0.0030 
   62.0000  -999.2500    21.1430  -999.2500    46.1270    25.3750     1.6720     0.8160     0.0250 
   62.1250  -999.2500    22.0190  -999.2500    43.9570    25.2860     1.3000     0.8040     0.0360 
   62.2500  -999.2500    22.7900  -999.2500    41.6440    25.2860     0.5010     0.8100     0.0390 
   62.3750  -999.2500    23.4040  -999.2500    39.4890    25.3570     0.3400     0.8150     0.0460 
   62.5000  -999.2500    23.7900  -999.2500    38.8340    25.2160     0.3420     0.8080     0.0820 
   62.6250  -999.2500    23.8970  -999.2500    39.4720    25.2580     0.5170     0.7920     0.1230 
   62.7500  -999.2500    23.8300  -999.2500    40.4830    25.3700     0.7420     0.7930     0.1780 
   62.8750  -999.2500    23.6070  -999.2500    41.8530    25.3880     0.9070     0.8050     0.1840 
   63.0000  -999.2500    23.2350  -999.2500    42.7120    25.2440     0.8670     0.8260     0.1800 
   63.1250  -999.2500    22.7560  -999.2500    42.9580    25.3870     0.7310     0.8550     0.1400 
   63.2500  -999.2500    22.2560  -999.2500    43.7190    25.3890     0.6530     0.8820     0.0990 
   63.3750  -999.2500    21.7600  -999.2500    44.6630    25.3780     0.5460     0.9130     0.0600 
   63.5000  -999.2500    21.2460  -999.2500    45.9680    25.1660     0.3030     0.9360     0.0470 
   63.6250  -999.2500    20.5950  -999.2500    47.9650    24.8520     0.0920     0.8990     0.0630 
   63.7500  -999.2500    19.7180  -999.2500    49.3900    24.0250     0.0140     0.7930     0.0630 
   63.8750  -999.2500    18.5530  -999.2500    49.8680    23.5770     0.0010     0.6320     0.0360 
   64.0000  -999.2500    17.0860  -999.2500    50.1230    23.3790     0.0000     0.4480    -0.0300 
   64.1250  -999.2500    15.1630  -999.2500    51.3120    23.5090     0.0030     0.3040    -0.0860 
   64.2500  -999.2500    12.7640  -999.2500    52.3490    23.4320     0.0450     0.2080    -0.1340 
   64.3750  -999.2500     9.8710  -999.2500    52.4360    23.4290     0.2660     0.1530    -0.1830 
   64.5000  -999.2500     6.4780  -999.2500    52.2720    23.4140     0.8610     0.1330    -0.2150 
   64.6250  -999.2500     2.4960  -999.2500    53.4060    23.7830     2.0390     0.1660    -0.1940 
   64.7500  -999.2500    -1.9610  -999.2500    55.7220    23.7580     4.5960     0.2870    -0.0740 
   64.8750  -999.2500    -6.7070  -999.2500    56.5290    23.8050     7.2880     0.5410     0.1960 
   65.0000  -999.2500   -11.4800  -999.2500    54.3270    24.1090     8.5290     1.0130     0.6830 
   65.1250  -999.2500   -15.9670  -999.2500    51.6940    25.3410     8.6410     1.8430     1.5380 
   65.2500  -999.2500   -20.0380  -999.2500    51.0760    27.3790     8.5200     2.9380     2.6460 
   65.3750  -999.2500   -23.6210  -999.2500    52.4720    30.8970     9.4250     4.1470     3.8390 
   65.5000  -999.2500   -26.6080  -999.2500    54.5730    34.1510    11.7480     5.2790     4.9120 
   65.6250  -999.2500   -28.7650  -999.2500    56.9200    34.7590    12.9920     6.1710     5.6980 
   65.7500  -999.2500   -30.2040  -999.2500    58.3320    34.9120    12.2540     6.8610     6.2640 
   65.8750  -999.2500   -31.0720  -999.2500    59.0380    34.2900    10.6580     7.4780     6.7680 
   66.0000  -999.2500   -31.5860  -999.2500    60.9220    32.4670     9.6390     8.0980     7.3190 
   66.1250  -999.2500   -31.9080  -999.2500    63.8570    28.6520    10.6490     8.6340     7.8400 
   66.2500  -999.2500   -32.1440  -999.2500    65.3290    25.4440    12.6080     9.0210     8.2240 
   66.3750  -999.2500   -32.3120  -999.2500    64.9300    24.1300    14.1210     9.1800     8.3900 
   66.5000  -999.2500   -32.4340  -999.2500    65.7010    23.7950    14.5350     9.0440     8.2790 
   66.6250  -999.2500   -32.5270  -999.2500    69.3490    24.1950    14.6790     8.6460     7.9150 
   66.7500  -999.2500   -32.6290  -999.2500    73.0550    24.7290    13.8110     8.1630     7.5010 
   66.8750  -999.2500   -32.7310  -999.2500    76.0070    24.7140    12.3170     7.7030     7.1430 
   67.0000  -999.2500   -32.8300  -999.2500    77.3400    24.0580    11.0380     7.3530     6.9250 
   67.1250  -999.2500   -32.9540  -999.2500    75.5680    23.7290    11.0910     7.2060     6.9180 
   67.2500  -999.2500   -33.0960  -999.2500    71.7910    23.7210    11.2990     7.2070     7.0560 
   67.3750  -999.2500   -33.2600  -999.2500    68.1800    23.9220    11.7690     7.3060     7.2880 
   67.5000  -999.2500   -33.4340  -999.2500    67.0900    24.2100    11.9370     7.4660     7.5880 
   67.6250  -999.2500   -33.6130  -999.2500    71.4280    24.2210    11.5700     7.6560     7.9110 
   67.7500  -999.2500   -33.7600  -999.2500    78.4670    24.1500    11.1890     7.8240     8.2200 
   67.8750  -999.2500   -33.8760  -999.2500    81.9420    24.0220    11.3350     7.9560     8.4830 
   68.0000  -999.2500   -33.9650  -999.2500    80.2760    23.9790    11.7630     8.0020     8.6420 
   68.1250  -999.2500   -33.9860  -999.2500    78.3350    24.0850    11.9880     7.8660     8.5840 
   68.2500  -999.2500   -33.9620  -999.2500    79.3760    24.3270    12.0630     7.5980     8.3790 
   68.3750  -999.2500   -33.9050  -999.2500    82.2690    24.3520    11.4680     7.2630     8.1080 
   68.5000  -999.2500   -33.8310  -999.2500    87.5930    24.2360    10.8870     6.9140     7.8350 
   68.6250  -999.2500   -33.7850  -999.2500    94.8800    24.1510    10.7860     6.6230     7.6420 
   68.7500  -999.2500   -33.8060  -999.2500    97.5940    24.4950    10.0600     6.4990     7.6630 
   68.8750  -999.2500   -33.9510  -999.2500    91.9240    24.4310     8.3140     6.5840     7.9160 
   69.0000  -999.2500   -34.2150  -999.2500    82.3300    24.3820     8.1980     6.8790     8.3860 
   69.1250  -999.2500   -34.5790  -999.2500    77.5160    24.6510    12.9200     7.4010     9.0810 
   69.2500  -999.2500   -35.0170  -999.2500    76.1630    24.8110    17.3800     8.0770     9.9190 
   69.3750  -999.2500   -35.5140  -999.2500    75.0850    24.7670    16.5330     8.8390    10.8200 
   69.5000  -999.2500   -36.0570  -999.2500    74.4620    24.9220    12.6970     9.6270    11.7150 
   69.6250  -999.2500   -36.5920  -999.2500    74.7450    24.8560    13.6050    10.3380    12.4760 
   69.7500  -999.2500   -37.0790  -999.2500    73.3090    24.5830    14.4560    10.8530    12.9980 
   69.8750  -999.2500   -37.4970  -999.2500    70.2560    24.0080    14.6520    11.1120    13.2290 
