~V
VERS. 2.00: Ver 2.00
~W
STRT.M 57.0000:
STOP.M 272.0000:
STEP.M 0.1250:
NULL. -999.2500:
UWI. DF3055:
~C
DEPT.M :
SP.MV :
GR.API :
RML.OHMM :
RI. :
RXO.OHMM :
CALI.CM :
DEN.GM/CC :
~A
# ...
  113.2500   -18.5230    84.1350     6.8800     6.0390     6.7740    24.4320     2.1700 
  113.3750   -18.0580    94.5010     6.4820     5.6830     6.3070    23.9500     2.1990 
  113.5000   -17.7070    97.5660     6.1410     5.3900     5.8570    23.6180     2.2240 
  113.6250   -17.4970    96.1730     5.8670     5.1680     5.3910    23.4810     2.2410 
  113.7500   -17.3870    96.0120     5.6720     5.0260     4.9830    23.4180     2.2440 
  113.8750   -17.3380    97.7980     5.5690     4.9450     4.7180    23.3690     2.2380 
  114.0000   -17.3680    99.0260     5.5730     4.9210     4.5650    23.3740     2.2260 
  114.1250   -17.4910    99.5070     5.6260     4.9520     4.4480    23.5110     2.2140 
  114.2500   -17.6570   100.9470     5.6860     5.0100     4.5580    23.7810     2.2070 
  114.3750   -17.8580   103.8140     5.7020     5.0540     4.8200    23.9320     2.2080 
  114.5000   -17.9960   107.1660     5.6800     5.0360     5.0840    23.9940     2.2170 
  114.6250   -18.0480   110.7240     5.6200     4.9730     5.1540    24.0450     2.2310 
  114.7500   -18.0970   112.5240     5.5110     4.8750     5.0350    24.1300     2.2450 
  114.8750   -18.1520   111.1720     5.4000     4.7890     4.9740    24.2310     2.2560 
  115.0000   -18.2030   107.2880     5.3470     4.7530     5.0230    24.3100     2.2620 
  115.1250   -18.2500   103.3070     5.3950     4.7700     5.1480    24.3830     2.2640 
  115.2500   -18.3180   100.4310     5.5920     4.9080     5.3870    24.4720     2.2640 
  115.3750   -18.3790    99.8510     5.9030     5.1990     5.8480    24.5930     2.2680 
  115.5000   -18.4540   100.9520     6.3360     5.6110     6.8000    24.7140     2.2820 
  115.6250   -18.5320    99.3640     6.7820     6.0290     8.2970    24.7690     2.3060 
  115.7500   -18.5960    93.9020     7.0480     6.3380     9.8910    24.7540     2.3280 
  115.8750   -18.6670    92.6320     7.0350     6.2850    10.6190    24.7140     2.3380 
  116.0000   -18.7230    96.3290     6.7410     5.9300     9.6310    24.6800     2.3340 
  116.1250   -18.7470   103.1690     6.2810     5.5090     7.4200    24.6670     2.3210 
  116.2500   -18.7590   113.0210     5.8360     5.1130     5.6870    24.6660     2.3100 
  116.3750   -18.7810   120.1800     5.5340     4.8340     5.2340    24.6650     2.3040 
  116.5000   -18.7980   119.5020     5.4070     4.7090     5.2700    24.6630     2.2990 
  116.6250   -18.8150   112.0540     5.4320     4.7300     5.4760    24.6620     2.2930 
  116.7500   -18.8380   105.7230     5.5620     4.8630     5.6730    24.6620     2.2880 
  116.8750   -18.8490   102.7180     5.7180     5.0350     5.7540    24.6600     2.2850 
  117.0000   -18.8600   100.4600     5.8620     5.2050     5.7430    24.6570     2.2790 
  117.1250   -18.8770    97.6950     5.9740     5.3140     5.7720    24.6570     2.2620 
  117.2500   -18.8850    92.5660     6.0280     5.3290     5.8250    24.6590     2.2310 
  117.3750   -18.8470    88.7380     6.0200     5.2610     5.9070    24.6640     2.1960 
  117.5000   -18.7860    90.7150     5.9450     5.1740     5.8870    24.6740     2.1690 
  117.6250   -18.7250    96.9410     5.8190     5.0710     5.6200    24.6990     2.1580 
  117.7500   -18.6490   100.9740     5.6850     4.9560     5.3940    24.7420     2.1660 
  117.8750   -18.5730   100.6590     5.5990     4.8750     5.3650    24.7900     2.1850 
  118.0000   -18.5020    99.1180     5.5880     4.8530     5.6210    24.8130     2.2060 
  118.1250   -18.4270   100.4480     5.6410     4.8870     6.1680    24.8170     2.2280 
  118.2500   -18.3480   104.0790     5.7070     4.9400     6.8340    24.8170     2.2510 
  118.3750   -18.2840   106.0810     5.7260     4.9600     7.1930    24.8180     2.2740 
  118.5000   -18.2250   106.0030     5.6710     4.9200     6.8300    24.8190     2.2930 
  118.6250   -18.1530   107.0620     5.5570     4.8260     5.9350    24.8210     2.3040 
  118.7500   -18.0860   111.5600     5.4360     4.7160     5.3260    24.8260     2.3040 
  118.8750   -18.0130   115.0880     5.3510     4.6340     4.9620    24.8290     2.2990 
  119.0000   -17.9310   115.0150     5.3120     4.5920     4.9000    24.8260     2.2920 
  119.1250   -17.8550   112.1000     5.3060     4.5790     4.9710    24.8090     2.2900 
  119.2500   -17.7850   108.7730     5.2970     4.5690     4.9910    24.7660     2.2990 
  119.3750   -17.7340   106.0870     5.2600     4.5370     4.8620    24.7050     2.3150 
  119.5000   -17.6870   104.6050     5.1900     4.4810     4.6120    24.6300     2.3320 
  119.6250   -17.6360   106.4540     5.0980     4.4140     4.3820    24.5260     2.3410 
  119.7500   -17.5710   113.1710     5.0050     4.3580     4.2250    24.3540     2.3380 
  119.8750   -17.5330   118.3270     4.9300     4.3240     4.2020    24.1280     2.3290 
  120.0000   -17.5690   115.2370     4.8980     4.3150     4.2870    23.9070     2.3180 
  120.1250   -17.6800   106.8960     4.9120     4.3310     4.4820    23.7690     2.3080 
  120.2500   -17.9050   104.2040     4.9640     4.3780     4.7940    23.7170     2.2960 
  120.3750   -18.1750   105.0570     5.0580     4.4820     5.4260    23.7410     2.2780 
  120.5000   -18.4640   100.2200     5.2530     4.7010     6.4900    23.8310     2.2580 
  120.6250   -18.7610    91.0800     5.7010     5.1280     7.8260    24.0160     2.2470 
  120.7500   -19.0960    87.6840     6.6300     5.9160    10.1530    24.3040     2.2650 
  120.8750   -19.4030    89.5220     7.9680     7.0180    13.7630    24.5940     2.3170 
  121.0000   -19.6550    87.4360     9.4790     8.2680    17.8600    24.7480     2.3890 
  121.1250   -19.8430    79.6180    10.7330     9.3420    22.1020    24.7890     2.4530 
  121.2500   -19.9300    73.6980    11.0620     9.7040    24.7410    24.7890     2.4680 
  121.3750   -19.9960    75.7070    10.3860     9.2080    21.5130    24.7900     2.4360 
  121.5000   -20.0620    85.2300     9.0240     8.0600    14.3990    24.7910     2.3820 
  121.6250   -20.1240    98.0630     7.5560     6.7530     8.4340    24.7920     2.3320 
  121.7500   -20.1830   105.7210     6.5140     5.7890     6.2480    24.7930     2.3020 
  121.8750   -20.2500   104.8570     5.9630     5.2530     5.4420    24.7930     2.2850 
  122.0000   -20.3040    97.3550     5.8210     5.0840     5.6710    24.7910     2.2710 
  122.1250   -20.3330    89.2940     5.9400     5.1570     6.2780    24.7900     2.2550 
  122.2500   -20.3360    85.5290     6.1360     5.3200     6.7190    24.7890     2.2410 
  122.3750   -20.3030    87.8270     6.2410     5.4190     6.8330    24.7890     2.2360 
  122.5000   -20.2510    94.7280     6.1930     5.3930     6.3490    24.7890     2.2420 
  122.6250   -20.2120   101.7480     6.0190     5.2520     5.4050    24.7870     2.2570 
  122.7500   -20.1690   105.4490     5.8020     5.0610     4.8650    24.7860     2.2740 
  122.8750   -20.1360   107.4750     5.6350     4.9050     4.7910    24.7850     2.2850 
  123.0000   -20.1160   108.3510     5.5470     4.8150     4.9810    24.7830     2.2910 
  123.1250   -20.1210   105.9470     5.5250     4.7870     5.2920    24.7820     2.2960 
  123.2500   -20.1690   101.8490     5.5290     4.7890     5.4990    24.7730     2.3040 
  123.3750   -20.2560   100.1320     5.5150     4.7820     5.4390    24.7590     2.3150 
  123.5000   -20.3660    98.1160     5.4750     4.7570     5.3510    24.7320     2.3240 
  123.6250   -20.4950    94.3420     5.4270     4.7270     5.3780    24.6880     2.3260 
  123.7500   -20.6410    92.1790     5.4160     4.7300     5.4970    24.6490     2.3170 
  123.8750   -20.7880    92.3110     5.4840     4.8000     5.6650    24.6210     2.3040 
  124.0000   -20.9260    90.4340     5.6580     4.9590     5.9390    24.6000     2.2970 
  124.1250   -21.0570    85.7840     5.9510     5.2160     6.4890    24.5910     2.3070 
  124.2500   -21.1990    83.5850     6.3550     5.5640     7.1890    24.5870     2.3400 
  124.3750   -21.3230    83.8490     6.7820     5.9360     7.9940    24.5850     2.3820 
