~V
VERS. 2.00: Ver 2.00
~W
STRT.M 61.0000:
STOP.M 276.0000:
STEP.M 0.1250:
NULL. -999.2500:
UWI. DF3051:
~C
DEPT.M :
SP.MV :
GR.API :
CALI.CM :
RXO.OHMM :
RI. :
RML.OHMM :
DEN.GM/CC :
~A
# ...
  252.2500   -16.1250    54.7850    26.4190     5.5420     6.4540     7.3460     2.4400 
  252.3750   -16.3350    55.1760    26.2420     5.9700     6.5880     7.4530     2.4420 
  252.5000   -16.5730    57.7840    26.1970     6.7020     6.7290     7.5960     2.4490 
  252.6250   -16.6850    59.5010    26.2360     7.3470     6.8760     7.7890     2.4520 
  252.7500   -16.6920    59.8540    26.2420     7.6940     7.0180     7.9910     2.4400 
  252.8750   -16.6680    59.6360    26.1850     7.9270     7.1400     8.1560     2.4150 
  253.0000   -16.7010    59.5180    26.1150     8.3000     7.2290     8.2480     2.3940 
  253.1250   -16.8080    60.7150    26.1210     8.7790     7.2650     8.2420     2.3880 
  253.2500   -16.9190    62.6500    26.1980     9.0520     7.2510     8.1780     2.3980 
  253.3750   -16.9360    63.9500    26.2830     9.0050     7.1890     8.0830     2.4060 
  253.5000   -16.8690    63.3060    26.3060     8.7860     7.0890     7.9700     2.4070 
  253.6250   -16.7760    60.8360    26.2450     8.5340     6.9650     7.8500     2.4070 
  253.7500   -16.7300    59.3820    26.1780     8.1440     6.8470     7.7280     2.4140 
  253.8750   -16.8160    59.1920    26.1630     7.5850     6.7560     7.6170     2.4220 
  254.0000   -17.0190    59.9100    26.2070     7.0230     6.7020     7.5340     2.4290 
  254.1250   -17.2120    62.0060    26.2590     6.6090     6.6920     7.5140     2.4390 
  254.2500   -17.3160    64.0570    26.2870     6.2930     6.7190     7.5560     2.4470 
  254.3750   -17.3210    64.4510    26.3080     6.1050     6.7820     7.6480     2.4370 
  254.5000   -17.2460    63.2730    26.3500     6.1990     6.8770     7.7730     2.4110 
  254.6250   -17.1800    63.0420    26.4170     6.7950     7.0060     7.9110     2.3870 
  254.7500   -17.1680    64.4840    26.4670     7.7040     7.1590     8.0550     2.3910 
  254.8750   -17.1420    64.4440    26.4630     8.5310     7.3270     8.2080     2.4190 
  255.0000   -17.0340    62.4380    26.4050     8.9450     7.4870     8.3570     2.4480 
  255.1250   -16.8290    60.0900    26.3400     8.9600     7.6030     8.4660     2.4540 
  255.2500   -16.5710    58.4260    26.3060     8.8630     7.6610     8.5020     2.4320 
  255.3750   -16.3680    57.9910    26.2920     8.6100     7.6570     8.4570     2.4120 
  255.5000   -16.3170    58.2430    26.2700     8.1380     7.6150     8.3670     2.4130 
  255.6250   -16.3880    59.0810    26.2220     7.7900     7.5800     8.3100     2.4320 
  255.7500   -16.4500    58.7010    26.1740     8.0090     7.5970     8.3510     2.4450 
  255.8750   -16.4490    59.0510    26.1560     8.8350     7.6890     8.5030     2.4460 
  256.0000   -16.4010    62.3130    26.1790     9.8220     7.8590     8.7380     2.4420 
  256.1250   -16.3680    65.0010    26.2170    10.1800     8.0790     9.0030     2.4410 
  256.2500   -16.4280    64.4600    26.2210     9.8500     8.2780     9.2320     2.4440 
  256.3750   -16.5960    63.7570    26.1930     9.3320     8.4080     9.3760     2.4450 
  256.5000   -16.7930    65.5370    26.1760     9.1580     8.4560     9.4070     2.4440 
  256.6250   -16.9240    66.5530    26.1990     9.4330     8.4290     9.3030     2.4410 
  256.7500   -16.9650    64.8510    26.2250     9.8440     8.3630     9.1220     2.4380 
  256.8750   -16.9440    62.1720    26.2310    10.2460     8.2700     8.9190     2.4370 
  257.0000   -16.9830    60.0190    26.2260    10.4260     8.1530     8.7390     2.4340 
  257.1250   -17.1710    59.7890    26.2260     9.9640     8.0100     8.5930     2.4250 
  257.2500   -17.4070    61.5250    26.2260     9.1010     7.8510     8.4630     2.4120 
  257.3750   -17.5530    62.2440    26.2240     8.3410     7.6870     8.3440     2.4060 
  257.5000   -17.5280    60.0110    26.2250     8.0040     7.5300     8.2430     2.4100 
  257.6250   -17.3530    57.2650    26.2350     8.0690     7.3940     8.1560     2.4140 
  257.7500   -17.1640    57.5770    26.2440     8.2450     7.2840     8.0620     2.4110 
  257.8750   -17.0820    60.6670    26.2400     8.3600     7.1940     7.9440     2.4060 
  258.0000   -17.0850    62.6950    26.2210     8.3290     7.1170     7.8010     2.4060 
  258.1250   -17.0730    60.8480    26.2060     8.1580     7.0530     7.6620     2.4100 
  258.2500   -17.0030    60.1060    26.2160     7.9610     7.0160     7.5720     2.4100 
  258.3750   -16.9000    62.6790    26.2480     7.8560     7.0320     7.5700     2.4060 
  258.5000   -16.8950    64.6320    26.2910     7.9480     7.1240     7.6810     2.4080 
  258.6250   -17.1090    61.6180    26.3280     8.2900     7.3080     7.9150     2.4170 
  258.7500   -17.4710    59.8420    26.3540     8.7620     7.5420     8.2090     2.4170 
  258.8750   -17.8280    62.1130    26.3640     9.2430     7.7860     8.5030     2.4030 
  259.0000   -18.0590    65.1190    26.3570     9.5930     8.0010     8.7470     2.3840 
  259.1250   -18.1260    64.3360    26.3350     9.7220     8.1570     8.9010     2.3760 
  259.2500   -18.1360    62.0080    26.3130     9.7670     8.2590     8.9780     2.3870 
  259.3750   -18.1870    61.1380    26.2990     9.8310     8.3100     8.9930     2.4010 
  259.5000   -18.2780    62.2360    26.2940     9.8740     8.3140     8.9560     2.4070 
  259.6250   -18.3790    62.7730    26.2940     9.7440     8.2740     8.8810     2.4040 
  259.7500   -18.4650    62.0090    26.2960     9.4500     8.2160     8.8070     2.4010 
  259.8750   -18.4830    62.2200    26.2960     9.1260     8.1590     8.7570     2.3980 
  260.0000   -18.4030    63.6230    26.2900     8.9270     8.1140     8.7350     2.3920 
  260.1250   -18.2660    63.8390    26.2800     9.0210     8.0870     8.7080     2.3850 
  260.2500   -18.1560    63.6590    26.2770     9.4290     8.0620     8.6450     2.3870 
  260.3750   -18.1120    63.6730    26.2810     9.9860     8.0300     8.5390     2.3970 
  260.5000   -18.0300    62.5230    26.2870    10.2550     7.9830     8.4190     2.4080 
  260.6250   -17.7660    59.3140    26.2840     9.8160     7.9250     8.3470     2.4200 
  260.7500   -17.3380    57.5800    26.2700     9.1010     7.8710     8.3490     2.4340 
  260.8750   -16.8600    59.0540    26.2500     8.5790     7.8360     8.4030     2.4460 
  261.0000   -16.5470    60.7120    26.2350     8.3120     7.8330     8.4720     2.4540 
  261.1250   -16.5340    58.8760    26.2300     8.0480     7.8870     8.5390     2.4630 
  261.2500   -16.6260    57.2920    26.2120     7.7460     8.0020     8.6350     2.4720 
  261.3750   -16.6270    58.8770    26.1600     7.6140     8.1870     8.8080     2.4800 
  261.5000   -16.4670    61.9510    26.0850     7.8630     8.4360     9.0810     2.4880 
  261.6250   -16.1930    60.8360    26.0260     8.6170     8.7190     9.4290     2.5000 
  261.7500   -15.9730    58.9140    26.0000     9.5990     8.9780     9.7450     2.5120 
  261.8750   -15.8920    60.9560    26.0030    10.4800     9.1650     9.9420     2.5180 
  262.0000   -15.8450    65.6490    26.0400    10.9260     9.2500     9.9700     2.5140 
  262.1250   -15.6630    67.7150    26.1290    10.5840     9.2040     9.8050     2.4960 
  262.2500   -15.3470    66.6090    26.2410     9.7050     9.0670     9.5430     2.4640 
  262.3750   -15.0230    63.6370    26.3470     8.7790     8.8740     9.2680     2.4350 
  262.5000   -14.8560    59.6060    26.4370     8.2470     8.6490     9.0360     2.4240 
  262.6250   -14.9260    55.9250    26.5140     8.1230     8.4020     8.8540     2.4340 
  262.7500   -15.0580    55.2050    26.5740     8.1110     8.1490     8.6730     2.4540 
  262.8750   -15.0960    56.9620    26.6240     8.2500     7.8950     8.4630     2.4680 
  263.0000   -14.9660    59.3490    26.6920     8.6520     7.6430     8.2160     2.4690 
  263.1250   -14.7100    61.0590    26.7830     8.9780     7.3930     7.9360     2.4580 
  263.2500   -14.5050    61.6470    26.8690     8.6450     7.1490     7.6330     2.4450 
  263.3750   -14.4100    61.2050    26.9350     7.6160     6.9120     7.3030     2.4400 
