~V
VERS. 2.00: Ver 2.00
~W
STRT.M 125.0000:
STOP.M 275.0000:
STEP.M 0.1250:
NULL. -999.2500:
UWI. DF3046:
~C
DEPT.M :
GR.API :
CALI.CM :
RXO.OHMM :
RI. :
RML.OHMM :
DEN.GM/CC :
SP.MV :
~A
# ...
  203.7500    52.7400    24.4030     6.5390     6.0980     7.6840     2.4530   -13.1900 
  203.8750    56.1410    24.5660     6.8050     6.1560     7.9110     2.4670   -13.3580 
  204.0000    60.4590    24.6670     7.1960     6.2760     8.1980     2.4850   -13.6430 
  204.1250    63.9610    24.6550     7.6040     6.3970     8.4580     2.4840   -14.1150 
  204.2500    68.5380    24.6540     7.9190     6.4760     8.6580     2.4660   -14.7390 
  204.3750    75.9710    24.6700     7.9690     6.5390     8.8460     2.4500   -15.5090 
  204.5000    86.2110    24.6890     7.8010     6.6590     9.1310     2.4460   -16.4130 
  204.6250    95.1690    24.6620     7.8730     6.9420     9.6750     2.4500   -17.5210 
  204.7500   100.6460    24.6410     8.4610     7.3990    10.4700     2.4520   -18.7920 
  204.8750   104.6990    24.6540     9.4030     7.9850    11.4190     2.4510   -20.1190 
  205.0000   106.7870    24.6720    10.3560     8.5810    12.3230     2.4440   -21.3900 
  205.1250   101.5920    24.6720    10.6810     8.9690    12.8770     2.4330   -22.5550 
  205.2500    92.9720    24.6490    10.6150     9.0610    12.9940     2.4240   -23.6450 
  205.3750    89.1890    24.6190    10.5490     8.8830    12.7380     2.4230   -24.6460 
  205.5000    92.7820    24.6640    10.4810     8.5620    12.3040     2.4270   -25.5300 
  205.6250    97.2260    24.6750    10.0730     8.2720    11.9770     2.4310   -26.2840 
  205.7500    99.4270    24.6850     9.5610     8.1370    11.9320     2.4280   -26.9720 
  205.8750    99.7450    24.6740     9.6060     8.2080    12.2210     2.4190   -27.7260 
  206.0000    95.8180    24.6240    10.5760     8.4840    12.7990     2.4080   -28.6900 
  206.1250    88.1890    24.4070    11.9450     8.9340    13.5550     2.3990   -29.9110 
  206.2500    82.7940    24.1260    12.9180     9.4170    14.2870     2.3890   -31.2540 
  206.3750    81.1480    23.8450    13.1220     9.8130    14.8600     2.3750   -32.6110 
  206.5000    81.3590    23.5950    12.8330    10.0330    15.2060     2.3640   -33.9050 
  206.6250    81.5540    23.3570    12.5030    10.0490    15.3310     2.3630   -35.0060 
  206.7500    81.7800    23.1810    12.3120     9.9870    15.3830     2.3680   -35.9130 
  206.8750    82.3320    23.1700    12.3210     9.9470    15.4540     2.3750   -36.5600 
  207.0000    83.4360    23.3170    12.4400     9.9680    15.5580     2.3830   -36.8900 
  207.1250    83.7550    23.3910    12.5250    10.0010    15.6040     2.3940   -36.8360 
  207.2500    82.6540    23.3630    12.6650     9.9460    15.5090     2.4090   -36.4880 
  207.3750    81.1270    23.2970    12.7480     9.7550    15.2660     2.4300   -35.9080 
  207.5000    81.0830    23.3520    12.2620     9.4610    14.9570     2.4540   -35.1120 
  207.6250    83.8440    23.6010    10.9890     9.1890    14.7590     2.4620   -34.1570 
  207.7500    87.3920    23.8810    10.2440     9.0700    14.7920     2.4470   -33.1640 
  207.8750    88.6920    24.0860    10.3900     9.1630    15.0810     2.4200   -32.2470 
  208.0000    87.0900    24.2890    11.0010     9.4570    15.5480     2.4040   -31.4360 
  208.1250    85.6860    24.4140    11.7490     9.8830    16.0100     2.4070   -30.7560 
  208.2500    86.3050    24.3390    12.4140    10.2860    16.3050     2.4190   -30.2360 
  208.3750    88.7690    24.3110    12.7900    10.5940    16.4410     2.4330   -29.8950 
  208.5000    92.3340    24.3470    13.0020    10.8650    16.6340     2.4500   -29.7840 
  208.6250    94.7800    24.2970    13.4940    11.3620    17.3620     2.4700   -29.8890 
  208.7500    93.0740    24.1140    14.3760    12.2750    18.8160     2.4850   -30.0570 
  208.8750    87.7210    23.9590    15.8160    13.6100    20.8050     2.4910   -30.1070 
  209.0000    81.9320    23.8930    18.0040    15.0270    22.5870     2.4880   -29.9280 
  209.1250    78.9410    23.9130    20.8090    15.5250    22.7440     2.4790   -29.4070 
  209.2500    77.6690    23.9730    21.9090    14.5340    20.9000     2.4610   -28.5370 
  209.3750    76.5470    24.0370    18.7990    12.3500    17.5800     2.4350   -27.3180 
  209.5000    74.2770    24.0190    12.5800     9.8700    13.9290     2.4130   -25.8070 
  209.6250    69.0050    23.9070     8.1100     7.9470    11.1640     2.4140   -24.1070 
  209.7500    61.3730    23.7150     6.4210     6.7230     9.5250     2.4350   -22.3200 
  209.8750    55.5050    23.5060     6.0950     6.1280     8.8540     2.4580   -20.5560 
  210.0000    56.2380    23.4240     6.0930     6.0190     8.8350     2.4680   -18.9390 
  210.1250    62.6740    23.6760     6.1230     6.2290     9.1210     2.4620   -17.6230 
  210.2500    69.6480    23.9000     6.2170     6.4820     9.3500     2.4490   -16.6300 
  210.3750    77.2380    24.0150     6.3200     6.6410     9.3940     2.4330   -15.9910 
  210.5000    85.3370    24.0090     6.3830     6.6790     9.2660     2.4150   -15.6220 
  210.6250    90.3570    23.9290     6.3390     6.6610     9.0770     2.4060   -15.4300 
  210.7500    90.8590    23.9020     6.2720     6.6730     8.9490     2.4170   -15.3200 
  210.8750    89.5370    23.9450     6.3590     6.7480     8.9320     2.4400   -15.3000 
  211.0000    87.7420    24.0520     6.8030     6.8780     9.0100     2.4620   -15.3080 
  211.1250    87.1200    24.2000     7.2030     7.0020     9.1050     2.4700   -15.2590 
  211.2500    89.2220    24.3190     7.1690     7.0510     9.1190     2.4650   -15.1570 
  211.3750    92.8850    24.3640     6.8500     6.9960     9.0120     2.4550   -15.0360 
  211.5000    94.3690    24.3670     6.6600     6.8500     8.8020     2.4500   -14.9500 
  211.6250    91.1240    24.3440     6.6360     6.6520     8.5610     2.4520   -14.9200 
  211.7500    87.7150    24.3170     6.6520     6.4610     8.3690     2.4540   -14.9280 
  211.8750    86.7080    24.3220     6.7020     6.3110     8.2560     2.4510   -14.9260 
  212.0000    88.4890    24.3270     6.7880     6.2130     8.2180     2.4470   -14.9430 
  212.1250    91.7690    24.3170     6.9490     6.1820     8.2540     2.4480   -15.0580 
  212.2500    94.3260    24.3150     7.2210     6.2170     8.3610     2.4500   -15.2760 
  212.3750    95.2520    24.3010     7.4790     6.3210     8.5520     2.4500   -15.5510 
  212.5000    95.0020    24.2830     7.6000     6.4910     8.8360     2.4480   -15.8540 
  212.6250    93.3020    24.2650     7.7340     6.7450     9.2550     2.4420   -16.1610 
  212.7500    90.2110    24.2840     8.2790     7.1210     9.8530     2.4310   -16.5110 
  212.8750    87.3810    24.3290     9.0920     7.7050    10.7280     2.4220   -16.8890 
  213.0000    86.5530    24.3930    10.0070     8.5870    11.9750     2.4240   -17.2870 
  213.1250    85.5900    24.4340    11.1640     9.8740    13.7050     2.4390   -17.7110 
  213.2500    82.7430    24.4520    13.2080    11.4850    15.8060     2.4520   -18.1290 
  213.3750    79.9920    24.4460    16.2570    13.3760    18.2220     2.4510   -18.5140 
  213.5000    78.7490    24.4260    18.8890    15.5560    20.9960     2.4310   -18.8510 
  213.6250    78.2020    24.4260    19.4160    18.3420    24.5810     2.3930   -19.1500 
  213.7500    77.4590    24.4360    20.4210    22.2350    29.5590     2.3490   -19.4140 
  213.8750    75.1740    24.4360    27.3640    27.9900    36.7920     2.3040   -19.6820 
  214.0000    70.2050    24.4210    45.2580    36.3120    47.1180     2.2620   -19.9630 
  214.1250    64.1950    24.4370    74.6100    47.7110    61.1070     2.2300   -20.2190 
  214.2500    62.0250    24.5010   100.7230    60.2140    76.2320     2.2110   -20.4630 
  214.3750    63.3980    24.5440   110.0610    70.9780    89.1210     2.2050   -20.7110 
  214.5000    65.2960    24.4430   101.4130    77.4550    96.8900     2.2070   -20.9870 
  214.6250    66.0190    24.2560    87.8700    78.9240    98.4990     2.2130   -21.2950 
  214.7500    66.7100    24.2060    78.8160    78.3170    97.4330     2.2230   -21.6130 
  214.8750    67.1860    24.2730    73.2200    77.5180    96.2510     2.2350   -21.9250 
