~V
VERS. 2.00: Ver 2.00
~W
STRT.M 125.0000:
STOP.M 269.0000:
STEP.M 0.1250:
NULL. -999.2500:
UWI. DF3036:
~C
DEPT.M :
GR.API :
RML.OHMM :
RI. :
RXO.OHMM :
CALI.CM :
DEN.GM/CC :
SP.MV :
~A
# ...
  181.2500    71.0680   107.0890    90.8240    67.6010    23.5230     2.2300   -34.9910 
  181.3750    72.7480   106.4200    89.7300    59.2490    23.4390     2.2330   -35.0420 
  181.5000    73.8540   106.6540    89.5890    55.1640    23.3260     2.2330   -35.0650 
  181.6250    73.8180   107.5800    90.2550    54.1290    23.2120     2.2310   -35.1150 
  181.7500    73.5020   108.7360    91.2350    49.6060    23.1010     2.2270   -35.1930 
  181.8750    74.0240   109.7960    92.1750    44.1390    22.9830     2.2270   -35.2930 
  182.0000    76.3920   110.3830    92.7110    40.1940    22.8420     2.2310   -35.4000 
  182.1250    79.6360   109.8880    92.3360    38.0240    22.7010     2.2370   -35.4890 
  182.2500    79.7900   108.1290    90.9350    35.5600    22.5350     2.2400   -35.5960 
  182.3750    75.7550   105.1010    88.5190    32.8120    22.3610     2.2360   -35.6470 
  182.5000    70.5300   101.2040    85.3950    29.9890    22.1670     2.2270   -35.7300 
  182.6250    70.4820    97.3080    82.2330    27.0710    21.9090     2.2160   -35.7680 
  182.7500    73.1420    94.2570    79.7310    24.0110    21.4910     2.2120   -35.7480 
  182.8750    73.4600    92.4020    78.2260    21.4430    20.9210     2.2160   -35.6460 
  183.0000    73.7290    91.6970    77.7340    19.6480    20.2920     2.2250   -35.4920 
  183.1250    77.8630    91.6750    78.0700    18.5280    19.6440     2.2350   -35.3390 
  183.2500    82.5280    91.3810    78.5970    18.0350    19.0890     2.2410   -35.1930 
  183.3750    84.2660    90.3900    78.7510    18.4820    18.7570     2.2440   -35.0510 
  183.5000    82.8250    88.0860    77.9600    19.1610    18.6580     2.2480   -34.8390 
  183.6250    81.3240    84.8230    75.4400    19.9010    18.7720     2.2540   -34.6390 
  183.7500    81.0210    80.1580    71.1540    20.7600    19.0980     2.2630   -34.4390 
  183.8750    81.5220    74.6140    65.2150    21.6740    19.6530     2.2720   -34.2890 
  184.0000    81.2720    68.5480    58.1930    22.3200    20.4000     2.2800   -34.1250 
  184.1250    78.3180    59.3570    51.1950    23.2030    21.2770     2.2900   -33.9680 
  184.2500    76.2990    51.8950    45.2630    23.9840    22.0570     2.2990   -33.7890 
  184.3750    77.4960    46.5570    40.7960    23.5600    22.5740     2.3080   -33.6290 
  184.5000    79.4820    43.0020    37.6290    21.7540    22.7820     2.3140   -33.5330 
  184.6250    79.4160    40.3960    35.2010    20.9990    22.8290     2.3160   -33.3980 
  184.7500    79.7470    37.6650    32.7150    22.6770    22.8640     2.3180   -33.3560 
  184.8750    83.8870    34.5170    29.9460    23.9950    22.9120     2.3210   -33.3270 
  185.0000    92.0030    31.2680    27.1350    21.7570    22.9820     2.3260   -33.3800 
  185.1250    97.9100    28.7950    24.9590    17.4370    23.1090     2.3300   -33.4460 
  185.2500    99.1550    27.6240    23.8120    14.4130    23.3110     2.3290   -33.5880 
  185.3750    96.5430    27.9820    23.8860    14.6850    23.5600     2.3210   -33.7570 
  185.5000    92.7560    29.8790    25.2340    17.9490    23.7550     2.3060   -33.9110 
  185.6250    90.9040    33.5440    28.1150    24.1420    23.8990     2.2840   -34.1570 
  185.7500    89.8230    38.7920    32.3800    29.3340    24.0010     2.2590   -34.3780 
  185.8750    89.1870    45.5970    38.0050    30.6780    24.0550     2.2370   -34.6180 
  186.0000    87.8720    53.5150    44.6470    32.6930    24.0710     2.2220   -34.8140 
  186.1250    84.4540    61.1750    51.2570    40.8060    24.0710     2.2200   -35.0450 
  186.2500    82.1870    66.7570    56.3000    53.6300    24.0710     2.2280   -35.2260 
  186.3750    82.6260    68.9700    58.5950    60.1270    24.0710     2.2400   -35.4080 
  186.5000    84.4300    67.6800    57.8280    54.3080    24.0710     2.2530   -35.5410 
  186.6250    84.2640    64.2340    54.8310    46.7050    24.0730     2.2620   -35.6730 
  186.7500    85.4740    61.4290    51.9330    42.1510    24.0870     2.2670   -35.7760 
  186.8750    88.8450    60.8040    50.5520    39.6320    24.1180     2.2700   -35.8870 
  187.0000    89.4930    62.6900    51.2060    39.2470    24.1410     2.2700   -36.0290 
  187.1250    85.0040    66.4590    53.7060    41.5660    24.1620     2.2680   -36.1710 
  187.2500    82.8300    70.3200    56.7250    47.3310    24.1930     2.2660   -36.3010 
  187.3750    83.5440    72.9880    59.2200    53.0720    24.2240     2.2670   -36.4760 
  187.5000    82.6760    73.7430    60.4540    54.1230    24.2370     2.2730   -36.6760 
  187.6250    78.6960    72.6620    60.2200    52.1780    24.2370     2.2850   -36.9350 
  187.7500    76.0740    71.3560    59.5920    49.2690    24.2330     2.2970   -37.1700 
  187.8750    77.1620    71.2100    59.6290    48.4000    24.2150     2.3050   -37.3960 
  188.0000    80.4460    73.0750    61.0860    46.8960    24.1760     2.3050   -37.5910 
  188.1250    84.1330    77.0590    64.2050    46.9580    24.1560     2.2940   -37.8020 
  188.2500    85.4200    81.5700    67.8540    49.9410    24.1490     2.2780   -38.0280 
  188.3750    83.1260    84.9750    70.7630    56.6770    24.1430     2.2640   -38.2170 
  188.5000    79.9620    85.8810    71.7510    62.6010    24.1340     2.2570   -38.3850 
  188.6250    79.7230    83.5250    69.9850    61.9420    24.1890     2.2630   -38.4920 
  188.7500    81.1710    79.8290    66.8090    60.5690    24.3740     2.2770   -38.6080 
  188.8750    81.1170    77.2260    64.1230    62.4100    24.5800     2.2930   -38.6920 
  189.0000    79.4930    78.5320    64.4020    62.0920    24.6990     2.3040   -38.7760 
  189.1250    78.1520    88.6090    72.1450    63.7270    24.7630     2.3030   -38.8290 
  189.2500    75.5740   110.4310    90.1510    76.2770    24.8470     2.2900   -38.8700 
  189.3750    70.2950   147.3290   121.1120   108.1180    24.9490     2.2680   -38.8880 
  189.5000    64.8210   200.1260   165.1970   158.7910    25.1410     2.2440   -38.9650 
  189.6250    63.1460   264.9070   218.3140   231.2920    25.3140     2.2260   -39.0000 
  189.7500    62.5980   326.7680   268.2370   286.5120    25.3780     2.2140   -39.0170 
  189.8750    62.7660   370.9440   303.9370   312.9890    25.3170     2.2090   -38.9880 
  190.0000    64.8220   387.3220   318.5840   326.8560    25.2210     2.2070   -38.9220 
  190.1250    67.7180   374.6120   311.1670   309.9710    25.1600     2.2070   -38.7510 
  190.2500    68.3620   349.8240   293.5160   278.1780    25.1390     2.2100   -38.6080 
  190.3750    66.8250   322.2770   272.4300   256.9690    25.1360     2.2140   -38.4180 
  190.5000    65.5620   295.7020   251.1650   242.4080    25.1360     2.2190   -38.2570 
  190.6250    66.5420   270.2120   230.2560   216.9490    25.1510     2.2220   -38.1130 
  190.7500    67.2880   244.9450   209.3270   205.5020    25.1910     2.2200   -38.0490 
  190.8750    66.9330   220.6190   188.9230   211.0130    25.2470     2.2160   -38.0490 
  191.0000    64.6830   199.4130   170.7490   219.3960    25.3200     2.2120   -38.0610 
  191.1250    63.1400   185.5410   158.3690   190.4600    25.3740     2.2110   -38.1100 
  191.2500    63.6950   180.5890   153.4510   160.5270    25.4080     2.2110   -38.0610 
  191.3750    66.9160   185.8880   157.3240   141.5480    25.3720     2.2110   -38.0080 
  191.5000    71.5090   201.6710   170.1700   147.2150    25.2670     2.2080   -37.8420 
  191.6250    73.8180   227.9310   191.6440   183.4940    25.1150     2.2030   -37.6750 
  191.7500    73.3320   259.7280   217.2450   228.5400    25.0050     2.1980   -37.4240 
  191.8750    71.5130   292.5770   243.1650   261.1060    24.9530     2.1950   -37.1400 
  192.0000    68.9970   321.3380   265.5060   267.0290    24.9420     2.1930   -36.8830 
  192.1250    64.2720   339.0030   279.3230   254.4600    24.9470     2.1930   -36.6350 
  192.2500    59.6460   342.8650   282.9150   239.3910    24.9520     2.1910   -36.4590 
  192.3750    56.8860   330.3660   274.3610   238.4210    24.9450     2.1860   -36.2840 
