~V
VERS. 2.00: Ver 2.00
~W
STRT.M 60.0000:
STOP.M 258.0000:
STEP.M 0.1250:
NULL. -999.2500:
UWI. DF3032:
~C
DEPT.M :
GR.API :
RML.OHMM :
RI. :
RXO.OHMM :
CALI.CM :
DEN.GM/CC :
SP.MV :
~A
# ...
  251.2500    74.7690    16.4010    13.6410    12.7490    24.6740     2.4710   -10.9860 
  251.3750    74.7690    16.3300    13.5270    11.4750    24.6670     2.4760   -11.0050 
  251.5000    74.7690    16.2800    13.4090    10.5540    24.6460     2.4730   -11.0110 
  251.6250    74.7690    16.2500    13.3080    10.1500    24.6120     2.4640   -10.9860 
  251.7500    74.7690    16.2290    13.2320    10.2160    24.5970     2.4560   -11.0140 
  251.8750    74.7690    16.2140    13.1840    10.2730    24.5950     2.4540   -11.0000 
  252.0000    74.7690    16.2030    13.1620    10.7010    24.6000     2.4530   -11.0780 
  252.1250    74.7690    16.1940    13.1560    11.6360    24.6180     2.4490   -11.0660 
  252.2500    74.7690    16.1860    13.1540    12.6620    24.6470     2.4360   -11.0110 
  252.3750    74.7690    16.1790    13.1520    13.1310    24.6670     2.4150   -10.9510 
  252.5000    74.7690    16.1740    13.1510    13.0340    24.6550     2.3960   -10.9500 
  252.6250    74.7690    16.1740    13.1520    13.3840    24.5970     2.3880   -11.0310 
  252.7500    74.7690    16.1790    13.1570    13.7990    24.5280     2.3950   -11.0020 
  252.8750    74.7690    16.1880    13.1630    14.2120    24.5210     2.4140   -10.9310 
  253.0000    74.7690    16.1980    13.1690    14.7170    24.5600     2.4320   -10.8400 
  253.1250    74.7690    16.2040    13.1710    14.7310    24.5930     2.4410   -10.7830 
  253.2500    74.7690    16.2040    13.1710    14.3370    24.6280     2.4440   -10.8280 
  253.3750    74.7690    16.2040    13.1710    15.0490    24.6550     2.4480   -10.8540 
  253.5000    74.7690    16.2040    13.1710    16.5570    24.6650     2.4630   -10.7850 
  253.6250    74.7690    16.2040    13.1710    19.0580    24.6500     2.4890   -10.7180 
  253.7500    74.7690    16.2040    13.1710    21.6460    24.6170     2.5180   -10.7060 
  253.8750    74.7690    16.2040    13.1710    23.6790    24.5920     2.5370   -10.7570 
  254.0000    74.7690    16.2040    13.1710    26.7450    24.6040     2.5400   -10.7600 
  254.1250    74.7690    16.2040    13.1710    24.1850    24.6320     2.5270   -10.8030 
  254.2500    74.7690    16.2040    13.1710    20.6090    24.6220     2.5000   -10.7730 
  254.3750    74.7690    16.2040    13.1710    16.7450    24.5980     2.4670   -10.8150 
  254.5000    74.7690    16.2040    13.1710    14.4060    24.5860     2.4390   -10.8640 
  254.6250    74.7690    16.2040    13.1710    14.1940    24.5860     2.4230   -10.8580 
  254.7500    74.7690    16.2040    13.1710    15.3090    24.5860     2.4260   -10.9500 
  254.8750    74.7690    16.2040    13.1710    17.2690    24.5860     2.4490   -10.9950 
  255.0000    74.7690    16.2040    13.1710    19.8790    24.5840     2.4780   -11.0290 
  255.1250    74.7690    16.2040    13.1710    20.2070    24.5760     2.5010   -11.0370 
  255.2500    74.7690    16.2040    13.1710    18.4340    24.5530     2.5100   -11.0810 
  255.3750    74.7690    16.2040    13.1710    16.1330    24.5150     2.5000   -11.0700 
  255.5000    74.7690    16.2040    13.1710    15.7470    24.5050     2.4810   -11.0720 
  255.6250    74.7690    16.2040    13.1710    14.7950    24.4720     2.4610   -11.1680 
  255.7500    74.7690    16.2040    13.1710    14.7030    24.4480     2.4500   -11.1450 
  255.8750    74.7690    16.2040    13.1710    15.0860    24.4100     2.4570   -11.1310 
  256.0000    74.7690    16.2040    13.1710    15.4130    24.3610     2.4730   -11.1630 
  256.1250    74.7690    16.2040    13.1710    14.5690    23.9980     2.4790   -11.1560 
  256.2500    74.7690    16.2040    13.1710    11.9950    22.6430     2.4490   -11.1690 
  256.3750    74.7690    16.2040    13.1710     8.9920    20.5010     2.3530   -11.2010 
  256.5000    74.7690    16.2040    13.1710     7.1280    19.0050     2.2130   -11.2670 
  256.6250    74.7690    16.2040    13.1710     6.4820    18.5020     2.0680   -11.3310 
  256.7500    74.7690    16.2040    13.1710     6.4060    18.5020     1.9480   -11.4200 
  256.8750    74.7690    16.2040    13.1710     6.4060    18.5020     1.8710   -11.4940 
  257.0000    74.7690    16.2040    13.1710     6.4070    18.5020     1.8270   -11.6090 
  257.1250    74.7690    16.2040    13.1710     6.4080    18.5020     1.8090   -11.7190 
  257.2500    74.7690    16.2040    13.1710     6.4080    18.5020     1.8040   -11.7980 
  257.3750    74.7690    16.2040    13.1710     6.4080    18.5020     1.8060   -11.8960 
  257.5000    74.7690    16.2040    13.1710     6.4070    18.5020     1.8070   -11.9320 
  257.6250    74.7690    16.2040    13.1710     6.4060    18.5020     1.8080   -11.9450 
  257.7500    74.7690    16.2040    13.1710     6.4050    18.5020     1.8080   -11.9450 
  257.8750    74.7690    16.2040    13.1710     6.4040    18.5020     1.8070   -11.9450 
  258.0000    74.7690    16.1600    13.1360     6.4050    18.5020  -999.2500  -999.2500 
