~V
VERS. 2.00: Ver 2.00
~W
STRT.M 60.0000:
STOP.M 273.0000:
STEP.M 0.1250:
NULL. -999.2500:
UWI. DF3001:
~C
DEPT.M :
DEN.GM/CC :
SP.MV :
AC.US/MT :
GR.API :
RML.OHMM :
RI. :
RXO.OHMM :
CALI.CM :
~A
   60.0000  -999.2500    56.5020  -999.2500    45.1300    12.1050     0.2260     0.5090    24.9430 
   60.1250  -999.2500    56.5710  -999.2500    45.8120    12.0060     0.2280     0.5410    25.0380 
   60.2500  -999.2500    56.7930  -999.2500    45.7920    11.9400     0.2310     0.5660    25.1870 
   60.3750  -999.2500    57.1190  -999.2500    45.6060    11.9010     0.2350     0.5920    25.2930 
   60.5000  -999.2500    57.4310  -999.2500    45.0660    11.8790     0.2390     0.6110    25.3330 
   60.6250  -999.2500    57.6670  -999.2500    43.6820    11.8570     0.2430     0.6020    25.3380 
   60.7500  -999.2500    57.8370  -999.2500    43.2740    11.8190     0.2440     0.6060    25.3380 
   60.8750  -999.2500    57.9880  -999.2500    44.6910    11.7580     0.2430     0.6410    25.3380 
   61.0000  -999.2500    58.1820  -999.2500    45.5220    11.6770     0.2400     0.6710    25.3380 
   61.1250  -999.2500    58.6340  -999.2500    43.8710    11.5900     0.2350     0.6610    25.3390 
   61.2500  -999.2500    59.5130  -999.2500    42.8270    11.5110     0.2300     0.6170    25.3420 
   61.3750  -999.2500    60.9550  -999.2500    44.3100    11.4440     0.2270     0.5980    25.3520 
   61.5000  -999.2500    63.0530  -999.2500    46.1330    11.3930     0.2270     0.6260    25.3620 
   61.6250  -999.2500    65.7120  -999.2500    45.9010    11.3700     0.2300     0.6640    25.3830 
   61.7500  -999.2500    68.6140  -999.2500    45.6690    11.3830     0.2350     0.6860    25.4200 
   61.8750  -999.2500    71.5030  -999.2500    46.6350    11.4300     0.2410     0.6930    25.4530 
   62.0000  -999.2500    74.1560  -999.2500    47.8130    11.4960     0.2460     0.6820    25.4640 
   62.1250  -999.2500    76.2610  -999.2500    46.4730    11.5330     0.2490     0.7160    25.4640 
   62.2500  -999.2500    77.7060  -999.2500    43.9440    11.5060     0.2480     0.7460    25.4670 
   62.3750  -999.2500    78.3870  -999.2500    43.1250    11.4180     0.2430     0.6880    25.4700 
   62.5000  -999.2500    78.2830  -999.2500    44.3250    11.2940     0.2360     0.5610    25.4720 
   62.6250  -999.2500    77.6180  -999.2500    46.6480    11.1220     0.2290     0.4870    25.4730 
   62.7500  -999.2500    76.6780  -999.2500    50.2580    10.7970     0.2250     0.4920    25.4760 
   62.8750  -999.2500    75.6330  -999.2500    54.9280    10.1500     0.2250     0.5570    25.4780 
   63.0000  -999.2500    74.6640  -999.2500    58.4280     9.0190     0.2300     0.6740    25.4730 
   63.1250  -999.2500    73.8680  -999.2500    58.7630     7.3900     0.2370     0.7880    25.4600 
   63.2500  -999.2500    73.2030  -999.2500    56.5670     5.9310     0.2430     0.8340    25.4550 
   63.3750  -999.2500    72.7620  -999.2500    53.0900     5.2220     0.2470     0.8420    25.4570 
   63.5000  -999.2500    72.4550  -999.2500    49.4180     5.3350     0.2480     0.8220    25.4600 
   63.6250  -999.2500    72.0420  -999.2500    47.5340     6.0080     0.2430     0.8540    25.4300 
   63.7500  -999.2500    71.3390  -999.2500    47.1510     6.6130     0.2310     0.9930    25.3010 
   63.8750  -999.2500    70.2780  -999.2500    45.9260     6.6150     0.2090     1.1410    25.0480 
   64.0000  -999.2500    68.7940  -999.2500    43.3000     5.6650     0.1740     1.2420    24.8490 
   64.1250  -999.2500    66.7280  -999.2500    42.0390     4.0010     0.1300     1.3160    24.7800 
   64.2500  -999.2500    63.9600  -999.2500    44.1670     2.5190     0.0860     1.3570    24.7760 
   64.3750  -999.2500    60.2360  -999.2500    48.9420     1.5080     0.0490     1.3300    24.7860 
   64.5000  -999.2500    55.5130  -999.2500    54.0360     0.9130     0.0210     1.2490    24.8380 
   64.6250  -999.2500    49.6590  -999.2500    57.6260     0.6390     0.0060     1.2250    25.0430 
   64.7500  -999.2500    42.9500  -999.2500    58.0450     0.5740     0.0290     1.6420    25.7520 
   64.8750  -999.2500    35.5490  -999.2500    55.5030     0.7730     0.1490     2.7860    27.5280 
   65.0000  -999.2500    27.7060  -999.2500    54.9430     1.3510     0.4550     4.4630    30.4200 
   65.1250  -999.2500    19.8440  -999.2500    62.3870     2.4510     1.0720     6.6180    32.6490 
   65.2500  -999.2500    12.3870  -999.2500    73.9470     3.8610     1.9450     7.7310    33.6100 
   65.3750  -999.2500     5.6350  -999.2500    84.3800     5.2310     2.9360     7.1320    33.6760 
   65.5000  -999.2500    -0.1920  -999.2500    90.6180     6.0550     3.8220     6.0720    33.5110 
   65.6250  -999.2500    -4.8260  -999.2500    92.5050     5.9850     4.3630     5.5870    33.3280 
   65.7500  -999.2500    -8.3860  -999.2500    91.9710     5.6300     4.6460     5.2300    33.0500 
   65.8750  -999.2500   -10.9610  -999.2500    91.9450     5.4230     4.8440     5.0210    32.4520 
   66.0000  -999.2500   -12.7220  -999.2500    95.5450     5.4980     5.1170     5.0080    31.0600 
   66.1250  -999.2500   -13.8650  -999.2500   101.2860     5.8970     5.5780     5.2530    28.6470 
   66.2500  -999.2500   -14.7300  -999.2500   104.8140     6.5170     6.1870     5.9650    26.2640 
   66.3750  -999.2500   -15.5400  -999.2500   102.4370     7.2570     6.8570     7.1300    24.7730 
   66.5000  -999.2500   -16.4260  -999.2500    95.9470     7.9620     7.4540     8.5330    24.1970 
   66.6250  -999.2500   -17.4010  -999.2500    92.8410     8.4010     7.7890     9.9000    24.0480 
   66.7500  -999.2500   -18.5280  -999.2500    92.6910     8.5170     7.8370    10.1440    23.9210 
   66.8750  -999.2500   -19.7290  -999.2500    92.5970     8.3850     7.6660     8.8050    23.8080 
   67.0000  -999.2500   -20.9360  -999.2500    91.5570     8.1820     7.4250     8.1220    23.7620 
   67.1250  -999.2500   -22.2250  -999.2500    91.1410     8.1330     7.3190     8.5550    23.7610 
   67.2500  -999.2500   -23.5600  -999.2500    87.7700     8.3490     7.4650     9.7670    23.7610 
   67.3750  -999.2500   -24.8540  -999.2500    80.7280     8.8850     7.9170    11.3230    23.7560 
   67.5000  -999.2500   -26.0930  -999.2500    77.0520     9.7310     8.6530    13.0360    23.7130 
   67.6250  -999.2500   -27.1360  -999.2500    80.6000    10.7930     9.5860    14.6950    23.6070 
   67.7500  -999.2500   -27.8900  -999.2500    84.4600    11.8020    10.4880    15.1450    23.4950 
   67.8750  -999.2500   -28.4470  -999.2500    85.4370    12.5050    11.1620    13.3700    23.4340 
   68.0000  -999.2500   -28.9670  -999.2500    84.8650    12.7140    11.4540    11.9490    23.3740 
   68.1250  -999.2500   -29.4230  -999.2500    83.4570    12.3640    11.2700    11.4800    23.2600 
   68.2500  -999.2500   -29.7780  -999.2500    80.8090    11.7790    10.8140    11.1940    23.2000 
   68.3750  -999.2500   -30.0830  -999.2500    78.9600    11.2190    10.2730    11.0660    23.1840 
   68.5000  -999.2500   -30.2970  -999.2500    79.3570    10.8420     9.8020    11.2170    23.1840 
   68.6250  -999.2500   -30.4870  -999.2500    82.0450    10.7050     9.5040    11.6140    23.1860 
   68.7500  -999.2500   -30.7660  -999.2500    84.7930    10.7080     9.3510    11.7900    23.1890 
   68.8750  -999.2500   -31.1740  -999.2500    84.6950    10.7750     9.3060    11.3540    23.1860 
   69.0000  -999.2500   -31.5840  -999.2500    79.7300    10.8450     9.3160    10.5050    23.1840 
   69.1250  -999.2500   -31.9300  -999.2500    73.9060    10.8750     9.3350    10.0290    23.1840 
   69.2500  -999.2500   -32.2950  -999.2500    71.3060    10.8550     9.3250     9.8580    23.1870 
   69.3750  -999.2500   -32.6230  -999.2500    70.2890    10.7810     9.2710     9.5720    23.1910 
   69.5000  -999.2500   -32.9630  -999.2500    69.8300    10.6580     9.1750     9.0160    23.2190 
   69.6250  -999.2500   -33.3240  -999.2500    70.6500    10.5080     9.0520     8.6730    23.3280 
   69.7500  -999.2500   -33.7220  -999.2500    70.1840    10.3740     8.9410     8.9360    23.5030 
   69.8750  -999.2500   -34.0790  -999.2500    66.7570    10.2760     8.8620     9.5940    23.6590 
