~V
VERS. 2.00: Ver 2.00
~W
STRT.M 64.0000:
STOP.M 264.0000:
STEP.M 0.1250:
NULL. -999.2500:
UWI. DF3031:
~C
DEPT.M :
DEN.GM/CC :
AC.US/MT :
GR.API :
CALI.CM :
RXO.OHMM :
RI. :
RML.OHMM :
SP.MV :
~A
# ...
  254.0000     2.5640   229.8340    73.5030    26.7710    29.5440    12.7830    15.0880   -10.1600 
  254.1250     2.6040   229.7160    73.5030    26.6440    30.5790    13.0200    15.3750   -10.0530 
  254.2500     2.6220   231.0990    73.5030    26.5830    27.4230    13.3790    15.8480    -9.9410 
  254.3750     2.6010   233.3630    73.5030    26.6850    23.1430    13.8760    16.5070    -9.8200 
  254.5000     2.5620   235.8560    73.5030    26.8260    20.2460    14.4750    17.2670    -9.6920 
  254.6250     2.5330   238.0360    73.5030    26.7580    19.1580    15.0620    17.9330    -9.5630 
  254.7500     2.5220   239.6980    73.5030    26.5550    18.9490    15.5000    18.3380    -9.4410 
  254.8750     2.5140   240.7330    73.5030    26.4100    19.1380    15.7240    18.4260    -9.3490 
  255.0000     2.5030   241.0620    73.5030    26.3520    19.0790    15.7690    18.2860    -9.2820 
  255.1250     2.4990   240.5410    73.5030    26.2360    18.5020    15.7480    18.1200    -9.2380 
  255.2500     2.5160   239.3670    73.5030    26.0420    18.4320    15.8110    18.1330    -9.2030 
  255.3750     2.5440   237.6710    73.5030    25.8630    19.7840    16.0400    18.4210    -9.1740 
  255.5000     2.5660   235.6380    73.5030    25.7430    22.3820    16.4450    18.9570    -9.1460 
  255.6250     2.5760   233.5620    73.5030    25.6990    26.2700    16.9500    19.5810    -9.1240 
  255.7500     2.5750   231.8370    73.5030    25.7530    31.1380    17.3980    20.0610    -9.1060 
  255.8750     2.5660   230.7580    73.5030    25.8730    34.0270    17.6840    20.2700    -9.0770 
  256.0000     2.5480   230.4340    73.5030    25.9610    31.4440    17.7750    20.2090    -9.0260 
  256.1250     2.5290   230.8160    73.5030    25.9580    24.9900    17.7080    19.9920    -8.9660 
  256.2500     2.5140   231.5880    73.5030    25.9130    20.8290    17.6060    19.7920    -8.9100 
  256.3750     2.5060   232.7530    73.5030    25.8910    20.0840    17.5300    19.6670    -8.8650 
  256.5000     2.5090   234.5410    73.5030    25.9140    20.4270    17.4930    19.6060    -8.8350 
  256.6250     2.5240   237.3450    73.5030    25.9070    19.1080    17.4900    19.5800    -8.8190 
  256.7500     2.5420   240.8250    73.5030    25.8020    16.5990    17.4980    19.5690    -8.8130 
  256.8750     2.5520   244.2780    73.5030    25.6450    14.6300    17.5060    19.5700    -8.8160 
  257.0000     2.5570   246.7700    73.5030    25.5470    14.1870    17.5090    19.5810    -8.8240 
  257.1250     2.5680   247.2170    73.5030    25.5650    14.7120    17.5100    19.5930    -8.8270 
  257.2500     2.5840   245.8070    73.5030    25.6220    14.9680    17.5100    19.5950    -8.8190 
  257.3750     2.5910   243.0480    73.5030    25.6710    15.0950    17.5110    19.5870    -8.8020 
  257.5000     2.5830   239.7130    73.5030    25.6880    16.0270    17.5120    19.5760    -8.7660 
  257.6250     2.5710   236.6610    73.5030    25.6820    17.9410    17.5110    19.5740    -8.7140 
  257.7500     2.5640   234.3630    73.5030    25.6700    19.4140    17.5100    19.5820    -8.6490 
  257.8750     2.5600   232.9510    73.5030    25.6440    20.1510    17.5090    19.5970    -8.5610 
  258.0000     2.5510   232.3440    73.5030    25.6140    21.0970    17.5090    19.6110    -8.4690 
  258.1250     2.5430   232.4150    73.5030    25.6060    22.1690    17.5100    19.6170    -8.3930 
  258.2500     2.5380   232.8350    73.5030    25.6100    21.9050    17.5100    19.6120    -8.3190 
  258.3750     2.5330   233.4390    73.5030    25.6130    20.2570    17.5100    19.6000    -8.2400 
  258.5000     2.5300   234.0390    73.5030    25.6130    18.4230    17.5080    19.5880    -8.1840 
  258.6250     2.5360   234.2520    73.5030    25.6080    17.2410    17.5070    19.5820    -8.1380 
  258.7500     2.5530   233.7720    73.5030    25.5940    16.6000    17.5070    19.5820    -8.1000 
  258.8750     2.5650   232.5010    73.5030    25.5850    16.6110    17.5070    19.5820    -8.0750 
  259.0000     2.5620   230.7530    73.5030    25.6130    17.1780    17.5070    19.5820    -8.0520 
  259.1250     2.5530   229.4380    73.5030    25.6630    17.6270    17.5070    19.5820    -8.0340 
  259.2500     2.5510   229.3820    73.5030    25.6560    17.4330    17.5070    19.5820    -8.0170 
  259.3750     2.5570   230.9070    73.5030    25.5560    16.6790    17.5070    19.5820    -8.0040 
  259.5000     2.5610   233.7150    73.5030    25.4100    15.7830    17.5070    19.5820    -7.9790 
  259.6250     2.5600   236.9860    73.5030    25.3010    15.2860    17.5070    19.5820    -7.9500 
  259.7500     2.5520   239.7300    73.5030    25.2380    15.2690    17.5070    19.5820    -7.9330 
  259.8750     2.5460   241.4480    73.5030    25.1980    15.4840    17.5070    19.5820    -7.9190 
  260.0000     2.5450   241.9830    73.5030    25.1260    15.4630    17.5070    19.5820    -7.9170 
  260.1250     2.5500   241.2940    73.5030    24.9360    14.7370    17.5070    19.5820    -7.9240 
  260.2500     2.5540   239.8710    73.5030    24.6600    13.4330    17.5070    19.5820    -7.9420 
  260.3750     2.5490   238.0980    73.5030    24.3190    11.7560    17.5070    19.5820    -7.9580 
  260.5000     2.5300   236.4050    73.5030    23.7400     9.9230    17.5070    19.5820    -7.9840 
  260.6250     2.4840   235.3000    73.5030    22.6400     8.2210    17.5070    19.5820    -8.0110 
  260.7500     2.3610   234.9310    73.5030    21.1670     6.8600    17.5070    19.5820    -8.0300 
  260.8750     2.1700   235.2810    73.5030    19.5250     5.9210    17.5070    19.5820    -8.0570 
  261.0000     1.9800   237.0550    73.5030    17.8960     5.3730    17.5070    19.5820    -8.0760 
  261.1250     1.8690   245.4090    73.5030    16.5980     5.1530    17.5070    19.5820    -8.0720 
  261.2500     1.8540   264.0950    73.5030    15.8480     5.0830    17.5070    19.5820    -8.0630 
  261.3750     1.8610   293.1120    73.5030    15.5920     5.0730    17.5070    19.5820    -8.0510 
  261.5000     1.8570   327.1140    73.5030    15.5630     5.0750    17.5070    19.5820    -8.0250 
  261.6250     1.8470   355.6920    73.5030    15.5740     5.0750    17.5070    19.5820    -7.9900 
  261.7500     1.8430   372.6910    73.5030    15.5770     5.0750    17.5070    19.5820    -7.9530 
  261.8750     1.8430   377.9780    73.5030    15.5790     5.0740    17.5070    19.5820    -7.9200 
  262.0000     1.8420  -999.2500    73.5030    15.5780     5.0740    17.5070    19.5820    -7.8870 
  262.1250     1.8410  -999.2500    73.5030    15.5760     5.0750    17.5070    19.5820    -7.8760 
  262.2500     1.8390  -999.2500    73.5030    15.5740     5.0750    17.5070    19.5820    -7.8760 
  262.3750     1.8360  -999.2500    73.5030    15.5720     5.0760    17.5070    19.5820  -999.2500 
  262.5000     1.8360  -999.2500    73.5030    15.5710     5.0750    17.5070    19.5820  -999.2500 
  262.6250     1.8390  -999.2500    73.5030    15.5730     5.0750    17.5070    19.5820  -999.2500 
  262.7500     1.8430  -999.2500    73.5030    15.5750     5.0750    17.5070    19.5820  -999.2500 
  262.8750     1.8460  -999.2500    73.5030    15.5740     5.0750    17.5070    19.5820  -999.2500 
  263.0000     1.8540  -999.2500    73.5030    15.5730     5.0750    17.5070    19.5820  -999.2500 
  263.1250     1.8650  -999.2500    73.5030    15.5720     5.0760    17.5070    19.5820  -999.2500 
  263.2500     1.8710  -999.2500    73.5030    15.5710     5.0750    17.5070    19.5820  -999.2500 
  263.3750     1.8650  -999.2500    73.5030    15.5690     5.0750    17.5070    19.5820  -999.2500 
  263.5000     1.8760  -999.2500    73.5030    15.5690     5.0740    17.5070    19.5820  -999.2500 
  263.6250     1.9400  -999.2500    73.5030    15.5690     5.0740    17.5070    19.5820  -999.2500 
  263.7500     2.0370  -999.2500  -999.2500  -999.2500  -999.2500  -999.2500  -999.2500  -999.2500 
  263.8750     2.1050  -999.2500  -999.2500  -999.2500  -999.2500  -999.2500  -999.2500  -999.2500 
