~V
VERS. 2.00: Ver 2.00
~W
STRT.M 62.0000:
STOP.M 265.0000:
STEP.M 0.1250:
NULL. -999.2500:
UWI. DF3071:
~C
DEPT.M :
GR.API :
CALI.CM :
RXO.OHMM :
RI. :
RML.OHMM :
DEN.GM/CC :
SP.MV :
~A
# ...
  129.5000    93.0250    25.3390     5.7340     5.1340     5.2750     2.3200   -16.2450 
  129.6250    87.2270    25.3740     5.9720     5.2950     5.3940     2.3280   -16.8420 
  129.7500    83.7320    25.3560     6.2010     5.3640     5.4090     2.3300   -17.3920 
  129.8750    84.6270    25.2540     6.2930     5.3410     5.3380     2.3340   -17.9380 
  130.0000    87.4100    25.1380     6.2030     5.2610     5.2310     2.3460   -18.5130 
  130.1250    88.5060    25.1280     6.0820     5.1980     5.1870     2.3490   -19.0820 
  130.2500    88.0160    25.1810     6.2380     5.2490     5.3180     2.3300   -19.6330 
  130.3750    85.9700    25.1700     6.6530     5.5190     5.7470     2.2990   -20.1200 
  130.5000    81.4030    25.0290     7.2320     6.1220     6.5890     2.2840   -20.5260 
  130.6250    77.4920    24.8390     8.3800     7.2360     7.9880     2.3200   -20.9020 
  130.7500    75.7580    24.7270    11.3130     8.8130     9.7770     2.3940   -21.2410 
  130.8750    75.1700    24.7350    17.7100    10.7040    11.6840     2.4790   -21.5440 
  131.0000    74.0840    24.8100    26.1800    12.5270    13.2870     2.5380   -21.7670 
  131.1250    73.9580    24.7990    28.5400    13.6070    14.0430     2.5290   -21.9840 
  131.2500    74.6940    24.6700    23.7840    13.7850    13.9810     2.4620   -22.1600 
  131.3750    74.0340    24.5270    17.3010    13.2810    13.3550     2.3680   -22.3510 
  131.5000    71.2800    24.4950    13.3180    12.4950    12.5330     2.2800   -22.5250 
  131.6250    70.6660    24.5830    11.7960    11.7640    11.8280     2.2290   -22.7120 
  131.7500    71.2100    24.6600    11.0070    11.1860    11.3010     2.2100   -22.8910 
  131.8750    70.4340    24.6260    10.4070    10.7300    10.8940     2.2110   -23.0400 
  132.0000    69.1180    24.3900     9.7620    10.3290    10.5230     2.2190   -23.1700 
  132.1250    71.8530    23.9570     9.1080     9.9370    10.1340     2.2260   -23.2320 
  132.2500    76.9480    23.5440     8.6180     9.5490     9.7340     2.2290   -23.2600 
  132.3750    79.8970    23.3060     8.3290     9.1840     9.3480     2.2250   -23.2590 
  132.5000    80.1200    23.2600     8.2090     8.8580     9.0000     2.2160   -23.2770 
  132.6250    78.1680    23.4010     8.1970     8.5860     8.7070     2.2040   -23.2550 
  132.7500    74.9200    23.6950     8.2170     8.3690     8.4650     2.1940   -23.2400 
  132.8750    72.3630    24.0580     8.2370     8.2180     8.2810     2.1890   -23.1900 
  133.0000    71.4090    24.3380     8.2320     8.1430     8.1670     2.1940   -23.1290 
  133.1250    72.8460    24.4120     8.2770     8.1740     8.1590     2.2030   -23.0200 
  133.2500    75.3910    24.3830     8.4290     8.3060     8.2520     2.2090   -22.8780 
  133.3750    76.3870    24.3530     8.7990     8.5330     8.4520     2.2120   -22.7200 
  133.5000    73.9320    24.3520     9.3520     8.8430     8.7690     2.2160   -22.5320 
  133.6250    71.0600    24.3500    10.1380     9.2750     9.2670     2.2220   -22.3610 
  133.7500    70.5600    24.3360    11.1480     9.8650     9.9540     2.2230   -22.1360 
  133.8750    70.2660    24.3510    11.8760    10.6130    10.7700     2.2190   -21.8810 
  134.0000    68.1250    24.4140    11.8710    11.3820    11.4990     2.2120   -21.5260 
  134.1250    67.6030    24.4510    11.5110    11.7140    11.6460     2.2000   -21.1130 
  134.2500    69.4600    24.3570    11.7250    11.2280    10.9760     2.1850   -20.6430 
  134.3750    71.8340    24.1290    11.4100     9.8830     9.5480     2.1770   -20.1740 
  134.5000    74.9310    23.8850     9.5640     8.1000     7.7460     2.1920   -19.7540 
  134.6250    81.8170    23.7520     7.1560     6.5030     6.1530     2.2330   -19.4560 
  134.7500    91.3440    23.6700     5.6520     5.3740     5.0910     2.2740   -19.3420 
  134.8750    97.8200    23.5550     5.1280     4.7650     4.6410     2.2930   -19.4840 
  135.0000    97.6330    23.4030     5.2930     4.6610     4.7640     2.2850   -19.9090 
  135.1250    94.2980    23.2390     6.2290     5.0860     5.4230     2.2560   -20.6130 
  135.2500    91.4890    23.0870     7.5410     5.8800     6.3840     2.2260   -21.4950 
  135.3750    87.5310    23.0290     8.7150     6.9130     7.4680     2.2060   -22.4890 
  135.5000    80.5250    23.2020     9.5220     8.0030     8.4830     2.1950   -23.4980 
  135.6250    73.9750    23.6880    10.0670     8.8850     9.2050     2.1800   -24.4480 
  135.7500    72.6950    24.2150    10.3460     9.4330     9.5930     2.1530   -25.2830 
  135.8750    74.9970    24.5580    10.2700     9.6400     9.6820     2.1250   -25.9430 
  136.0000    77.0830    24.6220     9.9030     9.5870     9.5750     2.1120   -26.4040 
  136.1250    75.8390    24.3230     9.4720     9.3800     9.3910     2.1150   -26.6760 
  136.2500    73.8300    23.7560     9.2280     9.1460     9.2400     2.1260   -26.8230 
  136.3750    72.9800    23.0830     9.2330     8.9440     9.1620     2.1410   -26.8900 
  136.5000    73.0770    22.5550     9.4070     8.7970     9.1590     2.1520   -26.9140 
  136.6250    74.5800    22.3220     9.5160     8.7120     9.2120     2.1460   -26.9000 
  136.7500    77.1200    22.2420     9.5650     8.6640     9.2800     2.1330   -26.8800 
  136.8750    79.3130    22.2140     9.8220     8.6460     9.3460     2.1290   -26.8200 
  137.0000    80.6150    22.1900    10.2690     8.6560     9.4030     2.1380   -26.7530 
  137.1250    81.0380    22.2350    10.4860     8.7020     9.4630     2.1510   -26.6150 
  137.2500    78.7370    22.4850    10.4330     8.7890     9.5690     2.1670   -26.4880 
  137.3750    74.3470    23.0140    10.4990     8.9520     9.7890     2.1880   -26.2950 
  137.5000    71.0970    23.6870    10.8430     9.2590    10.1840     2.2140   -26.0420 
  137.6250    70.8410    24.1880    11.2450     9.7730    10.7380     2.2370   -25.6410 
  137.7500    70.6950    24.4230    11.7610    10.3400    11.2330     2.2620   -25.1090 
  137.8750    69.6580    24.4840    12.8360    10.7340    11.4530     2.3040   -24.4560 
  138.0000    69.6070    24.4780    15.1160    10.7940    11.2900     2.3660   -23.7400 
  138.1250    72.1990    24.4650    17.4360    10.5230    10.8100     2.4260   -23.0150 
  138.2500    76.9480    24.4930    16.5020    10.1500    10.2900     2.4590   -22.2770 
  138.3750    81.4400    24.5530    13.1250     9.8040     9.8650     2.4690   -21.5490 
  138.5000    83.1340    24.5820    11.4000     9.5040     9.5230     2.4780   -20.8550 
  138.6250    84.1170    24.5430    13.6580     9.1330     9.1140     2.4920   -20.2730 
  138.7500    87.0850    24.5020    14.6260     8.5930     8.5260     2.4840   -19.8280 
  138.8750    91.3480    24.5170    12.2860     7.8910     7.7720     2.4320   -19.5340 
  139.0000    94.2030    24.5630     8.7140     7.1200     6.9600     2.3480   -19.2980 
  139.1250    95.6100    24.5600     7.0870     6.4220     6.2630     2.2780   -19.0210 
  139.2500    98.6020    24.4980     6.6730     5.8790     5.7500     2.2530   -18.6810 
  139.3750   102.9690    24.4590     6.4300     5.5050     5.4040     2.2690   -18.2700 
  139.5000   105.3860    24.5230     6.0050     5.2530     5.1630     2.3100   -17.8420 
  139.6250   105.4360    24.6700     5.5590     5.0670     4.9780     2.3540   -17.3790 
  139.7500   107.2570    24.7950     5.2730     4.9210     4.8380     2.3880   -16.9190 
  139.8750   110.3180    24.8740     5.1340     4.8290     4.7630     2.4060   -16.4600 
  140.0000   110.3510    24.9320     5.1130     4.7960     4.7550     2.4050   -16.0640 
  140.1250   108.2000    24.9200     5.1860     4.7910     4.7720     2.3900   -15.8360 
  140.2500   105.6990    24.8060     5.2440     4.7510     4.7450     2.3790   -15.7320 
  140.3750   103.0320    24.6530     5.2270     4.6310     4.6290     2.3850   -15.7740 
  140.5000   101.8060    24.5560     5.1260     4.4200     4.4290     2.4050   -15.9030 
  140.6250   103.0060    24.5420     5.0010     4.1750     4.2170     2.4210   -16.1850 
