~V
VERS. 2.00: Ver 2.00
~W
STRT.M 90.0000:
STOP.M 264.0000:
STEP.M 0.1250:
NULL. -999.2500:
UWI. DF3021:
~C
DEPT.M :
AC.US/MT :
DEN.GM/CC :
GR.API :
CALI.CM :
RXO.OHMM :
RI. :
RML.OHMM :
SP.MV :
~A
# ...
  140.0000   306.3590     2.4600    71.8590    24.0520    12.8980    13.6590    14.4300   -14.6340 
  140.1250   302.4430     2.4710    68.5100    23.7340    14.2390    14.1100    15.0450   -14.5960 
  140.2500   298.9500     2.4850    65.1500    23.1330    15.4320    14.7120    15.8130   -14.5210 
  140.3750   296.4320     2.4970    62.3680    22.5430    16.1650    15.2290    16.4290   -14.4510 
  140.5000   295.3600     2.4990    59.2420    22.2820    16.2690    15.4360    16.6300   -14.3720 
  140.6250   296.5300     2.4890    57.1530    22.4710    15.7670    15.2110    16.2880   -14.3000 
  140.7500   299.1000     2.4740    59.4820    22.9750    15.1720    14.7750    15.7020   -14.2470 
  140.8750   301.9030     2.4580    61.4410    23.5990    14.5690    14.3370    15.1510   -14.2020 
  141.0000   304.1360     2.4490    59.1230    23.9070    14.0560    14.0700    14.8590   -14.1640 
  141.1250   305.3570     2.4580    54.3080    23.8690    14.2560    14.1270    15.0110   -14.1280 
  141.2500   305.2500     2.4750    52.1700    23.8930    14.9990    14.4570    15.5040   -14.1340 
  141.3750   303.4670     2.4830    53.1820    24.0130    15.7190    14.9610    16.1850   -14.1630 
  141.5000   300.6720     2.4760    54.6500    24.1310    16.2370    15.5020    16.8690   -14.2190 
  141.6250   298.8210     2.4610    55.0970    24.1370    16.5760    15.9160    17.3480   -14.2560 
  141.7500   298.8570     2.4500    55.0490    24.0990    16.2950    16.1380    17.5700   -14.2890 
  141.8750   300.0760     2.4460    54.3240    23.9760    15.8800    16.1850    17.5680   -14.3140 
  142.0000   300.9290     2.4510    52.8480    23.7400    15.9630    16.1380    17.4520   -14.3170 
  142.1250   299.8410     2.4630    52.7250    23.6660    16.4840    16.1470    17.4060   -14.3260 
  142.2500   296.9590     2.4750    54.7430    23.7740    16.8030    16.3400    17.5930   -14.3380 
  142.3750   292.9530     2.4840    57.1090    23.9170    17.2570    16.7930    18.1140   -14.3320 
  142.5000   288.4990     2.4940    57.6020    24.0400    18.5090    17.4930    18.9570   -14.3170 
  142.6250   283.6700     2.5070    56.6250    24.1210    20.4820    18.2850    19.9260   -14.3040 
  142.7500   278.6110     2.5210    56.6150    24.1870    22.3550    18.8650    20.6300   -14.2950 
  142.8750   274.4060     2.5340    58.0710    24.1920    22.5060    19.0040    20.7730   -14.2630 
  143.0000   272.6610     2.5410    57.8600    24.1530    20.5010    18.6530    20.2860   -14.2500 
  143.1250   274.0080     2.5420    53.3530    24.1340    18.2100    17.9660    19.3690   -14.2110 
  143.2500   275.8650     2.5370    53.0790    24.1130    17.2120    17.2790    18.4810   -14.1460 
  143.3750   276.2650     2.5320    60.1490    24.0790    18.7090    16.7580    17.8580   -14.0760 
  143.5000   275.0210     2.5360    65.6280    24.0530    23.3760    16.4280    17.5340   -13.9930 
  143.6250   273.7910     2.5510    60.4810    24.0430    25.0480    16.2190    17.3810   -13.9220 
  143.7500   274.1280     2.5630    53.9420    24.0350    22.1070    16.0270    17.2230   -13.8470 
  143.8750   276.0780     2.5630    52.0140    24.0220    17.9330    15.8580    17.0570   -13.8040 
  144.0000   278.4290     2.5540    52.3600    24.0310    16.0880    15.7750    16.9770   -13.7800 
  144.1250   279.0170     2.5470    52.6100    24.0360    15.9610    15.8820    17.1350   -13.7810 
  144.2500   277.2770     2.5420    54.2540    24.0230    16.4330    16.1580    17.5100   -13.7890 
  144.3750   274.1470     2.5380    55.1830    23.9950    17.3600    16.5090    17.9670   -13.8240 
  144.5000   271.3440     2.5340    55.3040    24.0160    18.0180    16.7780    18.2940   -13.8960 
  144.6250   270.4710     2.5360    56.5910    24.0470    18.0050    16.8020    18.2820   -13.9780 
  144.7500   271.2650     2.5460    56.8010    24.0880    17.8570    16.6400    18.0350   -14.0450 
  144.8750   272.9360     2.5570    55.4610    24.1180    17.8610    16.4280    17.7500   -14.0990 
  145.0000   274.4330     2.5570    55.4850    24.1310    17.6750    16.3250    17.6390   -14.1220 
  145.1250   274.5420     2.5420    58.1860    24.1310    17.7860    16.4800    17.8880   -14.1290 
  145.2500   273.2090     2.5290    59.8800    24.1310    18.9020    16.8190    18.3870   -14.1310 
  145.3750   271.0720     2.5280    59.2470    24.1340    20.3740    17.1960    18.9310   -14.1180 
  145.5000   269.1950     2.5350    58.4220    24.1350    21.1840    17.4460    19.2960   -14.0670 
  145.6250   268.7690     2.5360    58.8530    24.1240    21.2290    17.4320    19.2960   -13.9980 
  145.7500   269.8130     2.5290    59.1710    24.1000    20.3070    17.2180    19.0220   -13.9630 
  145.8750   271.7470     2.5270    58.5180    24.1060    18.6720    16.8970    18.6060   -13.9280 
  146.0000   273.6330     2.5320    56.2830    24.1210    17.6750    16.5680    18.1960   -13.9140 
  146.1250   274.7550     2.5380    55.4730    24.1140    17.3380    16.3060    17.8980   -13.8780 
  146.2500   275.4990     2.5380    57.1710    24.0810    17.0500    16.0830    17.6640   -13.8170 
  146.3750   276.2980     2.5330    58.8140    24.0530    16.4490    15.8270    17.3860   -13.7370 
  146.5000   277.2010     2.5270    58.0240    24.0420    15.7660    15.4580    16.9660   -13.6580 
  146.6250   278.3640     2.5240    55.1770    24.0310    15.3570    14.9450    16.3580   -13.5770 
  146.7500   280.3680     2.5270    53.1850    24.0190    14.6800    14.3760    15.6750   -13.4780 
  146.8750   283.2190     2.5330    51.7630    24.0320    13.6130    13.8320    15.0180   -13.3740 
  147.0000   285.7630     2.5360    50.5500    24.0550    12.5510    13.3680    14.4630   -13.2610 
  147.1250   286.8640     2.5230    49.6240    24.0160    12.5260    13.0320    14.0700   -13.1810 
  147.2500   288.1030     2.4950    47.8630    23.8950    12.8710    12.8040    13.8090   -13.1580 
  147.3750   291.3980     2.4600    48.6100    23.7240    12.5850    12.6770    13.6650   -13.1710 
  147.5000   296.7950     2.4350    53.1710    23.5740    11.7220    12.6600    13.6480   -13.1940 
  147.6250   302.0180     2.4280    55.9770    23.4630    11.4420    12.7770    13.8030   -13.2110 
  147.7500   305.4560     2.4240    52.8440    23.3500    11.8840    12.9850    14.0850   -13.2430 
  147.8750   307.5230     2.4110    47.7060    23.2580    12.4700    13.2380    14.4340   -13.2890 
  148.0000   309.0890     2.3930    45.8710    23.2060    13.0280    13.4640    14.7520   -13.3280 
  148.1250   309.8560     2.3900    46.9420    23.2020    13.7820    13.5470    14.8810   -13.3860 
  148.2500   308.9300     2.4050    47.6220    23.2770    13.7880    13.4540    14.7780   -13.4140 
  148.3750   306.0470     2.4230    48.4490    23.4400    13.1190    13.2400    14.5160   -13.4140 
  148.5000   302.0640     2.4300    48.7490    23.6210    12.4890    13.0300    14.2650   -13.4200 
  148.6250   298.4330     2.4310    49.1640    23.6570    12.2090    12.9800    14.2390   -13.4220 
  148.7500   295.4800     2.4330    51.4240    23.6160    12.4600    13.1310    14.4880   -13.4200 
  148.8750   292.5810     2.4330    54.2130    23.6360    13.4350    13.4670    14.9770   -13.3960 
  149.0000   289.5470     2.4280    55.2070    23.9190    14.7770    13.9040    15.5830   -13.3830 
  149.1250   287.6830     2.4270    54.7900    24.0560    15.4110    14.2750    16.0780   -13.3440 
  149.2500   287.8430     2.4310    53.8000    24.0600    15.1990    14.4540    16.3100   -13.3040 
  149.3750   289.4890     2.4340    52.5260    24.0170    14.7470    14.4080    16.2510   -13.2640 
  149.5000   291.5130     2.4360    52.7480    24.0220    14.5830    14.1930    15.9880   -13.2190 
  149.6250   293.7330     2.4410    55.4020    24.0050    14.4820    13.9100    15.6670   -13.1960 
  149.7500   296.5990     2.4510    56.7530    23.9480    14.0990    13.6550    15.4100   -13.1640 
  149.8750   299.6940     2.4590    55.1780    23.8930    13.4030    13.4520    15.2380   -13.1180 
