~V
VERS. 2.00: Ver 2.00
~W
STRT.M 57.0000:
STOP.M 290.0000:
STEP.M 0.1250:
NULL. -999.2500:
UWI. DF3043:
~C
DEPT.M :
SP.MV :
DEN.GM/CC :
AC.US/MT :
GR.API :
CALI.CM :
RXO.OHMM :
RI. :
RML.OHMM :
~A
# ...
   67.0000    12.3530  -999.2500  -999.2500    57.0500    25.5920     3.7240     0.7250     1.1280 
   67.1250     6.5970  -999.2500  -999.2500    58.1210    27.1040     5.6590     1.4540     3.0350 
   67.2500     0.5960  -999.2500  -999.2500    58.5050    29.2200     7.2270     2.4760     5.3230 
   67.3750    -5.3820  -999.2500  -999.2500    59.1300    31.1130     9.1770     3.6000     7.0230 
   67.5000   -10.9120  -999.2500  -999.2500    60.0090    31.6650    10.6030     4.5650     7.6410 
   67.6250   -15.3660  -999.2500  -999.2500    59.8030    31.2140    11.1970     5.2200     7.6950 
   67.7500   -18.6490  -999.2500  -999.2500    58.0190    31.2670    11.3560     5.6780     7.8520 
   67.8750   -20.8240  -999.2500  -999.2500    56.6450    31.5850    11.1360     6.0090     8.2060 
   68.0000   -22.1240  -999.2500  -999.2500    57.0380    31.2440    10.4290     6.2400     8.6420 
   68.1250   -22.7860  -999.2500  -999.2500    58.8660    30.0280     9.1700     6.3590     8.9560 
   68.2500   -23.1650  -999.2500  -999.2500    60.3400    28.9310     8.3620     6.3960     9.0630 
   68.3750   -23.4320  -999.2500  -999.2500    61.6410    28.4500     8.7010     6.3820     9.0190 
   68.5000   -23.7010  -999.2500  -999.2500    63.3880    28.7400     9.7870     6.3630     8.9640 
   68.6250   -24.0050  -999.2500  -999.2500    63.3500    29.5540     9.8860     6.4060     9.0550 
   68.7500   -24.2960  -999.2500  -999.2500    62.3600    29.6090     8.9800     6.5470     9.3440 
   68.8750   -24.5500  -999.2500  -999.2500    61.5550    28.0710     8.9190     6.8000     9.8240 
   69.0000   -24.7540  -999.2500  -999.2500    62.0960    25.2830    10.0730     7.1440    10.4130 
   69.1250   -24.8930  -999.2500  -999.2500    64.3410    22.7930    11.2780     7.5040    10.9390 
   69.2500   -25.0100  -999.2500  -999.2500    66.4230    21.5770    11.5760     7.7850    11.2830 
   69.3750   -25.1390  -999.2500  -999.2500    67.0430    21.3150    11.6840     7.9370    11.4250 
   69.5000   -25.2600  -999.2500  -999.2500    66.1570    21.3540    11.5120     7.9620    11.4260 
   69.6250   -25.3180  -999.2500  -999.2500    66.9260    21.4160    11.1660     7.9090    11.3940 
   69.7500   -25.2900  -999.2500  -999.2500    69.8270    21.5370    11.3780     7.8610    11.4240 
   69.8750   -25.1580  -999.2500  -999.2500    71.1940    21.6750    11.7730     7.8560    11.5450 
   70.0000   -24.9270  -999.2500  -999.2500    69.2820    21.7790    11.9470     7.9000    11.7540 
   70.1250   -24.6100  -999.2500  -999.2500    67.0760    21.8380    12.3600     7.9620    11.9870 
   70.2500   -24.2460  -999.2500  -999.2500    68.8200    21.8690    12.7240     7.9660    12.0790 
   70.3750   -23.8530  -999.2500  -999.2500    70.8090    21.8900    12.4890     7.8340    11.8550 
   70.5000   -23.4470  -999.2500  -999.2500    68.2230    21.9040    11.8230     7.5110    11.2110 
   70.6250   -23.0300  -999.2500  -999.2500    67.2970    21.8690    10.4280     6.9760    10.1630 
   70.7500   -22.5960  -999.2500  -999.2500    73.7590    21.7730     8.5010     6.3460     9.0300 
   70.8750   -22.1480  -999.2500  -999.2500    83.7130    21.6390     6.9870     5.7470     8.0700 
   71.0000   -21.7160  -999.2500  -999.2500    91.0810    21.5340     6.1790     5.2970     7.4520 
   71.1250   -21.3610  -999.2500  -999.2500    94.2870    21.5200     5.6110     5.1250     7.3090 
   71.2500   -21.1260  -999.2500  -999.2500    96.2560    21.5260     5.9750     5.2160     7.5460 
   71.3750   -21.0570  -999.2500  -999.2500    95.6250    21.4770     7.1720     5.5360     8.0750 
   71.5000   -21.1660  -999.2500  -999.2500    92.7990    21.4040     8.5470     6.0050     8.7430 
   71.6250   -21.4640  -999.2500  -999.2500    89.0310    21.4470     9.1070     6.5240     9.3540 
   71.7500   -21.8830  -999.2500  -999.2500    85.8630    21.6220     9.4010     6.9970     9.8060 
   71.8750   -22.3530  -999.2500  -999.2500    82.9830    21.8300     9.8810     7.3840    10.1180 
   72.0000   -22.8110  -999.2500  -999.2500    79.1480    21.9760    10.6040     7.6850    10.3790 
   72.1250   -23.1850  -999.2500  -999.2500    75.5180    22.1080    11.0260     7.9220    10.6670 
   72.2500   -23.4470  -999.2500  -999.2500    73.0310    22.3430    11.1780     8.0950    10.8930 
   72.3750   -23.5920  -999.2500  -999.2500    72.4470    22.6670    11.0450     8.1270    10.8430 
   72.5000   -23.6090  -999.2500  -999.2500    74.0460    22.9250    10.7430     7.9230    10.3500 
   72.6250   -23.4700  -999.2500  -999.2500    76.5460    22.9040    10.4460     7.4480     9.4580 
   72.7500   -23.2220  -999.2500  -999.2500    79.6150    22.6910     9.5660     6.8890     8.5590 
   72.8750   -22.8870  -999.2500  -999.2500    83.6810    22.4580     7.9860     6.4290     7.9330 
   73.0000   -22.5020  -999.2500  -999.2500    88.1170    22.3290     7.0180     6.2140     7.7450 
   73.1250   -22.1120  -999.2500  -999.2500    88.5220    22.3320     7.9060     6.3560     8.0770 
   73.2500   -21.7480  -999.2500  -999.2500    85.4050    22.4070     9.1210     6.7240     8.6710 
   73.3750   -21.4120  -999.2500  -999.2500    82.3160    22.6070     9.6560     7.1230     9.1880 
   73.5000   -21.0940  -999.2500  -999.2500    79.6330    22.9900     9.7010     7.2940     9.2250 
   73.6250   -20.7770  -999.2500  -999.2500    77.7030    23.5280     9.0950     6.9810     8.4970 
   73.7500   -20.4230  -999.2500  -999.2500    81.2750    24.0770     7.5910     6.3240     7.3880 
   73.8750   -19.9940  -999.2500  -999.2500    91.4780    24.5260     5.8090     5.5460     6.2800 
   74.0000   -19.4720  -999.2500  -999.2500   102.8070    24.8050     4.7980     4.8380     5.4020 
   74.1250   -18.8900  -999.2500  -999.2500   111.3080    24.9000     4.6820     4.3340     4.8640 
   74.2500   -18.3450  -999.2500  -999.2500   118.2950    24.8680     4.5660     4.0380     4.6030 
   74.3750   -17.9330  -999.2500  -999.2500   122.1400    24.6830     4.4280     3.9530     4.6080 
   74.5000   -17.7340  -999.2500  -999.2500   119.6770    24.2930     4.8150     4.0860     4.9060 
   74.6250   -17.7910  -999.2500  -999.2500   110.9330    23.7310     5.5410     4.5180     5.6550 
   74.7500   -18.0330  -999.2500  -999.2500   101.3650    23.1530     6.3930     5.2880     6.9260 
   74.8750   -18.4220  -999.2500  -999.2500    93.8600    22.6210     7.5910     6.4780     8.8090 
   75.0000   -18.9130  -999.2500  -999.2500    88.4810    22.3270    10.4590     8.1030    11.2650 
   75.1250   -19.4600  -999.2500  -999.2500    85.2870    22.7070    14.9330     9.9480    13.8430 
   75.2500   -19.9990  -999.2500  -999.2500    83.6390    23.5690    18.3710    11.3610    15.5050 
   75.3750   -20.5150  -999.2500  -999.2500    82.9190    24.3600    18.8360    11.7440    15.4050 
   75.5000   -21.0510  -999.2500  -999.2500    80.5270    24.6510    16.0610    11.0120    13.6680 
   75.6250   -21.6590  -999.2500  -999.2500    77.0730    24.6000    10.9530     9.6660    11.4000 
   75.7500   -22.3450  -999.2500  -999.2500    76.7250    24.6540     8.4850     8.4400     9.6540 
   75.8750   -23.0730  -999.2500  -999.2500    78.7950    24.8380     7.8410     7.6060     8.6920 
   76.0000   -23.7670  -999.2500  -999.2500    78.4220    24.9910     7.8140     7.2290     8.4530 
   76.1250   -24.3570  -999.2500  -999.2500    76.2460    25.0190     8.4370     7.3050     8.8040 
   76.2500   -24.8330  -999.2500  -999.2500    74.8120    25.0730     9.3630     7.6350     9.3990 
   76.3750   -25.2010  -999.2500  -999.2500    72.3910    25.2280     9.9990     8.0730    10.0150 
   76.5000   -25.4790  -999.2500  -999.2500    67.8200    25.4140    10.0900     8.4860    10.4820 
   76.6250   -25.6650  -999.2500  -999.2500    64.1630    25.6220     9.9920     8.7400    10.6450 
   76.7500   -25.7880  -999.2500  -999.2500    65.8270    25.9560    10.1440     8.8060    10.5250 
   76.8750   -25.8370  -999.2500  -999.2500    70.8440    26.4030    10.5560     8.6960    10.1810 
