~V
VERS. 2.00: Ver 2.00
~W
STRT.M 60.0000:
STOP.M 277.0000:
STEP.M 0.1250:
NULL. -999.2500:
UWI. DF3044:
~C
DEPT.M :
GR.API :
CALI.CM :
RXO.OHMM :
RI. :
RML.OHMM :
DEN.GM/CC :
SP.MV :
~A
# ...
  116.2500    98.7350    23.8320     5.2320     4.5080     5.7040     2.2600   -20.7000 
  116.3750   100.6200    23.8320     5.2170     4.4860     5.6780     2.2610   -20.7350 
  116.5000    93.6240    23.8320     5.2970     4.4910     5.6780     2.2620   -20.7580 
  116.6250    85.5190    23.8320     5.3650     4.5180     5.7340     2.2570   -20.7770 
  116.7500    81.4100    23.8180     5.3710     4.5730     5.8470     2.2460   -20.7770 
  116.8750    79.6000    23.7600     5.4110     4.6590     5.9990     2.2350   -20.7670 
  117.0000    80.0640    23.6310     5.4790     4.7610     6.1460     2.2330   -20.7400 
  117.1250    79.4020    23.5550     5.4650     4.8300     6.2120     2.2430   -20.7030 
  117.2500    77.7090    23.5440     5.3550     4.8340     6.1690     2.2560   -20.6420 
  117.3750    77.5790    23.5690     5.2120     4.7700     6.0360     2.2700   -20.6090 
  117.5000    80.3130    23.6140     5.0790     4.6750     5.8750     2.2780   -20.5940 
  117.6250    83.3790    23.6970     4.9810     4.6000     5.7650     2.2720   -20.5810 
  117.7500    83.9940    23.7630     4.9730     4.5650     5.7300     2.2540   -20.5810 
  117.8750    83.5730    23.7200     5.0700     4.5560     5.7550     2.2370   -20.5910 
  118.0000    82.3910    23.5760     5.2450     4.5600     5.8180     2.2330   -20.6240 
  118.1250    83.2340    23.3720     5.3900     4.5890     5.9040     2.2450   -20.6810 
  118.2500    87.8520    23.2480     5.3450     4.6530     6.0000     2.2580   -20.7400 
  118.3750    94.6500    23.1500     5.1380     4.7470     6.1040     2.2610   -20.7630 
  118.5000    98.7010    23.0840     5.0150     4.8460     6.2070     2.2530   -20.7460 
  118.6250    96.3980    23.0440     5.1440     4.9010     6.2760     2.2500   -20.6930 
  118.7500    92.4780    23.0230     5.2820     4.8790     6.2590     2.2590   -20.6390 
  118.8750    89.0650    23.0710     5.2980     4.7690     6.1090     2.2740   -20.5860 
  119.0000    85.3840    23.2230     5.2570     4.5940     5.8350     2.2910   -20.5690 
  119.1250    83.1920    23.4400     5.2130     4.4390     5.5730     2.3220   -20.6150 
  119.2500    83.0400    23.5520     5.1410     4.4080     5.5210     2.3670   -20.7280 
  119.3750    83.7940    23.6020     5.0850     4.5810     5.8070     2.4000   -20.9460 
  119.5000    83.4130    23.6190     5.4790     4.9960     6.4720     2.3950   -21.2650 
  119.6250    79.8080    23.6200     7.3420     5.6170     7.4320     2.3560   -21.7070 
  119.7500    76.4690    23.5910    10.2210     6.2060     8.3020     2.3190   -22.1920 
  119.8750    76.5830    23.5050    11.8750     6.5220     8.6830     2.2940   -22.7130 
  120.0000    79.2410    23.3690    10.6480     6.4390     8.4010     2.2730   -23.2170 
  120.1250    80.2590    23.3130     8.2370     6.0490     7.6830     2.2440   -23.6370 
  120.2500    77.7270    23.2980     6.8460     5.6770     7.0610     2.2070   -23.9610 
  120.3750    72.2320    23.2990     6.6910     5.5250     6.8100     2.1780   -24.1610 
  120.5000    64.8350    23.2990     7.0960     5.6970     7.0410     2.1840   -24.2230 
  120.6250    59.8820    23.2990     7.4870     6.2610     7.8280     2.2550   -24.0970 
  120.7500    60.8680    23.2990     7.8430     7.0660     8.9510     2.3630   -23.8540 
  120.8750    62.9340    23.2930     8.7990     7.9070    10.1000     2.4640   -23.5160 
  121.0000    61.9330    23.2830    11.5320     8.4630    10.7750     2.5190   -23.1190 
  121.1250    62.3120    23.3070    15.7130     8.3040    10.3330     2.5010   -22.7160 
  121.2500    69.1750    23.4080    16.0030     7.5340     9.0420     2.4380   -22.3690 
  121.3750    78.4130    23.5000    11.5490     6.4770     7.4850     2.3630   -22.0760 
  121.5000    83.9440    23.5370     6.8310     5.5080     6.2080     2.2990   -21.8810 
  121.6250    84.5380    23.5370     5.5830     4.9280     5.5600     2.2630   -21.8030 
  121.7500    82.8800    23.5220     5.4070     4.7320     5.4310     2.2450   -21.8170 
  121.8750    83.1600    23.4400     5.5300     4.8590     5.6960     2.2360   -21.8940 
  122.0000    85.7970    23.2130     5.8100     5.1930     6.1780     2.2300   -21.9600 
  122.1250    88.2220    22.9100     6.0870     5.5770     6.6300     2.2300   -21.9940 
  122.2500    86.7070    22.6530     6.1250     5.8520     6.8590     2.2350   -21.9510 
  122.3750    82.6460    22.4820     5.9570     5.9450     6.8130     2.2430   -21.8350 
  122.5000    80.8430    22.3730     5.7820     5.8330     6.5350     2.2580   -21.6430 
  122.6250    84.1180    22.2660     5.6050     5.5190     6.1070     2.2850   -21.4060 
  122.7500    89.2440    22.1410     5.2730     5.1050     5.6490     2.3140   -21.1670 
  122.8750    92.8780    22.0930     4.9510     4.6740     5.2230     2.3340   -20.9500 
  123.0000    93.9120    22.2410     4.8800     4.2860     4.8550     2.3450   -20.8190 
  123.1250    94.3700    22.7020     5.0310     3.9720     4.5490     2.3510   -20.7900 
  123.2500    94.1900    23.2190     5.0120     3.7070     4.2940     2.3540   -20.8650 
  123.3750    92.3140    23.4800     4.7700     3.5060     4.1250     2.3530   -21.0400 
  123.5000    89.1550    23.5070     4.5450     3.4460     4.1270     2.3590   -21.2890 
  123.6250    84.3400    23.3560     4.6700     3.7280     4.5150     2.3920   -21.5800 
  123.7500    77.8090    23.0810     5.4550     4.4570     5.4230     2.4490   -21.8810 
  123.8750    70.8400    22.8220     7.3070     5.7540     7.0130     2.5140   -22.1860 
  124.0000    66.6320    22.6840    10.6850     7.6900     9.4020     2.5680   -22.4780 
  124.1250    66.1010    22.6850    15.5940    10.2100    12.5330     2.5970   -22.7530 
  124.2500    66.4020    22.7490    19.7130    12.6200    15.4510     2.6020   -23.0430 
  124.3750    64.7960    22.8110    20.9850    14.0860    16.9570     2.5780   -23.3550 
  124.5000    60.1930    22.8590    19.2940    14.1620    16.5320     2.5170   -23.6740 
  124.6250    55.7030    22.8520    16.8240    13.1060    14.8520     2.4230   -24.0460 
  124.7500    55.2050    22.8040    13.9890    11.8260    13.1690     2.3280   -24.4490 
  124.8750    57.0790    22.7540    11.0620    10.7370    11.9130     2.2560   -24.8650 
  125.0000    58.6400    22.7520     8.9540     9.9970    11.1740     2.2190   -25.2780 
  125.1250    58.9250    22.8170     8.4530     9.6490    10.9600     2.2120   -25.6870 
  125.2500    58.7260    22.9350     8.5180     9.5440    11.0520     2.2140   -26.0530 
  125.3750    59.3420    23.0720     8.5790     9.5890    11.2850     2.2150   -26.3370 
  125.5000    61.0840    23.1760     8.5560     9.6900    11.4920     2.2120   -26.5590 
  125.6250    61.6870    23.2150     8.6190     9.7470    11.5140     2.2070   -26.7030 
  125.7500    59.2610    23.2220     8.6990     9.7130    11.3710     2.2080   -26.7940 
  125.8750    56.4080    23.2230     8.6960     9.5970    11.1570     2.2160   -26.8540 
  126.0000    57.3780    23.2230     8.5950     9.4380    10.9650     2.2290   -26.8950 
  126.1250    61.9050    23.2230     8.4620     9.2910    10.8420     2.2380   -26.8890 
  126.2500    66.3920    23.2230     8.5230     9.1870    10.7730     2.2420   -26.8520 
  126.3750    67.8980    23.2230     9.0660     9.1320    10.7490     2.2450   -26.8160 
  126.5000    66.3460    23.2020    10.2310     9.1170    10.7730     2.2490   -26.8030 
  126.6250    63.7060    23.1320    10.3310     9.1450    10.8640     2.2470   -26.7790 
  126.7500    61.4280    23.0310     9.5590     9.2170    11.0020     2.2350   -26.7550 
  126.8750    61.0080    22.9790     8.8210     9.3270    11.1610     2.2220   -26.7260 
  127.0000    63.6390    22.9700     8.6880     9.4530    11.3120     2.2200   -26.6880 
  127.1250    67.1690    22.9740     8.7970     9.5600    11.4300     2.2250   -26.6710 
  127.2500    67.2980    22.9770     8.7770     9.6380    11.5190     2.2210   -26.6510 
  127.3750    62.8740    22.9800     8.7460     9.6860    11.5920     2.2090   -26.6400 
