~V
VERS. 2.00: Ver 2.00
~W
STRT.M 56.0000:
STOP.M 270.0000:
STEP.M 0.1250:
NULL. -999.2500:
UWI. DF3053:
~C
DEPT.M :
GR.API :
CALI.CM :
RXO.OHMM :
RI. :
RML.OHMM :
DEN.GM/CC :
SP.MV :
~A
# ...
  134.6250    70.0230    24.1190     6.9890     6.4260     6.5600     2.2540    -8.3360 
  134.7500    73.9680    24.0760     7.1160     6.0230     6.0910     2.2550    -8.2640 
  134.8750    73.0800    24.0000     7.2140     5.8490     5.8220     2.2530    -8.2310 
  135.0000    69.2360    23.9280     7.2350     5.7980     5.7100     2.2440    -8.2510 
  135.1250    68.2230    23.8940     7.1220     5.7910     5.7120     2.2320    -8.3200 
  135.2500    70.9340    23.8910     6.9920     5.7790     5.7340     2.2270    -8.3980 
  135.3750    73.8750    23.8950     6.7370     5.7590     5.7640     2.2300    -8.4600 
  135.5000    72.6620    23.8810     6.5130     5.7580     5.8690     2.2410    -8.4900 
  135.6250    69.8040    23.8420     6.8030     5.8300     6.0900     2.2570    -8.4840 
  135.7500    69.2320    23.8240     6.8990     5.9760     6.3210     2.2770    -8.4440 
  135.8750    70.2890    23.8520     6.8990     6.1670     6.4540     2.2970    -8.3910 
  136.0000    71.2040    23.9070     7.6090     6.3480     6.4380     2.3080    -8.3430 
  136.1250    70.9040    23.9420     9.6950     6.4290     6.2720     2.3000    -8.3060 
  136.2500    70.6820    23.9530     9.0670     6.3720     6.0410     2.2770    -8.2560 
  136.3750    70.2250    23.9490     7.0660     6.1790     5.7800     2.2540    -8.1910 
  136.5000    69.5060    23.9310     6.4660     5.8870     5.4950     2.2460    -8.1160 
  136.6250    70.2960    23.9020     6.4700     5.5230     5.1830     2.2580    -8.0430 
  136.7500    72.5590    23.8640     6.3760     5.1210     4.8520     2.2720    -7.9850 
  136.8750    74.4640    23.8060     6.1210     4.7160     4.5190     2.2700    -7.9360 
  137.0000    75.3540    23.7650     5.6670     4.3690     4.2510     2.2480    -7.8840 
  137.1250    76.3500    23.9200     5.2670     4.2250     4.2470     2.2260    -7.8270 
  137.2500    77.7610    24.2560     5.3410     4.3970     4.6900     2.2400    -7.7810 
  137.3750    76.7650    24.5300     6.9430     5.0430     5.7860     2.2980    -7.7610 
  137.5000    71.0770    24.5390    13.6290     6.3500     7.7410     2.3740    -7.7670 
  137.6250    64.2660    24.3590    24.0860     8.6100    10.7780     2.4190    -7.8000 
  137.7500    60.0190    24.2340    30.7810    11.4450    14.2380     2.4190    -7.8780 
  137.8750    58.1570    24.1540    33.3500    13.9300    16.8060     2.3820    -8.0130 
  138.0000    56.3730    23.9940    34.5570    14.9330    17.1380     2.3220    -8.2090 
  138.1250    54.5220    23.7140    28.0790    14.1490    15.3290     2.2640    -8.4510 
  138.2500    54.1710    23.4510    18.3300    12.8530    13.3210     2.2400    -8.7120 
  138.3750    54.4930    23.3070    12.7690    11.7450    11.9650     2.2620    -8.9780 
  138.5000    55.8410    23.2890    13.9990    11.0540    11.3990     2.3030    -9.2520 
  138.6250    58.7930    23.3570    19.7500    10.7800    11.4460     2.3150    -9.5300 
  138.7500    59.5200    23.4480    19.5230    10.6910    11.6320     2.2900    -9.7880 
  138.8750    57.0590    23.5260    14.7110    10.6300    11.6650     2.2510    -9.9990 
  139.0000    54.3020    23.5720    12.1160    10.4950    11.4350     2.2230   -10.1630 
  139.1250    54.4630    23.6030    11.5510    10.2750    11.0650     2.2180   -10.3020 
  139.2500    56.5680    23.6630    11.3260    10.0730    10.7840     2.2290   -10.4410 
  139.3750    58.1640    23.7590    11.2530     9.9540    10.6610     2.2440   -10.5720 
  139.5000    58.1210    23.8680    11.5060     9.9250    10.6450     2.2520   -10.6810 
  139.6250    55.9890    23.9070    11.8750     9.9420    10.6450     2.2450   -10.7440 
  139.7500    55.7850    23.8360    11.8460     9.9430    10.6050     2.2300   -10.7860 
  139.8750    59.2760    23.7000    11.4460     9.9090    10.5560     2.2130   -10.8240 
  140.0000    63.5100    23.5930    11.0010     9.8430    10.5510     2.2010   -10.8650 
  140.1250    64.0210    23.5830    10.8610     9.7700    10.6040     2.1980   -10.8850 
  140.2500    60.5050    23.6120    10.9410     9.7210    10.6490     2.2040   -10.8720 
  140.3750    55.6570    23.6300    11.1350     9.7100    10.6480     2.2130   -10.8280 
  140.5000    54.0700    23.6270    11.2390     9.7390    10.6190     2.2190   -10.7740 
  140.6250    57.2920    23.6040    11.1010     9.7860    10.6170     2.2150   -10.7270 
  140.7500    60.4730    23.5460    11.1460     9.8190    10.6380     2.2060   -10.6840 
  140.8750    59.7580    23.4510    11.5030     9.8160    10.6300     2.1950   -10.6220 
  141.0000    57.5450    23.3610    11.4030     9.7590    10.5490     2.1810   -10.5340 
  141.1250    58.2020    23.3040    10.9770     9.6370    10.4280     2.1640   -10.4260 
  141.2500    59.7850    23.2220    10.6540     9.4910    10.4140     2.1460   -10.3250 
  141.3750    58.7630    23.0950    10.5070     9.3750    10.6040     2.1310   -10.2380 
  141.5000    55.8570    23.0060    10.2240     9.3670    11.0180     2.1220   -10.1660 
  141.6250    52.9790    23.0430    10.3040     9.5920    11.6590     2.1340   -10.1110 
  141.7500    51.9010    23.1420    12.3460    10.0630    12.4640     2.1790   -10.0930 
  141.8750    53.3390    23.2560    23.3740    10.7330    13.3750     2.2510   -10.1230 
  142.0000    56.3570    23.3910    46.1240    11.4500    14.2390     2.3270   -10.1950 
  142.1250    55.6700    23.5360    61.1500    11.9220    14.7240     2.3610   -10.2790 
  142.2500    51.8850    23.6020    51.4670    11.9990    14.7230     2.3470   -10.3540 
  142.3750    50.0720    23.5080    30.0360    11.7330    14.3410     2.3060   -10.4030 
  142.5000    52.9750    23.2500    15.0830    11.3460    13.8820     2.2740   -10.4280 
  142.6250    57.6450    22.9230    12.5510    11.1430    13.7440     2.2710   -10.4210 
  142.7500    60.2580    22.6460    12.5050    11.2660    14.0420     2.2880   -10.3860 
  142.8750    61.2700    22.4450    13.1300    11.7550    14.7710     2.3090   -10.3230 
  143.0000    61.6650    22.3160    13.6610    12.5390    15.8550     2.3230   -10.2530 
  143.1250    61.2940    22.2590    13.3050    13.4000    17.0380     2.3230   -10.1890 
  143.2500    61.2370    22.2460    13.5220    13.9820    17.8280     2.3120   -10.1330 
  143.3750    63.0110    22.2480    13.7020    14.0120    17.7860     2.2950   -10.0730 
  143.5000    65.5030    22.2510    13.0340    13.4090    16.7650     2.2760   -10.0120 
  143.6250    65.4610    22.2530    11.9820    12.3060    14.9990     2.2580    -9.9580 
  143.7500    62.5840    22.2530    10.6660    11.1060    13.1430     2.2430    -9.9190 
  143.8750    59.0970    22.2520     9.3850    10.0450    11.5860     2.2290    -9.8870 
  144.0000    58.2570    22.2500     9.0880     9.2380    10.5080     2.2150    -9.8450 
  144.1250    60.1480    22.2490     9.2750     8.7580     9.9670     2.1970    -9.7680 
  144.2500    60.5580    22.2490     9.7080     8.5190     9.7630     2.1800    -9.6740 
  144.3750    60.2720    22.2500     9.9410     8.4600     9.7670     2.1700    -9.5720 
  144.5000    61.9780    22.2490     9.8660     8.5330     9.9080     2.1690    -9.4520 
  144.6250    63.9990    22.2540     9.9770     8.7900    10.2740     2.1720    -9.2900 
  144.7500    63.2320    22.3250    10.2120     9.2910    10.9610     2.1750    -9.0810 
  144.8750    62.7900    22.4880    10.7360    10.0630    12.0030     2.1870    -8.8480 
  145.0000    65.1110    22.6850    11.8820    10.9950    13.2280     2.2210    -8.6340 
  145.1250    65.8130    22.8120    16.3910    11.6910    14.0820     2.2780    -8.4770 
  145.2500    65.0130    22.8940    23.8610    11.7040    14.0210     2.3240    -8.3540 
  145.3750    65.0090    22.9920    23.4050    10.8730    12.8650     2.3330    -8.2270 
  145.5000    66.5850    23.0860    14.1990     9.4890    10.9900     2.3080    -8.0820 
  145.6250    70.4980    23.1070     8.2690     8.0860     9.0820     2.2710    -7.9340 
  145.7500    76.1550    23.0810     7.5600     6.9870     7.5490     2.2450    -7.8090 
