~V
VERS. 2.00: Ver 2.00
~W
STRT.M 55.0000:
STOP.M 252.0000:
STEP.M 0.1250:
NULL. -999.2500:
UWI. DF3024:
~C
DEPT.M :
GR.API :
RML.OHMM :
RI. :
RXO.OHMM :
CALI.CM :
DEN.GM/CC :
SP.MV :
~A
# ...
  178.7500    66.4810   115.0190   101.8370   105.1180    24.4880     2.2260   -24.4790 
  178.8750    68.2830   114.9630   101.5440   103.0750    24.4930     2.2000   -24.1290 
  179.0000    65.8400   115.7210   101.8610   100.4740    24.4960     2.1690   -23.7130 
  179.1250    61.9150   118.3840   103.9260   102.0200    24.5020     2.1470   -23.2730 
  179.2500    61.9220   122.9250   107.8430   113.2130    24.4700     2.1540   -22.8000 
  179.3750    65.1320   129.0360   113.3400   117.7280    24.3680     2.2050   -22.3000 
  179.5000    66.6290   135.8660   119.5870   115.1110    24.1890     2.3040   -21.8020 
  179.6250    62.1470   141.2620   124.5710   122.1050    23.9850     2.4380   -21.2900 
  179.7500    55.9720   142.5290   125.8790   138.3990    23.8500     2.5640   -20.7650 
  179.8750    53.8050   136.9390   121.1530   154.3760    23.8160     2.6550   -20.2490 
  180.0000    56.2400   122.6030   108.8150   158.2520    23.8300     2.7010   -19.8070 
  180.1250    59.5880    98.8110    88.2300   134.2720    23.8180     2.7120   -19.3080 
  180.2500    60.8820    71.5910    64.3950    95.8670    23.7720     2.7060   -18.8000 
  180.3750    61.4610    46.6830    42.3910    67.2170    23.7070     2.6880   -18.4610 
  180.5000    63.1820    27.9700    25.9000    47.5550    23.6440     2.6600   -18.0610 
  180.6250    65.7720    16.7980    16.3770    26.9320    23.6220     2.6260   -17.7160 
  180.7500    66.2380    10.5420    11.0880    13.1120    23.6490     2.5990   -17.5360 
  180.8750    62.5840     7.8030     8.3760     7.6480    23.7490     2.5890   -17.2600 
  181.0000    58.3970     6.7870     7.0890     6.5150    23.9050     2.5910   -17.0290 
  181.1250    55.3650     6.4720     6.6030     7.0120    24.0230     2.5840   -16.9410 
  181.2500    51.9730     6.3560     6.4040     7.4100    24.0700     2.5500   -16.7820 
  181.3750    50.3190     6.2760     6.3050     6.9710    24.0960     2.4880   -16.6330 
  181.5000    53.3460     6.1880     6.2190     5.8910    24.1010     2.4200   -16.5410 
  181.6250    58.5140     6.1360     6.1590     5.5030    24.0620     2.3740   -16.4400 
  181.7500    60.1350     6.1620     6.1670     5.3820    23.9890     2.3590   -16.3280 
  181.8750    59.3080     6.2680     6.2550     5.4160    23.9420     2.3680   -16.2280 
  182.0000    60.0120     6.4210     6.3970     5.5340    23.9310     2.3870   -16.1750 
  182.1250    61.4620     6.5790     6.5380     5.7310    23.9570     2.4020   -16.1510 
  182.2500    62.2460     6.7260     6.6410     5.8040    24.0100     2.4110   -16.1630 
  182.3750    61.2620     6.8770     6.7070     5.8630    24.0680     2.4160   -16.2070 
  182.5000    58.0140     7.0530     6.7590     5.9730    24.0970     2.4170   -16.2730 
  182.6250    54.4540     7.2630     6.8280     6.1130    24.0300     2.4130   -16.3060 
  182.7500    53.7040     7.4810     6.9150     6.3130    23.8660     2.4050   -16.3950 
  182.8750    56.3240     7.6720     7.0000     6.5730    23.7250     2.3970   -16.5380 
  183.0000    58.7730     7.8070     7.0540     6.8130    23.7010     2.3930   -16.5840 
  183.1250    57.0900     7.8680     7.0440     6.7140    23.6790     2.3980   -16.6920 
  183.2500    53.8900     7.8900     6.9890     6.5560    23.6540     2.4090   -16.9070 
  183.3750    52.4320     7.9050     6.9190     6.4100    23.6510     2.4240   -17.0040 
  183.5000    53.7560     7.9400     6.8690     6.3000    23.6710     2.4360   -17.1150 
  183.6250    56.0910     8.0090     6.8690     6.2560    23.7400     2.4420   -17.3580 
  183.7500    57.4360     8.1010     6.9100     6.3780    23.8500     2.4440   -17.4780 
  183.8750    58.0000     8.2070     6.9790     6.6030    23.9510     2.4400   -17.6580 
  184.0000    57.8080     8.3210     7.0580     6.8300    24.0070     2.4340   -17.9390 
  184.1250    60.6330     8.4530     7.1490     7.0280    24.0560     2.4280   -18.1310 
  184.2500    68.8460     8.6220     7.2640     7.2050    24.1510     2.4230   -18.3810 
  184.3750    77.9960     8.8520     7.4240     7.4330    24.2680     2.4220   -18.7370 
  184.5000    82.3980     9.1580     7.6390     7.8040    24.3790     2.4240   -19.0860 
  184.6250    81.3940     9.5440     7.9110     8.1580    24.4670     2.4280   -19.4800 
  184.7500    80.2550     9.9560     8.1990     8.6110    24.4030     2.4320   -19.9100 
  184.8750    80.8400    10.3420     8.4610     9.1650    24.1080     2.4340   -20.3040 
  185.0000    85.0380    10.6440     8.6560     9.7340    23.8640     2.4310   -20.7160 
  185.1250    93.4850    10.7990     8.7380    10.0730    23.7780     2.4200   -21.0810 
  185.2500    99.4720    10.8150     8.7200    10.1250    23.7810     2.4040   -21.3780 
  185.3750    99.4120    10.7140     8.6200     9.8560    23.8000     2.3890   -21.6800 
  185.5000    95.4760    10.5450     8.4720     9.3640    23.8640     2.3800   -21.9670 
  185.6250    94.4570    10.3820     8.3180     9.1310    23.9450     2.3810   -22.2170 
  185.7500    96.3150    10.2820     8.1970     9.0580    23.9200     2.3920   -22.4770 
  185.8750    99.9560    10.2660     8.1260     9.0080    23.6790     2.4070   -22.7680 
  186.0000   103.9230    10.3270     8.1090     8.9370    23.5070     2.4210   -23.0900 
  186.1250   104.2330    10.4460     8.1500     9.0370    23.4670     2.4290   -23.4840 
  186.2500   100.6540    10.5910     8.2310     9.3950    23.4560     2.4280   -23.8500 
  186.3750    96.7070    10.7480     8.3440     9.6480    23.4550     2.4190   -24.2580 
  186.5000    95.8430    10.9180     8.4830     9.8490    23.4970     2.4090   -24.7020 
  186.6250    97.5080    11.1090     8.6480    10.1060    23.8010     2.4030   -24.9470 
  186.7500    97.1030    11.3210     8.8290    10.9270    23.9580     2.4020   -25.1870 
  186.8750    95.0310    11.5460     9.0120    11.9570    24.0120     2.4030   -25.3490 
  187.0000    94.4890    11.7640     9.1800    12.5340    24.0280     2.4060   -25.2260 
  187.1250    96.2020    11.9270     9.2910    12.3090    24.0730     2.4120   -25.0020 
  187.2500    98.4490    11.9950     9.3220    11.8710    24.1440     2.4240   -24.6680 
  187.3750   100.0600    11.9350     9.2520    11.7570    24.1910     2.4460   -24.0780 
  187.5000   102.4860    11.7270     9.0700    11.7560    24.2070     2.4710   -23.4200 
  187.6250   105.8090    11.3560     8.7710    11.6020    24.2070     2.4820   -22.6940 
  187.7500   106.4890    10.9080     8.4120    10.9420    24.2050     2.4730   -21.8940 
  187.8750   105.1700    10.4920     8.0680    10.2560    24.1900     2.4480   -21.0810 
  188.0000   103.6780    10.2480     7.8320     9.6080    24.1550     2.4230   -20.3070 
  188.1250   102.2690    10.3510     7.8290     8.7210    24.1220     2.4150   -19.6330 
  188.2500    98.3280    10.7500     8.0500     8.2130    24.0840     2.4270   -19.0010 
  188.3750    92.9930    11.3050     8.4250     8.5290    23.9510     2.4500   -18.4560 
  188.5000    90.1760    11.7810     8.8100     9.4710    23.6130     2.4690   -17.9880 
  188.6250    91.4240    11.8650     8.9830    10.5640    23.5130     2.4720   -17.5990 
  188.7500    92.3370    11.5130     8.8580    10.8360    23.6060     2.4620   -17.2610 
  188.8750    88.3310    10.8310     8.4620    10.0850    23.7050     2.4430   -17.0110 
  189.0000    80.0970    10.0460     7.9270     8.6060    23.5710     2.4240   -16.8100 
  189.1250    72.3060     9.4320     7.4450     7.0830    23.4760     2.4110   -16.5900 
  189.2500    66.4970     9.0780     7.1210     6.3460    23.4910     2.4060   -16.4190 
  189.3750    62.6500     8.9550     6.9690     6.2510    23.5760     2.4090   -16.2070 
  189.5000    61.3880     8.9790     6.9520     6.3590    23.6190     2.4180   -15.9250 
  189.6250    63.5140     9.0630     7.0210     6.3680    23.6180     2.4300   -15.7750 
  189.7500    65.9360     9.1500     7.1180     6.2770    23.6270     2.4400   -15.5680 
  189.8750    68.7530     9.2350     7.2260     6.1880    23.6740     2.4480   -15.2500 
