~V
VERS. 2.00: Ver 2.00
~W
STRT.M 130.0000:
STOP.M 268.0000:
STEP.M 0.1250:
NULL. -999.2500:
UWI. DF3061:
~C
DEPT.M :
GR.API :
CALI.CM :
RXO.OHMM :
RI. :
RML.OHMM :
DEN.GM/CC :
SP.MV :
~A
# ...
  220.0000    66.2130    24.7410   111.9570    94.4050   102.3080     2.1640   -28.7370 
  220.1250    70.0170    24.7090    95.5650    92.7500   100.5270     2.1760   -28.9950 
  220.2500    71.3310    24.6250    80.3060    94.2450   101.9070     2.1940   -29.2830 
  220.3750    69.8100    24.4670    75.4140    99.4070   109.0580     2.2100   -29.5760 
  220.5000    67.0390    24.5150    87.0580   107.9090   118.9700     2.2170   -29.8350 
  220.6250    66.0560    24.7130   118.0840   119.8880   132.1770     2.2100   -30.0410 
  220.7500    66.0990    25.0150   133.8560   134.0230   147.7600     2.1900   -30.1920 
  220.8750    64.5510    25.1190   134.4820   148.7950   164.0470     2.1720   -30.2650 
  221.0000    62.0710    25.2030   142.2570   163.2430   179.9750     2.1670   -30.2800 
  221.1250    62.3040    25.2040   159.2060   175.9120   193.9430     2.1730   -30.2930 
  221.2500    63.3840    25.2090   167.6330   186.6030   205.7300     2.1780   -30.3320 
  221.3750    62.2580    25.3730   177.5940   195.2490   215.2620     2.1790   -30.4040 
  221.5000    58.6180    25.4300   195.1070   201.9320   222.6300     2.1780   -30.5180 
  221.6250    56.5680    25.4560   213.0260   203.6640   224.5400     2.1720   -30.6520 
  221.7500    58.5840    25.4420   219.3280   199.3400   219.7730     2.1580   -30.7620 
  221.8750    62.5790    25.3680   197.7240   190.0620   209.5440     2.1430   -30.8310 
  222.0000    64.2040    25.1550   174.4350   177.4680   195.6590     2.1480   -30.8360 
  222.1250    61.8080    24.8460   186.4030   163.2990   180.0370     2.1760   -30.7580 
  222.2500    61.9680    24.8150   194.5180   151.4690   166.9950     2.2110   -30.6370 
  222.3750    65.5200    24.8700   157.7500   144.9140   159.7670     2.2240   -30.4980 
  222.5000    69.1190    24.8970   113.5720   144.2180   159.0000     2.2120   -30.3540 
  222.6250    67.7650    25.0900   117.5300   148.9150   164.1790     2.1900   -30.2480 
  222.7500    63.0560    25.3330   152.0050   156.2650   172.2830     2.1680   -30.2040 
  222.8750    60.2510    25.2030   173.5960   163.5650   180.3300     2.1570   -30.2240 
  223.0000    59.2680    25.1230   177.0670   168.8290   186.1340     2.1550   -30.2800 
  223.1250    59.4320    25.0280   166.3540   169.6820   187.0750     2.1600   -30.3170 
  223.2500    61.5040    24.8980   149.0490   165.7360   182.7240     2.1640   -30.2900 
  223.3750    65.3550    24.8270   134.9260   157.4660   173.6060     2.1660   -30.1890 
  223.5000    67.3890    24.8330   130.2140   147.5160   162.6360     2.1680   -30.0300 
  223.6250    64.8150    24.8350   127.3650   139.3240   153.6050     2.1670   -29.8110 
  223.7500    63.3030    24.8200   124.8940   133.6600   147.3610     2.1570   -29.5730 
  223.8750    63.7850    24.7610   115.8690   130.5680   143.9510     2.1510   -29.3580 
  224.0000    61.5790    24.6230   106.0000   129.0720   142.3020     2.1670   -29.1820 
  224.1250    56.2130    24.2180   120.1340   128.0290   141.1520     2.2050   -29.1030 
  224.2500    54.3910    24.1190   132.5460   126.4020   139.3580     2.2440   -29.0970 
  224.3750    56.2730    24.4790   123.6710   123.6830   136.3600     2.2530   -29.1550 
  224.5000    57.9450    24.7300   104.6560   120.1690   132.4860     2.2350   -29.2190 
  224.6250    57.8180    24.7120    97.4370   116.4710   128.4090     2.2100   -29.2450 
  224.7500    57.3520    24.8570    94.1060   113.2190   124.8240     2.1900   -29.2190 
  224.8750    57.1030    25.0610    90.9370   111.0980   122.4850     2.1800   -29.1060 
  225.0000    57.3760    24.9890    84.4100   110.6950   122.0410     2.1760   -28.9450 
  225.1250    58.5020    25.0540    88.2530   111.7740   123.2310     2.1790   -28.7490 
  225.2500    59.3940    25.0880   105.7020   112.6900   124.2410     2.1850   -28.5750 
  225.3750    59.0300    25.2620   129.9270   112.4140   123.9370     2.1880   -28.4380 
  225.5000    58.0780    25.4580   142.7500   110.4730   121.7970     2.1890   -28.3710 
  225.6250    56.5280    25.3450   127.4950   107.4070   118.4160     2.1960   -28.3700 
  225.7500    55.6840    25.2360   100.0330   103.7990   114.4380     2.2090   -28.4080 
  225.8750    57.6920    25.0230    83.3710    99.8330   110.0660     2.2170   -28.4820 
  226.0000    61.7840    24.7350    78.0900    95.6470   105.4510     2.2120   -28.5540 
  226.1250    64.2200    24.8010    72.9490    91.6390   101.0320     2.2020   -28.5680 
  226.2500    63.1640    24.7060    69.3400    87.4110    96.3700     2.1950   -28.5270 
  226.3750    61.7650    24.6600    74.7860    82.8330    91.3230     2.1910   -28.4210 
  226.5000    63.3560    24.6540    74.9190    78.2950    86.3210     2.1880   -28.2610 
  226.6250    66.5080    24.7010    63.4890    74.4010    82.0270     2.1900   -28.1130 
  226.7500    67.7660    24.7800    53.3910    71.6530    78.9980     2.1980   -28.0050 
  226.8750    67.1760    24.7000    54.3930    70.4110    77.6280     2.2060   -27.9650 
  227.0000    65.9520    24.6790    57.3640    70.5170    77.7450     2.2070   -28.0110 
  227.1250    64.3730    24.7890    57.1050    71.8390    79.2030     2.2040   -28.1620 
  227.2500    64.3260    24.7380    58.1490    73.8130    81.3790     2.1990   -28.3440 
  227.3750    66.0200    24.5120    62.0240    75.9400    83.7240     2.1970   -28.5390 
  227.5000    66.7490    24.6340    66.3320    77.5540    85.5040     2.2030   -28.7310 
  227.6250    66.1910    24.7530    69.0880    78.0630    86.0650     2.2100   -28.8560 
  227.7500    66.9970    24.7680    70.2740    77.7240    85.6900     2.2100   -28.9080 
  227.8750    68.7790    24.7220    70.0970    76.6670    84.5250     2.2050   -28.8870 
  228.0000    70.2060    24.7940    69.2310    74.9040    82.5820     2.2040   -28.8160 
  228.1250    70.1510    24.7180    67.3150    72.6060    80.0480     2.2020   -28.7550 
  228.2500    67.8870    24.7040    63.4180    70.5070    77.7340     2.1840   -28.7430 
  228.3750    64.1600    24.7430    59.3340    69.1300    76.2160     2.1590   -28.7810 
  228.5000    62.9260    24.7720    56.3290    68.5940    75.6250     2.1640   -28.8590 
  228.6250    63.4620    24.7460    54.2990    69.1340    76.2200     2.2160   -29.0100 
  228.7500    60.7180    24.4970    54.4880    70.6260    77.8660     2.2840   -29.1790 
  228.8750    57.1220    24.2810    57.0020    72.6180    80.0610     2.3110   -29.3260 
  229.0000    57.1400    23.9260    66.7970    74.5860    82.2300     2.2910   -29.4140 
  229.1250    61.5530    23.3790    72.2720    76.3720    84.2000     2.2510   -29.3930 
  229.2500    64.9520    23.2860    75.0030    77.7400    85.7080     2.2200   -29.2920 
  229.3750    65.7300    23.3030    80.9590    78.3710    86.4040     2.1990   -29.1370 
  229.5000    64.3340    23.2680    85.5660    78.4250    86.4630     2.1780   -28.9570 
  229.6250    62.9760    23.3500    84.7300    77.8600    85.8400     2.1600   -28.7710 
  229.7500    64.6870    23.6960    83.0800    76.5990    84.4500     2.1520   -28.6240 
  229.8750    68.3880    24.3530    78.6350    74.7770    82.4410     2.1600   -28.5420 
  230.0000    69.7930    24.7970    72.1060    72.5560    79.9930     2.1690   -28.5180 
  230.1250    66.6120    24.9280    67.5320    69.9970    77.1720     2.1730   -28.5250 
  230.2500    62.6990    24.8720    65.2460    67.6950    74.6340     2.1760   -28.5300 
  230.3750    61.9460    24.8030    63.1800    66.4360    73.2460     2.1820   -28.5160 
  230.5000    63.0600    24.7140    61.8810    66.6330    73.4630     2.1860   -28.4570 
  230.6250    61.3930    24.7900    60.3110    68.7130    75.7560     2.1880   -28.3280 
  230.7500    57.6970    24.9570    59.1020    72.2710    79.6790     2.1950   -28.1550 
  230.8750    56.1460    24.9480    61.0630    76.8370    84.7130     2.2100   -27.9210 
  231.0000    58.9350    24.7230    70.1540    81.5430    89.9010     2.2210   -27.6700 
  231.1250    62.6910    24.7090   130.9220    84.6260    93.3000     2.2160   -27.4650 
