~V
VERS. 2.00: Ver 2.00
~W
STRT.M 64.0000:
STOP.M 264.0000:
STEP.M 0.1250:
NULL. -999.2500:
UWI. DF3031:
~C
DEPT.M :
DEN.GM/CC :
AC.US/MT :
GR.API :
CALI.CM :
RXO.OHMM :
RI. :
RML.OHMM :
SP.MV :
~A
# ...
  204.0000     2.4620   353.9860    96.3990    25.2870     6.7390     6.3470     8.2720   -14.2040 
  204.1250     2.4480   361.3390    93.8280    25.3280     7.2230     6.6680     8.8480   -14.4240 
  204.2500     2.4270   365.6310    91.2660    25.3350     7.4950     6.9560     9.2910   -14.6420 
  204.3750     2.4130   366.7800    91.3950    25.3290     7.6320     7.1650     9.5450   -14.8460 
  204.5000     2.4080   366.1540    94.4330    25.3260     7.8100     7.3040     9.6680   -15.0350 
  204.6250     2.4030   365.6210    97.1890    25.3250     8.0180     7.4610     9.8690   -15.1920 
  204.7500     2.3970   365.9050    95.7510    25.3230     8.2810     7.7610    10.3770   -15.3080 
  204.8750     2.3960   366.3850    89.1000    25.3280     8.9690     8.2980    11.3320   -15.4020 
  205.0000     2.4060   365.8930    81.1790    25.3640    10.4570     9.1120    12.7450   -15.4780 
  205.1250     2.4180   363.0960    75.8620    25.4480    12.4730    10.1800    14.4860   -15.5480 
  205.2500     2.4300   358.2820    76.3570    25.5280    13.8930    11.3030    16.1780   -15.6040 
  205.3750     2.4460   352.2830    82.8830    25.5680    14.2710    12.2890    17.5150   -15.6720 
  205.5000     2.4640   346.4130    88.7900    25.5710    14.0710    12.9800    18.3130   -15.7450 
  205.6250     2.4630   342.4360    86.2090    25.5690    14.0620    13.2970    18.5560   -15.8230 
  205.7500     2.4400   340.8820    81.7110    25.5690    14.3560    13.4240    18.6020   -15.9030 
  205.8750     2.4020   341.4440    80.6540    25.5690    14.7120    13.5500    18.7630   -15.9910 
  206.0000     2.3680   343.0020    80.3540    25.5700    14.8850    13.8570    19.3090   -16.0860 
  206.1250     2.3560   343.9260    79.1130    25.5650    14.9460    14.5770    20.5950   -16.2140 
  206.2500     2.3640   343.4200    81.1880    25.5540    15.7820    15.8140    22.7470   -16.3620 
  206.3750     2.3840   341.7060    83.9230    25.5440    18.5540    17.7100    25.9340   -16.5210 
  206.5000     2.3940   339.7290    81.9690    25.5410    23.7090    20.3630    30.2230   -16.7010 
  206.6250     2.3770   338.9780    77.6300    25.5480    29.7950    23.9330    35.7230   -16.9100 
  206.7500     2.3410   340.1760    76.1720    25.5570    34.5180    28.2320    42.1040   -17.1620 
  206.8750     2.3010   343.4700    76.8810    25.5550    37.6150    33.1570    49.1900   -17.4330 
  207.0000     2.2710   348.4400    76.5960    25.5310    39.9690    38.5460    56.7710   -17.7180 
  207.1250     2.2620   354.2160    76.3120    25.4960    42.4470    44.1770    64.5580   -17.9840 
  207.2500     2.2640   359.5350    76.6650    25.4750    45.3420    49.6600    72.0310   -18.2340 
  207.3750     2.2630   363.5870    77.1880    25.4770    47.8430    54.5670    78.5570   -18.4730 
  207.5000     2.2530   365.9650    76.3720    25.4890    48.6520    58.5500    83.6650   -18.6920 
  207.6250     2.2370   366.4800    74.7800    25.4950    48.0860    61.5540    87.4060   -18.8960 
  207.7500     2.2250   365.7600    73.4860    25.4940    48.3450    64.2630    90.8560   -19.0630 
  207.8750     2.2210   364.0480    71.6490    25.4910    50.0470    67.2760    94.8580   -19.2060 
  208.0000     2.2280   361.3580    69.4060    25.4920    52.4800    71.0370    99.9430   -19.3250 
  208.1250     2.2470   357.3930    69.5630    25.4900    54.5090    75.7250   106.1840   -19.4380 
  208.2500     2.2700   352.5080    71.4040    25.4530    55.5080    80.6360   112.4520   -19.5460 
  208.3750     2.2870   347.4110    72.2550    25.3740    55.7860    84.9020   117.4430   -19.6510 
  208.5000     2.2890   343.2440    70.4320    25.3040    56.5230    87.7470   120.0870   -19.7530 
  208.6250     2.2710   341.6500    68.3510    25.3100    58.1020    88.5070   119.6010   -19.8450 
  208.7500     2.2460   342.8040    68.7180    25.3630    58.6850    87.6510   116.9320   -19.9340 
  208.8750     2.2270   346.2470    71.0270    25.4050    57.5650    85.6350   112.9120   -20.0210 
  209.0000     2.2200   350.9100    73.5510    25.4160    55.6560    83.0060   108.3770   -20.1080 
  209.1250     2.2230   355.4440    72.9630    25.3990    53.7320    80.3040   104.0510   -20.1860 
  209.2500     2.2260   358.9790    71.3530    25.3740    51.9290    77.9210   100.2950   -20.2800 
  209.3750     2.2270   361.2360    71.8010    25.3450    50.7200    76.0340    97.2630   -20.3690 
  209.5000     2.2260   362.1890    73.3300    25.3030    50.1350    74.6990    94.9950   -20.4670 
  209.6250     2.2270   361.5970    73.3800    25.2470    49.2270    74.0000    93.5960   -20.5540 
  209.7500     2.2310   359.6000    72.8820    25.1950    47.7030    73.8370    92.9220   -20.6420 
  209.8750     2.2340   356.2590    74.4980    25.1300    46.1240    74.2380    93.0000   -20.7310 
  210.0000     2.2330   351.9760    76.0710    24.9900    44.9150    75.2700    93.9250   -20.8140 
  210.1250     2.2320   347.7100    75.0670    24.7620    44.0410    77.1560    96.0050   -20.8850 
  210.2500     2.2400   344.5580    72.9140    24.5820    43.2870    79.7690    99.0740   -20.9480 
  210.3750     2.2540   343.0730    71.2480    24.5430    42.6510    82.9670   102.9540   -21.0190 
  210.5000     2.2650   343.0830    70.6310    24.6210    42.4000    86.6050   107.4500   -21.0890 
  210.6250     2.2660   343.6740    71.5140    24.7000    42.8000    90.7130   112.5970   -21.1650 
  210.7500     2.2610   343.6680    73.7670    24.6960    43.3480    95.3230   118.4300   -21.2350 
  210.8750     2.2550   342.6810    76.6880    24.6500    43.6800   100.5200   125.0750   -21.3140 
  211.0000     2.2550   341.0180    77.3710    24.6850    44.1850   106.2250   132.4170   -21.4040 
  211.1250     2.2610   339.4130    73.1580    24.8650    45.6660   112.0410   139.8150   -21.5020 
  211.2500     2.2720   338.2520    68.1430    25.0490    47.3020   117.3340   146.3040   -21.5920 
  211.3750     2.2800   337.3220    65.6010    25.1400    47.4920   121.7140   151.3250   -21.6880 
  211.5000     2.2810   336.1460    64.9960    25.1580    45.7900   125.2060   155.0200   -21.7810 
  211.6250     2.2710   334.3350    64.8390    25.1700    44.2720   128.3180   158.2820   -21.8740 
  211.7500     2.2530   332.2520    65.5420    25.1920    45.3150   131.7940   162.1360   -21.9470 
  211.8750     2.2350   330.5040    65.5290    25.2280    49.1440   135.8040   166.6500   -21.9980 
  212.0000     2.2240   329.7620    63.6390    25.2740    54.0640   139.8990   170.9970   -22.0370 
  212.1250     2.2180   330.9020    64.5180    25.3050    56.7170   142.9470   173.5060   -22.0800 
  212.2500     2.2130   334.0380    68.5050    25.3200    55.2540   144.3040   173.5500   -22.1160 
  212.3750     2.2020   339.2810    71.2170    25.3190    50.2020   143.8170   171.2140   -22.1180 
  212.5000     2.1900   346.4670    70.5300    25.2530    44.2230   141.6930   166.9960   -22.1030 
  212.6250     2.1870   355.1900    68.7970    25.0410    40.5930   137.8960   160.9930   -22.0510 
  212.7500     2.1930   364.2290    67.9690    24.7560    39.3690   132.6910   153.5350   -22.0130 
  212.8750     2.2010   372.5650    67.2400    24.5080    39.1270   126.3290   145.0350   -21.9730 
  213.0000     2.2080   379.2820    66.7860    24.3420    38.7760   119.5720   136.5290   -21.9200 
  213.1250     2.2150   383.3490    67.6920    24.2480    38.3860   113.8620   129.7780   -21.8260 
  213.2500     2.2240   385.0750    68.2310    24.2310    38.6110   110.1910   125.6700   -21.7110 
  213.3750     2.2370   385.0050    69.1820    24.3300    40.0220   108.9890   124.4710   -21.5960 
  213.5000     2.2580   384.1450    70.8820    24.5260    43.0020   109.9680   125.6510   -21.4700 
  213.6250     2.2850   383.8600    71.5000    24.7600    46.5070   112.1330   127.8900   -21.3490 
  213.7500     2.3040   384.8060    70.7360    24.9620    47.9890   113.7710   129.2050   -21.1990 
  213.8750     2.3050   386.7520    70.6240    25.0310    47.2930   113.7390   128.2880   -21.0460 
