~V
VERS. 2.00: Ver 2.00
~W
STRT.M 62.0000:
STOP.M 282.0000:
STEP.M 0.1250:
NULL. -999.2500:
UWI. DF3054:
~C
DEPT.M :
DEN.GM/CC :
GR.API :
CALI.CM :
RXO.OHMM :
RI. :
RML.OHMM :
SP.MV :
~A
# ...
  242.0000     2.1990    65.5170    25.5160    78.4200    77.8770    82.9230   -13.2130 
  242.1250     2.2080    64.3990    25.5330    72.4810    72.0070    76.5150   -13.1610 
  242.2500     2.2110    63.9290    25.5770    67.8080    67.6710    71.8700   -13.0550 
  242.3750     2.2090    65.4460    25.6080    64.3210    65.0430    69.1280   -12.9810 
  242.5000     2.2070    68.8200    25.6320    60.4790    64.0940    68.2090   -12.9800 
  242.6250     2.2050    69.5820    25.6600    58.5740    64.9100    68.9740   -13.0110 
  242.7500     2.2030    67.6650    25.6880    59.5360    66.7200    70.3860   -12.9930 
  242.8750     2.2070    65.5790    25.7060    62.0170    68.5620    71.3670   -12.8880 
  243.0000     2.2160    64.9080    25.6690    63.5750    69.1610    70.7270   -12.7390 
  243.1250     2.2170    66.5660    25.5950    64.4780    66.9000    67.2150   -12.6580 
  243.2500     2.2070    69.3750    25.5970    62.3760    62.0300    61.5000   -12.6840 
  243.3750     2.1990    71.9390    25.6120    55.9700    55.5990    54.7330   -12.7630 
  243.5000     2.2060    73.1650    25.5270    48.1800    49.1740    48.3520   -12.8020 
  243.6250     2.2170    72.9740    25.3140    42.0770    44.4610    43.9230   -12.7230 
  243.7500     2.2230    72.3230    25.1390    38.7460    42.0400    41.8550   -12.5850 
  243.8750     2.2230    71.7660    25.1470    38.9350    42.2040    42.3110   -12.4910 
  244.0000     2.2210    73.3200    25.2830    43.0320    44.8830    45.1170   -12.5100 
  244.1250     2.2190    76.0650    25.3570    47.7380    49.7050    49.8290   -12.6270 
  244.2500     2.2200    75.9850    25.4060    54.2940    55.0510    54.8340   -12.7410 
  244.3750     2.2300    73.5750    25.4030    62.9190    59.3680    58.5750   -12.8180 
  244.5000     2.2550    72.0200    25.3140    63.9560    61.2180    59.7540   -12.8920 
  244.6250     2.2880    72.8110    25.3080    54.7920    59.7090    57.7410   -13.0380 
  244.7500     2.3120    74.2700    25.3670    48.5480    56.6180    54.2880   -13.2510 
  244.8750     2.3090    76.3180    25.4450    50.8220    53.6430    51.0130   -13.4680 
  245.0000     2.2880    79.0430    25.4660    53.6320    51.8710    49.0270   -13.6080 
  245.1250     2.2950    79.6770    25.4550    49.8740    51.5710    48.6340   -13.6020 
  245.2500     2.3570    76.9730    25.4650    53.3360    51.6300    48.6890   -13.5040 
  245.3750     2.4560    72.2120    25.4310    72.9280    50.9450    48.1740   -13.3950 
  245.5000     2.5280    68.6570    25.3430    84.5660    48.9740    46.6160   -13.3430 
  245.6250     2.5360    69.7150    25.3430    65.2390    46.3280    44.5320   -13.3660 
  245.7500     2.4890    72.0250    25.3450    42.0550    44.5320    43.2780   -13.3760 
  245.8750     2.4150    72.4910    25.3400    39.7590    44.5760    43.8520   -13.2850 
  246.0000     2.3470    71.7220    25.3110    57.0510    46.8930    46.6890   -13.0630 
  246.1250     2.3000    73.4050    25.3660    84.2940    51.5420    51.6330   -12.7650 
  246.2500     2.2810    75.8670    25.4300    98.9880    56.9500    56.9980   -12.4820 
  246.3750     2.2840    76.6390    25.4660    88.2800    61.4310    61.2860   -12.2060 
  246.5000     2.2910    75.8740    25.4830    61.2080    63.8080    63.6130   -11.8870 
  246.6250     2.2990    75.3750    25.4830    40.6290    64.1560    64.1130   -11.5020 
  246.7500     2.3180    75.1530    25.4660    39.9920    64.1280    64.3280   -11.1430 
  246.8750     2.3390    74.8710    25.4110    49.5070    64.7830    65.3510   -10.9130 
  247.0000     2.3260    74.5000    25.3740    53.2410    66.9130    67.9830   -10.8610 
  247.1250     2.2850    75.6780    25.2950    50.1050    71.9020    73.4700   -10.9460 
  247.2500     2.2560    77.3100    25.2820    52.7100    80.5370    82.4530   -11.0390 
  247.3750     2.2820    77.0250    25.2910    70.2070    93.5970    95.7640   -11.0930 
  247.5000     2.3690    74.8160    25.1800   121.4750   110.5380   112.9320   -11.1150 
  247.6250     2.4590    74.7230    25.0170   179.1130   127.2420   129.5670   -11.1340 
  247.7500     2.5040    77.5040    24.9720   192.2780   136.6320   138.8510   -11.1530 
  247.8750     2.4980    79.6040    24.9870   155.2350   134.6180   137.3720   -11.1440 
  248.0000     2.4710    78.1520    25.0400   111.6970   123.5080   127.4700   -11.0870 
  248.1250     2.4410    75.9680    25.0980    93.6520   110.6610   116.2010   -10.9780 
  248.2500     2.4050    76.3620    25.1230    83.9190   102.4550   109.8150   -10.8460 
  248.3750     2.3820    77.6180    25.0920    83.6680   101.3810   110.5500   -10.6990 
  248.5000     2.4140    76.9750    25.1360    90.8120   108.6630   119.2330   -10.5270 
  248.6250     2.4930    75.0380    25.0150   115.4940   126.1920   137.2130   -10.3070 
  248.7500     2.5760    74.5420    24.7990   152.5090   149.9030   158.4210   -10.0490 
  248.8750     2.6180    73.7500    24.7900   196.0150   171.0070   170.7770    -9.7750 
  249.0000     2.6000    71.6120    25.0320   250.1480   173.6310   161.0310    -9.5000 
  249.1250     2.5660    70.1380    25.1570   316.6890   141.9250   125.1840    -9.2200 
  249.2500     2.5550    69.1180    25.0860   307.8240    95.9780    83.3160    -8.9270 
  249.3750     2.5700    66.9660    24.8730   212.1970    56.6820    49.8610    -8.6210 
  249.5000     2.5840    63.4020    24.6070   100.8230    31.6020    28.9060    -8.3040 
  249.6250     2.5700    58.5600    24.5480    38.2170    19.2430    18.1000    -7.9770 
  249.7500     2.5180    54.6380    24.6360    16.0320    12.8260    12.0690    -7.6390 
  249.8750     2.4400    53.0690    24.6860     8.8300     9.5800     8.9950    -7.2840 
  250.0000     2.3630    54.5130    24.6660     6.9310     8.0240     7.7030    -6.9170 
  250.1250     2.3130    56.4710    24.8370     6.5040     7.4970     7.3910    -6.5520 
  250.2500     2.2920    57.6570    24.9570     6.3190     7.4060     7.4100    -6.1960 
  250.3750     2.2840    59.2850    24.9700     6.3190     7.4960     7.5430    -5.8550 
  250.5000     2.2830    60.8780    24.9370     6.5670     7.6070     7.6560    -5.5470 
  250.6250     2.2940    61.0600    24.8060     6.8790     7.6670     7.6850    -5.3310 
  250.7500     2.3180    58.9260    24.6530     7.0230     7.6810     7.6500    -5.2340 
  250.8750     2.3430    56.5860    24.5860     6.9700     7.6610     7.5890    -5.2480 
  251.0000     2.3460    56.2580    24.6400     6.9070     7.6220     7.5450    -5.3190 
  251.1250     2.3300    56.8150    24.6700     6.9770     7.5750     7.5580    -5.4060 
  251.2500     2.3080    57.7440    24.6940     7.0410     7.5220     7.6250    -5.5130 
  251.3750     2.2940    58.6550    24.7540     7.0740     7.4490     7.7240    -5.6570 
  251.5000     2.3000    59.9240    24.8500     7.1240     7.3460     7.8170    -5.8280 
  251.6250     2.3190    60.4540    24.8650     7.1570     7.2190     7.8550    -5.9770 
  251.7500     2.3400    60.5630    24.8190     7.1230     7.1020     7.8270    -6.0720 
  251.8750     2.3560    61.9190    24.7640     7.0610     7.0290     7.7560    -6.1240 
  252.0000     2.3680    63.0830    24.7290     7.0440     7.0150     7.6950    -6.1790 
  252.1250     2.3740    62.1750    24.6870     7.0650     7.0560     7.7040    -6.2770 
  252.2500     2.3680    60.5930    24.6370     7.1360     7.1120     7.7680    -6.4320 
  252.3750     2.3480    59.6660    24.6220     7.3270     7.1570     7.8340    -6.6550 
  252.5000     2.3320    58.9640    24.6670     7.5190     7.1720     7.8610    -6.9310 
  252.6250     2.3380    57.4060    24.7620     7.4950     7.1520     7.8590    -7.1800 
  252.7500     2.3570    59.2280    24.8650     7.3130     7.1200     7.8920    -7.3410 
  252.8750     2.3650    64.2070    24.9210     7.3700     7.0920     7.9980    -7.4440 
  253.0000     2.3590    66.8060    24.8940     7.9250     7.0860     8.1810    -7.5640 
  253.1250     2.3610    62.5390    24.8340     8.5830     7.1150     8.4070    -7.7360 
