~V
VERS. 2.00: Ver 2.00
~W
STRT.M 60.0000:
STOP.M 266.0000:
STEP.M 0.1250:
NULL. -999.2500:
UWI. DF3052:
~C
DEPT.M :
GR.API :
CALI.CM :
RXO.OHMM :
RI. :
RML.OHMM :
DEN.GM/CC :
SP.MV :
~A
# ...
  172.5000    69.7730    22.9930    47.2630   104.4930   114.3470     2.2540   -29.7530 
  172.6250    67.4670    22.9920    46.6440   104.8460   115.4970     2.2650   -29.9310 
  172.7500    68.4740    22.9830    45.9980   107.0210   118.6390     2.2750   -30.0670 
  172.8750    70.8320    22.9430    45.8770   110.7310   123.4370     2.2800   -30.1460 
  173.0000    72.2440    22.8610    45.9010   115.7500   129.5420     2.2750   -30.2160 
  173.1250    72.4550    22.7800    45.5480   121.7890   136.6330     2.2560   -30.2570 
  173.2500    72.3100    22.7690    45.4020   127.7380   143.7070     2.2390   -30.2640 
  173.3750    71.6430    22.8080    44.9930   133.1980   150.3660     2.2370   -30.2460 
  173.5000    69.8910    22.8220    43.6550   138.4870   156.8520     2.2540   -30.2350 
  173.6250    67.0230    22.8030    42.7060   144.3530   164.0590     2.2730   -30.2650 
  173.7500    64.2260    22.8280    43.5880   151.8300   172.7770     2.2760   -30.3270 
  173.8750    62.8440    22.9020    46.3430   160.6580   182.3420     2.2640   -30.3980 
  174.0000    63.5400    22.9690    49.9480   169.1170   190.9170     2.2500   -30.4570 
  174.1250    65.1340    22.9920    53.6900   175.1610   196.1650     2.2460   -30.5160 
  174.2500    66.0660    22.9970    57.0280   178.8780   198.4210     2.2480   -30.5930 
  174.3750    66.2740    22.9980    59.2440   179.4070   196.9530     2.2450   -30.6850 
  174.5000    65.7070    23.0010    59.5400   175.6290   191.0870     2.2370   -30.8060 
  174.6250    63.7740    23.0020    58.1100   168.1380   182.1300     2.2320   -30.9550 
  174.7500    61.5040    22.9990    57.5450   159.4330   172.4750     2.2310   -31.1040 
  174.8750    60.5640    22.9990    59.0700   150.7490   163.1940     2.2280   -31.2720 
  175.0000    61.4850    23.0180    61.1180   142.6110   154.4100     2.2190   -31.4340 
  175.1250    64.0430    23.0670    60.7520   135.0330   146.0110     2.2130   -31.6010 
  175.2500    67.5800    23.1270    58.8720   128.5230   138.9880     2.2170   -31.7580 
  175.3750    70.7960    23.1930    57.8060   124.8790   135.4040     2.2280   -31.8960 
  175.5000    71.4370    23.2860    58.0990   125.6160   136.8620     2.2390   -31.9920 
  175.6250    67.8790    23.4150    59.1290   132.6230   145.4040     2.2460   -32.0210 
  175.7500    62.7090    23.5310    62.0400   147.5030   161.8200     2.2480   -32.0180 
  175.8750    58.3360    23.6030    70.9210   170.7360   186.4090     2.2420   -31.9670 
  176.0000    55.8970    23.6490    86.2640   200.1160   217.2930     2.2250   -31.9040 
  176.1250    55.6920    23.6840   101.4060   230.4530   249.5790     2.1980   -31.7920 
  176.2500    57.0000    23.6880   109.4330   253.9820   274.6750     2.1800   -31.6400 
  176.3750    59.7850    23.6820   110.2310   265.2590   285.8750     2.1830   -31.4640 
  176.5000    63.7800    23.7170   106.6070   262.4470   281.1820     2.2080   -31.2750 
  176.6250    67.1470    23.7620   101.2080   246.6990   262.8990     2.2390   -31.0870 
  176.7500    67.5180    23.7230    94.4890   226.2970   241.4960     2.2630   -30.9230 
  176.8750    64.9900    23.5870    85.1880   208.3030   224.4740     2.2760   -30.8030 
  177.0000    62.6880    23.4110    74.7460   198.2640   216.1300     2.2780   -30.6920 
  177.1250    63.0830    23.2480    67.7800   198.4260   218.3440     2.2720   -30.6160 
  177.2500    63.1760    23.1520    67.8750   206.9210   228.9830     2.2580   -30.5970 
  177.3750    60.6520    23.1870    76.4330   221.2630   245.2760     2.2370   -30.6010 
  177.5000    56.6500    23.3530    92.6560   236.6780   262.4050     2.2130   -30.6410 
  177.6250    53.7730    23.5620   108.9840   246.2160   272.2250     2.1930   -30.7190 
  177.7500    52.4980    23.7150   116.5950   245.5820   269.9720     2.1850   -30.7840 
  177.8750    53.1470    23.8260   114.3450   233.6480   254.7720     2.1900   -30.8440 
  178.0000    56.3450    23.9170   105.5020   212.9100   230.6300     2.2020   -30.9080 
  178.1250    60.9500    23.9600    94.2040   188.5870   204.2720     2.2190   -30.9950 
  178.2500    63.8180    23.9600    85.0210   166.5990   181.5820     2.2360   -31.0790 
  178.3750    63.7010    23.9470    80.5050   150.0420   165.1210     2.2470   -31.1630 
  178.5000    61.7420    23.9750    80.4250   140.2130   155.4890     2.2450   -31.2310 
  178.6250    60.5840    24.0450    81.7990   136.7680   152.0260     2.2260   -31.2640 
  178.7500    61.4080    24.0860    82.7450   136.7790   152.0390     2.2070   -31.2980 
  178.8750    63.6230    24.0570    82.3170   138.7960   154.0220     2.2100   -31.2930 
  179.0000    65.9650    23.9760    79.8880   141.5770   156.6450     2.2400   -31.2440 
  179.1250    67.6100    23.8480    74.9530   143.7370   158.6420     2.2780   -31.0960 
  179.2500    69.1890    23.6230    69.0570   144.4910   159.3240     2.2920   -30.8850 
  179.3750    71.0790    23.3180    62.3550   143.5210   158.3730     2.2800   -30.6360 
  179.5000    72.3340    23.0530    55.4310   141.1280   155.9850     2.2590   -30.3620 
  179.6250    71.0050    22.9010    49.9660   137.4920   152.2550     2.2530   -30.0650 
  179.7500    68.5090    22.7890    45.9620   133.3210   148.1570     2.2570   -29.7660 
  179.8750    67.4510    22.7240    43.5300   129.2390   144.3510     2.2570   -29.5040 
  180.0000    68.9960    22.7590    43.4960   125.9070   141.4990     2.2490   -29.2900 
  180.1250    71.6680    22.8950    47.1910   124.0990   140.2930     2.2440   -29.1450 
  180.2500    73.1280    23.0510    54.4400   123.8650   140.8070     2.2500   -29.0460 
  180.3750    72.8850    23.1920    63.4450   125.1600   142.9720     2.2580   -28.9930 
  180.5000    71.8060    23.3200    70.7760   127.6810   146.4300     2.2600   -28.9600 
  180.6250    70.4260    23.4180    73.1040   131.1160   150.7460     2.2600   -28.9570 
  180.7500    68.4050    23.4530    72.2710   134.9420   155.3660     2.2630   -28.9760 
  180.8750    66.2040    23.4410    70.9340   138.8400   159.9570     2.2670   -29.0040 
  181.0000    65.3350    23.4440    70.9700   142.6190   164.3490     2.2690   -29.0490 
  181.1250    66.1730    23.5190    73.6500   146.1690   168.4570     2.2730   -29.0980 
  181.2500    66.5250    23.5960    77.8010   149.4470   172.2390     2.2790   -29.1530 
  181.3750    65.5360    23.6350    81.3430   152.4790   175.6670     2.2830   -29.2090 
  181.5000    63.9350    23.6650    83.3980   154.8060   178.2180     2.2810   -29.2710 
  181.6250    62.9500    23.6850    85.5730   155.1940   178.4910     2.2750   -29.3250 
  181.7500    63.3560    23.6710    88.6810   153.8230   176.7400     2.2700   -29.3660 
  181.8750    65.4000    23.6610    91.9850   150.8750   173.2150     2.2670   -29.3740 
  182.0000    68.2220    23.7030    95.2190   146.7060   168.4290     2.2630   -29.3470 
  182.1250    70.0140    23.7510    98.0220   141.5880   163.0050     2.2600   -29.2930 
  182.2500    69.8970    23.7270    98.2690   137.0030   158.3640     2.2630   -29.2040 
  182.3750    67.8500    23.6500    94.7090   133.6220   155.0390     2.2760   -29.0820 
  182.5000    65.2310    23.5780    89.5350   131.8480   153.5040     2.2940   -28.9220 
  182.6250    64.9550    23.5070    86.7210   132.2450   154.2990     2.3030   -28.7550 
  182.7500    67.6820    23.4330    84.3590   134.1690   156.7960     2.3050   -28.5920 
  182.8750    71.4770    23.4050    79.7480   138.3000   161.4660     2.3110   -28.4480 
  183.0000    73.8390    23.4200    74.6720   144.7330   168.2670     2.3280   -28.3250 
  183.1250    73.8320    23.4050    73.5180   153.0790   176.7980     2.3460   -28.2400 
  183.2500    72.4440    23.3670    74.9740   162.0490   185.9350     2.3500   -28.1540 
  183.3750    70.2990    23.3700    75.8820   170.7910   194.8790     2.3400   -28.0780 
  183.5000    67.7740    23.4090    76.3720   178.3550   202.3270     2.3210   -28.0400 
  183.6250    65.1380    23.4140    78.4710   182.2560   205.2570     2.2970   -28.0130 
