~V
VERS. 2.00: Ver 2.00
~W
STRT.M 120.0000:
STOP.M 233.0000:
STEP.M 0.1250:
NULL. -999.2500:
UWI. DF3066:
~C
DEPT.M :
GR.API :
RML.OHMM :
RI. :
RXO.OHMM :
CALI.CM :
DEN.GM/CC :
SP.MV :
~A
# ...
  176.2500    58.9780    11.2160     9.2300     8.5700    24.2600     2.4220   -15.4330 
  176.3750    56.0160    11.2920     9.2260     8.4880    24.2080     2.4280   -15.4800 
  176.5000    54.5800    11.3570     9.1540     8.3000    24.1920     2.4340   -15.5520 
  176.6250    56.4200    11.3930     9.0420     8.5520    24.2360     2.4420   -15.4980 
  176.7500    59.1930    11.3720     8.9360     8.8700    24.2910     2.4540   -15.5400 
  176.8750    59.0690    11.2810     8.8610     9.4320    24.3570     2.4730   -15.4940 
  177.0000    57.3860    11.1390     8.8280    10.3510    24.4270     2.4950   -15.4480 
  177.1250    58.2750    11.0130     8.8440    10.9610    24.4090     2.5110   -15.3590 
  177.2500    60.5520    10.9830     8.9110    10.4460    24.3320     2.5140   -15.2280 
  177.3750    61.0220    11.1000     9.0490    10.3210    24.3060     2.5050   -15.0790 
  177.5000    58.5140    11.3720     9.2730    10.7730    24.2990     2.4890   -14.8500 
  177.6250    55.1670    11.7360     9.5750    10.4390    24.2080     2.4750   -14.6960 
  177.7500    52.2050    12.0290     9.8820     9.8520    24.0100     2.4660   -14.3830 
  177.8750    49.8870    12.1420    10.1080     9.4950    24.0270     2.4630   -14.0880 
  178.0000    50.4190    12.0040    10.1670     9.3420    24.2040     2.4640   -13.8000 
  178.1250    55.8610    11.5740     9.9600     9.7620    24.3750     2.4660   -13.4520 
  178.2500    61.5810    10.9240     9.5200    10.0010    24.4100     2.4670   -13.1530 
  178.3750    62.2240    10.0860     8.8820     9.5610    24.2880     2.4690   -12.8590 
  178.5000    59.3870     9.0070     8.1050     8.2430    24.1800     2.4690   -12.5370 
  178.6250    56.4550     7.8200     7.2780     7.4400    24.1550     2.4670   -12.2270 
  178.7500    55.0670     6.7960     6.5240     6.6950    24.1650     2.4630   -11.9540 
  178.8750    54.8410     6.2460     5.9510     5.9840    24.1720     2.4590   -11.6710 
  179.0000    56.2350     6.0240     5.6300     5.5690    24.2020     2.4580   -11.3890 
  179.1250    57.2440     6.2110     5.6050     5.0870    24.2540     2.4610   -11.1300 
  179.2500    55.4850     6.5690     5.7220     4.8100    24.2950     2.4650   -10.8670 
  179.3750    52.3050     6.7860     5.7870     5.8780    24.3350     2.4670   -10.5640 
  179.5000    50.0990     6.5240     5.5770     7.8820    24.4300     2.4690   -10.3390 
  179.6250    51.8910     5.5210     4.8800     8.5080    24.3220     2.4720    -9.9750 
  179.7500    55.3260     4.1520     3.8830     7.8000    24.1060     2.4760    -9.6500 
  179.8750    56.8410     2.8920     2.8660     6.9140    23.6560     2.4770    -9.3570 
  180.0000    55.1530     2.0790     2.0580     5.3470    23.3560     2.4720    -8.9660 
  180.1250    52.4460     1.8470     1.5850     3.9250    23.3200     2.4570    -8.6780 
  180.2500    51.4220     2.0010     1.3770     3.3990    23.4090     2.4390    -8.3530 
  180.3750    51.7740     2.4180     1.4150     3.8140    23.4980     2.4240    -8.1370 
  180.5000    53.2210     2.9790     1.6860     4.6810    23.5500     2.4150    -7.9280 
  180.6250    53.4560     3.5500     2.1850     5.3260    23.5690     2.4130    -7.8780 
  180.7500    51.7470     4.0170     2.7870     5.5020    23.5510     2.4140    -7.8980 
  180.8750    50.5370     4.3390     3.3800     5.5100    23.4850     2.4130    -7.9640 
  181.0000    51.5810     4.5500     3.8780     5.4640    23.4280     2.4110    -8.2640 
  181.1250    54.3960     4.7390     4.2480     5.3880    23.4220     2.4090    -8.5890 
  181.2500    56.7790     4.9700     4.5540     5.3760    23.4560     2.4120    -9.0550 
  181.3750    60.1220     5.2390     4.8250     5.4820    23.5260     2.4210    -9.6020 
  181.5000    65.3010     5.5100     5.0750     5.6870    23.6270     2.4360   -10.2050 
  181.6250    71.2860     5.7520     5.2920     5.9710    23.7080     2.4500   -10.9300 
  181.7500    80.4300     5.9800     5.4870     6.3520    23.7690     2.4600   -11.7400 
  181.8750    93.2180     6.2390     5.6950     6.8100    23.8070     2.4610   -12.5820 
  182.0000   104.4640     6.5950     5.9800     7.1930    23.8230     2.4560   -13.4580 
  182.1250   106.8070     7.1640     6.4450     7.5250    23.8130     2.4490   -14.3720 
  182.2500   103.9880     7.9630     7.1050     8.1260    23.7740     2.4470   -15.2620 
  182.3750   100.6050     8.9560     7.9260     9.1780    23.7000     2.4520   -16.0870 
  182.5000    96.9550    10.0160     8.8010    10.5640    23.5160     2.4610   -16.9250 
  182.6250    92.9760    10.8820     9.5300    11.8440    23.4390     2.4670   -17.6620 
  182.7500    91.6150    11.3720     9.9720    13.2240    23.3610     2.4630   -18.2800 
  182.8750    92.6080    11.4210    10.0680    13.9930    23.3630     2.4470   -18.8800 
  183.0000    93.8920    11.1160     9.8520    13.3410    23.3580     2.4240   -19.2500 
  183.1250    93.3030    10.6370     9.4270    11.8160    23.3640     2.4020   -19.5770 
  183.2500    91.9660    10.1940     8.9720    10.6810    23.4250     2.3890   -19.8030 
  183.3750    91.4630     9.8680     8.5840    10.2260    23.5370     2.3860   -19.9830 
  183.5000    94.1150     9.6820     8.3180     9.9750    23.6500     2.3880   -20.1230 
  183.6250    99.6010     9.6590     8.2230     9.5520    23.7010     2.3900   -20.1900 
  183.7500   100.2730     9.7790     8.2740     9.3010    23.7720     2.3890   -20.3430 
  183.8750    94.5260    10.0510     8.4670     9.5210    23.8350     2.3860   -20.3950 
  184.0000    90.5610    10.4820     8.7960    10.0830    23.8580     2.3870   -20.4830 
  184.1250    95.3880    11.0580     9.2450    11.1520    23.8280     2.3950   -20.4240 
  184.2500    99.9140    11.6720     9.7260    12.2790    23.8320     2.4090   -20.2580 
  184.3750    98.5630    12.2130    10.1450    13.1320    23.9320     2.4230   -20.0040 
  184.5000    94.0420    12.5810    10.4210    13.5170    24.1610     2.4320   -19.5560 
  184.6250    90.3310    12.6870    10.4750    13.4540    24.3450     2.4360   -19.0370 
  184.7500    88.2220    12.5900    10.3490    13.5730    24.1980     2.4370   -18.4200 
  184.8750    90.3800    12.3200    10.0810    13.2520    23.9640     2.4380   -17.6890 
  185.0000    96.3760    11.8790     9.7010    12.1410    23.8890     2.4350   -16.8460 
  185.1250   100.6640    11.2350     9.2040    11.1970    23.8420     2.4250   -15.9520 
  185.2500   100.2400    10.4700     8.6180    10.3770    23.7930     2.4110   -15.0020 
  185.3750    96.2970     9.6940     7.9860     9.7070    23.7800     2.3980   -14.0170 
  185.5000    92.1000     9.0200     7.3760     8.8970    23.9440     2.3930   -13.0550 
  185.6250    86.6410     8.5500     6.8850     7.6620    24.0310     2.3990   -12.1410 
  185.7500    80.4920     8.2570     6.5460     6.4960    24.0600     2.4110   -11.1850 
  185.8750    75.3690     8.1130     6.3670     6.0150    24.0590     2.4230   -10.3840 
  186.0000    71.2580     8.0910     6.3240     6.0950    24.0630     2.4320    -9.7290 
  186.1250    65.8460     8.1700     6.3880     6.1560    24.0790     2.4360    -9.2320 
  186.2500    59.1960     8.2870     6.4970     6.0330    24.0830     2.4370    -8.9540 
  186.3750    53.9290     8.4020     6.6170     5.9560    24.0520     2.4370    -8.7720 
  186.5000    51.4690     8.4990     6.7230     6.0030    24.0200     2.4410    -8.7650 
  186.6250    52.1860     8.5810     6.7980     6.0580    23.9940     2.4430    -8.7480 
  186.7500    55.4550     8.6520     6.8450     6.0960    23.8090     2.4430    -8.7830 
  186.8750    59.2840     8.6940     6.8670     6.1350    23.5580     2.4380    -8.7810 
  187.0000    60.9710     8.6860     6.8710     6.1970    23.4340     2.4290    -8.7460 
  187.1250    59.9940     8.6200     6.8640     6.2390    23.4330     2.4150    -8.6650 
  187.2500    57.9240     8.5260     6.8570     6.1980    23.4330     2.4000    -8.5270 
  187.3750    57.4600     8.4400     6.8560     6.0790    23.4320     2.3860    -8.3880 
