~V
VERS. 2.00: Ver 2.00
~W
STRT.M 64.0000:
STOP.M 268.0000:
STEP.M 0.1250:
NULL. -999.2500:
UWI. DF3002:
~C
DEPT.M :
GR.API :
RML.OHMM :
RI. :
RXO.OHMM :
DEN.GM/CC :
SP.MV :
~A
# ...
  167.0000    71.3490   138.7780   126.1290   130.4560     2.2530   -35.1010 
  167.1250    71.8940   149.3800   135.7870   125.7080     2.2550   -35.0910 
  167.2500    71.7820   160.4370   145.5420   134.7110     2.2570   -35.0920 
  167.3750    71.6800   172.9330   156.3190   158.7240     2.2560   -35.0660 
  167.5000    73.8050   186.6680   168.0440   183.7330     2.2530   -35.0040 
  167.6250    77.1270   199.4890   178.9320   179.3090     2.2490   -34.9170 
  167.7500    76.1540   208.3250   186.4220   165.9260     2.2440   -34.9120 
  167.8750    69.0910   210.3470   188.1860   157.5760     2.2350   -34.8480 
  168.0000    61.9950   203.7420   182.7410   154.5950     2.2220   -34.7960 
  168.1250    64.0820   187.4890   169.1070   147.6760     2.2110   -34.8570 
  168.2500    71.2610   166.2100   150.8680   133.4170     2.2080   -34.8360 
  168.3750    76.1420   144.5100   131.6470   120.0730     2.2190   -34.8560 
  168.5000    76.1690   126.7350   115.1560   105.3380     2.2450   -34.9430 
  168.6250    74.9940   116.5390   104.9060    83.3170     2.2740   -35.0170 
  168.7500    75.7930   112.8870   100.5410    71.6110     2.2930   -35.0460 
  168.8750    76.8860   114.6220   101.3050    78.4810     2.2930   -35.1120 
  169.0000    75.0320   120.3640   106.0380    96.4250     2.2780   -35.1440 
  169.1250    70.2870   129.1310   113.8120   110.1310     2.2540   -35.1000 
  169.2500    67.4240   139.3270   122.9750    97.7550     2.2330   -35.1810 
  169.3750    67.5360   150.1200   132.6500    87.0410     2.2170   -35.1470 
  169.5000    68.6050   160.8240   142.1880    93.1350     2.2080   -35.1380 
  169.6250    67.8210   170.7600   151.0420   133.2700     2.2060   -35.1230 
  169.7500    66.5870   179.7790   159.1220   163.9450     2.2090   -35.0370 
  169.8750    66.2430   188.0390   166.5020   152.0380     2.2160   -35.0110 
  170.0000    67.7350   195.9750   173.4740   128.5610     2.2230   -34.8750 
  170.1250    71.4280   203.8010   180.2320   139.1700     2.2300   -34.8680 
  170.2500    73.8780   210.5390   186.1500   165.8750     2.2360   -34.7720 
  170.3750    71.0850   213.8360   189.4270   186.4910     2.2460   -34.6760 
  170.5000    64.9910   210.7200   187.5980   189.0120     2.2600   -34.6070 
  170.6250    62.4360   197.9320   177.6800   186.9870     2.2760   -34.4360 
  170.7500    65.4730   178.5750   161.8100   180.5750     2.2910   -34.3900 
  170.8750    70.3490   157.0700   143.3790   165.9020     2.2990   -34.2480 
  171.0000    72.7140   138.2070   126.4340   139.5180     2.2980   -34.1860 
  171.1250    71.3070   126.2920   114.9510   111.0680     2.2860   -34.2090 
  171.2500    69.2650   121.0300   109.1800    92.8640     2.2680   -34.2160 
  171.3750    68.8540   121.5100   108.5680    92.0910     2.2510   -34.2650 
  171.5000    68.2640   126.2410   111.9030   101.6000     2.2420   -34.3870 
  171.6250    66.0720   133.8280   117.9750   116.8550     2.2450   -34.5240 
  171.7500    65.3040   142.3490   124.9780   122.3080     2.2530   -34.6400 
  171.8750    66.0030   150.8690   132.0060   119.4100     2.2600   -34.8390 
  172.0000    66.5830   158.7470   138.4470   119.9010     2.2610   -34.9730 
  172.1250    67.1120   165.2030   143.6290   130.0880     2.2540   -35.0190 
  172.2500    67.0900   169.9100   147.3110   143.3500     2.2470   -35.0190 
  172.3750    65.7080   172.5900   149.2600   154.7600     2.2420   -35.0510 
  172.5000    63.8200   173.3110   149.5080   156.7180     2.2430   -34.9550 
  172.6250    62.6600   172.2240   148.1850   149.4910     2.2470   -34.9040 
  172.7500    62.4820   169.9560   145.9350   140.8170     2.2520   -34.8200 
  172.8750    64.1510   166.5390   142.9500   139.1350     2.2510   -34.6720 
  173.0000    66.4640   161.8130   139.2150   142.8850     2.2450   -34.5760 
  173.1250    66.4350   155.6230   134.6270   144.8660     2.2330   -34.2890 
  173.2500    65.1310   148.9000   129.7250   130.1910     2.2220   -34.0910 
  173.3750    65.6470   142.7540   125.2570   113.0230     2.2130   -33.7740 
  173.5000    67.0280   138.1830   121.9510   104.1390     2.2090   -33.4170 
  173.6250    68.0140   135.6630   120.2210   100.2170     2.2100   -33.0930 
  173.7500    68.6540   133.7640   118.9940    96.1390     2.2140   -32.6540 
  173.8750    68.3590   130.6200   116.7590    95.2690     2.2210   -32.2780 
  174.0000    67.8170   124.4470   111.9500    96.1670     2.2310   -31.8910 
  174.1250    69.4800   114.1910   103.4200    98.2530     2.2460   -31.6010 
  174.2500    73.6680   102.2810    93.0080    94.3550     2.2680   -31.4450 
  174.3750    77.0260    91.6890    83.1440    81.0290     2.2960   -31.4090 
  174.5000    75.7180    85.2750    76.3660    62.1310     2.3250   -31.3720 
  174.6250    71.2850    86.1690    75.5940    50.6770     2.3410   -31.4040 
  174.7500    66.8370    94.2110    80.9850    51.3130     2.3370   -31.5280 
  174.8750    63.4960   109.3180    92.5570    64.8670     2.3160   -31.6470 
  175.0000    61.7740   130.6300   109.5080    87.3920     2.2850   -31.8180 
  175.1250    63.6380   156.7070   130.3510   119.0110     2.2590   -31.9230 
  175.2500    66.1000   183.7780   151.6620   138.2310     2.2410   -31.9210 
  175.3750    65.2760   208.9490   170.9480   145.9150     2.2310   -31.8330 
  175.5000    62.0640   230.0400   186.5330   168.1080     2.2240   -31.8050 
  175.6250    62.0060   245.3470   197.3420   197.2260     2.2170   -31.6970 
  175.7500    65.2470   256.3200   204.8910   226.7350     2.2120   -31.5250 
  175.8750    67.9090   264.3930   210.5150   231.4360     2.2100   -31.3570 
  176.0000    68.1290   271.3600   215.7120   211.9040     2.2110   -31.0730 
  176.1250    67.9550   278.4750   221.6760   195.9470     2.2120   -30.9330 
  176.2500    68.8950   284.4320   227.5580   201.8400     2.2100   -30.7310 
  176.3750    69.6220   285.1730   230.4560   229.1260     2.2050   -30.5340 
  176.5000    69.4080   275.0370   225.9510   254.9810     2.1980   -30.3470 
  176.6250    68.6430   247.0050   207.8630   245.7630     2.1930   -30.0690 
  176.7500    66.7860   206.0350   178.4240   215.7790     2.1930   -29.9010 
  176.8750    64.9870   160.6720   143.0160   194.8880     2.2010   -29.6320 
  177.0000    66.2770   119.9290   108.7320   159.2190     2.2180   -29.4860 
  177.1250    70.7560    89.8360    81.7770    95.5010     2.2460   -29.3110 
  177.2500    73.4970    68.2800    62.1080    55.0170     2.2790   -29.1010 
  177.3750    73.9460    53.4300    48.6400    42.4460     2.3100   -29.0250 
  177.5000    73.8200    43.8500    40.0380    39.0150     2.3350   -28.9490 
  177.6250    75.8960    39.2390    35.8050    33.0570     2.3500   -28.8790 
  177.7500    80.8690    38.0370    34.5060    26.6830     2.3520   -28.9000 
  177.8750    86.6760    39.3120    35.4120    26.6400     2.3410   -29.0450 
  178.0000    89.9230    41.9560    37.6710    34.2580     2.3200   -29.1260 
  178.1250    87.9130    44.7920    40.3250    40.0340     2.2980   -29.2910 
  178.2500    85.4570    47.0160    42.5270    41.6660     2.2820   -29.4800 
  178.3750    85.8350    48.5750    44.0460    40.7100     2.2740   -29.6280 
  178.5000    89.3320    49.9650    45.1640    39.1500     2.2740   -29.7850 
  178.6250    92.4890    52.1370    46.6280    39.1300     2.2750   -30.0120 
  178.7500    90.6530    55.4670    48.9100    40.7130     2.2720   -30.1700 
  178.8750    86.1440    59.7490    51.9530    47.4110     2.2670   -30.2670 
  179.0000    83.7240    64.3090    55.2520    55.2670     2.2630   -30.4440 
  179.1250    84.3250    68.1580    57.9730    59.7130     2.2630   -30.4660 
  179.2500    84.6160    70.8720    59.7090    60.0780     2.2670   -30.5540 
  179.3750    85.4670    72.4960    60.4720    59.7740     2.2740   -30.6110 
  179.5000    87.9060    73.4580    60.6340    58.1740     2.2800   -30.6150 
  179.6250    88.4660    74.3500    60.7550    57.4000     2.2830   -30.6960 
  179.7500    86.1820    75.5330    61.1990    57.9190     2.2830   -30.6760 
