~V
VERS. 2.00: Ver 2.00
~W
STRT.M 115.0000:
STOP.M 241.0000:
STEP.M 0.1250:
NULL. -999.2500:
UWI. DF3064:
~C
DEPT.M :
GR.API :
CALI.CM :
RXO.OHMM :
RI. :
RML.OHMM :
DEN.GM/CC :
SP.MV :
~A
# ...
  126.2500    86.2120    23.3300     9.0620     5.7170     8.6630     2.2190   -20.1090 
  126.3750    87.8360    23.6470     8.1220     5.4950     8.3290     2.2450   -20.1060 
  126.5000    89.6240    23.4610     7.5250     5.2620     8.0060     2.2740   -20.1180 
  126.6250    91.8460    23.5680     7.7330     5.0730     7.7600     2.2970   -20.1670 
  126.7500    95.3980    23.5580     8.1890     4.9430     7.5880     2.3100   -20.2310 
  126.8750    96.3870    23.4260     8.2120     4.8740     7.5110     2.3170   -20.2990 
  127.0000    93.0470    23.2910     8.1240     4.8600     7.5210     2.3230   -20.3860 
  127.1250    90.3640    23.2610     8.1210     4.9060     7.5820     2.3300   -20.5040 
  127.2500    91.1380    23.3670     8.2140     4.9920     7.6570     2.3360   -20.6360 
  127.3750    91.5200    23.4010     8.2190     5.1000     7.7440     2.3380   -20.7740 
  127.5000    89.5460    23.3770     8.1790     5.2140     7.8420     2.3340   -20.9230 
  127.6250    89.4760    23.3610     8.0970     5.3290     7.9390     2.3270   -21.0660 
  127.7500    91.4110    23.3190     8.1720     5.4150     8.0180     2.3180   -21.1980 
  127.8750    92.2200    23.2670     8.5620     5.4570     8.0330     2.3050   -21.3150 
  128.0000    92.7770    23.2480     8.7250     5.4580     7.9690     2.2900   -21.4170 
  128.1250    94.4800    23.1970     8.5920     5.4260     7.8640     2.2730   -21.5010 
  128.2500    94.1890    23.3070     8.4210     5.3930     7.7680     2.2590   -21.5820 
  128.3750    92.0570    23.2870     8.2860     5.3900     7.7170     2.2490   -21.6530 
  128.5000    88.8970    23.2620     7.9640     5.4300     7.7450     2.2410   -21.7040 
  128.6250    86.4340    23.2160     7.6300     5.5100     7.8490     2.2410   -21.7270 
  128.7500    86.2850    23.1290     7.5840     5.6150     7.9770     2.2500   -21.7590 
  128.8750    88.0640    23.3890     7.5410     5.7200     8.0780     2.2630   -21.8140 
  129.0000    88.7910    23.9230     7.5000     5.7660     8.0700     2.2710   -21.8810 
  129.1250    85.9420    23.9150     7.5100     5.6940     7.8710     2.2660   -21.9300 
  129.2500    84.5090    23.4400     7.6150     5.5260     7.5280     2.2570   -21.9540 
  129.3750    87.2150    23.0970     7.3610     5.3100     7.1350     2.2520   -21.9510 
  129.5000    91.5620    23.0510     6.7960     5.0890     6.7630     2.2550   -21.9360 
  129.6250    93.5290    23.5470     6.4280     4.9370     6.5240     2.2650   -21.9340 
  129.7500    95.4740    23.8250     6.6120     4.8970     6.4930     2.2790   -21.9200 
  129.8750    98.6160    24.0820     6.9150     4.9870     6.6680     2.2940   -21.8930 
  130.0000    99.8830    24.1490     7.3460     5.2030     6.9870     2.2970   -21.8870 
  130.1250    95.2360    23.9790     7.9010     5.5280     7.4030     2.2780   -21.9170 
  130.2500    87.9510    23.8040     8.3910     5.8730     7.7960     2.2510   -21.9510 
  130.3750    82.6200    23.6010     8.6980     6.1530     8.0580     2.2320   -21.9940 
  130.5000    80.2040    23.2640     8.9560     6.2970     8.1230     2.2230   -22.0270 
  130.6250    80.4850    22.8930     9.0000     6.2680     7.9850     2.2220   -22.0260 
  130.7500    83.0050    22.6150     8.7960     6.1320     7.7440     2.2330   -22.0180 
  130.8750    85.3730    22.4700     8.4570     5.9990     7.5770     2.2570   -22.0060 
  131.0000    86.0520    22.4300     8.2050     5.9890     7.6590     2.2800   -21.9720 
  131.1250    84.8180    22.5330     8.0750     6.2190     8.1530     2.2840   -21.8930 
  131.2500    82.1440    22.9300     7.9620     6.7230     9.0330     2.2830   -21.7980 
  131.3750    79.7110    23.2460     8.9340     7.5660    10.3380     2.3090   -21.6950 
  131.5000    76.4710    23.4150    11.2260     8.7660    11.9620     2.3760   -21.5760 
  131.6250    71.2270    23.9060    14.6420    10.2600    13.6910     2.4600   -21.4550 
  131.7500    65.6130    24.1260    17.3610    11.8970    15.4000     2.5220   -21.3380 
  131.8750    61.0330    24.2260    17.4720    13.6120    17.0780     2.5540   -21.2110 
  132.0000    58.4960    24.1670    16.1940    15.3050    18.6380     2.5650   -21.0760 
  132.1250    58.2640    23.9420    20.2490    16.8930    19.9850     2.5690   -20.9660 
  132.2500    60.7910    23.5370    26.2830    18.3470    21.1490     2.5790   -20.8770 
  132.3750    63.7780    23.7250    27.7790    19.5810    22.1130     2.5920   -20.8120 
  132.5000    63.0920    23.9820    24.6960    20.4860    22.7910     2.5960   -20.7830 
  132.6250    58.4920    24.1500    24.8260    20.8850    23.0010     2.5820   -20.7870 
  132.7500    52.7900    24.0300    26.2630    20.7360    22.6170     2.5670   -20.8100 
  132.8750    48.4460    23.8770    25.4490    20.0720    21.6960     2.5670   -20.8280 
  133.0000    46.6110    23.6010    22.4180    19.1760    20.5970     2.5800   -20.8440 
  133.1250    47.4630    23.5940    20.0930    18.4190    19.7030     2.5890   -20.8850 
  133.2500    50.2410    23.7840    19.2530    17.9290    19.1150     2.5860   -20.9440 
  133.3750    52.0730    24.0480    19.3820    17.7410    18.8400     2.5730   -21.0310 
  133.5000    50.6290    24.1130    20.3640    17.8790    18.9000     2.5640   -21.1370 
  133.6250    47.6680    24.0040    21.2370    18.3680    19.3220     2.5700   -21.2340 
  133.7500    49.0150    23.9500    21.6980    19.0390    19.9260     2.5810   -21.3290 
  133.8750    53.2900    23.9650    22.4420    19.7610    20.5580     2.5880   -21.4510 
  134.0000    55.0530    23.8930    23.0870    20.4230    21.0920     2.5890   -21.6180 
  134.1250    54.2040    24.0600    24.5650    20.8530    21.3940     2.5900   -21.7850 
  134.2500    54.6920    23.9070    24.9770    20.9920    21.4300     2.5930   -21.9420 
  134.3750    55.8280    23.8970    24.8780    20.8450    21.1910     2.5890   -22.0760 
  134.5000    57.3430    23.9410    24.8200    20.4310    20.7240     2.5740   -22.1920 
  134.6250    60.6590    24.0770    23.8930    19.7500    20.0160     2.5510   -22.3120 
  134.7500    63.5100    24.1560    22.1450    18.9140    19.1370     2.5330   -22.4300 
  134.8750    63.5070    24.1900    20.2210    18.0220    18.2380     2.5290   -22.5430 
  135.0000    61.4700    24.2060    18.8870    17.1960    17.4210     2.5400   -22.6190 
  135.1250    60.9150    24.1200    17.4310    16.5690    16.8210     2.5510   -22.6490 
  135.2500    61.8890    23.9940    15.5010    16.1970    16.5140     2.5510   -22.6950 
  135.3750    61.9590    23.8970    14.1810    16.0660    16.4840     2.5370   -22.7640 
  135.5000    61.3140    23.8880    14.1320    16.1090    16.6560     2.5180   -22.8320 
  135.6250    61.2950    23.9050    15.1590    16.2320    16.8990     2.5090   -22.8990 
  135.7500    62.1780    24.0680    16.6760    16.3200    17.1260     2.5130   -22.9570 
  135.8750    62.2500    24.2280    18.7310    16.3020    17.2070     2.5210   -23.0060 
  136.0000    61.3300    24.2540    19.8570    16.1370    17.1230     2.5200   -23.0400 
  136.1250    60.4830    24.2980    18.1740    15.8010    16.8780     2.5070   -23.0490 
  136.2500    59.7570    24.3970    15.9000    15.3540    16.5060     2.4910   -23.0150 
  136.3750    58.8420    24.4950    15.1770    14.8600    16.0820     2.4770   -22.9540 
  136.5000    58.2910    24.4970    15.6890    14.3890    15.6900     2.4660   -22.8870 
  136.6250    59.0100    24.4810    15.1460    14.0070    15.4230     2.4660   -22.7870 
  136.7500    60.9180    24.5520    13.3130    13.7740    15.3500     2.4760   -22.6920 
  136.8750    61.6820    24.7080    11.4870    13.7420    15.5210     2.4890   -22.6250 
  137.0000    59.6240    24.9510    10.8420    13.9240    15.9360     2.4930   -22.5400 
  137.1250    57.1770    24.7230    11.0670    14.3050    16.5650     2.4820   -22.4830 
  137.2500    57.5470    24.5130    12.1540    14.7930    17.3130     2.4600   -22.4480 
  137.3750    59.2520    24.5100    13.2290    15.2740    18.0250     2.4350   -22.4400 
