~V
VERS. 2.00: Ver 2.00
~W
STRT.M 60.0000:
STOP.M 275.0000:
STEP.M 0.1250:
NULL. -999.2500:
UWI. DF3003:
~C
DEPT.M :
DEN.GM/CC :
SP.MV :
AC.US/MT :
GR.API :
RML.OHMM :
RI. :
RXO.OHMM :
CALI.CM :
~A
# ...
   70.0000     2.1490   -17.3940   448.5840    75.8750     7.9450     6.9660     8.4130    23.8780 
   70.1250     2.1740   -17.7480   447.7780    70.8000     7.9920     6.9720     8.5760    23.7150 
   70.2500     2.1920   -18.2550   447.9700    67.0110     8.0180     6.9800     9.0400    23.5750 
   70.3750     2.1960   -18.8170   448.6960    64.9250     7.9950     6.9750     9.4250    23.5140 
   70.5000     2.1870   -19.3720   447.6990    63.4710     7.9090     6.9510     9.4560    23.5010 
   70.6250     2.1690   -20.0060   443.7770    65.3170     7.7760     6.9170     9.1760    23.5070 
   70.7500     2.1510   -20.7090   439.3030    69.4900     7.6670     6.8950     8.9440    23.5190 
   70.8750     2.1380   -21.3990   436.1200    72.2260     7.6370     6.9030     8.9480    23.5270 
   71.0000     2.1310   -22.1190   434.8160    71.1930     7.7070     6.9470     9.1910    23.5240 
   71.1250     2.1320   -22.7210   435.4410    68.8960     7.8550     7.0180     9.4930    23.5690 
   71.2500     2.1410   -23.1690   436.3940    68.0040     8.0050     7.0840     9.6560    23.4340 
   71.3750     2.1530   -23.5130   436.2970    67.6040     8.1080     7.1200     9.6790    23.2420 
   71.5000     2.1620   -23.6820   435.2750    67.0040     8.1440     7.1130     9.6420    23.0460 
   71.6250     2.1590   -23.6850   435.1550    66.5650     8.1150     7.0580     9.5170    22.9830 
   71.7500     2.1450   -23.6150   436.6160    65.9110     8.0570     6.9810     9.4100    22.9000 
   71.8750     2.1260   -23.3670   439.1290    65.0120     7.9910     6.8950     9.3840    22.7920 
   72.0000     2.1090   -22.9140   442.1580    63.1510     7.9280     6.8050     9.4080    22.7390 
   72.1250     2.1040   -22.3870   444.4660    62.3120     7.8680     6.7140     9.4230    22.6970 
   72.2500     2.1110   -21.7970   444.8070    66.7990     7.7990     6.6250     9.3340    22.6430 
   72.3750     2.1280   -21.1930   442.8490    74.5240     7.7200     6.5460     9.2240    22.6340 
   72.5000     2.1470   -20.5950   439.5300    79.2270     7.6480     6.4960     9.0430    22.6330 
   72.6250     2.1640   -19.9460   436.5530    78.4290     7.6420     6.5150     8.8080    22.6340 
   72.7500     2.1780   -19.2250   433.3980    76.7890     7.7380     6.6170     8.5290    22.6380 
   72.8750     2.1920   -18.4940   427.2090    75.0070     7.9430     6.8040     8.3380    22.6470 
   73.0000     2.2100   -17.8490   416.4850    72.4170     8.2160     7.0420     8.6600    22.6670 
   73.1250     2.2270   -17.1910   402.3590    73.2480     8.4580     7.2580     9.2910    22.7130 
   73.2500     2.2330   -16.5180   390.4880    78.9000     8.5780     7.3720    10.1070    22.7850 
   73.3750     2.2220   -15.8230   387.5120    85.3440     8.5180     7.3310    10.4560    22.8280 
   73.5000     2.1950   -15.1090   399.4050    86.5250     8.2670     7.1140     9.1480    22.9240 
   73.6250     2.1650   -14.4800   426.4050    82.5260     7.8690     6.7300     7.9500    22.9860 
   73.7500     2.1470   -13.8240   452.8140    81.8420     7.3960     6.2710     7.4260    23.0710 
   73.8750     2.1460   -13.2270   467.1690    88.3970     6.9030     5.8040     6.8680    23.1480 
   74.0000     2.1610   -12.6490   467.6010    98.3350     6.4500     5.3900     6.1620    23.2020 
   74.1250     2.1820   -12.1660   458.9700   104.2500     6.1200     5.0990     5.5180    23.2590 
   74.2500     2.2000   -11.8500   448.3450   106.6610     6.0840     4.9460     5.3920    23.3490 
   74.3750     2.2140   -11.6300   438.3980   107.2830     6.2010     4.9470     5.6280    23.4440 
   74.5000     2.2260   -11.6550   432.5860   103.4040     6.4700     5.1000     6.0020    23.5180 
   74.6250     2.2340   -11.9140   433.0480    95.4420     6.8690     5.3920     6.3700    23.6460 
   74.7500     2.2360   -12.4000   437.8810    88.6100     7.3080     5.7410     6.6710    23.7560 
   74.8750     2.2280   -12.9490   447.6510    85.9240     7.7080     6.0780     7.0290    23.8050 
   75.0000     2.2130   -13.4620   455.9230    85.4090     7.9980     6.3400     7.4470    23.9000 
   75.1250     2.1950   -13.9400   456.3520    86.1310     8.1020     6.4620     7.6620    24.0520 
   75.2500     2.1770   -14.2920   452.2980    87.8100     8.0560     6.4620     7.6670    24.1780 
   75.3750     2.1600   -14.5490   444.1470    89.3760     7.9180     6.3800     7.5330    24.2250 
   75.5000     2.1390   -14.6590   436.9130    90.6790     7.7800     6.2830     7.3910    24.2130 
   75.6250     2.1140   -14.5870   428.9350    91.5730     7.7730     6.2730     7.3620    24.1690 
   75.7500     2.0930   -14.3960   421.6480    90.4510     7.9740     6.4190     7.5340    24.1080 
   75.8750     2.0870   -14.1740   413.5170    88.4590     8.4380     6.7740     7.9530    24.0220 
   76.0000     2.1070   -13.9630   401.9870    86.3950     9.1740     7.3510     8.5140    23.9320 
   76.1250     2.1640   -13.7480   385.2520    83.0500    10.1190     8.1180     8.9820    23.9000 
   76.2500     2.2430   -13.5730   365.5980    77.4040    11.0280     8.8960     9.1540    23.8920 
   76.3750     2.3230   -13.3380   347.9020    73.2420    11.6350     9.4880     9.1680    23.8920 
   76.5000     2.3760   -13.0360   337.5320    73.1650    11.6960     9.6970     9.1830    23.8940 
   76.6250     2.3780   -12.7430   341.7270    75.5410    11.0340     9.3420     9.1860    23.8980 
   76.7500     2.3470   -12.3800   356.5200    79.4430     9.9650     8.5940     8.9330    23.9090 
   76.8750     2.3080   -12.0720   376.6350    86.8310     8.8190     7.6700     8.2060    23.9360 
   77.0000     2.2790   -11.8640   396.7070    97.1030     7.8770     6.8010     7.0120    23.9820 
   77.1250     2.2690   -11.7780   410.5080   104.6250     7.3380     6.1900     5.8220    24.0500 
   77.2500     2.2690   -11.8130   416.0620   104.2090     7.1400     5.8570     5.4150    24.0840 
   77.3750     2.2720   -11.9620   413.7770    99.4710     7.2310     5.7860     5.6200    24.0900 
   77.5000     2.2720   -12.1400   408.1660    95.7360     7.5370     5.9350     6.1090    24.0820 
   77.6250     2.2650   -12.1050   403.7570    93.1750     7.9600     6.2500     6.4150    24.0630 
   77.7500     2.2500   -11.9780   402.1300    88.9720     8.3680     6.6010     6.4000    24.0320 
   77.8750     2.2300   -11.6960   402.3960    84.7580     8.6220     6.8690     6.3840    23.9970 
   78.0000     2.2100   -11.2430   402.2200    85.9090     8.6630     6.9450     6.6970    24.0220 
   78.1250     2.2000   -10.5970   400.5340    93.2090     8.3200     6.7190     6.8520    24.1570 
   78.2500     2.2050    -9.7780   396.6000   101.6630     7.7780     6.2730     6.4830    24.3740 
   78.3750     2.2260    -8.9630   393.8610   109.6410     7.1380     5.7240     5.7400    24.5100 
   78.5000     2.2570    -8.2340   398.1520   116.2450     6.3740     5.2220     4.8670    24.6210 
   78.6250     2.2870    -7.7430   409.2130   115.6780     5.8940     4.9250     4.4130    24.6490 
   78.7500     2.3050    -7.4960   416.1110   109.7250     5.7230     4.8460     4.3720    24.6760 
   78.8750     2.3060    -7.4040   413.9200   105.8670     5.8830     4.9500     4.6160    24.7370 
   79.0000     2.2930    -7.4780   406.5790   107.1020     6.2220     5.1570     4.9750    24.7710 
   79.1250     2.2710    -7.7710   400.9460   107.4960     6.4910     5.3570     5.3480    24.7980 
   79.2500     2.2520    -8.1890   398.4350   106.8410     6.5920     5.4690     5.6170    24.8440 
   79.3750     2.2430    -8.6990   399.1300   107.6410     6.5340     5.4790     5.6210    24.9450 
   79.5000     2.2460    -9.1990   401.7140   106.7550     6.4050     5.4330     5.5180    25.0670 
   79.6250     2.2580    -9.7790   404.8480    99.6390     6.3560     5.4310     5.4670    25.1480 
   79.7500     2.2710   -10.3900   407.1630    93.4720     6.4870     5.5600     5.5890    25.1520 
   79.8750     2.2770   -11.0320   407.3790    91.1630     6.8330     5.8560     6.0180    25.1330 
