~V
VERS. 2.00: Ver 2.00
~W
STRT.M 60.0000:
STOP.M 277.0000:
STEP.M 0.1250:
NULL. -999.2500:
UWI. DF3044:
~C
DEPT.M :
GR.API :
CALI.CM :
RXO.OHMM :
RI. :
RML.OHMM :
DEN.GM/CC :
SP.MV :
~A
# ...
   82.5000    85.3060    23.7370     4.9700     4.5510     5.3910  -999.2500   -21.8810 
   82.6250    80.7870    23.6290     5.3120     4.6070     5.6210  -999.2500   -22.3370 
   82.7500    81.2900    23.5090     5.4990     4.8050     6.0420  -999.2500   -22.8780 
   82.8750    82.6520    23.4460     5.5580     5.0550     6.5080  -999.2500   -23.4970 
   83.0000    81.5390    23.4040     5.7250     5.2800     6.8990  -999.2500   -24.1190 
   83.1250    76.6010    23.1950     6.0140     5.4380     7.1610  -999.2500   -24.7030 
   83.2500    70.9850    23.0900     6.2730     5.5520     7.3500  -999.2500   -25.2450 
   83.3750    70.0340    22.9710     6.4080     5.6370     7.4990  -999.2500   -25.7040 
   83.5000    73.2000    22.8320     6.4340     5.6970     7.6080  -999.2500   -26.0840 
   83.6250    75.3430    22.7060     6.3900     5.7300     7.6490  -999.2500   -26.3470 
   83.7500    75.3050    22.5860     6.2920     5.7400     7.6400  -999.2500   -26.5530 
   83.8750    73.9210    22.5750     6.1100     5.7270     7.6120  -999.2500   -26.7230 
   84.0000    71.1360    22.5930     5.8850     5.7020     7.6060  -999.2500   -26.8830 
   84.1250    66.7840    22.6240     5.9160     5.6920     7.6700  -999.2500   -27.0200 
   84.2500    66.4440    22.5160     6.2690     5.7190     7.8030  -999.2500   -27.1210 
   84.3750    70.4040    22.3710     6.6270     5.7870     7.9830  -999.2500   -27.2030 
   84.5000    73.2840    22.2380     6.6560     5.8820     8.1700  -999.2500   -27.2850 
   84.6250    70.7090    22.1800     6.5760     5.9680     8.3070  -999.2500   -27.3630 
   84.7500    65.6510    22.2190     6.7150     6.0030     8.3700  -999.2500   -27.4070 
   84.8750    61.5820    22.3170     7.0540     5.9720     8.3620  -999.2500   -27.4150 
   85.0000    60.9320    22.3620     7.2350     5.8930     8.3050  -999.2500   -27.3950 
   85.1250    65.3520    22.3870     7.0260     5.8090     8.2310  -999.2500   -27.3890 
   85.2500    70.0580    22.4100     6.8830     5.7520     8.1780  -999.2500   -27.3950 
   85.3750    70.6730    22.4070     6.9420     5.7250     8.1700  -999.2500   -27.4200 
   85.5000    68.3700    22.3830     7.0410     5.7300     8.2180  -999.2500   -27.4320 
   85.6250    66.5710    22.3480     6.9860     5.7680     8.3260  -999.2500   -27.4500 
   85.7500    65.2690    22.3410     6.9390     5.8200     8.4590  -999.2500   -27.4710 
   85.8750    67.2680    22.3710     6.8840     5.8750     8.5870  -999.2500   -27.4700 
   86.0000    72.2890    22.4210     6.8580     5.9340     8.6990  -999.2500   -27.4260 
   86.1250    74.3800    22.4860     7.0020     6.0050     8.8150  -999.2500   -27.3170 
   86.2500    70.6590    22.5440     7.1250     6.0810     8.9540  -999.2500   -27.1940 
   86.3750    67.3810    22.5880     7.0800     6.1610     9.1150  -999.2500   -27.0430 
   86.5000    68.7990    22.6330     6.9950     6.2450     9.2800  -999.2500   -26.9070 
   86.6250    70.5420    22.6660     7.0710     6.3110     9.4060  -999.2500   -26.7940 
   86.7500    70.5890    22.6210     7.2490     6.3440     9.4600  -999.2500   -26.6970 
   86.8750    70.1500    22.5710     7.3750     6.3450     9.4330  -999.2500   -26.6310 
   87.0000    69.2030    22.5590     7.3970     6.3150     9.3420  -999.2500   -26.6020 
   87.1250    67.3940    22.6010     7.3440     6.2670     9.2410  -999.2500   -26.5660 
   87.2500    64.1240    22.5980     7.3330     6.2610     9.2260  -999.2500   -26.4950 
   87.3750    60.8030    22.5380     7.3890     6.3600     9.3740  -999.2500   -26.3890 
   87.5000    58.7660    22.4030     7.4650     6.5880     9.7050  -999.2500   -26.2300 
   87.6250    59.7270    22.2860     7.5220     6.9030    10.1520  -999.2500   -26.0160 
   87.7500    63.0990    22.1010     7.5730     7.1710    10.5060  -999.2500   -25.7660 
   87.8750    67.7610    21.8710     7.5720     7.2630    10.5660  -999.2500   -25.4890 
   88.0000    74.3900    21.8120     7.4430     7.1070    10.2240  -999.2500   -25.1750 
   88.1250    80.1720    21.9860     7.1770     6.7370     9.5450  -999.2500   -24.8990 
   88.2500    80.3850    22.1380     6.8570     6.3220     8.8290  -999.2500   -24.6470 
   88.3750    74.6340    22.2270     6.5200     5.9590     8.2530  -999.2500   -24.4090 
   88.5000    67.6800    22.3410     6.2600     5.6970     7.8990  -999.2500   -24.1800 
   88.6250    67.1090    22.6500     6.1660     5.5580     7.7770  -999.2500   -23.9560 
   88.7500    70.0710    23.0880     6.0950     5.4800     7.7550  -999.2500   -23.7440 
   88.8750    72.1370    23.5100     5.8960     5.4180     7.7310  -999.2500   -23.5050 
   89.0000    71.0850    23.6870     5.6790     5.3440     7.6390  -999.2500   -23.2350 
   89.1250    69.5680    23.5940     5.7300     5.2470     7.4590  -999.2500   -22.8900 
   89.2500    71.1980    23.5440     5.9040     5.1350     7.2440  -999.2500   -22.5120 
   89.3750    74.4870    23.5720     6.1200     5.0280     7.0520  -999.2500   -22.1380 
   89.5000    77.3340    23.6560     6.1930     4.9570     6.9420  -999.2500   -21.7650 
   89.6250    77.7010    23.7260     5.9570     4.9690     6.9810  -999.2500   -21.3620 
   89.7500    76.7640    23.7660     5.7050     5.0560     7.1410  -999.2500   -20.9290 
   89.8750    76.1150    23.7730     5.7720     5.1790     7.3500  -999.2500   -20.4730 
   90.0000    76.9430    23.7670     6.3670     5.2620     7.4850  -999.2500   -20.0080 
   90.1250    80.3920    23.7680     7.4130     5.1870     7.3470  -999.2500   -19.5600 
   90.2500    85.7300    23.7390     7.5820     4.9390     6.9150  -999.2500   -19.1270 
   90.3750    92.2790    23.6800     6.4860     4.5700     6.3000  -999.2500   -18.7210 
   90.5000    98.2560    23.6240     5.0800     4.1840     5.6940  -999.2500   -18.3310 
   90.6250    97.4230    23.5930     4.5660     3.8910     5.2900  -999.2500   -18.0030 
   90.7500    91.4540    23.5670     4.4500     3.7190     5.1060  -999.2500   -17.7240 
   90.8750    86.9590    23.5410     4.4090     3.6590     5.1020  -999.2500   -17.5220 
   91.0000    87.9260    23.5270     4.3620     3.6800     5.2010  -999.2500   -17.3910 
   91.1250    92.8880    23.5260     4.3540     3.7500     5.3280  -999.2500   -17.3180 
   91.2500    96.7040    23.5330     4.3910     3.8390     5.4520  -999.2500   -17.2900 
   91.3750    96.5900    23.5310     4.4750     3.9310     5.5710  -999.2500   -17.2720 
   91.5000    94.1660    23.5540     4.5830     4.0000     5.6690  -999.2500   -17.2870 
   91.6250    94.4470    23.6180     4.6680     4.0050     5.6930  -999.2500   -17.3330 
   91.7500    95.9940    23.6870     4.7040     3.9430     5.6220  -999.2500   -17.4220 
   91.8750    94.4200    23.6930     4.6630     3.8330     5.4730  -999.2500   -17.5470 
   92.0000    88.9530    23.6320     4.5190     3.7110     5.3010  -999.2500   -17.7270 
   92.1250    86.7010    23.5450     4.3870     3.6190     5.1910  -999.2500   -17.9830 
   92.2500    87.9220    23.5200     4.4090     3.5800     5.1890  -999.2500   -18.3180 
   92.3750    89.3290    23.5360     4.5830     3.6140     5.3150  -999.2500   -18.7450 
   92.5000    88.5340    23.5590     4.7900     3.7380     5.5750  -999.2500   -19.2580 
   92.6250    86.1150    23.5320     4.9750     3.9750     5.9810  -999.2500   -19.8230 
   92.7500    83.0520    23.4350     5.2300     4.3010     6.4930  -999.2500   -20.3890 
   92.8750    77.7780    23.2970     5.6460     4.6870     7.0700  -999.2500   -20.8910 
   93.0000    69.9710    23.1160     6.1860     5.0860     7.6470  -999.2500   -21.2650 
   93.1250    63.2870    23.0070     6.5220     5.4120     8.0920  -999.2500   -21.4860 
   93.2500    61.1120    22.9650     6.5540     5.6070     8.3040  -999.2500   -21.5240 
   93.3750    62.9770    22.9310     6.3880     5.6430     8.2310  -999.2500   -21.3970 
   93.5000    67.0490    22.8490     6.2240     5.5230     7.9060  -999.2500   -21.1060 
   93.6250    74.4140    22.7780     6.0130     5.2760     7.4380  -999.2500   -20.6820 
