~V
VERS. 2.00: Ver 2.00
~W
STRT.M 58.0000:
STOP.M 259.0000:
STEP.M 0.1250:
NULL. -999.2500:
UWI. DF3010:
~C
DEPT.M :
GR.API :
RML.OHMM :
RI. :
RXO.OHMM :
CALI.CM :
DEN.GM/CC :
SP.MV :
~A
# ...
  136.7500    74.1410    12.1270    11.4980    10.4750    23.7290     2.3130   -25.5520 
  136.8750    70.4510    11.1140    10.6600    10.1650    23.7570     2.3140   -24.9560 
  137.0000    69.3910     9.7370     9.3890     9.5510    23.8470     2.3040   -24.2550 
  137.1250    76.0510     8.4110     8.0750     8.3490    23.9770     2.2920   -23.4540 
  137.2500    85.7930     7.3670     6.9680     7.0810    24.1490     2.2870   -22.5280 
  137.3750    94.1030     6.6530     6.1400     6.1570    24.3980     2.2930   -21.7120 
  137.5000    99.7610     6.2480     5.6000     5.5140    24.6710     2.3040   -21.1430 
  137.6250   104.8860     6.1630     5.3790     5.2510    24.7750     2.3150   -20.7370 
  137.7500   109.5560     6.3180     5.4040     5.1980    24.7660     2.3250   -20.5660 
  137.8750   110.1330     6.6520     5.6260     5.5390    24.6880     2.3370   -20.7020 
  138.0000   104.5970     7.0730     5.9660     6.1690    24.5870     2.3560   -20.9590 
  138.1250    95.6440     7.4480     6.3170     7.3250    24.5220     2.3810   -21.3910 
  138.2500    90.1370     7.6880     6.5890     8.7120    24.5330     2.4050   -22.0980 
  138.3750    88.9050     7.7850     6.7530     9.2400    24.5540     2.4140   -22.9000 
  138.5000    90.6430     7.8080     6.8490     7.6620    24.4270     2.4020   -23.6690 
  138.6250    93.0050     7.9050     6.9810     7.0150    24.1070     2.3660   -24.5180 
  138.7500    92.1640     8.1790     7.2390     7.2590    23.8310     2.3210   -25.3330 
  138.8750    87.2940     8.6580     7.6560     7.8170    23.7200     2.2800   -26.0420 
  139.0000    82.5570     9.2870     8.1960     8.3040    23.7100     2.2500   -26.6660 
  139.1250    82.8480     9.9000     8.7290     8.7200    23.7190     2.2300   -27.0480 
  139.2500    84.2610    10.2940     9.0790     9.0980    23.7260     2.2120   -27.1610 
  139.3750    83.5570    10.3230     9.1170     9.4800    23.7440     2.1940   -27.1360 
  139.5000    83.9640     9.9470     8.7970     9.6140    23.7890     2.1750   -26.8490 
  139.6250    86.7630     9.2350     8.1680     9.3470    23.9110     2.1670   -26.3530 
  139.7500    89.6090     8.4720     7.4650     8.5210    24.1410     2.1770   -25.9060 
  139.8750    93.3900     7.8760     6.8680     7.3190    24.4150     2.2060   -25.4130 
  140.0000    97.2000     7.5940     6.5080     6.3280    24.4860     2.2460   -25.0490 
  140.1250    97.3570     7.7100     6.4840     6.1870    24.2500     2.2790   -24.9620 
  140.2500    94.2630     8.0750     6.7140     6.5170    23.9700     2.2920   -24.9140 
  140.3750    91.2310     8.5510     7.1090     7.0700    23.8260     2.2850   -24.9450 
  140.5000    87.8870     8.9960     7.5530     7.8710    23.7950     2.2640   -25.2200 
  140.6250    82.2790     9.2800     7.9100     8.6230    23.7990     2.2430   -25.4700 
  140.7500    79.9150     9.4080     8.1270     8.7940    23.8030     2.2310   -25.6560 
  140.8750    83.6710     9.4270     8.2130     8.4670    23.8050     2.2270   -25.9200 
  141.0000    90.7160     9.4030     8.2180     8.2650    23.8050     2.2250   -26.0440 
  141.1250    95.8730     9.3770     8.1870     8.3850    23.8050     2.2170   -25.9380 
  141.2500    96.9360     9.3520     8.1480     8.5800    23.8050     2.2070   -25.9090 
  141.3750    96.1840     9.3140     8.1000     8.8180    23.8050     2.2000   -25.8760 
  141.5000    98.1000     9.2690     8.0470     9.0150    23.8050     2.2030   -25.6900 
  141.6250   102.1610     9.2650     8.0240     9.2020    23.8050     2.2170   -25.6040 
  141.7500   102.3760     9.3500     8.0680     9.0030    23.8050     2.2350   -25.5430 
  141.8750    98.1670     9.5400     8.2070     8.7590    23.8050     2.2480   -25.3040 
  142.0000    94.9180     9.8050     8.4350     9.0880    23.8060     2.2530   -25.0550 
  142.1250    96.0700    10.0860     8.7350     9.8560    23.8320     2.2490   -24.7710 
  142.2500    96.5290    10.3380     9.0640    10.4450    23.8910     2.2450   -24.3320 
  142.3750    96.3620    10.5470     9.3970    10.5170    23.9520     2.2500   -23.8560 
  142.5000    96.7620    10.7040     9.7040    10.3220    23.9810     2.2700   -23.3460 
  142.6250    95.4450    10.7370     9.9070    10.5960    24.0300     2.3090   -22.7750 
  142.7500    89.5800    10.5800     9.9370    11.2720    24.1310     2.3540   -22.2230 
  142.8750    82.2300    10.1850     9.7410    11.7910    24.2350     2.3880   -21.6700 
  143.0000    80.7960     9.5860     9.3270    12.5140    24.3180     2.3990   -21.1180 
  143.1250    87.3960     8.9050     8.7660    11.0270    24.3850     2.3800   -20.7690 
  143.2500    94.0350     8.3210     8.2140     8.6940    24.4070     2.3490   -20.4470 
  143.3750    96.8040     7.9290     7.7720     7.0520    24.3950     2.3190   -20.0840 
  143.5000    96.6650     7.7500     7.4850     6.6190    24.3890     2.3020   -19.8730 
  143.6250    98.2680     7.7420     7.3530     6.7210    24.3990     2.3020   -19.6430 
  143.7500   103.2360     7.7610     7.2750     6.7100    24.4130     2.3130   -19.3020 
  143.8750   107.4970     7.6910     7.1590     6.5750    24.4350     2.3280   -19.0990 
  144.0000   107.2480     7.4460     6.9300     6.5390    24.4720     2.3390   -18.9760 
  144.1250   104.2590     7.0170     6.5690     6.6400    24.4970     2.3430   -18.6970 
  144.2500   104.0990     6.5990     6.2070     6.7200    24.5200     2.3410   -18.4510 
  144.3750   106.3440     6.3910     6.0180     6.8070    24.5350     2.3400   -18.3110 
  144.5000   108.6710     6.6350     6.1920     6.8540    24.5380     2.3490   -18.0910 
  144.6250   106.8680     7.6700     7.0160     8.1990    24.5370     2.3800   -17.9310 
  144.7500    97.9180     9.5150     8.5260    11.1410    24.5020     2.4300   -17.9050 
  144.8750    83.4460    12.1170    10.7180    15.9140    24.4340     2.4920   -17.7690 
  145.0000    70.4640    15.3370    13.4180    20.4550    24.3960     2.5470   -17.6020 
  145.1250    63.4310    18.5700    16.2200    22.9470    24.3890     2.5780   -17.5930 
  145.2500    58.6580    21.1230    18.5940    23.7780    24.3910     2.5870   -17.5720 
  145.3750    55.0020    22.4640    20.2160    25.0680    24.3910     2.5860   -17.5090 
  145.5000    53.5590    23.0460    21.0410    26.2060    24.3890     2.5850   -17.5290 
  145.6250    54.3770    23.1370    21.2450    25.9300    24.3870     2.5930   -17.4560 
  145.7500    55.5470    23.1920    21.2880    25.2570    24.3850     2.6020   -17.3890 
  145.8750    55.2810    23.4370    21.4250    24.3500    24.3800     2.6070   -17.4130 
  146.0000    53.9980    23.9520    21.7920    23.8290    24.3650     2.6040   -17.3770 
  146.1250    53.7020    24.6910    22.4180    24.7640    24.3590     2.5970   -17.3750 
  146.2500    54.0180    25.4270    23.1240    25.9600    24.3500     2.5930   -17.4190 
  146.3750    54.6350    25.9840    23.7480    25.4070    24.3350     2.5940   -17.4360 
  146.5000    55.2170    26.2640    24.1710    24.7540    24.3040     2.6000   -17.4930 
  146.6250    54.8250    26.2630    24.3350    24.5400    24.2900     2.6050   -17.5700 
  146.7500    53.0790    26.1500    24.3530    24.5910    24.2900     2.6060   -17.6020 
  146.8750    51.0220    26.0180    24.2990    24.7480    24.3110     2.6040   -17.7080 
  147.0000    49.8360    25.8540    24.1770    25.2170    24.3470     2.6010   -17.8410 
  147.1250    49.1060    25.5080    23.8790    25.6950    24.3720     2.6020   -17.8020 
  147.2500    50.0540    24.8730    23.3320    26.0070    24.3650     2.6040   -17.7950 
  147.3750    53.5860    23.9370    22.5240    25.9280    24.3360     2.6070   -17.8880 
  147.5000    58.2040    22.8330    21.5580    23.9430    24.3270     2.6060   -17.8770 
  147.6250    61.9880    21.8900    20.7050    22.5200    24.3360     2.6020   -17.9050 
  147.7500    65.7170    21.4090    20.2380    22.0540    24.3620     2.5940   -18.0110 
  147.8750    68.1320    21.5600    20.3270    22.0210    24.3720     2.5840   -17.9850 
