~V
VERS. 2.00: Ver 2.00
~W
STRT.M 56.0000:
STOP.M 270.0000:
STEP.M 0.1250:
NULL. -999.2500:
UWI. DF3053:
~C
DEPT.M :
GR.API :
CALI.CM :
RXO.OHMM :
RI. :
RML.OHMM :
DEN.GM/CC :
SP.MV :
~A
# ...
  123.3750    73.9100    22.6690     7.6190     6.8280     8.1890     2.2240    -7.6290 
  123.5000    69.8020    22.5050     8.1120     7.1660     8.3380     2.2110    -7.9170 
  123.6250    63.8760    22.5040     8.4070     7.3590     8.3570     2.2090    -8.1760 
  123.7500    60.3380    22.7000     8.6160     7.4620     8.3680     2.2130    -8.3830 
  123.8750    62.0810    23.0680     8.8860     7.5230     8.4430     2.2190    -8.5140 
  124.0000    65.1670    23.4980     9.2060     7.5730     8.6280     2.2220    -8.5600 
  124.1250    62.6970    23.7670     9.3030     7.6050     8.8900     2.2220    -8.4970 
  124.2500    58.1440    23.8060     9.2030     7.5780     9.1190     2.2240    -8.3600 
  124.3750    57.5870    23.7250     8.9370     7.4440     9.2020     2.2280    -8.1600 
  124.5000    61.7750    23.6780     8.7420     7.1800     9.0090     2.2350    -7.9140 
  124.6250    65.5170    23.7210     8.7330     6.7930     8.5000     2.2400    -7.6250 
  124.7500    69.2290    23.7930     8.0030     6.3740     7.8720     2.2400    -7.3070 
  124.8750    76.1070    23.8700     7.1170     6.0070     7.2980     2.2370    -6.9670 
  125.0000    83.1030    23.9280     6.8210     5.7580     6.9150     2.2340    -6.6240 
  125.1250    84.7650    23.9310     6.7010     5.6920     6.8170     2.2340    -6.3160 
  125.2500    82.6730    23.8860     6.8890     5.7850     6.9040     2.2320    -6.0650 
  125.3750    81.0690    23.8300     7.1640     6.0020     7.0680     2.2220    -5.8810 
  125.5000    81.1520    23.7980     7.3980     6.2770     7.2050     2.2000    -5.7780 
  125.6250    79.9830    23.7920     7.6030     6.4960     7.2300     2.1690    -5.7660 
  125.7500    78.4500    23.7730     7.7970     6.5670     7.0770     2.1410    -5.8190 
  125.8750    78.1000    23.7260     7.6850     6.4430     6.7200     2.1220    -5.9120 
  126.0000    78.8440    23.6720     7.0680     6.1340     6.2310     2.1160    -6.0100 
  126.1250    80.6780    23.6580     6.3860     5.7060     5.7720     2.1280    -6.0790 
  126.2500    82.9050    23.6910     5.8610     5.2830     5.5000     2.1540    -6.1120 
  126.3750    84.4030    23.7510     5.6310     4.9420     5.4920     2.1840    -6.1070 
  126.5000    84.1740    23.8170     5.5230     4.7350     5.6980     2.2070    -6.0730 
  126.6250    81.8480    23.8830     5.4910     4.7170     5.9850     2.2150    -6.0300 
  126.7500    79.1390    23.9560     5.5310     4.8640     6.2280     2.2140    -6.0120 
  126.8750    76.6760    24.0170     5.8050     5.1600     6.4340     2.2130    -6.0450 
  127.0000    74.5750    23.9900     6.5110     5.5740     6.6920     2.2140    -6.1430 
  127.1250    72.5290    23.8270     7.6720     6.0590     7.1310     2.2160    -6.3040 
  127.2500    69.7580    23.6500     8.0250     6.5310     7.6960     2.2100    -6.5010 
  127.3750    67.5750    23.5740     7.7340     6.9420     8.2440     2.1960    -6.7180 
  127.5000    66.2440    23.5970     7.6200     7.2820     8.6330     2.1850    -6.9440 
  127.6250    64.2650    23.6180     8.1340     7.6030     8.8460     2.1910    -7.1540 
  127.7500    60.5840    23.5210     8.8280     7.9910     9.1350     2.2100    -7.3590 
  127.8750    56.8680    23.2330     9.1800     8.5240     9.7490     2.2300    -7.5640 
  128.0000    56.1590    22.8130     9.5030     9.2680    10.8490     2.2450    -7.7620 
  128.1250    58.1740    22.4990    11.2010    10.2690    12.4650     2.2590    -7.9240 
  128.2500    60.6530    22.4530    14.3940    11.3650    14.1900     2.2730    -8.0450 
  128.3750    64.0850    22.6660    17.1110    12.3230    15.5380     2.2780    -8.1240 
  128.5000    69.2640    22.9910    18.5780    12.8760    16.0400     2.2670    -8.1750 
  128.6250    70.4830    23.2280    17.3960    12.7770    15.4550     2.2470    -8.2270 
  128.7500    64.9880    23.2810    14.1190    12.2450    14.3820     2.2340    -8.2860 
  128.8750    57.3910    23.1800    11.4250    11.5530    13.2970     2.2330    -8.3470 
  129.0000    52.9310    23.0260    10.7020    10.9310    12.4690     2.2360    -8.4270 
  129.1250    52.1560    22.9260    10.5630    10.5220    11.9990     2.2330    -8.5460 
  129.2500    52.1610    22.8960    10.2630    10.2870    11.7740     2.2270    -8.6920 
  129.3750    52.7830    22.8990     9.9740    10.1700    11.7270     2.2250    -8.8440 
  129.5000    54.1780    22.9020     9.9490    10.1010    11.7770     2.2280    -8.9900 
  129.6250    56.5030    22.9030     9.8010    10.0330    11.8240     2.2350    -9.1170 
  129.7500    58.7510    22.9030     9.4770     9.9680    11.7960     2.2400    -9.2170 
  129.8750    59.4010    22.9030     9.4020     9.9230    11.6680     2.2400    -9.2940 
  130.0000    59.3160    22.9030     9.6490     9.9120    11.4830     2.2320    -9.3510 
  130.1250    58.7110    22.9030    10.0060     9.9470    11.3640     2.2230    -9.3920 
  130.2500    57.3880    22.9030    10.0450    10.0110    11.3880     2.2130    -9.4230 
  130.3750    56.7370    22.9030    10.2180    10.0850    11.5490     2.2060    -9.4400 
  130.5000    57.9250    22.9040    10.4260    10.1500    11.7730     2.1980    -9.4290 
  130.6250    60.3580    22.8990    10.4100    10.1820    11.9210     2.1850    -9.3860 
  130.7500    63.1240    22.9100    10.1590    10.1690    11.9120     2.1690    -9.3380 
  130.8750    65.0940    22.9720     9.8520    10.1130    11.7730     2.1530    -9.3100 
  131.0000    63.8600    23.0850     9.8620    10.0370    11.6120     2.1420    -9.3100 
  131.1250    59.2430    23.2380    10.1320    10.0140    11.6090     2.1360    -9.3390 
  131.2500    56.4790    23.4380    10.3070    10.1230    11.8740     2.1320    -9.3770 
  131.3750    58.0890    23.6870    10.8250    10.4120    12.4370     2.1260    -9.4230 
  131.5000    60.6830    23.9390    13.4180    10.8630    13.2070     2.1150    -9.4780 
  131.6250    59.6000    24.0830    23.7970    11.3640    13.9340     2.1060    -9.5370 
  131.7500    55.6510    24.1010    29.5180    11.7270    14.3630     2.1080    -9.5770 
  131.8750    52.1040    24.0120    24.6960    11.8280    14.3820     2.1230    -9.5890 
  132.0000    50.9750    23.8630    16.2160    11.6420    14.0230     2.1490    -9.5790 
  132.1250    52.0650    23.7460    12.4460    11.2440    13.4530     2.1810    -9.5670 
  132.2500    55.0740    23.7150    11.6680    10.8210    12.9220     2.2120    -9.5650 
  132.3750    58.0780    23.7420    11.6340    10.4730    12.5370     2.2400    -9.5710 
  132.5000    58.1080    23.7500    11.5550    10.2450    12.3190     2.2510    -9.5580 
  132.6250    55.9940    23.6980    11.4390    10.1440    12.1990     2.2470    -9.5100 
  132.7500    56.0560    23.6520    11.3300    10.1050    12.0710     2.2340    -9.4460 
  132.8750    58.3010    23.6520    11.2580    10.0850    11.8980     2.2130    -9.3870 
  133.0000    59.5050    23.6820    11.2320    10.0530    11.6900     2.1890    -9.3380 
  133.1250    58.3090    23.7090    11.4980     9.9920    11.4890     2.1720    -9.2900 
  133.2500    56.3330    23.7260    11.6720     9.9360    11.3380     2.1700    -9.2260 
  133.3750    54.5990    23.7270    11.5310     9.9730    11.2980     2.1820    -9.1500 
  133.5000    53.5290    23.7080    11.3590    10.2180    11.4840     2.2050    -9.0660 
  133.6250    53.5230    23.6500    11.8800    10.7650    12.0290     2.2440    -8.9830 
  133.7500    54.6070    23.5600    14.9440    11.4510    12.7480     2.2960    -8.8860 
  133.8750    55.7490    23.5340    22.4760    11.9740    13.2290     2.3470    -8.7720 
  134.0000    56.0430    23.7020    28.3030    11.9470    12.9460     2.3710    -8.6530 
  134.1250    56.4840    24.0090    22.5070    11.0520    11.6260     2.3530    -8.5590 
  134.2500    57.4780    24.1940    13.3670     9.6940     9.9480     2.3180    -8.5010 
  134.3750    59.8210    24.1940     8.6240     8.2960     8.4300     2.2840    -8.4650 
  134.5000    64.2690    24.1410     7.2400     7.1520     7.2900     2.2610    -8.4120 
