~V
VERS. 2.00: Ver 2.00
~W
STRT.M 125.0000:
STOP.M 247.0000:
STEP.M 0.1250:
NULL. -999.2500:
UWI. DF3017:
~C
DEPT.M :
DEN.GM/CC :
GR.API :
RML.OHMM :
RI. :
RXO.OHMM :
CALI.CM :
SP.MV :
~A
# ...
  237.5000     2.2690    85.3970    21.0220    19.3470    27.3680    23.4820   -16.2600 
  237.6250     2.2960    85.3970    19.8030    18.2920    24.7110    23.3990   -16.0550 
  237.7500     2.3380    85.3970    18.2490    16.9370    24.4100    23.3440   -15.8600 
  237.8750     2.3840    85.3970    16.5560    15.5080    24.7140    23.3280   -15.6690 
  238.0000     2.4250    85.3970    14.7870    14.1900    26.3250    23.3260   -15.4850 
  238.1250     2.4540    85.3970    13.2570    13.1340    24.9420    23.3130   -15.3440 
  238.2500     2.4660    85.3970    12.1640    12.3260    19.5410    23.2870   -15.1860 
  238.3750     2.4640    85.3970    11.7080    11.7360    13.8560    23.2620   -15.0450 
  238.5000     2.4520    85.3970    11.3980    11.3230    11.0930    23.2520   -14.8990 
  238.6250     2.4360    85.3970    11.2090    11.0650    10.5030    23.2520   -14.8240 
  238.7500     2.4210    85.3970    11.1130    10.9140     9.6180    23.2520   -14.7460 
  238.8750     2.4130    85.3970    11.1110    10.8590     9.3660    23.2520   -14.6960 
  239.0000     2.4130    85.3970    11.2010    10.8890     9.6690    23.2520   -14.6420 
  239.1250     2.4230    85.3970    11.3750    10.9920    10.0250    23.2520   -14.6470 
  239.2500     2.4440    85.3970    11.5790    11.1230    10.0870    23.2520   -14.7250 
  239.3750     2.4730    85.3970    11.7690    11.2420     9.4530    23.2520   -14.8250 
  239.5000     2.5000    85.3970    11.9100    11.3170     9.1080    23.2520   -14.9660 
  239.6250     2.5080    85.3970    11.9770    11.3240     9.4710    23.2520   -15.0760 
  239.7500     2.4830    85.3970    11.9920    11.2880     9.9160    23.2520   -15.2220 
  239.8750     2.4370    85.3970    11.9860    11.2430    10.2980    23.2520   -15.3640 
  240.0000     2.3880    85.3970    11.9940    11.2210    10.5980    23.2470   -15.5210 
  240.1250     2.3600    85.3970    12.0690    11.2640    10.6500    23.2330   -15.6100 
  240.2500     2.3690    85.3970    12.2450    11.3880    10.7760    23.2080   -15.6740 
  240.3750     2.4060    85.3970    12.5590    11.6150    11.1660    23.1780   -15.7010 
  240.5000     2.4520    85.3970    13.0280    11.9560    11.9290    23.1280   -15.7530 
  240.6250     2.4880    85.3970    13.6420    12.4080    14.0460    23.0930   -15.7710 
  240.7500     2.4990    85.3970    14.3050    12.8960    17.2480    23.0400   -15.7900 
  240.8750     2.4910    85.3970    14.9280    13.3550    21.3260    22.9600   -15.8080 
  241.0000     2.4740    85.3970    15.4330    13.7270    27.8920    22.9060   -15.7650 
  241.1250     2.4600    85.3970    15.7510    13.9620    31.4140    22.8770   -15.7320 
  241.2500     2.4590    85.3970    15.9260    14.0920    21.9170    22.8460   -15.7320 
  241.3750     2.4750    85.3970    16.0010    14.1500    14.6790    22.8160   -15.7550 
  241.5000     2.5020    85.3970    16.0220    14.1630    12.9400    22.7910   -15.6250 
  241.6250     2.5300    85.3970    16.0170    14.1470    12.7330    22.7420   -15.5400 
  241.7500     2.5390    85.3970    16.0000    14.1140    11.9390    22.6540   -15.4780 
  241.8750     2.5240    85.3970    15.9750    14.0680    10.9820    22.5360   -15.3300 
  242.0000     2.4890    85.3970    15.9460    14.0180    10.7210    22.3290   -15.1060 
  242.1250     2.4510    85.3970    15.9200    13.9770    10.8450    21.9100   -14.7120 
  242.2500     2.4250    85.3970    15.9020    13.9500    11.2430    21.2170   -14.1110 
  242.3750     2.4170    85.3970    15.8950    13.9360    11.9230    20.3400   -13.5010 
  242.5000     2.4230    85.3970    15.8940    13.9320    12.6810    19.6710   -13.0490 
  242.6250     2.4360    85.3970    15.8940    13.9320    13.1320    19.1170   -12.6210 
  242.7500     2.4490    85.3970    15.8940    13.9320    13.1490    18.4220   -12.1700 
  242.8750     2.4570    85.3970    15.8940    13.9320    12.8430    17.8180   -11.7020 
  243.0000     2.4570    85.3970    15.8940    13.9320    12.4230    17.4470   -11.3890 
  243.1250     2.4500    85.3970    15.8940    13.9320    11.7550    17.3060   -11.2720 
  243.2500     2.4400    85.3970    15.8940    13.9320    11.1950    17.1930   -11.2730 
  243.3750     2.4340    85.3970    15.8940    13.9320    11.2070    17.0770   -11.2200 
  243.5000     2.4330    85.3970    15.8940    13.9320    11.4930    16.9980   -11.1210 
  243.6250     2.4330    85.3970    15.8940    13.9320    11.0850    16.9720   -11.0790 
  243.7500     2.4230    85.3970    15.8940    13.9320    10.2700    16.9670   -11.0410 
  243.8750     2.4020    85.3970    15.8940    13.9320     9.3310    16.9660   -11.0720 
  244.0000     2.3730    85.3970    15.8940    13.9320     8.7880    16.9610   -11.0720 
  244.1250     2.3420    85.3970    15.8940    13.9320     8.8750    16.9110   -11.0810 
  244.2500     2.3090    85.3970    15.8940    13.9320     9.2160    16.7690   -11.1820 
  244.3750     2.2700    85.3970    15.8940    13.9320     9.4440    16.5250   -11.3690 
  244.5000     2.2200    85.3970    15.8940    13.9320     9.0620    16.2100   -11.5780 
  244.6250     2.1630    85.3970    15.8940    13.9320     8.3110    15.8540   -11.7320 
  244.7500     2.1090    85.3970    15.8940    13.9320     7.6900    15.3870   -11.9050 
  244.8750     2.0670    85.3970    15.8940    13.9320     7.5480    14.8650   -12.0680 
  245.0000     2.0410    85.3970    15.8940    13.9320     7.8190    14.4360   -12.2070 
  245.1250     2.0320    85.3970    15.8940    13.9320     8.3290    14.2520   -12.3780 
  245.2500     2.0370    85.3970    15.8940    13.9320     9.9190    13.9370   -12.4330 
  245.3750     2.0480    85.3970    15.8940    13.9320    10.4570    13.7790   -12.4790 
  245.5000     2.0610    85.3970    15.8940    13.9320    10.2280    13.6300   -12.5730 
  245.6250     2.0710    85.3970    15.8940    13.9320     9.7910    13.3850   -12.5550 
  245.7500     2.0770    85.3970    15.8940    13.9320     9.5120    13.1030   -12.5550 
  245.8750     2.0790    85.3970    15.8940    13.9320     9.2450    12.9540   -12.5550 
  246.0000     2.0780    85.3970    15.8940    13.9320     8.8980    12.9140  -999.2500 
  246.1250     2.0750    85.3970    15.8940    13.9320     8.7130    12.9100  -999.2500 
  246.2500     2.0730    85.3970    15.8940    13.9320     8.6680    12.9100  -999.2500 
  246.3750     2.0730    85.3970    15.8940    13.9320     8.6740    12.9100  -999.2500 
  246.5000     2.0760    85.3970    15.8940    13.9320     8.6960    12.9100  -999.2500 
  246.6250     2.0830    85.3970    15.8940    13.9320     8.7480    12.8990  -999.2500 
  246.7500     2.0620    85.3970    15.8940    13.9320     8.8730    12.8660  -999.2500 
  246.8750     2.0070    85.3970    15.8940    13.9320     9.0920    12.8000  -999.2500 
  247.0000     1.8960    85.3970    15.8940    13.9320     9.3350    12.7700  -999.2500 
