~V
VERS. 2.00: Ver 2.00
~W
STRT.M 62.0000:
STOP.M 282.0000:
STEP.M 0.1250:
NULL. -999.2500:
UWI. DF3054:
~C
DEPT.M :
DEN.GM/CC :
GR.API :
CALI.CM :
RXO.OHMM :
RI. :
RML.OHMM :
SP.MV :
~A
   62.0000  -999.2500    43.2540    25.8630     1.6540     0.8380 502562.3750   205.1390 
   62.1250  -999.2500    45.4660    25.8910     1.6550     0.8500 502562.3750   200.0120 
   62.2500  -999.2500    46.0850    25.9190     1.6540     0.8630 502562.3750   194.3590 
   62.3750  -999.2500    45.6600    25.9310     1.6500     0.8740 502562.3750   188.9880 
   62.5000  -999.2500    44.8290    25.9340     1.6400     0.8820 502562.3750   184.2440 
   62.6250  -999.2500    44.0780    25.9240     1.6250     0.8860 502562.3750   186.7430 
   62.7500  -999.2500    43.4670    25.8990     1.6100     0.8910 502562.3750   192.1010 
   62.8750  -999.2500    42.7240    25.8750     1.6000     0.9030 502562.3750   192.0290 
   63.0000  -999.2500    41.0630    25.8680     1.5920     0.9200 502562.3750   188.7260 
   63.1250  -999.2500    39.8640    25.8640     1.5890     0.9380 502562.3750   184.6430 
   63.2500  -999.2500    40.1210    25.8630     1.5870     0.9500 502562.3750   180.3760 
   63.3750  -999.2500    40.5600    25.8660     1.5850     0.9560 502562.3750   175.1720 
   63.5000  -999.2500    40.3460    25.8680     1.5830     0.9600 502562.3750   168.2470 
   63.6250  -999.2500    39.7240    25.8660     1.5830     0.9660 502562.3750   152.3530 
   63.7500  -999.2500    39.4690    25.8660     1.5860     0.9790 502562.3750   132.5060 
   63.8750  -999.2500    39.3730    25.8650     1.5910     0.9960 502562.3750   116.9370 
   64.0000  -999.2500    40.9600    25.8550     1.5940     1.0110 502562.3750   103.7570 
   64.1250  -999.2500    43.6620    25.8330     1.5920     1.0230 502110.7190    92.0320 
   64.2500  -999.2500    44.5220    25.7840     1.5880     1.0350 505020.2190    81.5140 
   64.3750  -999.2500    43.6050    25.6440     1.5800     1.0490 512040.2500    72.7070 
   64.5000  -999.2500    43.3350    25.3380     1.5690     1.0620 461726.7500    65.8260 
   64.6250  -999.2500    43.7870    24.9150     1.5610     1.0530 292851.5000    60.8150 
   64.7500  -999.2500    43.0840    24.6840     1.5630     0.9920 104973.1640    56.8070 
   64.8750  -999.2500    42.9370    24.8100     1.5740     0.8490  2556.5650    53.7060 
   65.0000  -999.2500    45.2740    25.0130     1.5850     0.6150  -999.2500    51.4860 
   65.1250  -999.2500    47.4200    24.7230     1.5920     0.3590  1351.0970    50.1910 
   65.2500  -999.2500    47.0070    24.2560     1.5940     0.1730     1.2910    49.6310 
   65.3750  -999.2500    45.6860    23.9870     1.6050     0.0710    -0.1370    49.3530 
   65.5000  -999.2500    46.2360    23.8750     1.7200     0.0280    -0.4350    48.8700 
   65.6250  -999.2500    48.5240    23.7540     2.2620     0.0300    -0.4910    47.5760 
   65.7500  -999.2500    51.6830    23.7610     3.6010     0.0760    -0.4070    44.9480 
   65.8750  -999.2500    55.4460    24.0840     5.4910     0.2080    -0.1540    40.5370 
   66.0000  -999.2500    59.6560    24.3950     7.2280     0.5060     0.3280    34.4160 
   66.1250  -999.2500    63.1000    24.1090     8.4740     1.1330     1.0960    27.1360 
   66.2500  -999.2500    65.1210    23.7390     9.4280     2.0780     1.9860    19.5000 
   66.3750  -999.2500    64.6650    23.5510    10.0470     3.2230     2.8330    11.7080 
   66.5000  -999.2500    62.5580    23.5680    10.2930     4.3980     3.5620     3.8320 
   66.6250  -999.2500    62.5570    23.6900    11.0100     5.5040     4.2290    -3.4320 
   66.7500  -999.2500    64.6820    23.7840    13.8430     6.5330     4.9130    -9.3060 
   66.8750  -999.2500    65.7020    23.8180    18.8450     7.4170     5.5530   -13.3190 
   67.0000  -999.2500    63.0570    23.7680    21.9170     8.0170     6.0070   -15.5200 
   67.1250  -999.2500    60.6450    23.5700    18.8290     8.1660     6.1230   -16.4670 
   67.2500  -999.2500    63.0890    23.3480    13.8850     8.0080     6.0120   -16.9960 
   67.3750  -999.2500    68.4340    23.2470    10.6670     7.7340     5.8320   -17.2420 
   67.5000  -999.2500    71.0610    23.2270     9.3670     7.5150     5.7260   -17.1640 
   67.6250  -999.2500    69.1210    23.1980     9.1140     7.4510     5.7800   -16.8880 
   67.7500  -999.2500    68.4800    23.1220     9.0740     7.4840     5.9440   -16.5090 
   67.8750  -999.2500    70.9580    23.0120     8.8760     7.5130     6.1480   -15.9690 
   68.0000  -999.2500    74.1490    22.8830     8.4040     7.4430     6.3190   -15.2310 
   68.1250  -999.2500    79.3040    22.7890     7.8210     7.2130     6.3770   -14.2780 
   68.2500  -999.2500    87.4380    22.7800     7.2030     6.8950     6.3280   -13.0740 
   68.3750  -999.2500    95.8880    22.8710     6.7040     6.5630     6.2080   -11.6930 
   68.5000  -999.2500   102.3890    23.0120     6.4780     6.2890     6.0790   -10.3530 
   68.6250  -999.2500   107.2730    23.1450     6.5530     6.1640     6.0390    -9.0800 
   68.7500  -999.2500   111.2350    23.2970     6.6420     6.2090     6.1410    -7.9240 
   68.8750  -999.2500   112.9870    23.5450     6.6900     6.4180     6.4020    -6.9340 
   69.0000  -999.2500   111.2550    23.7730     6.9780     6.7470     6.7860    -6.2330 
   69.1250  -999.2500   106.9630    23.8910     7.9480     7.1000     7.1650    -5.8400 
   69.2500  -999.2500   103.1190    23.9020     8.6440     7.3450     7.3710    -5.7570 
   69.3750  -999.2500   102.3140    23.8850     8.4960     7.4110     7.3060    -5.9850 
   69.5000  -999.2500   103.2160    23.9240     7.9890     7.3010     6.9990    -6.2870 
   69.6250  -999.2500   100.8820    24.0180     7.9100     7.0790     6.6110    -6.7010 
   69.7500  -999.2500    96.2270    24.0130     8.0710     6.8760     6.3640    -7.2090 
   69.8750  -999.2500    92.6290    23.9520     8.1040     6.8080     6.3830    -7.7530 
   70.0000  -999.2500    91.6810    23.8740     8.1560     6.9690     6.6980    -8.3000 
   70.1250  -999.2500    92.4250    23.8370     8.2450     7.4200     7.2710    -8.8160 
   70.2500  -999.2500    91.3970    23.6940     8.8330     8.0450     7.9270    -9.1750 
   70.3750  -999.2500    89.3890    23.4670    10.1740     8.6960     8.5140    -9.4080 
   70.5000  -999.2500    88.9670    23.3980    11.5200     9.1630     8.8840    -9.7290 
   70.6250  -999.2500    90.1980    23.4030    11.2080     9.2090     8.8910   -10.0900 
   70.7500  -999.2500    89.4430    23.3150     9.9060     8.9370     8.6340   -10.4970 
   70.8750  -999.2500    83.3900    23.1130     9.1970     8.5130     8.2530   -11.0410 
   71.0000  -999.2500    76.5580    22.9490     9.2210     8.0880     7.9030   -11.6680 
   71.1250  -999.2500    75.6120    22.9400     9.4200     7.7970     7.7470   -12.4430 
   71.2500  -999.2500    77.3590    22.9840     9.5470     7.6780     7.8170   -13.3460 
   71.3750  -999.2500    77.2490    22.9970     9.5040     7.7340     8.1150   -14.2130 
   71.5000  -999.2500    75.5340    23.0240     9.2190     7.9790     8.6350   -14.9630 
   71.6250  -999.2500    77.7190    23.0990     9.0660     8.5110     9.4180   -15.5720 
   71.7500  -999.2500    79.6200    23.1920     9.3290     9.2990    10.3600   -16.1200 
   71.8750  -999.2500    77.2540    23.1900     9.8010    10.2260    11.2670   -16.5780 
   72.0000  -999.2500    72.7790    23.0570    10.1650    11.0390    11.8520   -16.9090 
   72.1250  -999.2500    70.5850    22.7630    10.3180    11.3010    11.7810   -17.1640 
   72.2500  -999.2500    70.3110    22.4120    10.3130    10.9370    11.1810   -17.3310 
   72.3750  -999.2500    70.1080    22.2390    10.1840    10.1630    10.3060   -17.4080 
   72.5000  -999.2500    70.2740    22.3220    10.0290     9.3330     9.4530   -17.4450 
   72.6250  -999.2500    71.4350    22.4640     9.8680     8.7440     8.8910   -17.4270 
   72.7500  -999.2500    73.2920    22.5230     9.7150     8.4320     8.6480   -17.1940 
   72.8750  -999.2500    74.2200    22.5400     9.6580     8.3570     8.6740   -16.8600 
   73.0000  -999.2500    73.8400    22.5130     9.7390     8.4250     8.8550   -16.5660 
   73.1250  -999.2500    75.0310    22.4250     9.8330     8.5260     9.0580   -16.1910 
