~V
VERS. 2.00: Ver 2.00
~W
STRT.M 120.0000:
STOP.M 278.0000:
STEP.M 0.1250:
NULL. -999.2500:
UWI. DF3047:
~C
DEPT.M :
DEN.GM/CC :
SP.MV :
AC.US/MT :
GR.API :
CALI.CM :
RXO.OHMM :
RI. :
RML.OHMM :
~A
# ...
  190.0000     2.2290   -20.6420   377.1400    61.6660    26.6540    95.9080    82.5010    93.9540 
  190.1250     2.2290   -20.6880   375.3990    65.4590    26.5540    98.3250    86.4290    98.5610 
  190.2500     2.2330   -20.7360   373.6420    70.0590    26.5000    99.9730    88.7110   101.0480 
  190.3750     2.2410   -20.7700   372.9240    71.9780    26.5390   102.4490    88.6880   100.7390 
  190.5000     2.2500   -20.7850   373.7610    71.0250    26.6300   103.4340    86.7040    98.2370 
  190.6250     2.2590   -20.8020   375.5240    69.3840    26.6630    97.3600    84.1050    95.3490 
  190.7500     2.2690   -20.8160   376.7850    67.1520    26.6400    87.6340    82.5070    93.9310 
  190.8750     2.2820   -20.8450   377.0810    63.9140    26.6360    83.9710    82.7480    94.8400 
  191.0000     2.2930   -20.8770   376.9000    61.3670    26.6930    95.1660    84.9840    98.0750 
  191.1250     2.2980   -20.9240   377.2680    63.5670    26.7800   116.6640    88.5520   102.6140 
  191.2500     2.2970   -20.9830   378.3360    67.1970    26.8500   128.0180    91.7070   106.2880 
  191.3750     2.2930   -21.0550   379.4640    67.4830    26.8840   123.1720    93.1770   107.6050 
  191.5000     2.2870   -21.1260   379.9650    64.8530    26.8900   111.0090    92.4550   106.1940 
  191.6250     2.2820   -21.1840   379.8710    63.7870    26.9100   101.0440    89.9950   103.0250 
  191.7500     2.2760   -21.2280   380.1010    64.6810    26.9390    95.3750    87.4600   100.1930 
  191.8750     2.2680   -21.2500   381.0340    64.7220    26.9420    95.5220    85.8610    98.7700 
  192.0000     2.2620   -21.2720   382.1610    64.7350    26.9000    99.6660    85.5880    99.0050 
  192.1250     2.2660   -21.2760   382.0760    67.7850    26.8370   101.7040    86.6950   100.7950 
  192.2500     2.2740   -21.2540   380.1370    70.6290    26.7970    99.5800    88.6900   103.5210 
  192.3750     2.2790   -21.2200   376.6920    71.0360    26.7860    96.9000    91.4120   107.0040 
  192.5000     2.2790   -21.2020   373.0990    69.4200    26.7800    97.6530    94.8480   111.2350 
  192.6250     2.2770   -21.1890   371.7010    67.3030    26.7150   102.0840    99.1620   116.3370 
  192.7500     2.2720   -21.1790   373.3610    66.2940    26.5240   106.5420   104.0960   121.9590 
  192.8750     2.2620   -21.1770   377.4360    66.2300    26.1950   110.9930   109.2360   127.5400 
  193.0000     2.2510   -21.1660   381.8660    66.2950    25.9160   118.1870   113.7850   132.0710 
  193.1250     2.2470   -21.1450   383.6260    64.9000    25.9400   127.9440   116.1000   133.5040 
  193.2500     2.2490   -21.1290   382.0580    65.2830    26.1250   132.5770   115.2030   130.8360 
  193.3750     2.2530   -21.0940   378.3970    68.0150    26.2440   127.7600   110.6700   123.8570 
  193.5000     2.2560   -21.0190   374.9750    70.4220    26.2370   116.0260   103.1480   113.7580 
  193.6250     2.2560   -20.9160   373.9930    72.0340    26.2340   101.9180    94.2560   102.8780 
  193.7500     2.2560   -20.7910   374.9130    74.8220    26.2800    88.1820    86.1520    93.5420 
  193.8750     2.2590   -20.6430   376.3370    77.6110    26.3380    76.9670    79.9520    86.7430 
  194.0000     2.2660   -20.5070   376.9380    76.4490    26.3670    70.7410    75.9540    82.4900 
  194.1250     2.2760   -20.3670   376.0280    72.0850    26.3610    70.4660    73.8310    80.1180 
  194.2500     2.2850   -20.1920   374.4870    71.2660    26.3860    72.9100    72.3410    78.1930 
  194.3750     2.2930   -20.0120   373.3400    74.7710    26.4590    75.3350    70.8490    76.0910 
  194.5000     2.2980   -19.8480   373.1340    77.4210    26.5220    74.0730    69.1900    73.8110 
  194.6250     2.2990   -19.6960   373.4240    74.6340    26.5130    68.3400    67.8900    72.1760 
  194.7500     2.2960   -19.5520   373.3220    70.9580    26.4810    65.5220    67.6640    71.9880 
  194.8750     2.2930   -19.4260   372.9080    70.1340    26.4790    70.8670    68.9060    73.6010 
  195.0000     2.2870   -19.2920   372.9850    72.2320    26.5050    84.0100    71.5930    76.8760 
  195.1250     2.2740   -19.1650   374.2970    74.0210    26.5470    96.0500    75.3990    81.2300 
  195.2500     2.2510   -19.0700   376.0440    73.0260    26.6170    96.3910    78.8670    84.8000 
  195.3750     2.2180   -18.9980   377.1670    70.3150    26.6990    87.4850    80.1090    85.4080 
  195.5000     2.1860   -18.9370   377.3430    67.3340    26.7640    85.8790    77.8140    81.8600 
  195.6250     2.1760   -18.9050   377.7210    66.5870    26.8300    99.2710    72.3140    75.1240 
  195.7500     2.1900   -18.8980   379.5080    67.6370    26.8940    99.9840    66.4770    68.6200 
  195.8750     2.2090   -18.9250   382.3040    68.7810    26.9180    82.1870    62.4160    64.5750 
  196.0000     2.2160   -19.0060   384.3640    69.1440    26.9110    70.9850    61.5390    64.2560 
  196.1250     2.2210   -19.1440   383.5220    68.2150    26.9240    94.1320    64.7050    68.2760 
  196.2500     2.2400   -19.3060   380.1500    67.0180    26.9050   127.7390    70.1430    74.5700 
  196.3750     2.2650   -19.4910   375.4810    66.0070    26.7450   135.4230    75.8310    80.8320 
  196.5000     2.2790   -19.6980   370.9690    65.6940    26.4390   110.0670    79.5370    84.5210 
  196.6250     2.2740   -19.9240   368.0560    66.5380    26.1540    83.1620    79.5160    83.9030 
  196.7500     2.2640   -20.1560   367.1570    67.0570    26.0240    71.0030    77.5510    81.4690 
  196.8750     2.2600   -20.3760   368.4050    67.1520    26.0250    69.0360    75.8030    79.7650 
  197.0000     2.2640   -20.5730   371.5890    67.4110    26.0360    74.2190    75.5660    80.0140 
  197.1250     2.2650   -20.7350   376.1050    66.4430    25.9840    84.0510    76.7230    81.7970 
  197.2500     2.2590   -20.8840   380.4390    65.9220    25.9240    90.0980    77.8830    83.4380 
  197.3750     2.2520   -21.0280   383.3830    67.1080    25.8920    85.2110    78.2070    84.0070 
  197.5000     2.2550   -21.1470   384.2850    68.0870    25.8630    71.8900    77.4690    83.3410 
  197.6250     2.2660   -21.2290   383.3750    65.2810    25.8100    62.3140    76.0560    82.0060 
  197.7500     2.2680   -21.3050   382.4530    61.2980    25.7850    61.2190    74.7890    80.9210 
  197.8750     2.2550   -21.3620   382.9660    62.2560    25.8220    64.0260    74.0450    80.4230 
  198.0000     2.2360   -21.3850   385.3710    67.5430    25.8870    65.5090    73.8450    80.4390 
  198.1250     2.2280   -21.3950   388.4120    70.7150    25.9230    65.8580    73.9870    80.6650 
  198.2500     2.2320   -21.4020   389.8140    69.4830    26.0060    68.6650    74.1630    80.8110 
  198.3750     2.2390   -21.4010   388.5190    67.0870    26.2220    73.1340    74.3070    80.8770 
  198.5000     2.2420   -21.4000   384.9500    67.3700    26.5300    76.2720    74.4640    80.9880 
  198.6250     2.2450   -21.4010   380.7240    69.3410    26.7540    77.7740    74.6380    81.1970 
  198.7500     2.2520   -21.3840   377.5340    70.6420    26.8230    80.2250    74.7150    81.3580 
  198.8750     2.2620   -21.3660   375.8760    68.8920    26.7980    83.1490    74.5950    81.3470 
  199.0000     2.2720   -21.3600   375.3790    64.1940    26.7660    83.6160    74.3090    81.1970 
  199.1250     2.2780   -21.3520   375.2730    62.0160    26.7670    81.0310    74.0800    81.1830 
  199.2500     2.2780   -21.3200   375.0690    65.0680    26.7870    79.5210    74.1320    81.5580 
  199.3750     2.2690   -21.2660   374.9150    70.6910    26.8110    80.2710    74.5230    82.3730 
  199.5000     2.2560   -21.1910   375.0520    72.6110    26.8310    81.3850    75.1050    83.4240 
  199.6250     2.2470   -21.1020   375.4130    68.0730    26.8390    81.4900    75.4430    84.1440 
  199.7500     2.2430   -21.0250   375.5890    65.2460    26.8400    81.8920    75.0810    83.9870 
  199.8750     2.2400   -20.9620   375.5690    68.0760    26.8400    82.5090    73.8110    82.7690 
