~V
VERS. 2.00: Ver 2.00
~W
STRT.M 60.0000:
STOP.M 266.0000:
STEP.M 0.1250:
NULL. -999.2500:
UWI. DF3052:
~C
DEPT.M :
GR.API :
CALI.CM :
RXO.OHMM :
RI. :
RML.OHMM :
DEN.GM/CC :
SP.MV :
~A
# ...
  161.2500    58.6620    23.3320    16.9910    16.0910    17.5410     2.4580   -14.6990 
  161.3750    59.6180    23.3390    16.1760    15.9610    17.4300     2.4510   -15.1010 
  161.5000    58.6420    23.3430    15.8120    15.9130    17.4090     2.4580   -15.4920 
  161.6250    56.3410    23.3270    16.2230    15.8630    17.3810     2.4780   -15.8690 
  161.7500    55.5550    23.3040    16.6920    15.7330    17.2780     2.4980   -16.2240 
  161.8750    57.5570    23.2580    16.5860    15.5110    17.0730     2.5040   -16.5650 
  162.0000    61.4140    23.1730    15.8720    15.2290    16.8180     2.4950   -16.9000 
  162.1250    64.9120    23.1000    14.8870    15.0060    16.6620     2.4810   -17.2440 
  162.2500    67.3760    23.0920    13.7990    15.0130    16.8380     2.4710   -17.5980 
  162.3750    69.5400    23.1160    12.8560    15.4790    17.6820     2.4600   -17.9560 
  162.5000    71.6250    23.1050    12.4600    16.7480    19.6090     2.4400   -18.3210 
  162.6250    73.0240    23.0210    13.5990    19.2770    23.0500     2.4120   -18.6730 
  162.7500    73.5330    22.8810    16.9190    22.9290    27.6690     2.3830   -19.0320 
  162.8750    73.7470    22.6980    22.0400    27.5410    33.1580     2.3560   -19.3570 
  163.0000    74.0910    22.5450    27.1050    32.5990    38.9110     2.3280   -19.6600 
  163.1250    74.8160    22.5230    30.1260    37.4800    44.1100     2.3040   -19.9370 
  163.2500    76.3950    22.5890    31.4510    41.4340    48.0180     2.2930   -20.1670 
  163.3750    78.7690    22.6610    32.5880    44.0020    50.1960     2.2940   -20.3500 
  163.5000    80.4190    22.7460    34.5240    45.0160    50.5670     2.2950   -20.5030 
  163.6250    79.7540    22.9270    37.3820    44.5650    49.4580     2.2880   -20.6300 
  163.7500    78.4740    23.1400    40.1000    43.4500    47.9000     2.2790   -20.7290 
  163.8750    78.0230    23.3000    41.6460    42.0320    46.2840     2.2800   -20.8410 
  164.0000    78.2570    23.3920    41.0730    40.4710    44.6810     2.2900   -20.9470 
  164.1250    78.7290    23.4410    38.0950    38.6720    43.0800     2.3020   -21.0360 
  164.2500    79.8250    23.4200    34.0950    36.7020    41.5180     2.3130   -21.1440 
  164.3750    81.2900    23.3020    30.7400    34.9130    40.2110     2.3240   -21.2850 
  164.5000    81.8020    23.1610    29.8580    33.5430    39.3540     2.3320   -21.4490 
  164.6250    80.4090    23.1020    30.5050    32.9100    39.2270     2.3280   -21.6440 
  164.7500    78.5650    23.0950    30.8460    33.2230    40.0700     2.3160   -21.8670 
  164.8750    77.6580    23.0800    30.1900    34.7240    42.1590     2.3050   -22.1240 
  165.0000    78.1800    23.0250    29.9830    37.7830    45.8280     2.3040   -22.4130 
  165.1250    79.6620    22.9280    32.4500    42.8740    51.5240     2.3050   -22.7350 
  165.2500    80.8670    22.8220    36.9210    49.4940    58.6270     2.2980   -23.0730 
  165.3750    80.9590    22.7590    42.0450    57.0380    66.4930     2.2850   -23.3960 
  165.5000    79.8600    22.7890    45.8860    64.7680    74.3350     2.2750   -23.7070 
  165.6250    78.7780    22.8860    47.1540    71.3980    80.8530     2.2730   -24.0150 
  165.7500    78.4190    22.9810    47.0560    76.0390    85.2530     2.2700   -24.3030 
  165.8750    77.6200    23.0680    47.8320    78.1820    87.1390     2.2640   -24.5590 
  166.0000    75.4390    23.1440    50.8780    78.0680    86.9510     2.2570   -24.7860 
  166.1250    73.1080    23.1730    55.2640    76.3720    85.3100     2.2590   -24.9580 
  166.2500    72.5600    23.1640    58.0490    74.7320    83.8590     2.2710   -25.0770 
  166.3750    73.2630    23.1680    58.6270    73.9410    83.4400     2.2780   -25.1580 
  166.5000    73.5710    23.1800    57.8670    74.3690    84.3420     2.2720   -25.2040 
  166.6250    73.0030    23.1490    57.0020    76.3630    86.9210     2.2610   -25.1840 
  166.7500    72.6750    23.1220    56.5560    79.6480    90.8250     2.2580   -25.1410 
  166.8750    72.8770    23.1480    56.5900    84.1000    95.9130     2.2600   -25.0740 
  167.0000    73.2960    23.2300    57.8940    89.5160   101.9000     2.2530   -24.9890 
  167.1250    73.7820    23.3670    62.0320    95.2990   108.0780     2.2410   -24.9000 
  167.2500    74.0210    23.5590    67.8250   100.5180   113.5180     2.2380   -24.8110 
  167.3750    73.1460    23.7300    73.6090   104.4940   117.5390     2.2410   -24.7360 
  167.5000    70.9740    23.7820    77.9480   106.9700   119.8750     2.2400   -24.6780 
  167.6250    68.9240    23.7540    79.3790   107.5610   120.1610     2.2380   -24.6570 
  167.7500    67.6410    23.7560    79.0880   106.8040   118.8620     2.2410   -24.6550 
  167.8750    66.1950    23.7870    78.2990   105.1450   116.7470     2.2440   -24.6820 
  168.0000    64.6510    23.8130    77.3370   103.2360   114.5730     2.2490   -24.7410 
  168.1250    65.4630    23.8430    74.7320   101.8260   113.1510     2.2670   -24.8470 
  168.2500    68.7590    23.8770    71.4320   101.4100   113.0290     2.2950   -25.0140 
  168.3750    72.0180    23.8690    69.9880   102.3030   114.3390     2.3120   -25.2090 
  168.5000    72.9010    23.8230    72.5060   104.3560   116.8350     2.3000   -25.4070 
  168.6250    71.4730    23.8070    77.3310   107.3010   120.0910     2.2650   -25.6130 
  168.7500    69.8440    23.8330    80.8920   110.4700   123.4170     2.2350   -25.8260 
  168.8750    69.1620    23.8570    82.4660   113.2600   126.0680     2.2200   -26.0530 
  169.0000    69.9250    23.8300    83.0970   115.1820   127.4400     2.2200   -26.2760 
  169.1250    71.5380    23.7860    82.8990   115.5460   126.8850     2.2280   -26.4750 
  169.2500    72.6160    23.7890    82.0480   114.2410   124.5110     2.2380   -26.6220 
  169.3750    72.7590    23.8300    80.3740   111.4050   120.7250     2.2440   -26.7410 
  169.5000    72.1530    23.8500    77.8940   107.6210   116.2810     2.2450   -26.8600 
  169.6250    70.9480    23.7740    74.9070   103.4110   111.6010     2.2490   -26.9470 
  169.7500    69.8370    23.6210    72.0530    99.1170   107.0210     2.2590   -26.9870 
  169.8750    70.2100    23.4710    69.3960    95.3370   103.1360     2.2710   -26.9930 
  170.0000    72.6990    23.3930    66.8770    92.5040   100.4250     2.2790   -26.9680 
  170.1250    75.7680    23.3500    64.7700    91.0390    99.0610     2.2760   -26.9300 
  170.2500    77.2360    23.2570    63.5350    90.7530    98.7700     2.2670   -26.9010 
  170.3750    76.5150    23.1460    64.0270    91.3380    99.1080     2.2630   -26.8730 
  170.5000    74.2340    23.1050    66.4450    92.1650    99.5110     2.2740   -26.8410 
  170.6250    72.0650    23.1180    68.3020    92.6970    99.5970     2.2980   -26.8310 
  170.7500    71.6030    23.0950    67.6540    92.7000    99.2380     2.3190   -26.8570 
  170.8750    73.0050    23.0690    64.0410    92.2830    98.7130     2.3280   -26.9110 
  171.0000    74.9360    23.1380    59.3080    92.0400    98.6810     2.3240   -27.0190 
  171.1250    75.0930    23.3230    57.5150    92.9050   100.1300     2.3150   -27.1470 
  171.2500    73.2690    23.4990    59.3660    95.3060   103.2370     2.3120   -27.2980 
  171.3750    71.2160    23.5990    63.4820    99.2290   107.7460     2.3150   -27.4910 
  171.5000    70.5840    23.6200    67.5630   104.1760   113.0930     2.3160   -27.7160 
  171.6250    71.0850    23.5660    69.7520   109.1850   118.2320     2.3000   -27.9620 
  171.7500    71.3680    23.4630    69.0520   113.1250   122.0750     2.2730   -28.2140 
  171.8750    71.9450    23.3340    65.1860   115.0960   123.8250     2.2480   -28.4810 
  172.0000    73.8630    23.2030    59.0130   114.6000   123.1720     2.2340   -28.7320 
  172.1250    76.3320    23.0960    52.9990   111.9670   120.6780     2.2330   -28.9960 
  172.2500    76.8290    23.0270    49.2730   108.9060   117.8430     2.2370   -29.2710 
  172.3750    74.2170    22.9970    47.7670   106.1690   115.4350     2.2440   -29.5310 
