~V
VERS. 2.00: Ver 2.00
~W
STRT.M 110.0000:
STOP.M 266.0000:
STEP.M 0.1250:
NULL. -999.2500:
UWI. DF309:
~C
DEPT.M :
DEN.GM/CC :
SP.MV :
AC.US/MT :
GR.API :
CALI.CM :
RXO.OHMM :
RI. :
RML.OHMM :
~A
# ...
  220.0000     2.2550   -30.3650   373.0510    60.0480    24.5830    71.5980   108.4530   119.5940 
  220.1250     2.2430   -30.3700   365.7630    66.8960    24.4760    73.8740   110.4770   122.2940 
  220.2500     2.2250   -30.3600   367.9370    76.4050    24.4290    77.5600   111.7420   124.0790 
  220.3750     2.2210   -30.3420   376.6860    79.6810    24.4160    83.2500   111.9780   124.6930 
  220.5000     2.2360   -30.3000   385.9660    74.5210    24.3950    87.8520   111.0770   124.0710 
  220.6250     2.2540   -30.2320   389.8390    70.2050    24.3000    88.8030   108.8790   122.0750 
  220.7500     2.2640   -30.1460   388.7860    71.8820    24.1970    86.6240   105.7030   119.0060 
  220.8750     2.2630   -30.0630   385.9440    71.8010    24.0960    80.5040   101.8590   115.1350 
  221.0000     2.2540   -29.9540   384.6470    67.8640    23.9800    68.6730    97.9560   111.1090 
  221.1250     2.2410   -29.8490   386.5250    64.7850    23.8740    55.9990    95.0050   108.0930 
  221.2500     2.2300   -29.7670   389.3260    63.1630    23.8320    49.2630    93.4940   106.7160 
  221.3750     2.2260   -29.6850   390.7540    61.9630    23.8240    49.7870    93.5580   107.1880 
  221.5000     2.2320   -29.6080   389.5520    60.9280    23.8380    56.7600    95.0250   109.3390 
  221.6250     2.2580   -29.5520   383.5750    59.9040    23.9570    67.9100    97.5630   112.7900 
  221.7500     2.3100   -29.5170   369.2510    57.8160    24.2200    77.1480   100.1930   116.3870 
  221.8750     2.3950   -29.4790   342.7880    56.0970    24.4990    79.2710   101.7910   118.7860 
  222.0000     2.4970   -29.4380   307.5910    56.6980    24.5950    73.9800   101.0370   118.3060 
  222.1250     2.5580   -29.3880   281.3880    59.5330    24.4690    68.0560    96.3320   112.8630 
  222.2500     2.5420   -29.3390   279.7200    64.0770    24.2270    65.1330    88.5060   103.5570 
  222.3750     2.4590   -29.3060   303.2200    68.7230    23.9450    61.0600    79.0070    92.2990 
  222.5000     2.3540   -29.2730   338.3840    70.6020    23.7290    52.9760    69.7290    81.4440 
  222.6250     2.2730   -29.2100   366.3220    70.2240    23.6520    44.7420    62.5690    73.2270 
  222.7500     2.2310   -29.1410   381.3450    71.4100    23.6350    39.4360    57.7500    67.8290 
  222.8750     2.2290   -29.0730   387.2640    73.3680    23.6150    35.0190    55.0320    64.9210 
  223.0000     2.2480   -29.0040   389.6470    74.1890    23.5710    31.5290    53.9030    63.8260 
  223.1250     2.2620   -28.9200   391.2590    72.2580    23.5490    31.2080    53.7950    63.7040 
  223.2500     2.2590   -28.8230   391.6770    69.4280    23.5410    32.9410    53.9180    63.5200 
  223.3750     2.2540   -28.6880   389.5580    68.0830    23.5240    34.7040    53.9920    62.9550 
  223.5000     2.2620   -28.5260   384.4400    69.6270    23.4430    34.7980    54.0990    62.2760 
  223.6250     2.2850   -28.3640   377.6090    70.6700    23.2530    33.5600    54.5700    62.1610 
  223.7500     2.2990   -28.1780   371.8180    71.1370    23.0760    32.8170    55.1230    62.4610 
  223.8750     2.2970   -27.9540   368.6450    74.2540    22.9960    33.1700    54.4770    61.7440 
  224.0000     2.2880   -27.7080   368.4160    78.4780    23.0110    34.3090    50.7020    57.6770 
  224.1250     2.2970   -27.4640   370.4240    78.6090    23.2190    35.6540    42.3830    48.3590 
  224.2500     2.3290   -27.2060   373.1390    79.1250    23.6790    35.1350    32.4250    36.9150 
  224.3750     2.3670   -26.9600   376.3520    84.7760    24.2220    30.2700    23.5690    26.5000 
  224.5000     2.3950   -26.7150   380.3410    91.4520    24.6220    21.9860    17.1300    18.7790 
  224.6250     2.4040   -26.4660   384.1180    90.4970    24.7430    15.3250    13.3190    14.2220 
  224.7500     2.4050   -26.2100   385.0950    86.5880    24.7690    11.5560    11.0650    11.6620 
  224.8750     2.4040   -25.9650   381.8690    84.0930    24.7690     9.9250     9.8570    10.4450 
  225.0000     2.4060   -25.7430   376.0640    85.8810    24.7690     9.4320     9.3230    10.0150 
  225.1250     2.4130   -25.5710   372.2360    90.2380    24.7690     9.4350     9.1750     9.9000 
  225.2500     2.4250   -25.4850   372.5730    94.8220    24.7690     9.2700     9.1040     9.7380 
  225.3750     2.4390   -25.4850   376.0830    98.1770    24.7690     8.9660     9.0240     9.4800 
  225.5000     2.4490   -25.5670   380.5110    98.1980    24.7690     8.7540     8.9470     9.2160 
  225.6250     2.4540   -25.7520   383.5690    98.7870    24.7690     8.6000     8.9190     9.0640 
  225.7500     2.4570   -26.0120   384.5620   105.3510    24.7690     8.5030     8.9330     9.0270 
  225.8750     2.4530   -26.3330   384.1980   113.9980    24.7690     8.4870     8.9540     9.0600 
  226.0000     2.4380   -26.7260   384.1420   116.9400    24.7690     8.5690     8.9290     9.1000 
  226.1250     2.4190   -27.1570   386.0980   113.8950    24.7690     8.4660     8.8010     9.0840 
  226.2500     2.4110   -27.5770   389.3930   113.9650    24.7690     8.2070     8.5900     9.0130 
  226.3750     2.4180   -27.9960   392.6050   117.8630    24.7770     7.9790     8.3440     8.9290 
  226.5000     2.4260   -28.4490   394.3520   120.8090    24.7990     8.0120     8.1240     8.8890 
  226.6250     2.4230   -28.9350   393.1910   120.5250    24.8430     8.3440     7.9880     8.9440 
  226.7500     2.4160   -29.4620   389.4800   117.8410    24.8620     8.8480     7.9360     9.0770 
  226.8750     2.4130   -30.0350   384.4280   119.6230    24.8670     9.5890     7.9870     9.3060 
  227.0000     2.4150   -30.6290   379.9460   129.4150    24.8670    10.6250     8.2000     9.7150 
  227.1250     2.4170   -31.2260   377.3840   134.0580    24.8670    11.3350     8.7460    10.5540 
  227.2500     2.4120   -31.8120   375.5630   122.8420    24.8670    11.8370     9.7250    11.9870 
  227.3750     2.3950   -32.3450   373.4010   105.6420    24.8670    13.4640    11.2500    14.1740 
  227.5000     2.3710   -32.8080   370.7490    95.9630    24.8660    17.7650    13.3620    17.1230 
  227.6250     2.3550   -33.1800   368.2860    92.2390    24.8630    23.5050    15.9750    20.6100 
  227.7500     2.3530   -33.4780   366.3950    85.5000    24.8590    27.5850    18.6120    23.9480 
  227.8750     2.3600   -33.6980   364.9500    79.0600    24.8500    28.8600    20.8400    26.5600 
  228.0000     2.3660   -33.8520   363.4100    82.1130    24.8300    28.3830    22.4180    28.1840 
  228.1250     2.3700   -33.9450   361.1390    91.3000    24.7910    27.7670    23.4180    29.0300 
  228.2500     2.3720   -33.9920   358.7850    93.4660    24.7740    28.9260    24.2970    29.8180 
  228.3750     2.3720   -34.0260   357.8910    85.4780    24.7690    31.0790    25.2790    30.8730 
  228.5000     2.3700   -34.0270   359.6910    75.2370    24.7690    32.3910    26.4430    32.2530 
  228.6250     2.3670   -34.0040   363.7490    73.2500    24.7690    32.8780    27.8610    33.9900 
  228.7500     2.3680   -33.9670   367.4220    75.1460    24.7690    33.7500    29.4910    36.0040 
  228.8750     2.3700   -33.9340   369.1660    77.2150    24.7690    35.0320    31.1780    38.1060 
  229.0000     2.3710   -33.8790   368.9180    78.3840    24.7690    36.5190    32.5710    39.8490 
  229.1250     2.3640   -33.8050   368.0790    79.4730    24.7690    38.9010    33.0250    40.3560 
  229.2500     2.3530   -33.7340   368.5180    83.6000    24.7690    40.1230    32.3910    39.3720 
  229.3750     2.3400   -33.6750   370.8000    92.8570    24.7690    37.6740    30.9000    37.1820 
  229.5000     2.3280   -33.6590   373.8600   100.9390    24.7690    32.1490    29.1360    34.6170 
  229.6250     2.3250   -33.6800   375.2140    98.8880    24.7690    28.0900    27.8550    32.7770 
  229.7500     2.3300   -33.7390   374.0200    92.8240    24.7690    27.9280    27.3970    32.1270 
  229.8750     2.3430   -33.8230   371.3120    89.7490    24.7690    29.5270    27.8840    32.7710 
