~V
VERS. 2.00: Ver 2.00
~W
STRT.M 57.0000:
STOP.M 290.0000:
STEP.M 0.1250:
NULL. -999.2500:
UWI. DF3043:
~C
DEPT.M :
SP.MV :
DEN.GM/CC :
AC.US/MT :
GR.API :
CALI.CM :
RXO.OHMM :
RI. :
RML.OHMM :
~A
# ...
  207.0000    -8.5470     2.3480   403.2300    65.3930    23.5460     4.8440     5.2140     6.9410 
  207.1250    -8.6160     2.3480   403.5840    71.5760    23.4050     5.0380     5.4030     7.2480 
  207.2500    -8.7120     2.3640   401.8010    76.6360    23.2070     5.2890     5.6180     7.5800 
  207.3750    -8.8180     2.3880   396.0000    82.2450    22.9800     5.6700     5.8170     7.8480 
  207.5000    -8.9390     2.4070   387.5240    88.2530    22.6840     6.0460     5.9410     7.9490 
  207.6250    -9.0800     2.4140   383.8030    90.8260    22.2720     5.8030     5.9170     7.7850 
  207.7500    -9.2420     2.4160   389.2930    88.9020    21.9220     5.2630     5.7790     7.4570 
  207.8750    -9.4160     2.4160   399.7960    84.0520    21.7980     4.9760     5.5920     7.1040 
  208.0000    -9.5790     2.4140   407.0450    79.7100    21.8270     4.9370     5.4390     6.8680 
  208.1250    -9.7270     2.4050   406.8350    79.3440    21.8250     4.8710     5.4000     6.8670 
  208.2500    -9.8580     2.3940   404.3580    82.2090    21.8520     4.8600     5.4760     7.0460 
  208.3750    -9.9680     2.3800   402.7250    85.5410    21.9480     5.1780     5.6350     7.3170 
  208.5000   -10.0760     2.3640   401.2430    87.0190    21.9750     5.5480     5.8170     7.5620 
  208.6250   -10.1890     2.3550   398.1570    86.3570    21.8470     5.5540     5.9340     7.6480 
  208.7500   -10.3210     2.3560   394.0020    84.8740    21.7930     5.3600     5.9470     7.5740 
  208.8750   -10.4830     2.3700   389.3010    83.1890    21.9100     5.3800     5.8670     7.3960 
  209.0000   -10.6620     2.3920   384.5250    82.3350    22.1020     5.5870     5.7420     7.2010 
  209.1250   -10.8630     2.4090   380.9210    83.9080    22.1720     5.6920     5.6360     7.0740 
  209.2500   -11.0780     2.4170   379.9510    87.9270    22.0600     5.5980     5.5780     7.0300 
  209.3750   -11.3150     2.4150   380.5620    93.1270    21.8430     5.4650     5.5870     7.1000 
  209.5000   -11.5770     2.4110   380.0350    95.5080    21.7260     5.7790     5.7070     7.3870 
  209.6250   -11.8490     2.4110   377.5010    93.3660    21.8910     6.7890     6.0900     8.1820 
  209.7500   -12.1300     2.4160   373.8940    89.6810    22.1520     7.9930     6.8640     9.6670 
  209.8750   -12.4160     2.4260   363.6020    85.6540    22.3550     9.4430     8.2010    12.0230 
  210.0000   -12.7070     2.4450   337.2980    80.6500    22.4880    15.5440    10.2430    15.3140 
  210.1250   -13.0120     2.4750   295.6210    74.6550    22.5420    26.5990    13.0920    19.4300 
  210.2500   -13.3310     2.5050   262.9140    69.9960    22.5520    34.3930    16.3090    23.6440 
  210.3750   -13.6770     2.5140   258.0690    67.6270    22.5960    36.9910    19.4130    27.3440 
  210.5000   -14.0480     2.4880   282.7050    68.9080    22.7260    36.7900    22.0930    30.3570 
  210.6250   -14.4440     2.4200   305.1430    73.3110    22.8810    35.1190    24.5230    33.2790 
  210.7500   -14.8480     2.3310   338.6820    76.2810    23.0240    39.7410    27.3780    37.1030 
  210.8750   -15.2450     2.2480   370.1510    76.3060    23.1960    48.8930    31.1950    42.4710 
  211.0000   -15.6360     2.2000   389.3580    74.1210    23.3420    55.1350    36.1680    49.5190 
  211.1250   -16.0120     2.2100   387.7460    71.7180    23.3270    58.6640    42.0280    57.7010 
  211.2500   -16.3730     2.2540   370.0140    69.1340    23.2030    65.6760    47.7050    65.3500 
  211.3750   -16.7150     2.3040   336.7010    66.9750    22.9750    66.6020    52.2500    71.0110 
  211.5000   -17.0350     2.3370   295.7790    65.8990    22.5690    57.4470    55.0640    73.9240 
  211.6250   -17.3420     2.3350   276.5500    64.9970    22.0630    52.0200    55.8370    73.9740 
  211.7500   -17.6360     2.3050   294.2620    64.1590    21.7920    54.2430    55.1910    72.2710 
  211.8750   -17.9230     2.2630   334.9460    64.4030    21.8010    54.2990    53.5070    69.4220 
  212.0000   -18.1970     2.2270   370.7680    65.4270    21.8400    55.4240    51.3160    66.1950 
  212.1250   -18.4410     2.2090   387.9400    66.6110    21.7330    57.5450    49.4100    63.6940 
  212.2500   -18.6510     2.2090   394.0790    67.7110    21.7100    54.2770    48.4430    62.6370 
  212.3750   -18.8210     2.2190   396.4430    69.1740    21.9730    48.0040    48.9070    63.5320 
  212.5000   -18.9640     2.2320   397.2480    70.5020    22.4270    45.9590    51.1710    66.7170 
  212.6250   -19.0800     2.2380   397.3530    71.3520    22.8070    55.5360    55.5990    72.5500 
  212.7500   -19.1700     2.2330   398.5250    71.9910    23.0880    65.6400    61.3600    79.9080 
  212.8750   -19.2410     2.2180   400.9600    70.6350    23.4070    74.1870    67.4520    87.3360 
  213.0000   -19.2910     2.2020   403.8490    68.1780    23.7940    77.5120    72.5330    92.8060 
  213.1250   -19.3340     2.1940   406.1470    67.9830    24.0800    76.1420    74.9370    93.9790 
  213.2500   -19.3710     2.1950   407.3130    68.7950    24.2120    74.2270    74.8850    91.8550 
  213.3750   -19.3980     2.1990   406.7590    69.3700    24.2540    69.6030    73.3480    88.3470 
  213.5000   -19.4180     2.2020   404.8290    69.9870    24.2590    63.5080    71.6300    85.3320 
  213.6250   -19.4320     2.1990   403.0340    72.1480    24.2590    61.1290    70.9770    84.2270 
  213.7500   -19.4590     2.1950   401.8250    72.3860    24.2560    64.7750    71.6530    84.9430 
  213.8750   -19.4970     2.1930   399.8130    70.2310    24.2540    69.0990    73.3630    86.8950 
  214.0000   -19.5320     2.1990   396.1260    67.9180    24.2460    73.6010    75.2900    88.9200 
  214.1250   -19.5700     2.2070   392.2850    66.7250    24.2310    77.1690    76.0460    89.1700 
  214.2500   -19.6090     2.2120   390.7800    67.4260    24.2150    73.1850    74.9530    86.9970 
  214.3750   -19.6530     2.2110   391.9210    68.4480    24.2080    63.7980    72.2350    83.0720 
  214.5000   -19.7090     2.2070   394.4770    67.9010    24.2120    57.3030    69.0630    79.1990 
  214.6250   -19.7620     2.2070   396.7280    67.3160    24.2270    55.2780    67.5880    78.0570 
  214.7500   -19.8210     2.2170   397.1490    68.4480    24.2480    54.9030    69.4340    81.0950 
  214.8750   -19.8830     2.2360   394.5700    69.5570    24.2410    58.9020    76.0790    89.6510 
  215.0000   -19.9620     2.2530   388.7330    66.8570    24.1600    71.6420    88.9390   105.1650 
  215.1250   -20.0700     2.2530   381.8030    61.4710    24.0590   103.7920   110.3750   130.7540 
  215.2500   -20.1970     2.2420   378.5800    59.1010    24.0540   150.9120   138.7680   165.4980 
  215.3750   -20.3490     2.2270   381.9150    60.5050    24.1440   193.2330   171.4160   206.7710 
  215.5000   -20.5120     2.2180   390.7610    62.0860    24.2220   213.2270   203.5610   247.9290 
  215.6250   -20.6780     2.2120   399.6770    61.5770    24.2090   214.1450   228.9070   278.7580 
  215.7500   -20.8340     2.2090   404.1690    61.1070    24.1710   210.9350   246.2780   297.4600 
  215.8750   -20.9680     2.2050   404.5510    62.5470    24.1490   213.5110   256.0960   305.4200 
  216.0000   -21.0840     2.1960   403.5420    64.2850    24.1450   224.4230   258.2780   302.9540 
  216.1250   -21.1870     2.1830   402.9660    64.3650    24.1470   234.5720   249.6480   286.1400 
  216.2500   -21.2960     2.1730   402.5040    63.0010    24.1220   227.9530   231.3580   257.9050 
  216.3750   -21.4000     2.1740   402.0830    61.2260    24.0510   195.5100   206.2860   223.7500 
  216.5000   -21.4810     2.1830   401.6630    60.7710    23.8940   143.3550   179.3440   190.6190 
  216.6250   -21.5420     2.1920   400.4850    61.2990    23.6740   102.3670   156.1610   164.7590 
  216.7500   -21.6030     2.1980   398.5400    62.6160    23.5400    79.4640   138.9520   146.7550 
  216.8750   -21.6770     2.2030   396.9650    64.1150    23.5080    65.2550   128.3720   136.3580 
