~V
VERS. 2.00: Ver 2.00
~W
STRT.M 57.0000:
STOP.M 272.0000:
STEP.M 0.1250:
NULL. -999.2500:
UWI. DF3050:
~C
DEPT.M :
SP.MV :
GR.API :
CALI.CM :
RXO.OHMM :
RI. :
RML.OHMM :
DEN.GM/CC :
~A
# ...
  203.2500   -17.5180    57.7980    24.4650    30.1110    30.1820    35.1070     2.5660 
  203.3750   -17.5070    53.5000    24.4770    38.4540    26.7760    31.5350     2.5920 
  203.5000   -17.5740    52.4640    24.5140    45.6980    23.0730    27.4380     2.6180 
  203.6250   -17.6960    54.6230    24.5200    41.1110    19.0090    22.6610     2.6290 
  203.7500   -17.8410    54.9520    24.4350    31.2320    15.0660    17.6630     2.6160 
  203.8750   -17.9770    55.6930    24.4030    17.7120    11.6780    13.2110     2.5920 
  204.0000   -18.0710    58.6600    24.4220    10.9680     9.1230     9.8520     2.5650 
  204.1250   -18.1110    61.0570    24.3870     6.9740     7.4440     7.7590     2.5340 
  204.2500   -18.1260    61.7040    24.1820     4.4780     6.6980     7.0080     2.4960 
  204.3750   -18.1540    62.3790    24.2120     4.2930     6.5980     7.1490     2.4540 
  204.5000   -18.2410    63.8000    24.3010     5.2740     7.0240     7.9550     2.4190 
  204.6250   -18.4040    65.0380    24.4550     7.4020     7.8370     9.1890     2.4010 
  204.7500   -18.6460    67.5610    24.4850     9.6670     8.8940    10.6340     2.4020 
  204.8750   -18.9620    73.5170    24.5460    11.0740     9.9680    12.0470     2.4060 
  205.0000   -19.3280    79.9420    24.6950    11.8230    10.9130    13.2470     2.4040 
  205.1250   -19.7330    82.2430    24.7340    12.4430    11.6080    14.1240     2.3930 
  205.2500   -20.1190    81.0480    24.6250    13.3500    11.9700    14.6440     2.3780 
  205.3750   -20.4290    81.1710    24.4840    14.3420    12.0980    14.9600     2.3670 
  205.5000   -20.6290    81.5850    24.2590    14.6830    12.0920    15.1950     2.3550 
  205.6250   -20.7220    78.8600    24.1520    14.9580    12.0040    15.4140     2.3390 
  205.7500   -20.7400    76.6620    24.0280    15.8740    11.8800    15.6730     2.3280 
  205.8750   -20.7430    79.6410    24.0760    15.8590    11.7560    15.9930     2.3340 
  206.0000   -20.7550    85.4790    24.1170    14.3030    11.6550    16.3490     2.3490 
  206.1250   -20.7770    87.8140    24.1860    12.9280    11.5770    16.6840     2.3560 
  206.2500   -20.8160    84.0470    24.1710    13.8140    11.5060    16.9160     2.3440 
  206.3750   -20.8530    81.2860    24.1500    15.7540    11.4190    17.0340     2.3290 
  206.5000   -20.8480    82.3810    24.0680    17.3710    11.3510    17.0950     2.3280 
  206.6250   -20.8010    85.3490    24.0550    17.2550    11.3690    17.2530     2.3420 
  206.7500   -20.6940    87.1370    24.0680    15.6040    11.5770    17.7300     2.3560 
  206.8750   -20.4990    86.0280    24.1530    14.8710    12.0450    18.6870     2.3670 
  207.0000   -20.2440    82.1920    24.1600    15.0500    12.8310    20.2040     2.3790 
  207.1250   -19.9590    77.6190    24.2410    17.4620    13.9280    22.2010     2.3950 
  207.2500   -19.6370    75.9960    24.4190    21.9990    15.1730    24.2090     2.4140 
  207.3750   -19.3220    76.6860    24.4340    27.8230    16.0940    25.4810     2.4420 
  207.5000   -19.0470    78.4420    24.3790    31.5560    16.2950    25.4640     2.4800 
  207.6250   -18.7820    83.2150    24.3250    30.9020    15.6200    23.9780     2.5110 
  207.7500   -18.4980    90.2790    24.4020    26.5650    14.1720    21.3130     2.5080 
  207.8750   -18.1990    98.9300    24.4490    22.3430    12.4930    18.3960     2.4790 
  208.0000   -17.8640   108.1730    24.4700    16.8830    10.9320    15.8500     2.4500 
  208.1250   -17.4770   113.1750    24.4610    11.4150     9.7200    14.0870     2.4430 
  208.2500   -17.0660   108.6320    24.4700     8.2710     9.0300    13.3080     2.4560 
  208.3750   -16.6680   102.7770    24.4750     8.3630     8.7760    13.2250     2.4660 
  208.5000   -16.3110   104.2740    24.4780    10.0080     8.8700    13.5870     2.4570 
  208.6250   -16.0430   111.9240    24.4680    10.6720     9.2110    14.1790     2.4320 
  208.7500   -15.9010   118.3980    24.4640     9.9720     9.6080    14.6260     2.4050 
  208.8750   -15.8480   121.1610    24.4700     9.3470     9.8440    14.6790     2.3870 
  209.0000   -15.8220   120.5300    24.4640     9.0680     9.7750    14.2020     2.3770 
  209.1250   -15.8050   115.8720    24.4230     8.8250     9.3830    13.2060     2.3710 
  209.2500   -15.7590   107.3130    24.2460     8.9660     8.7140    11.8820     2.3700 
  209.3750   -15.6590    98.4920    24.1090     8.8720     7.9520    10.5410     2.3730 
  209.5000   -15.4710    86.6480    24.1260     7.4880     7.2330     9.3500     2.3780 
  209.6250   -15.2260    71.9100    24.0880     5.6240     6.6310     8.4130     2.3810 
  209.7500   -14.9690    60.3770    23.7370     4.7280     6.2340     7.8440     2.3750 
  209.8750   -14.7620    58.0370    23.7660     4.5770     6.0200     7.5750     2.3620 
  210.0000   -14.6640    61.8980    23.8680     4.6390     5.9490     7.5260     2.3520 
  210.1250   -14.6460    65.5160    24.0980     4.8090     5.9830     7.6360     2.3530 
  210.2500   -14.6990    68.3280    23.9690     4.9470     6.0840     7.8020     2.3630 
  210.3750   -14.8020    75.5720    24.0550     5.0620     6.2070     7.9500     2.3690 
  210.5000   -14.9450    87.1970    24.1250     5.1960     6.3150     8.0780     2.3690 
  210.6250   -15.0850    97.4200    23.9780     5.3110     6.4110     8.1950     2.3690 
  210.7500   -15.2030    99.8870    24.0210     5.3570     6.4780     8.2820     2.3770 
  210.8750   -15.2840    97.6020    24.1360     5.5150     6.4970     8.3120     2.3890 
  211.0000   -15.3280    93.9360    24.1250     5.6950     6.4530     8.2490     2.3920 
  211.1250   -15.3840    91.4210    24.1980     5.7160     6.3200     8.0630     2.3810 
  211.2500   -15.4940    91.7470    24.3230     5.8070     6.1470     7.8350     2.3570 
  211.3750   -15.6620    94.2090    24.4360     5.8650     6.0180     7.7230     2.3360 
  211.5000   -15.8800    96.5040    24.4980     5.8550     6.0120     7.8550     2.3290 
  211.6250   -16.1280    98.2650    24.4810     5.8820     6.2070     8.3650     2.3350 
  211.7500   -16.3660    99.6660    24.4440     6.3490     6.7050     9.4290     2.3430 
  211.8750   -16.5650    97.4870    24.4580     7.2750     7.4750    10.8540     2.3430 
  212.0000   -16.7220    90.1820    24.5180     9.7640     8.4400    12.4440     2.3360 
  212.1250   -16.8420    80.0040    24.6960    13.0740     9.4770    13.9550     2.3240 
  212.2500   -16.9090    75.9120    24.6750    16.2600    10.3390    15.0180     2.3130 
  212.3750   -16.9790    78.0170    24.5700    17.1880    10.8780    15.5260     2.3050 
  212.5000   -17.0770    81.9870    24.5730    16.0350    11.1010    15.6170     2.3040 
  212.6250   -17.2200    84.5610    24.7070    13.7770    11.1340    15.5790     2.3140 
  212.7500   -17.4220    84.5950    24.6940    12.5310    11.2660    15.9060     2.3220 
  212.8750   -17.6810    85.1860    24.6370    13.0340    11.7390    16.9170     2.3210 
  213.0000   -17.9490    86.4080    24.7130    15.2220    12.6860    18.7420     2.2820 
  213.1250   -18.1960    87.6190    24.7400    17.7870    14.1910    21.4220     2.2640 
  213.2500   -18.4130    87.9980    24.7370    19.9110    16.4390    25.1140     2.2710 
  213.3750   -18.5650    87.0690    24.7200    20.6980    19.3560    29.6340     2.2970 
  213.5000   -18.6810    83.4600    24.7370    23.6670    22.9010    34.8880     2.3320 
  213.6250   -18.7820    77.4750    24.7540    35.7310    27.0490    40.8760     2.3540 
  213.7500   -18.9100    73.1110    24.7510    46.1240    31.9010    47.7500     2.3530 
  213.8750   -19.0750    71.6810    24.6680    56.4670    37.2690    55.2670     2.3310 
  214.0000   -19.2850    70.5840    24.5650    68.5680    43.0840    63.3210     2.3030 
  214.1250   -19.5320    69.4530    24.5390    79.1040    49.2690    71.7530     2.2880 
  214.2500   -19.7880    70.9540    24.5810    71.3000    55.6230    80.4180     2.2870 
  214.3750   -20.0140    73.7580    24.5460    67.7200    61.9790    89.0110     2.2940 
