~V
VERS. 2.00: Ver 2.00
~W
STRT.M 64.0000:
STOP.M 268.0000:
STEP.M 0.1250:
NULL. -999.2500:
UWI. DF3073:
~C
DEPT.M :
SP.MV :
GR.API :
CALI.CM :
RXO.OHMM :
RI. :
RML.OHMM :
DEN.GM/CC :
~A
# ...
  187.7500   -31.5890    71.9960    24.9560    20.5950    75.1800    70.2130     2.3020 
  187.8750   -31.5720    64.9380    25.0930    39.8510   106.7370    97.1340     2.2570 
  188.0000   -31.4270    59.9070    25.1400    71.0710   151.3370   136.9280     2.2190 
  188.1250   -31.2690    58.6300    25.1400    96.8720   207.0560   193.0650     2.1910 
  188.2500   -31.2350    59.0260    25.1490   106.9060   259.5550   255.4130     2.1770 
  188.3750   -31.2200    59.6910    25.1560   111.1460   295.2090   306.8390     2.1810 
  188.5000   -31.1530    60.3560    25.1490   113.3090   307.8570   332.4580     2.1970 
  188.6250   -30.8770    60.8660    25.1330   107.7980   300.9370   333.5260     2.2100 
  188.7500   -30.4390    61.6640    25.0900   101.3520   290.1470   330.2660     2.2130 
  188.8750   -30.0200    62.0570    24.9600    94.0660   278.6340   322.8890     2.2050 
  189.0000   -29.6640    60.7780    24.8820    87.7280   262.0160   304.0660     2.1960 
  189.1250   -29.3290    57.9990    24.8450    85.2560   238.3910   272.5020     2.2090 
  189.2500   -28.9170    57.2050    24.7250    82.5480   211.2990   236.4790     2.2570 
  189.3750   -28.4960    59.8810    24.6880    79.4780   183.3200   201.2050     2.3260 
  189.5000   -28.0600    64.8650    24.6300    79.7130   157.0090   170.7920     2.3840 
  189.6250   -27.6910    68.8570    24.4710    71.2070   136.9380   149.9820     2.3910 
  189.7500   -27.3950    69.6070    24.2050    51.1800   123.1540   136.6780     2.3620 
  189.8750   -27.1040    65.8880    24.2100    40.8900   115.1270   129.3920     2.3250 
  190.0000   -26.8710    58.8630    24.3720    47.8880   111.6650   126.0330     2.3050 
  190.1250   -26.7030    53.8110    24.3970    59.5880   109.8100   123.4100     2.3110 
  190.2500   -26.5660    53.5350    24.3050    61.5110   107.0900   119.4540     2.3250 
  190.3750   -26.4100    56.1730    24.1750    54.6080   103.4460   114.5380     2.3370 
  190.5000   -26.2480    58.0230    24.0850    46.1660    99.3230   109.4210     2.3500 
  190.6250   -26.0670    58.0210    24.2800    43.6530    95.2460   104.9690     2.3690 
  190.7500   -25.8670    57.8510    24.5690    41.7280    91.9490   101.8760     2.3930 
  190.8750   -25.6720    58.0380    24.6890    44.1490    90.0680   100.3580     2.4170 
  191.0000   -25.4550    59.0670    24.8620    47.6180    88.9040    99.3850     2.4380 
  191.1250   -25.2250    58.6050    24.9440    56.2320    87.5770    97.8110     2.4410 
  191.2500   -24.9890    56.2670    24.9910    66.4910    85.9760    95.7810     2.4120 
  191.3750   -24.7570    53.1430    24.9590    70.7190    84.7030    94.4700     2.3580 
  191.5000   -24.4920    51.9790    24.9370    58.6840    84.8110    95.4960     2.3120 
  191.6250   -24.1970    54.6620    25.1040    44.8680    88.9390   101.4890     2.3230 
  191.7500   -23.9030    57.9950    25.1430    37.6980    96.6070   111.7790     2.3940 
  191.8750   -23.5810    58.1550    25.2080    38.4830   103.9510   122.1160     2.5080 
  192.0000   -23.2530    53.9680    24.9460    51.6320   104.5720   124.2810     2.6310 
  192.1250   -22.9070    48.5030    24.9110    71.7810    91.6090   109.1750     2.7180 
  192.2500   -22.5490    46.5270    25.0860    70.8640    70.5170    83.4470     2.7610 
  192.3750   -22.1990    49.0760    24.9820    58.4600    48.6340    56.7400     2.7630 
  192.5000   -21.8930    52.8540    24.9310    45.4290    30.8890    35.3960     2.7360 
  192.6250   -21.6350    54.9230    24.7930    31.4840    19.2600    22.0130     2.6990 
  192.7500   -21.3900    56.4900    24.5040    12.0760    11.9800    14.0280     2.6800 
  192.8750   -21.1620    57.2290    24.1680     6.2980     8.0570     9.7620     2.6780 
  193.0000   -20.9660    55.1900    23.9390     5.6810     6.2180     7.8380     2.6680 
  193.1250   -20.8300    50.8070    23.9070     5.7500     5.4930     7.3460     2.6240 
  193.2500   -20.7490    48.6570    23.9130     5.7400     5.3040     7.4510     2.5630 
  193.3750   -20.7190    49.4460    23.9670     5.6220     5.4540     7.8660     2.5080 
  193.5000   -20.7160    51.2770    23.9330     5.5960     5.7700     8.3410     2.4660 
  193.6250   -20.7350    52.9820    23.9070     5.6760     6.0900     8.6620     2.4390 
  193.7500   -20.7830    53.0080    23.8840     5.8230     6.3470     8.7880     2.4200 
  193.8750   -20.8530    50.9040    23.8770     5.9560     6.5410     8.8250     2.4070 
  194.0000   -20.9350    47.4500    23.9130     6.1170     6.6540     8.8120     2.3950 
  194.1250   -21.0210    44.9350    23.8920     6.1100     6.6720     8.8010     2.3830 
  194.2500   -21.1180    44.9560    23.8530     5.9480     6.6250     8.7920     2.3790 
  194.3750   -21.2340    46.1590    23.8680     5.8040     6.5410     8.8030     2.3870 
  194.5000   -21.3800    47.3450    23.8270     5.7880     6.4820     8.8950     2.4040 
  194.6250   -21.5510    50.5670    23.9250     5.8760     6.5030     9.1310     2.4270 
  194.7500   -21.7530    55.8000    23.9090     6.1070     6.5810     9.4620     2.4480 
  194.8750   -22.0180    60.4130    23.9610     6.4070     6.6890     9.8180     2.4630 
  195.0000   -22.3260    64.3780    24.0070     6.6800     6.8060    10.1250     2.4720 
  195.1250   -22.6490    70.6050    23.9720     7.0210     6.8850    10.3090     2.4750 
  195.2500   -22.9880    76.8290    23.9960     7.3290     6.9220    10.3950     2.4740 
  195.3750   -23.3310    81.8210    24.2100     7.2860     6.9410    10.4730     2.4680 
  195.5000   -23.6800    87.9140    24.3450     6.8700     6.9910    10.6160     2.4620 
  195.6250   -24.0720    97.7230    24.1020     6.5990     7.1360    10.9140     2.4670 
  195.7500   -24.4610   104.4160    24.0770     6.8000     7.3970    11.3740     2.4740 
  195.8750   -24.7810   103.0120    24.0570     7.2650     7.7510    11.9390     2.4750 
  196.0000   -25.0340    97.0460    24.0600     7.9190     8.1370    12.5030     2.4630 
  196.1250   -25.2630    93.9890    24.1840     8.5580     8.4600    12.8860     2.4410 
  196.2500   -25.5010    93.0040    24.2570     8.8980     8.6660    13.0350     2.4160 
  196.3750   -25.7710    90.5360    24.5490     9.1160     8.7920    13.0370     2.3960 
  196.5000   -26.0590    89.6980    24.5620     9.2900     8.9250    13.0600     2.3860 
  196.6250   -26.3110    94.7050    24.6540     9.0680     9.1600    13.2820     2.3900 
  196.7500   -26.5110    98.7070    24.6230     9.4130     9.5510    13.7520     2.4040 
  196.8750   -26.6510    96.5060    24.5670    10.2270    10.1270    14.4710     2.4240 
  197.0000   -26.7360    90.9710    24.2280    11.1560    10.8440    15.3340     2.4460 
  197.1250   -26.7530    87.7390    23.9030    12.6980    11.5490    16.1330     2.4620 
  197.2500   -26.6880    85.5900    23.7500    14.1720    12.0940    16.6680     2.4680 
  197.3750   -26.5490    84.3440    23.6750    14.0030    12.3680    16.8130     2.4650 
  197.5000   -26.3400    85.0710    23.6460    12.4030    12.3690    16.5860     2.4560 
  197.6250   -26.0670    88.7250    23.6220    12.2260    12.2150    16.2160     2.4470 
  197.7500   -25.7510    93.5530    23.6260    12.4620    12.0550    15.9180     2.4440 
  197.8750   -25.3580    98.3870    23.6320    12.5980    11.9400    15.7710     2.4490 
  198.0000   -24.8640   101.1010    23.6140    12.2370    11.8850    15.7630     2.4690 
  198.1250   -24.2780    98.2580    23.6600    11.9310    11.8200    15.7380     2.5060 
  198.2500   -23.6620    93.3580    23.7700    11.9670    11.5660    15.4530     2.5400 
  198.3750   -23.0460    90.2010    23.9500    12.4330    11.0310    14.8160     2.5460 
  198.5000   -22.4660    90.1920    24.1160    12.5340    10.2620    13.8400     2.5220 
  198.6250   -21.9220    94.4310    24.3170    11.4210     9.3900    12.6880     2.4880 
  198.7500   -21.4110    96.8090    24.2820     9.6000     8.6020    11.6500     2.4700 
  198.8750   -20.9550    90.7780    24.1490     8.0430     8.0080    10.8950     2.4700 
