~V
VERS. 2.00: Ver 2.00
~W
STRT.M 120.0000:
STOP.M 278.0000:
STEP.M 0.1250:
NULL. -999.2500:
UWI. DF3047:
~C
DEPT.M :
DEN.GM/CC :
SP.MV :
AC.US/MT :
GR.API :
CALI.CM :
RXO.OHMM :
RI. :
RML.OHMM :
~A
# ...
  150.0000     2.3280   -12.7220   392.8540    93.1950    26.5280     7.8730     4.6580     5.2370 
  150.1250     2.3290   -12.6310   392.4610    94.7750    26.4440     7.5460     4.6760     5.2680 
  150.2500     2.3310   -12.5430   393.2540    97.5320    26.4050     7.4730     4.6950     5.2860 
  150.3750     2.3290   -12.4690   393.6640    99.6880    26.4030     7.7700     4.7060     5.2910 
  150.5000     2.3270   -12.4070   392.0780    98.1050    26.3670     8.0550     4.7020     5.2920 
  150.6250     2.3300   -12.3710   388.1960    93.7650    26.2440     8.0840     4.6870     5.2970 
  150.7500     2.3330   -12.3630   384.4130    92.7790    26.1200     7.9760     4.6650     5.2950 
  150.8750     2.3320   -12.4060   382.8170    96.0170    26.0660     7.6910     4.6370     5.2730 
  151.0000     2.3280   -12.5320   384.2570   101.3010    26.0670     7.2880     4.6050     5.2250 
  151.1250     2.3220   -12.7830   388.0700   104.9270    26.0680     7.1090     4.5900     5.1920 
  151.2500     2.3130   -13.1430   391.9140   104.7510    26.0910     7.2280     4.6280     5.2500 
  151.3750     2.2990   -13.6100   394.3290   102.5260    26.1500     7.7800     4.7590     5.4620 
  151.5000     2.2790   -14.1790   394.6500    99.5130    26.1880     9.1840     5.0070     5.8610 
  151.6250     2.2530   -14.8040   392.5840    94.0670    26.1420    11.3520     5.3850     6.4450 
  151.7500     2.2260   -15.3980   388.9960    86.4020    26.0480    12.7810     5.8250     7.0900 
  151.8750     2.2140   -15.8900   384.8220    81.0250    25.9460    12.9830     6.2480     7.6590 
  152.0000     2.2220   -16.2250   381.4960    80.8220    25.8290    13.5300     6.5570     7.9970 
  152.1250     2.2340   -16.3350   381.0750    84.2930    25.6710    17.0360     6.6230     7.9240 
  152.2500     2.2380   -16.2560   383.6950    88.7210    25.5230    20.6370     6.4530     7.5040 
  152.3750     2.2460   -15.9700   388.3450    93.0440    25.4540    19.7390     6.1010     6.8650 
  152.5000     2.2810   -15.4960   393.0560    97.2830    25.4980    14.3110     5.6680     6.1880 
  152.6250     2.3330   -14.8970   395.0890   102.2200    25.6580     9.5290     5.2920     5.6940 
  152.7500     2.3740   -14.2900   393.2100   105.0130    25.8450     7.6370     5.0650     5.4860 
  152.8750     2.3960   -13.7330   387.1320   102.8150    25.9750     7.7950     5.0260     5.5930 
  153.0000     2.4130   -13.2570   378.0120    95.9030    26.0050     9.0770     5.1630     5.9660 
  153.1250     2.4290   -12.8900   369.0410    91.3810    26.0190    10.5690     5.4130     6.4480 
  153.2500     2.4330   -12.6050   363.8500    91.9620    26.1100    11.0030     5.6220     6.7730 
  153.3750     2.4200   -12.4190   363.9380    95.5060    26.2570     9.9510     5.6850     6.7700 
  153.5000     2.4040   -12.3120   367.8170    98.1340    26.3860     8.3760     5.5850     6.4650 
  153.6250     2.4030   -12.2660   370.3900    96.9740    26.4550     7.8900     5.4290     6.1120 
  153.7500     2.4210   -12.2300   366.5400    93.5140    26.5100     8.5460     5.4000     6.0380 
  153.8750     2.4590   -12.1860   353.9100    89.4740    26.5810    10.0920     5.6360     6.4500 
  154.0000     2.5130   -12.1400   333.1580    84.8750    26.6520    12.8490     6.2430     7.4720 
  154.1250     2.5720   -12.1020   307.3170    79.3830    26.6690    17.4000     7.3600     9.2400 
  154.2500     2.6220   -12.0760   282.0460    73.8900    26.6280    21.9830     8.8940    11.5310 
  154.3750     2.6570   -12.0530   260.9420    68.5840    26.5680    24.4370    10.7060    14.0620 
  154.5000     2.6720   -12.0300   245.8640    62.3130    26.5280    24.4480    12.5470    16.4400 
  154.6250     2.6660   -11.9960   237.5240    57.1460    26.5310    24.2530    14.1070    18.2580 
  154.7500     2.6510   -11.9480   233.2220    54.7800    26.5540    25.4580    15.3460    19.6050 
  154.8750     2.6360   -11.8980   231.2340    54.0300    26.5670    27.6650    16.3190    20.6400 
  155.0000     2.6270   -11.8440   230.3590    52.2500    26.5660    30.1530    17.0760    21.4460 
  155.1250     2.6310   -11.7890   230.1020    49.6560    26.5650    31.6040    17.5470    21.9090 
  155.2500     2.6420   -11.7320   230.1920    48.4800    26.5810    30.5770    17.7250    21.9960 
  155.3750     2.6500   -11.6700   230.4650    47.8610    26.6030    27.6810    17.6430    21.7720 
  155.5000     2.6510   -11.6130   230.6880    47.5690    26.6040    25.7630    17.4460    21.4690 
  155.6250     2.6490   -11.5700   230.5430    48.5740    26.5910    27.8540    17.3560    21.4080 
  155.7500     2.6490   -11.5440   229.9600    49.2090    26.5910    31.7780    17.4830    21.6750 
  155.8750     2.6420   -11.5280   229.1730    48.0880    26.6010    33.5550    17.8290    22.2090 
  156.0000     2.6250   -11.5220   228.7950    46.2590    26.5940    31.2260    18.3230    22.8630 
  156.1250     2.6090   -11.5200   229.7280    45.9980    26.5760    27.3130    18.8630    23.4770 
  156.2500     2.6030   -11.5110   231.6450    47.1880    26.5790    25.3370    19.3860    24.0350 
  156.3750     2.6010   -11.5070   233.3450    48.2360    26.5920    24.5380    19.9160    24.6400 
  156.5000     2.5940   -11.5110   233.2710    48.3980    26.5930    22.8790    20.5120    25.4120 
  156.6250     2.5910   -11.5220   230.2730    48.1330    26.5910    20.8790    21.2090    26.3950 
  156.7500     2.5940   -11.5440   225.9570    48.0490    26.5990    21.1800    21.9100    27.3710 
  156.8750     2.5970   -11.5790   222.5470    47.1160    26.6020    23.7800    22.4540    28.0470 
  157.0000     2.5880   -11.6310   222.0160    45.3110    26.5790    26.1320    22.6920    28.1780 
  157.1250     2.5690   -11.6970   225.5490    46.2280    26.5300    26.0180    22.5200    27.6430 
  157.2500     2.5520   -11.7720   231.5900    50.3760    26.4790    24.9030    22.0910    26.7580 
  157.3750     2.5380   -11.8530   238.8650    54.2210    26.4380    24.2680    21.5580    25.8070 
  157.5000     2.5190   -11.9320   246.4690    55.5000    26.3630    24.0180    21.0820    25.0370 
  157.6250     2.4980   -12.0030   253.8330    55.5550    26.1480    23.1900    20.8150    24.6450 
  157.7500     2.4900   -12.0620   260.5350    56.3640    25.8140    22.1670    20.7460    24.5650 
  157.8750     2.5040   -12.1040   266.0300    57.3190    25.4500    22.1830    20.8070    24.6660 
  158.0000     2.5280   -12.1260   269.7880    57.6540    25.1500    23.3980    20.8590    24.7360 
  158.1250     2.5350   -12.1150   271.2250    56.5300    24.9670    24.0140    20.6790    24.4470 
  158.2500     2.5250   -12.0960   270.9900    57.7120    24.8850    23.0370    20.1700    23.6850 
  158.3750     2.5130   -12.0670   269.7630    62.7770    24.9090    21.3080    19.3470    22.5060 
  158.5000     2.5060   -12.0190   268.2210    67.7560    25.0260    19.9670    18.3380    21.1380 
  158.6250     2.5000   -11.9590   266.5880    67.2260    25.2070    19.2210    17.3730    19.9400 
  158.7500     2.4960   -11.8990   264.5430    64.0850    25.3520    18.6870    16.6390    19.1380 
  158.8750     2.5050   -11.8490   261.8710    62.2590    25.3950    18.6690    16.2120    18.7920 
  159.0000     2.5230   -11.8070   259.0310    61.9830    25.3710    19.5500    16.0760    18.8330 
  159.1250     2.5260   -11.7850   257.4580    61.7390    25.4090    20.8730    16.1680    19.1200 
  159.2500     2.5180   -11.7690   257.8820    60.8320    25.5290    21.7310    16.3350    19.4330 
  159.3750     2.5180   -11.7710   259.9140    59.3950    25.6460    22.0540    16.5040    19.6850 
  159.5000     2.5390   -11.8000   262.2350    59.4290    25.6500    22.0060    16.6610    19.8830 
  159.6250     2.5600   -11.8450   263.2850    62.1460    25.5460    21.4030    16.8370    20.0930 
  159.7500     2.5670   -11.8820   263.0370    63.6130    25.5210    20.7370    17.0470    20.3360 
  159.8750     2.5610   -11.9110   262.2560    61.3320    25.6410    20.5540    17.2500    20.5430 
