~V
VERS. 2.00: Ver 2.00
~W
STRT.M 64.0000:
STOP.M 257.0000:
STEP.M 0.1250:
NULL. -999.2500:
UWI. DF3069:
~C
DEPT.M :
GR.API :
CALI.CM :
RXO.OHMM :
RI. :
RML.OHMM :
DEN.GM/CC :
SP.MV :
~A
# ...
  187.7500    86.9080    23.3720    11.3480     9.0250    13.6110     2.4280   -35.3010 
  187.8750    88.3250    23.3640    11.4950     9.2790    14.0430     2.4290   -35.2990 
  188.0000    91.6100    23.2570    12.8610     9.5920    14.5330     2.4290   -35.3010 
  188.1250    89.6200    23.2820    14.8620     9.8900    14.9290     2.4240   -35.3720 
  188.2500    85.2720    23.3490    16.1720    10.0990    15.1410     2.4220   -35.4350 
  188.3750    84.1040    23.2690    16.1540    10.1920    15.1500     2.4250   -35.4060 
  188.5000    88.0400    23.2420    15.6000    10.1870    14.9910     2.4330   -35.2400 
  188.6250    92.5240    23.3020    15.0220    10.1300    14.7820     2.4400   -34.9270 
  188.7500    92.8980    23.3040    14.2680    10.1010    14.6300     2.4370   -34.5990 
  188.8750    89.9310    23.3440    13.8560    10.1390    14.6140     2.4260   -34.3130 
  189.0000    86.7250    23.3510    14.1570    10.2370    14.7130     2.4210   -34.0440 
  189.1250    88.7360    23.3510    14.9890    10.2950    14.7170     2.4330   -33.7210 
  189.2500    93.0470    23.2910    15.5890    10.1850    14.4510     2.4410   -33.2820 
  189.3750    95.6580    23.3030    15.5660     9.8690    13.8850     2.4210   -32.7190 
  189.5000    96.0700    23.2380    15.1330     9.3790    13.0740     2.3770   -32.0740 
  189.6250    96.2530    23.2450    13.9790     8.7910    12.1780     2.3390   -31.4230 
  189.7500    95.5040    23.2800    12.5730     8.2400    11.3870     2.3340   -30.7810 
  189.8750    91.9090    23.2260    10.6190     7.8400    10.8630     2.3570   -30.0840 
  190.0000    86.2410    23.0280     8.7060     7.6300    10.6680     2.3900   -29.2860 
  190.1250    80.5710    23.2660     8.0920     7.6130    10.7610     2.4210   -28.4110 
  190.2500    78.6580    23.2940     9.0480     7.6930    10.9360     2.4510   -27.5200 
  190.3750    81.0640    23.2880    10.1870     7.7720    11.0200     2.4820   -26.7160 
  190.5000    83.6190    23.3280    10.5010     7.7610    10.9290     2.5030   -26.0650 
  190.6250    78.7200    23.2740    10.0590     7.6120    10.6240     2.5040   -25.5390 
  190.7500    68.3580    23.2770     9.1290     7.3740    10.1640     2.4950   -24.9890 
  190.8750    57.7930    23.2770     8.0590     7.0900     9.6600     2.4800   -24.4060 
  191.0000    50.8760    23.2700     7.3800     6.8340     9.2590     2.4620   -23.8690 
  191.1250    49.9120    23.3070     7.4430     6.6960     9.0880     2.4460   -23.4300 
  191.2500    51.6430    23.2810     7.5460     6.6530     9.0640     2.4410   -23.1460 
  191.3750    52.3400    23.2790     7.5570     6.6770     9.1240     2.4460   -22.9590 
  191.5000    50.6970    23.2790     7.5570     6.7340     9.1880     2.4530   -22.7530 
  191.6250    49.9530    23.2870     7.6180     6.8040     9.2020     2.4540   -22.4950 
  191.7500    53.0410    23.2730     7.6580     6.8600     9.1680     2.4450   -22.2770 
  191.8750    60.5310    23.2420     7.5970     6.9040     9.1130     2.4250   -22.1600 
  192.0000    69.3390    23.2290     7.4790     6.9450     9.0550     2.4050   -22.1490 
  192.1250    73.3410    23.1890     7.4160     6.9880     9.0110     2.4010   -22.2510 
  192.2500    73.0020    23.1270     7.5020     7.0280     9.0060     2.4160   -22.3600 
  192.3750    73.3260    23.2670     7.7250     7.0540     9.0040     2.4430   -22.4450 
  192.5000    77.7060    23.2670     8.0020     7.0480     8.9620     2.4690   -22.5210 
  192.6250    83.2530    23.2850     8.1340     6.9950     8.8370     2.4820   -22.6570 
  192.7500    86.0650    23.2980     7.9770     6.8980     8.6680     2.4790   -22.8810 
  192.8750    86.9120    23.2780     7.6650     6.7640     8.4850     2.4650   -23.1970 
  193.0000    86.4030    23.2820     7.4190     6.5980     8.2880     2.4480   -23.5150 
  193.1250    83.8230    23.3260     7.4170     6.4190     8.1290     2.4400   -23.7170 
  193.2500    82.6370    23.4610     7.4240     6.2700     8.0140     2.4350   -23.8600 
  193.3750    86.9120    23.6450     7.3250     6.1810     7.9870     2.4220   -24.0170 
  193.5000    94.5660    23.6110     7.1940     6.1760     8.0880     2.3960   -24.2900 
  193.6250    96.0570    23.6410     7.1340     6.3140     8.3630     2.3690   -24.6780 
  193.7500    92.7930    23.6880     7.2980     6.6080     8.7950     2.3530   -25.0770 
  193.8750    90.8700    23.6290     7.9940     7.0730     9.3800     2.3530   -25.4030 
  194.0000    90.9620    23.6130     9.0780     7.7030    10.1510     2.3620   -25.6630 
  194.1250    90.1240    23.6420    10.2120     8.4860    11.0990     2.3680   -25.9680 
  194.2500    90.0490    23.7240    11.2050     9.3020    12.0530     2.3680   -26.3640 
  194.3750    91.3560    23.6070    12.4660    10.0190    12.8160     2.3670   -26.8290 
  194.5000    90.7880    23.3260    14.2800    10.5840    13.3020     2.3690   -27.2850 
  194.6250    84.4270    23.2370    14.2880    10.9700    13.5560     2.3740   -27.6500 
  194.7500    77.9570    23.2670    13.5610    11.2320    13.6950     2.3850   -27.9260 
  194.8750    75.8590    23.4850    12.3390    11.4320    13.8060     2.4030   -28.1970 
  195.0000    76.2760    23.6080    11.7420    11.7000    14.0610     2.4220   -28.5420 
  195.1250    72.6790    23.7050    11.8110    12.1420    14.5660     2.4310   -28.9750 
  195.2500    68.0980    23.6700    14.4480    12.7530    15.2780     2.4360   -29.4260 
  195.3750    68.8540    23.6200    18.8430    13.4920    16.1630     2.4360   -29.8460 
  195.5000    74.4590    23.7150    21.3630    14.3080    17.1610     2.4240   -30.1890 
  195.6250    78.5950    23.7140    18.4450    15.0930    18.0320     2.3870   -30.5050 
  195.7500    80.4940    23.6370    17.3090    15.9110    18.8630     2.3450   -30.8900 
  195.8750    81.4800    23.6020    19.3750    16.8480    19.8470     2.3190   -31.3310 
  196.0000    79.8950    23.6430    21.4550    17.9970    21.1770     2.3160   -31.8110 
  196.1250    74.2420    23.6170    23.0280    19.7450    23.4100     2.3220   -32.2960 
  196.2500    71.0370    23.6140    25.3270    22.4810    26.9300     2.3220   -32.7230 
  196.3750    70.6820    23.6820    27.8500    26.5730    32.1200     2.3230   -33.1000 
  196.5000    68.1690    23.7230    32.0960    32.5810    39.4800     2.3380   -33.4830 
  196.6250    61.3230    23.6250    38.3290    41.6290    50.0750     2.3720   -33.9660 
  196.7500    56.9440    23.6370    48.9480    53.8360    63.8690     2.3980   -34.4990 
  196.8750    58.1240    23.7050    66.7010    69.2060    80.8160     2.3950   -35.0350 
  197.0000    61.7590    23.7600    88.3160    87.3450   100.6330     2.3570   -35.5080 
  197.1250    63.9660    23.8750    91.9740   106.8730   121.9740     2.3010   -35.8240 
  197.2500    65.9740    23.8910    98.7000   125.5120   142.4920     2.2560   -36.0940 
  197.3750    67.7270    23.8940   108.5850   142.0510   160.6030     2.2320   -36.4190 
  197.5000    68.5210    23.8670   110.5960   155.5420   175.0070     2.2230   -36.8200 
  197.6250    67.2310    23.8080   109.4030   163.0790   182.1680     2.2140   -37.1600 
  197.7500    64.3970    23.7190   111.6010   164.8900   182.8210     2.1980   -37.3840 
  197.8750    62.4970    23.7590   116.2070   161.5800   177.9800     2.1810   -37.4890 
  198.0000    63.5590    23.6200   117.6270   154.5970   169.5100     2.1750   -37.5330 
  198.1250    66.7280    23.6120   112.6150   146.3490   160.5580     2.1820   -37.6350 
  198.2500    67.5510    23.7050   103.7950   140.1040   154.6690     2.1920   -37.8320 
  198.3750    65.8040    23.8130    90.3360   138.4380   154.0260     2.2070   -38.0330 
  198.5000    62.8650    23.8990    80.3200   142.6340   159.6940     2.2420   -38.1560 
  198.6250    58.7820    23.8870    90.6720   153.2910   172.0500     2.3080   -38.2120 
  198.7500    56.2710    23.7770   108.0560   168.0850   188.6420     2.3710   -38.2650 
  198.8750    57.9280    23.5690   128.2040   184.3900   206.8060     2.3940   -38.3960 
