~V
VERS. 2.00: Ver 2.00
~W
STRT.M 60.0000:
STOP.M 251.0000:
STEP.M 0.1250:
NULL. -999.2500:
UWI. DF3020:
~C
DEPT.M :
GR.API :
RML.OHMM :
RI. :
RXO.OHMM :
CALI.CM :
DEN.GM/CC :
SP.MV :
~A
   60.0000  -999.2500  -999.2500  -999.2500  -999.2500  -999.2500  -999.2500    24.2030 
   60.1250  -999.2500  -999.2500  -999.2500  -999.2500  -999.2500  -999.2500    23.7910 
   60.2500  -999.2500  -999.2500  -999.2500  -999.2500  -999.2500  -999.2500    23.4550 
   60.3750  -999.2500  -999.2500  -999.2500  -999.2500  -999.2500  -999.2500    23.1880 
   60.5000  -999.2500  -999.2500  -999.2500  -999.2500  -999.2500  -999.2500    23.0070 
   60.6250  -999.2500  -999.2500  -999.2500  -999.2500  -999.2500  -999.2500    22.9170 
   60.7500  -999.2500  -999.2500  -999.2500  -999.2500  -999.2500  -999.2500    22.8570 
   60.8750  -999.2500  -999.2500  -999.2500  -999.2500  -999.2500  -999.2500    22.8430 
   61.0000  -999.2500  -999.2500  -999.2500  -999.2500  -999.2500  -999.2500    22.8110 
   61.1250  -999.2500  -999.2500  -999.2500  -999.2500  -999.2500  -999.2500    22.7940 
   61.2500  -999.2500  -999.2500  -999.2500  -999.2500  -999.2500  -999.2500    22.7440 
   61.3750  -999.2500  -999.2500  -999.2500  -999.2500  -999.2500  -999.2500    22.7070 
   61.5000  -999.2500  -999.2500  -999.2500  -999.2500  -999.2500  -999.2500    22.6710 
   61.6250  -999.2500  -999.2500  -999.2500  -999.2500  -999.2500  -999.2500    22.6050 
   61.7500  -999.2500  -999.2500  -999.2500  -999.2500  -999.2500  -999.2500    22.5920 
   61.8750  -999.2500  -999.2500  -999.2500  -999.2500  -999.2500  -999.2500    22.5690 
   62.0000  -999.2500  -999.2500  -999.2500  -999.2500  -999.2500  -999.2500    22.5980 
   62.1250  -999.2500  -999.2500  -999.2500  -999.2500  -999.2500  -999.2500    22.6140 
   62.2500  -999.2500  -999.2500  -999.2500  -999.2500  -999.2500  -999.2500    22.6340 
   62.3750  -999.2500  -999.2500  -999.2500  -999.2500  -999.2500  -999.2500    22.6220 
   62.5000  -999.2500  -999.2500  -999.2500  -999.2500  -999.2500  -999.2500    22.5920 
   62.6250  -999.2500  -999.2500  -999.2500  -999.2500  -999.2500  -999.2500    22.5700 
   62.7500  -999.2500  -999.2500  -999.2500  -999.2500  -999.2500  -999.2500    22.5460 
   62.8750  -999.2500  -999.2500  -999.2500  -999.2500  -999.2500  -999.2500    22.5400 
   63.0000    75.2530     2.6520     0.6950     0.7660    25.3330  -999.2500    22.5300 
   63.1250    75.2530     2.6520     0.6950     0.7660    25.3330  -999.2500    22.5300 
   63.2500    73.2120     2.6220     0.7070     0.9030    25.3330  -999.2500    22.5180 
   63.3750    68.8990     2.5270     0.7450     1.3310    25.3330  -999.2500    22.5060 
   63.5000    67.4330     2.4200     0.7890     2.9230    25.3330  -999.2500    22.4940 
   63.6250    69.6410     2.3320     0.8270     4.9790    25.3330  -999.2500    22.4530 
   63.7500    72.1040     2.2760     0.8580     7.3840    25.3330  -999.2500    22.3690 
   63.8750    71.8120     2.2540     0.8860    12.5100    25.3330  -999.2500    22.2340 
   64.0000    68.0180     2.2650     0.9160    12.7360    25.3330  -999.2500    22.0180 
   64.1250    63.8180     2.2980     0.9530     4.6030    25.3330  -999.2500    21.7220 
   64.2500    63.5740     2.3260     1.0000     2.2970    25.3330  -999.2500    21.3590 
   64.3750    67.3810     2.3300     1.0560     2.6020    25.3330  -999.2500    21.0410 
   64.5000    70.9760     2.2940     1.1180     3.1250    25.3330  -999.2500    20.7850 
   64.6250    70.5880     2.2100     1.1780     4.6990    25.3330  -999.2500    20.7020 
   64.7500    68.5810     2.0940     1.2200     6.4380    25.3330  -999.2500    20.8250 
   64.8750    65.7700     1.9620     1.2370     8.3760    25.3330  -999.2500    21.2030 
   65.0000    61.2760     1.8390     1.2320     4.0910    25.3330  -999.2500    21.8900 
   65.1250    55.6050     1.7620     1.2130     1.1760    25.3210  -999.2500    22.9320 
   65.2500    52.6580     1.7240     1.1830     0.6840    25.2490  -999.2500    24.3100 
   65.3750    52.3640     1.6830     1.1240     1.3260    25.0980  -999.2500    25.8570 
   65.5000    52.4490     1.5590     1.0100     2.6590    24.9400  -999.2500    27.4870 
   65.6250    50.8280     1.2530     0.8150     3.9710    24.8230  -999.2500    28.9090 
   65.7500    47.7880     0.8360     0.5730     4.2800    24.8030  -999.2500    29.8300 
   65.8750    45.1580     0.4610     0.3430     4.7580    24.8050  -999.2500    29.9370 
   66.0000    43.7300     0.2330     0.1750     3.4070    24.8280  -999.2500    28.9390 
   66.1250    43.2600     0.1480     0.0890     2.2920    24.9720  -999.2500    26.3130 
   66.2500    44.1970     0.1370     0.0590     1.5100    25.1270  -999.2500    22.0970 
   66.3750    46.5150     0.2020     0.0980     0.5890    25.2550  -999.2500    16.3480 
   66.5000    50.3680     0.3900     0.2610     0.8640    25.1930  -999.2500     9.4080 
   66.6250    57.5010     0.8180     0.6800     2.0550    25.0770  -999.2500     1.7830 
   66.7500    66.6710     1.4960     1.3980     5.2890    24.9860  -999.2500    -5.8230 
   66.8750    73.4850     2.3820     2.4070     8.2430    24.8070  -999.2500   -13.0410 
   67.0000    74.5230     3.3350     3.5850     8.7740    24.5540  -999.2500   -19.4740 
   67.1250    72.5760     4.1180     4.6790     9.1530    23.5870  -999.2500   -24.6510 
   67.2500    72.2080     4.6380     5.5160     9.3310    23.5810  -999.2500   -28.4890 
   67.3750    73.8970     4.9550     6.0760     9.1570    23.5800  -999.2500   -30.9850 
   67.5000    77.4150     5.1810     6.4340     8.7270    23.5800  -999.2500   -32.4250 
   67.6250    83.1570     5.3990     6.6870     8.4190    23.5800  -999.2500   -33.1090 
   67.7500    88.8530     5.6480     6.9390     8.1910    23.5800  -999.2500   -33.5390 
   67.8750    90.6910     5.9310     7.2180     8.0080    23.5800  -999.2500   -33.7540 
   68.0000    86.7030     6.2160     7.4850     8.2140    23.5800  -999.2500   -33.9020 
   68.1250    81.8270     6.4210     7.6310     8.9840    23.5800  -999.2500   -33.9930 
   68.2500    81.5810     6.4920     7.5930     9.7740    23.5800  -999.2500   -34.1100 
   68.3750    83.4310     6.4240     7.3730     9.6960    23.5800  -999.2500   -34.2690 
   68.5000    86.2860     6.2790     7.0530     8.3050    23.5800  -999.2500   -34.4700 
   68.6250    91.9040     6.1840     6.7810     7.4070    23.5800  -999.2500   -34.7420 
   68.7500    97.5360     6.2150     6.6580     6.8850    23.5720  -999.2500   -35.0410 
   68.8750    99.1850     6.3750     6.7060     6.9060    23.5400  -999.2500   -35.4220 
   69.0000    97.4810     6.6020     6.8790     7.3950    23.4700  -999.2500   -35.8430 
   69.1250    96.0150     6.7780     7.0780     7.9500    23.4350  -999.2500   -36.2650 
   69.2500    93.7620     6.8210     7.2040     7.9740    23.4310  -999.2500   -36.6640 
   69.3750    90.0710     6.7270     7.2220     7.8300    23.4740  -999.2500   -37.0270 
   69.5000    85.6550     6.5550     7.1500     7.4290    23.5800  -999.2500   -37.3200 
   69.6250    81.6710     6.3960     7.0430     7.2010    23.7160  -999.2500   -37.5770 
   69.7500    80.2820     6.3010     6.9560     7.2120    23.9030  -999.2500   -37.7970 
   69.8750    80.3950     6.2730     6.9080     7.5800    24.2430  -999.2500   -37.9610 
   70.0000    79.5330     6.2950     6.8970     8.1830    24.6440  -999.2500   -38.0590 
   70.1250    77.4630     6.3580     6.9340     8.6940    24.9020  -999.2500   -38.1380 
   70.2500    75.8360     6.4770     7.0400     8.6720    24.8770  -999.2500   -38.1510 
   70.3750    73.4140     6.6870     7.2370     8.5180    24.7680  -999.2500   -38.1220 
   70.5000    69.9010     6.9940     7.5090     8.4190    24.6900  -999.2500   -38.0280 
   70.6250    71.1990     7.3340     7.7580     8.7530    24.6250  -999.2500   -37.8420 
   70.7500    77.2570     7.5670     7.8570     9.4510    24.5470  -999.2500   -37.5520 
   70.8750    84.7670     7.5770     7.7210    10.5780    24.5370  -999.2500   -37.1800 
   71.0000    92.4540     7.3260     7.3520    11.2680    24.5570  -999.2500   -36.8440 
   71.1250   100.2900     6.9070     6.8460    10.0150    24.5450  -999.2500   -36.5320 
