~V
VERS. 2.00: Ver 2.00
~W
STRT.M 60.0000:
STOP.M 251.0000:
STEP.M 0.1250:
NULL. -999.2500:
UWI. DF3020:
~C
DEPT.M :
GR.API :
RML.OHMM :
RI. :
RXO.OHMM :
CALI.CM :
DEN.GM/CC :
SP.MV :
~A
# ...
  127.5000    73.5730     9.0970     7.7720     8.4570    24.0580     2.2100   -39.3590 
  127.6250    72.4780     9.2180     7.8760     8.5780    24.1510     2.2110   -39.3680 
  127.7500    73.6180     9.1890     7.8660     8.6830    24.2850     2.2210   -39.2950 
  127.8750    76.0020     8.9980     7.7280     8.8220    24.4590     2.2410   -39.1850 
  128.0000    77.6090     8.6950     7.4940     9.0230    24.6090     2.2700   -38.9990 
  128.1250    80.0740     8.4080     7.2530     8.9440    24.6620     2.3040   -38.8170 
  128.2500    82.4510     8.2690     7.1070     8.5200    24.6740     2.3300   -38.6390 
  128.3750    83.1800     8.3340     7.1060     7.8520    24.6740     2.3400   -38.5110 
  128.5000    82.2260     8.5750     7.2410     7.5880    24.6740     2.3300   -38.3820 
  128.6250    80.1310     8.8820     7.4520     7.8780    24.6760     2.3010   -38.2830 
  128.7500    76.4550     9.1100     7.6320     8.4210    24.7000     2.2670   -38.1540 
  128.8750    71.2970     9.1980     7.7280     8.5480    24.7790     2.2380   -38.0190 
  129.0000    68.5180     9.1820     7.7480     8.4570    24.9150     2.2250   -37.8390 
  129.1250    71.2660     9.1900     7.7690     8.3150    25.0800     2.2370   -37.6230 
  129.2500    74.4170     9.3290     7.8780     8.0490    25.1550     2.2680   -37.3360 
  129.3750    72.6810     9.6120     8.1030     7.9490    25.1500     2.3070   -37.0210 
  129.5000    66.9160     9.9680     8.4110     8.3980    25.1150     2.3380   -36.6730 
  129.6250    63.0170    10.2510     8.7080     9.1110    25.1260     2.3460   -36.3930 
  129.7500    63.2530    10.3680     8.9060     9.6800    25.1550     2.3360   -36.1460 
  129.8750    65.5460    10.3040     8.9680     9.7700    25.2000     2.3200   -35.9400 
  130.0000    68.9950    10.1040     8.8970     9.4960    25.2640     2.3080   -35.7700 
  130.1250    73.1850     9.8270     8.7140     9.1680    25.3660     2.3060   -35.6180 
  130.2500    74.9630     9.5200     8.4590     8.8760    25.4130     2.3050   -35.4740 
  130.3750    75.0540     9.1660     8.1330     8.7950    25.4230     2.2960   -35.2670 
  130.5000    75.9270     8.7330     7.7240     8.6610    25.4190     2.2790   -35.0070 
  130.6250    77.2260     8.1810     7.2120     8.3090    25.4180     2.2570   -34.5600 
  130.7500    78.9240     7.5490     6.6370     7.6010    25.4190     2.2430   -34.0520 
  130.8750    82.4010     6.9010     6.0540     6.9010    25.4190     2.2420   -33.4940 
  131.0000    88.0400     6.3260     5.5330     6.3720    25.4170     2.2550   -33.0300 
  131.1250    91.2340     5.9700     5.1870     5.7220    25.4130     2.2760   -32.6650 
  131.2500    90.1190     5.9030     5.0740     5.4420    25.3870     2.2890   -32.4710 
  131.3750    87.4570     6.1830     5.2470     5.5820    25.3280     2.2810   -32.4280 
  131.5000    85.6060     6.8020     5.7160     6.0590    25.2850     2.2550   -32.5410 
  131.6250    84.5020     7.6540     6.4270     7.0730    25.2730     2.2290   -32.7860 
  131.7500    81.1710     8.4500     7.1470     8.3530    25.2760     2.2290   -33.0720 
  131.8750    75.5210     8.9340     7.6580     9.7820    25.2730     2.2640   -33.3460 
  132.0000    72.1220     8.9370     7.7860    12.0320    25.2710     2.3220   -33.5180 
  132.1250    74.2780     8.4210     7.4400    13.2960    25.2700     2.3690   -33.6160 
  132.2500    79.4880     7.7130     6.8570    11.4340    25.2700     2.3790   -33.5970 
  132.3750    84.3290     7.0890     6.2580     7.9960    25.2710     2.3510   -33.5330 
  132.5000    87.4160     6.7380     5.8270     6.5370    25.2740     2.3050   -33.4750 
  132.6250    85.8490     6.7930     5.7140     6.5850    25.2710     2.2640   -33.5530 
  132.7500    81.3790     7.1520     5.8830     6.7770    25.2700     2.2400   -33.7560 
  132.8750    79.8440     7.6990     6.2700     7.2160    25.2700     2.2320   -34.1280 
  133.0000    81.9380     8.2710     6.7590     7.9780    25.2700     2.2380   -34.5560 
  133.1250    83.6800     8.6810     7.2000     8.8440    25.2700     2.2550   -35.0120 
  133.2500    81.9400     8.8970     7.5180     9.4280    25.2700     2.2770   -35.4190 
  133.3750    77.7870     8.9960     7.7280     9.8110    24.9890     2.3020   -35.7630 
  133.5000    75.2170     9.1100     7.9000    10.0960    24.9360     2.3330   -35.9900 
  133.6250    75.8550     9.3670     8.1220    10.1750    24.9280     2.3660   -36.0750 
  133.7500    75.9780     9.7290     8.4000    10.2560    24.9330     2.3900   -36.0970 
  133.8750    72.2570    10.0660     8.6630    11.3780    24.9330     2.3910   -36.0220 
  134.0000    67.8000    10.1980     8.7860    13.3160    24.9330     2.3640   -35.9350 
  134.1250    69.1120     9.9220     8.6020    11.3700    24.9330     2.3180   -35.7090 
  134.2500    73.3270     9.2970     8.1240     9.3870    24.9400     2.2740   -35.4100 
  134.3750    75.5810     8.4470     7.4310     8.6600    24.9730     2.2410   -34.9740 
  134.5000    77.1130     7.5560     6.6660     8.0200    25.1790     2.2220   -34.4520 
  134.6250    83.4710     6.8400     6.0130     6.7880    25.3380     2.2180   -33.8610 
  134.7500    92.4510     6.4030     5.5810     5.6330    25.5440     2.2260   -33.2770 
  134.8750    99.6720     6.3100     5.4360     5.3900    25.7920     2.2490   -32.7290 
  135.0000   101.1870     6.5940     5.6110     5.7960    25.8600     2.2890   -32.1870 
  135.1250    97.3060     7.2630     6.1250     6.4060    25.8650     2.3440   -31.7970 
  135.2500    91.3150     8.1020     6.8090     7.2010    25.8490     2.3950   -31.5680 
  135.3750    84.9860     8.8910     7.4850     8.6280    25.7600     2.4210   -31.5590 
  135.5000    80.8440     9.3930     7.9580    10.2910    25.6080     2.4110   -31.7110 
  135.6250    79.3040     9.3770     8.0230    10.9330    25.4730     2.3650   -31.9250 
  135.7500    80.6320     8.9620     7.7470     9.0940    25.2380     2.3140   -31.9980 
  135.8750    84.2090     8.3380     7.2650     8.2390    25.1820     2.2770   -31.9340 
  136.0000    88.3900     7.7100     6.7410     7.7520    25.1040     2.2630   -31.7600 
  136.1250    91.9170     7.2450     6.3230     6.9070    25.7060     2.2650   -31.5420 
  136.2500    94.7180     6.9510     6.0390     6.1210    25.8410     2.2710   -31.2140 
  136.3750    96.9420     6.7950     5.8740     5.8880    25.8820     2.2780   -30.7760 
  136.5000    98.7630     6.7290     5.7980     6.0500    25.8850     2.2860   -30.2280 
  136.6250   101.4890     6.7180     5.7860     5.8170    25.8850     2.2990   -29.6740 
  136.7500   106.7160     6.7190     5.8030     5.6580    25.8850     2.3160   -29.2270 
  136.8750   111.7500     6.7040     5.8230     5.5150    25.8850     2.3330   -28.8850 
  137.0000   113.6260     6.6510     5.8250     5.4430    25.8850     2.3470   -28.6530 
  137.1250   111.5410     6.5390     5.7810     5.3700    25.8850     2.3530   -28.4320 
  137.2500   109.1920     6.3770     5.6880     5.2970    25.8850     2.3520   -28.2900 
  137.3750   108.6550     6.1860     5.5540     5.2980    25.8850     2.3440   -28.1900 
  137.5000   108.3670     6.0110     5.4100     5.2510    25.8850     2.3310   -28.1590 
  137.6250   106.5330     5.9360     5.3200     5.1460    25.8850     2.3180   -28.1380 
  137.7500   104.3470     6.0080     5.3350     5.1860    25.8850     2.3110   -28.1560 
  137.8750   104.4590     6.2340     5.4750     5.3050    25.8850     2.3130   -28.1560 
  138.0000   105.3530     6.5630     5.7090     5.6280    25.8850     2.3230   -28.1710 
  138.1250    99.7800     6.8740     5.9520     6.1210    25.8860     2.3320   -28.1940 
  138.2500    91.0440     7.0360     6.0970     6.9050    25.9060     2.3310   -28.2050 
  138.3750    87.6010     6.9800     6.0780     7.5810    25.9900     2.3180   -28.2160 
  138.5000    92.4930     6.7210     5.8940     6.7970    26.1700     2.3010   -28.2080 
  138.6250    97.4800     6.3620     5.6070     6.0590    26.1500     2.2890   -28.1680 
