~V
VERS. 2.00: Ver 2.00
~W
STRT.M 61.0000:
STOP.M 318.0000:
STEP.M 0.1250:
NULL. -999.2500:
UWI. DF302:
~C
DEPT.M :
DEN.GM/CC :
SP.MV :
AC.US/MT :
GR.API :
CALI.CM :
RXO.OHMM :
RI. :
RML.OHMM :
~A
# ...
  131.0000  -999.2500   -23.3220  -999.2500    67.4740    23.5760     9.1320     6.5180     8.4440 
  131.1250  -999.2500   -23.4270  -999.2500    66.5140    23.5790     9.4460     6.5010     8.3070 
  131.2500  -999.2500   -23.3470  -999.2500    67.4140    23.5850     9.5710     6.6580     8.5560 
  131.3750  -999.2500   -23.1360  -999.2500    69.2360    23.6000     9.6820     7.1050     9.3590 
  131.5000  -999.2500   -22.8560  -999.2500    68.1490    23.6450    10.0470     7.9630    10.8530 
  131.6250  -999.2500   -22.5680  -999.2500    64.1450    23.7050    11.1330     9.4140    13.2240 
  131.7500  -999.2500   -22.3270  -999.2500    61.9170    23.7110    13.3890    11.3030    16.1230 
  131.8750  -999.2500   -22.1780  -999.2500    62.4860    23.6750    16.8000    13.2350    18.8260 
  132.0000  -999.2500   -22.1560  -999.2500    65.2550    23.6700    19.3110    14.4630    20.0990 
  132.1250  -999.2500   -22.3030  -999.2500    67.8130    23.6910    17.6560    14.0750    18.7020 
  132.2500  -999.2500   -22.5890  -999.2500    68.8430    23.6210    13.7110    12.5460    15.8310 
  132.3750  -999.2500   -22.9780  -999.2500    69.7060    23.4420    10.5710    10.6340    12.8220 
  132.5000  -999.2500   -23.4370  -999.2500    71.5010    23.2610     9.1890     8.9270    10.4720 
  132.6250  -999.2500   -23.9330  -999.2500    74.1840    23.1640     8.7190     7.7510     9.1020 
  132.7500  -999.2500   -24.4260  -999.2500    74.7840    23.1020     8.3220     7.0300     8.4260 
  132.8750  -999.2500   -24.8920  -999.2500    72.7180    23.0360     7.9620     6.6830     8.2480 
  133.0000  -999.2500   -25.2940  -999.2500    69.6120    22.9770     7.8070     6.6190     8.4000 
  133.1250  -999.2500   -25.5990  -999.2500    66.9780    22.9500     8.0480     6.7780     8.7880 
  133.2500  -999.2500   -25.8070  -999.2500    66.2890    22.9420     8.6000     7.0440     9.2670 
  133.3750  -999.2500   -25.9250  -999.2500    67.6790    22.9520     9.2610     7.3300     9.6950 
  133.5000  -999.2500   -25.9480  -999.2500    67.9150    22.9870     9.7430     7.5290     9.8940 
  133.6250  -999.2500   -25.8450  -999.2500    67.0740    23.0510     9.7310     7.4910     9.6230 
  133.7500  -999.2500   -25.6360  -999.2500    67.8060    23.1260     9.2470     7.2160     8.9600 
  133.8750  -999.2500   -25.3240  -999.2500    70.5510    23.1830     8.4570     6.7810     8.1170 
  134.0000  -999.2500   -24.9530  -999.2500    74.3780    23.2190     7.6750     6.3310     7.3790 
  134.1250  -999.2500   -24.5770  -999.2500    77.1410    23.2720     7.4150     6.0430     7.0460 
  134.2500  -999.2500   -24.2630  -999.2500    77.1400    23.3590     7.9170     5.9860     7.1580 
  134.3750  -999.2500   -24.0460  -999.2500    73.1460    23.4390     9.0740     6.1790     7.6820 
  134.5000  -999.2500   -23.9450  -999.2500    68.2710    23.4610    10.3330     6.5780     8.4770 
  134.6250  -999.2500   -23.9880  -999.2500    67.7210    23.4230    10.9280     7.0650     9.2570 
  134.7500  -999.2500   -24.1570  -999.2500    68.3250    23.3840    10.9050     7.4470     9.7210 
  134.8750  -999.2500   -24.4400  -999.2500    68.1290    23.3760    10.6160     7.6020     9.7400 
  135.0000  -999.2500   -24.8080  -999.2500    67.3240    23.3990    10.2870     7.5140     9.3970 
  135.1250  -999.2500   -25.2120  -999.2500    66.5690    23.4310     9.9690     7.2700     8.9210 
  135.2500  -999.2500   -25.6000  -999.2500    66.1250    23.4660     9.6670     7.0240     8.5390 
  135.3750  -999.2500   -25.9520  -999.2500    64.8040    23.5100     9.3920     6.8480     8.3180 
  135.5000  -999.2500   -26.2640  -999.2500    63.9570    23.5580     9.2180     6.7640     8.2490 
  135.6250  -999.2500   -26.5130  -999.2500    64.7180    23.5830     9.2790     6.7700     8.2900 
  135.7500  -999.2500   -26.7040  -999.2500    65.4160    23.5800     9.4520     6.8110     8.3640 
  135.8750  -999.2500   -26.8020  -999.2500    64.1960    23.5720     9.5450     6.8580     8.4420 
  136.0000  -999.2500   -26.8020  -999.2500    61.4360    23.5740     9.4890     6.8980     8.5260 
  136.1250  -999.2500   -26.6740  -999.2500    61.2380    23.5930     9.3710     6.9390     8.6330 
  136.2500  -999.2500   -26.4470  -999.2500    63.4990    23.6190     9.2870     6.9790     8.7270 
  136.3750  -999.2500   -26.1250  -999.2500    67.0690    23.6510     9.2350     6.9850     8.7190 
  136.5000  -999.2500   -25.7390  -999.2500    69.6960    23.7060     9.1750     6.8970     8.5090 
  136.6250  -999.2500   -25.3480  -999.2500    72.3410    23.7930     8.9230     6.6590     8.0440 
  136.7500  -999.2500   -25.0360  -999.2500    74.9150    23.8600     8.2580     6.3360     7.4940 
  136.8750  -999.2500   -24.8850  -999.2500    74.0530    23.9100     7.3240     6.0200     7.0390 
  137.0000  -999.2500   -24.9570  -999.2500    69.4720    24.0340     6.7700     5.8120     6.8270 
  137.1250  -999.2500   -25.3140  -999.2500    63.7580    24.2770     7.3080     5.8150     6.9830 
  137.2500  -999.2500   -25.8730  -999.2500    59.8930    24.4830     8.3760     6.0050     7.4150 
  137.3750  -999.2500   -26.5800  -999.2500    57.9990    24.5630     9.1960     6.3330     8.0060 
  137.5000  -999.2500   -27.3740  -999.2500    58.1540    24.5560     9.4730     6.7120     8.5900 
  137.6250  -999.2500   -28.1990  -999.2500    59.0040    24.5500     9.5080     7.0190     8.9540 
  137.7500  -999.2500   -28.9580  -999.2500    57.3120    24.5640     9.6240     7.1940     9.0630 
  137.8750  -999.2500   -29.5760  -999.2500    54.1590    24.6000     9.7980     7.2520     9.0010 
  138.0000  -999.2500   -29.9870  -999.2500    54.2650    24.6320     9.9310     7.2440     8.8880 
  138.1250  -999.2500   -30.1550  -999.2500    59.3770    24.5860     9.9880     7.2220     8.8130 
  138.2500  -999.2500   -30.1540  -999.2500    63.5170    24.4640    10.1030     7.2170     8.7930 
  138.3750  -999.2500   -30.0280  -999.2500    62.0250    24.3360    10.3160     7.2380     8.8290 
  138.5000  -999.2500   -29.8120  -999.2500    56.9540    24.2680    10.4620     7.2850     8.9140 
  138.6250  -999.2500   -29.4890  -999.2500    56.3030    24.2450    10.3650     7.3590     9.0520 
  138.7500  -999.2500   -29.0860  -999.2500    59.9210    24.1700    10.1960     7.4600     9.2370 
  138.8750  -999.2500   -28.6230  -999.2500    62.3430    24.0070    10.0890     7.5850     9.4590 
  139.0000  -999.2500   -28.1300  -999.2500    62.1560    23.8040    10.0020     7.7190     9.6830 
  139.1250  -999.2500   -27.6170  -999.2500    63.0130    23.6100     9.8550     7.8060     9.8100 
  139.2500  -999.2500   -27.1140  -999.2500    65.4650    23.4100     9.6410     7.7840     9.7410 
  139.3750  -999.2500   -26.6450  -999.2500    66.8250    23.1980     9.2520     7.6120     9.4200 
  139.5000  -999.2500   -26.2420  -999.2500    67.6130    23.0260     8.5660     7.3110     8.9060 
  139.6250  -999.2500   -25.9640  -999.2500    70.3810    22.9770     7.7230     6.9660     8.3760 
  139.7500  -999.2500   -25.8070  -999.2500    72.4230    23.0260     7.1930     6.6960     8.0150 
  139.8750  -999.2500   -25.7590  -999.2500    70.2050    23.1140     7.2690     6.5690     7.9170 
  140.0000  -999.2500   -25.7770  -999.2500    65.4700    23.1880     7.8960     6.5990     8.0770 
  140.1250  -999.2500   -25.8240  -999.2500    63.1780    23.2060     8.6180     6.7420     8.3750 
  140.2500  -999.2500   -25.8560  -999.2500    62.9280    23.1630     8.9580     6.8680     8.5780 
  140.3750  -999.2500   -25.8500  -999.2500    63.6320    23.0860     8.8680     6.8860     8.5490 
  140.5000  -999.2500   -25.7940  -999.2500    67.1560    23.0180     8.4910     6.7760     8.2940 
  140.6250  -999.2500   -25.6780  -999.2500    73.7970    23.0110     8.0170     6.5940     7.9710 
  140.7500  -999.2500   -25.5440  -999.2500    78.3940    23.0650     7.7450     6.4580     7.7900 
  140.8750  -999.2500   -25.4110  -999.2500    77.7600    23.1540     7.8740     6.4290     7.8400 
