~V
VERS. 2.00: Ver 2.00
~W
STRT.M 65.0000:
STOP.M 267.0000:
STEP.M 0.1250:
NULL. -999.2500:
UWI. DF3007:
~C
DEPT.M :
GR.API :
RML.OHMM :
RI. :
RXO.OHMM :
CALI.CM :
DEN.GM/CC :
SP.MV :
~A
# ...
  222.5000   115.7420    11.6150    10.2810    10.6610    24.6170     2.3490   -21.3740 
  222.6250   117.3580    12.2360    10.7990    11.8230    24.5900     2.3550   -21.1870 
  222.7500   114.7270    12.8810    11.3370    13.2370    24.5900     2.3580   -21.0510 
  222.8750   112.4770    13.4730    11.8180    14.2900    24.5900     2.3620   -20.9330 
  223.0000   114.5800    13.9150    12.1550    14.2040    24.5900     2.3710   -20.8430 
  223.1250   115.4370    14.0440    12.2130    13.6680    24.5900     2.3860   -20.7120 
  223.2500   110.3270    13.8160    11.9750    14.3570    24.5910     2.4040   -20.6730 
  223.3750   103.3790    13.2490    11.4600    15.5470    24.6010     2.4160   -20.6370 
  223.5000   100.6900    12.4870    10.7780    16.7080    24.6250     2.4190   -20.5690 
  223.6250   102.5110    11.8070    10.1940    14.7300    24.6470     2.4140   -20.6120 
  223.7500   104.2130    11.8020    10.0480    14.5030    24.6510     2.4080   -20.6790 
  223.8750   102.6080    13.0530    10.7760    16.7270    24.6550     2.4080   -20.7920 
  224.0000    97.3700    16.6510    12.9910    18.7930    24.6530     2.4140   -20.9900 
  224.1250    91.5140    23.6900    17.8920    24.6580    24.6320     2.4200   -21.3130 
  224.2500    85.9990    34.2950    25.5660    35.6960    24.5940     2.4170   -21.6310 
  224.3750    80.4440    47.3450    35.5650    52.1650    24.5450     2.4000   -22.0120 
  224.5000    75.3090    59.5480    46.3640    64.3840    24.4720     2.3720   -22.5340 
  224.6250    73.7550    67.9400    54.9500    65.2800    24.3870     2.3380   -22.9260 
  224.7500    73.8800    71.1220    59.3500    71.1180    24.3770     2.3080   -23.3980 
  224.8750    70.5690    69.3930    59.3260    80.0150    24.4370     2.2910   -23.9100 
  225.0000    65.3930    65.1710    56.5220    79.0090    24.4860     2.2870   -24.2550 
  225.1250    64.3620    62.1380    53.7880    68.3770    24.4860     2.2900   -24.6310 
  225.2500    68.5550    62.5680    53.3950    60.6330    24.4440     2.2940   -25.0060 
  225.3750    73.5460    67.3260    56.4080    57.5350    24.3880     2.2920   -25.2670 
  225.5000    75.3300    76.2930    63.0390    64.0770    24.3630     2.2840   -25.5370 
  225.6250    73.8950    88.5860    72.8550    86.9350    24.3850     2.2760   -25.7980 
  225.7500    71.4070   101.3320    83.5130   108.6400    24.4190     2.2690   -25.9370 
  225.8750    69.1230   112.0540    92.9480   118.3900    24.4130     2.2650   -26.0890 
  226.0000    66.3980   118.7780    99.4270   119.2700    24.3560     2.2640   -26.2150 
  226.1250    64.9780   120.2470   101.6730   120.2920    24.2960     2.2620   -26.3210 
  226.2500    67.4850   118.6810   101.1880   121.9040    24.2540     2.2600   -26.4220 
  226.3750    72.1280   116.2950    99.6400   120.7740    24.2400     2.2590   -26.5270 
  226.5000    75.0760   115.1190    98.7510   115.9440    24.2480     2.2630   -26.6050 
  226.6250    75.5730   116.9800   100.2610   109.7280    24.2630     2.2720   -26.6660 
  226.7500    74.8210   121.6970   104.3480   105.2870    24.2690     2.2850   -26.7790 
  226.8750    71.3850   128.4570   110.5730   110.7670    24.2640     2.2960   -26.8190 
  227.0000    66.2610   135.6870   117.7680   128.0640    24.2980     2.3020   -26.8070 
  227.1250    64.3730   140.9600   123.9470   151.7320    24.4000     2.3020   -26.7680 
  227.2500    65.5290   142.8640   127.5720   157.8390    24.5110     2.2980   -26.6910 
  227.3750    65.8210   140.8360   127.8120   149.7720    24.5730     2.2910   -26.5530 
  227.5000    65.3070   135.1050   124.5300   140.6330    24.5900     2.2840   -26.3980 
  227.6250    65.7160   125.9550   117.6960   134.8070    24.5900     2.2780   -26.2830 
  227.7500    66.1810   114.8100   108.6190   126.4160    24.5850     2.2730   -26.0190 
  227.8750    66.8540   102.6610    98.2040   116.4440    24.5680     2.2720   -25.8420 
  228.0000    67.1420    90.7430    87.5670   105.4180    24.5280     2.2750   -25.8180 
  228.1250    66.2420    80.9020    78.3740    88.7480    24.5080     2.2840   -25.6530 
  228.2500    67.6810    74.1980    71.8110    74.9460    24.5020     2.2960   -25.5400 
  228.3750    72.8150    71.4970    68.8580    66.9330    24.4980     2.3090   -25.5370 
  228.5000    77.5320    73.3870    70.2220    64.4310    24.4900     2.3160   -25.3840 
  228.6250    75.2940    80.8800    76.9940    68.9290    24.4950     2.3170   -25.3020 
  228.7500    70.4090    92.5060    87.8320    80.1320    24.5370     2.3090   -25.3390 
  228.8750    67.5670   106.4540   101.0420    97.6810    24.5750     2.2980   -25.2610 
  229.0000    66.2990   119.7640   113.8350   120.2160    24.5810     2.2910   -25.2010 
  229.1250    65.1270   127.8070   121.8790   141.2760    24.5570     2.2910   -25.1490 
  229.2500    64.4420   128.7740   123.3850   149.8090    24.5310     2.2990   -25.0610 
  229.3750    64.1390   123.0000   118.4640   148.7430    24.5310     2.3130   -24.9220 
  229.5000    64.5630   113.0350   109.2180   136.8630    24.5180     2.3290   -24.8050 
  229.6250    67.6770   102.4530    98.7980   118.2100    24.5080     2.3470   -24.6430 
  229.7500    72.3840    93.8270    89.9060    99.9210    24.5020     2.3640   -24.3530 
  229.8750    78.7660    87.9860    83.5660    87.7720    24.5020     2.3750   -24.0860 
  230.0000    84.4800    85.0600    80.0520    75.6830    24.5190     2.3720   -23.7610 
  230.1250    86.2830    85.3410    79.7150    73.9180    24.5660     2.3530   -23.3630 
  230.2500    84.8960    88.0510    81.7940    79.8540    24.6190     2.3230   -22.9890 
  230.3750    82.6950    92.6050    85.7470    89.7520    24.6170     2.2920   -22.5970 
  230.5000    80.8260    97.9040    90.5870    97.8680    24.5980     2.2720   -22.1130 
  230.6250    76.1630   101.8230    94.4570    98.3190    24.5900     2.2680   -21.6060 
  230.7500    69.7750   102.4850    95.6090    97.2510    24.5900     2.2800   -21.1520 
  230.8750    64.3110    98.7520    92.9190   103.9760    24.5830     2.3030   -20.5870 
  231.0000    60.5050    90.7320    86.2880   116.5820    24.5720     2.3250   -20.0380 
  231.1250    59.3500    79.7060    76.5700   103.8740    24.5590     2.3390   -19.5510 
  231.2500    59.9610    68.4300    66.2180    82.2420    24.5680     2.3410   -18.9540 
  231.3750    61.4750    58.4570    56.7540    65.6660    24.5470     2.3300   -18.4220 
  231.5000    63.6340    50.5250    49.0260    54.0220    24.4790     2.3140   -18.0480 
  231.6250    65.6410    45.0170    43.5290    46.3910    24.4320     2.2990   -17.5690 
  231.7500    65.4290    41.2180    39.6600    40.4770    24.3780     2.2900   -17.2210 
  231.8750    63.0990    38.7210    37.0560    36.8620    24.3260     2.2880   -16.9830 
  232.0000    61.3050    37.1690    35.3840    34.5460    24.2990     2.2890   -16.6140 
  232.1250    62.1400    36.3190    34.4320    33.4640    24.3050     2.2910   -16.4050 
  232.2500    63.3070    35.7480    33.8080    32.9280    24.3680     2.2910   -16.2690 
  232.3750    63.5930    35.1890    33.2640    32.7890    24.4820     2.2890   -16.0550 
  232.5000    63.5090    34.4310    32.6010    33.0820    24.5630     2.2870   -15.8810 
  232.6250    64.1510    33.3540    31.6890    32.8500    24.6030     2.2860   -15.7560 
  232.7500    65.9740    32.1310    30.6420    32.3930    24.6410     2.2860   -15.5880 
  232.8750    68.2340    31.0040    29.6500    31.7140    24.6840     2.2870   -15.3840 
  233.0000    69.4920    30.2360    28.9320    31.1580    24.6770     2.2880   -15.3010 
  233.1250    67.7410    30.0650    28.7110    30.3920    24.6450     2.2920   -15.1980 
  233.2500    65.3460    30.3020    28.8610    30.2500    24.6040     2.2990   -15.0510 
  233.3750    64.9650    30.6150    29.1180    30.2740    24.5620     2.3070   -14.9870 
  233.5000    66.9570    30.5690    29.0990    30.3390    24.4770     2.3140   -14.9290 
  233.6250    70.0350    29.6330    28.2880    29.5160    24.3530     2.3160   -14.8600 
