~V
VERS. 2.00: Ver 2.00
~W
STRT.M 60.0000:
STOP.M 258.0000:
STEP.M 0.1250:
NULL. -999.2500:
UWI. DF3032:
~C
DEPT.M :
GR.API :
RML.OHMM :
RI. :
RXO.OHMM :
CALI.CM :
DEN.GM/CC :
SP.MV :
~A
# ...
  240.0000    74.8270    49.8530    45.9010    63.7060    24.6670     2.3850   -18.6460 
  240.1250    73.8950    43.1120    39.9430    53.6620    24.7060     2.3960   -17.9140 
  240.2500    70.6490    37.6210    34.9580    38.3210    24.7370     2.3960   -17.3030 
  240.3750    67.8520    33.8160    31.3610    29.2510    24.7500     2.3800   -16.7570 
  240.5000    68.7590    31.5060    29.0530    26.2850    24.7520     2.3550   -16.3020 
  240.6250    70.7810    30.1920    27.6920    26.2530    24.7520     2.3290   -15.9840 
  240.7500    70.6090    29.0800    26.6210    26.9310    24.7520     2.3100   -15.6310 
  240.8750    71.6290    27.8300    25.5270    27.4610    24.7520     2.3000   -15.3470 
  241.0000    77.6180    26.3840    24.3000    26.3940    24.7520     2.2980   -15.1860 
  241.1250    82.8860    24.9130    23.0260    23.6480    24.7520     2.2990   -14.9780 
  241.2500    81.9930    23.6420    21.8890    21.3910    24.7520     2.3030   -14.8620 
  241.3750    78.6630    22.6840    21.0070    20.9640    24.7520     2.3070   -14.8190 
  241.5000    77.0250    22.0720    20.4380    21.0740    24.7520     2.3100   -14.6480 
  241.6250    75.0560    21.8250    20.2200    21.2830    24.7520     2.3110   -14.5610 
  241.7500    70.9870    21.7710    20.1950    20.4800    24.7520     2.3080   -14.4960 
  241.8750    67.3290    21.7230    20.1870    19.7560    24.7520     2.3020   -14.3980 
  242.0000    66.6360    21.4950    20.0160    19.9620    24.7490     2.2950   -14.3430 
  242.1250    67.8050    20.9610    19.5410    20.4810    24.7220     2.2910   -14.2410 
  242.2500    69.8360    20.2430    18.8510    20.7560    24.6650     2.3000   -14.1050 
  242.3750    72.4000    19.4730    18.0520    20.1040    24.6220     2.3290   -13.9690 
  242.5000    76.5720    18.7450    17.2270    18.6080    24.6270     2.3730   -13.8490 
  242.6250    80.1080    18.0250    16.3730    16.3760    24.6860     2.4190   -13.7740 
  242.7500    81.4840    17.1720    15.4280    17.5530    24.7340     2.4550   -13.7180 
  242.8750    80.9470    16.1200    14.3670    16.8990    24.7600     2.4660   -13.6930 
  243.0000    79.3730    14.9800    13.2880    14.6860    24.7780     2.4580   -13.7150 
  243.1250    80.8200    14.0970    12.4520    13.1390    24.7870     2.4370   -13.7950 
  243.2500    86.1990    13.7610    12.0590    11.6930    24.7660     2.4130   -13.9250 
  243.3750    90.6110    14.1000    12.2120    10.7390    24.7530     2.3910   -14.0640 
  243.5000    88.6450    15.0240    12.8770    11.1860    24.7480     2.3730   -14.2330 
  243.6250    81.9130    16.2430    13.8930    13.4040    24.7510     2.3600   -14.4300 
  243.7500    77.8270    17.3360    14.9120    15.7440    24.7520     2.3500   -14.6390 
  243.8750    77.2810    18.0940    15.7130    17.1030    24.7520     2.3390   -14.7980 
  244.0000    76.7440    18.4880    16.1990    17.0010    24.7520     2.3290   -14.9660 
  244.1250    75.0140    18.6320    16.3980    16.1990    24.7410     2.3190   -15.1660 
  244.2500    74.6580    18.7530    16.5000    16.4500    24.7260     2.3160   -15.2220 
  244.3750    75.9550    18.9330    16.5920    16.9580    24.7300     2.3220   -15.3060 
  244.5000    77.1320    19.1480    16.6810    17.4680    24.7440     2.3340   -15.3870 
  244.6250    77.2590    19.3180    16.7180    17.8300    24.7530     2.3490   -15.3260 
  244.7500    78.4690    19.4050    16.6820    17.8030    24.7540     2.3590   -15.2400 
  244.8750    79.5570    19.4250    16.5950    17.3790    24.7580     2.3610   -15.0680 
  245.0000    78.3750    19.4170    16.4980    16.6650    24.7580     2.3560   -14.7460 
  245.1250    74.5650    19.4110    16.4380    16.5970    24.7550     2.3500   -14.3200 
  245.2500    71.5070    19.4040    16.4190    17.0250    24.7530     2.3440   -13.9740 
  245.3750    70.2500    19.3910    16.4340    17.3550    24.7520     2.3390   -13.5310 
  245.5000    69.9280    19.4020    16.4880    17.1810    24.7520     2.3350   -13.1590 
  245.6250    69.7330    19.5410    16.6260    16.9080    24.7520     2.3340   -12.8080 
  245.7500    70.1500    19.9030    16.9050    17.1310    24.7520     2.3360   -12.5150 
  245.8750    70.6590    20.5520    17.3790    17.6950    24.7530     2.3390   -12.3050 
  246.0000    70.0980    21.4280    18.0250    18.6860    24.7560     2.3400   -12.2070 
  246.1250    70.0590    22.2490    18.6610    19.5150    24.7610     2.3370   -12.2300 
  246.2500    71.9250    22.6170    18.9840    19.5850    24.7600     2.3370   -12.2280 
  246.3750    73.3340    22.2360    18.7470    19.6620    24.7550     2.3460   -12.3090 
  246.5000    72.6580    21.0410    17.8640    19.6530    24.7540     2.3660   -12.3780 
  246.6250    71.0450    19.3430    16.5130    18.4940    24.7620     2.3880   -12.4560 
  246.7500    70.6600    17.9830    15.3150    16.6690    24.7660     2.3970   -12.5090 
  246.8750    72.3040    17.7260    14.8400    15.3740    24.7390     2.3840   -12.6310 
  247.0000    74.4060    19.1030    15.5280    16.1000    24.6780     2.3590   -12.6400 
  247.1250    74.7690    22.3240    17.6780    19.1640    24.6330     2.3400   -12.6080 
  247.2500    74.7690    26.2270    20.5720    24.8060    24.6370     2.3400   -12.5610 
  247.3750    74.7690    29.4350    23.2380    32.0830    24.6530     2.3680   -12.5460 
  247.5000    74.7690    30.5490    24.5280    36.0850    24.6470     2.4150   -12.4760 
  247.6250    74.7690    28.4480    23.3430    32.5150    24.6240     2.4710   -12.3930 
  247.7500    74.7690    24.4580    20.5210    26.1680    24.5640     2.5200   -12.3140 
  247.8750    74.7690    20.1730    17.2780    20.5060    24.4550     2.5420   -12.1840 
  248.0000    74.7690    16.8860    14.6460    14.2850    24.3460     2.5310   -12.0790 
  248.1250    74.7690    15.2970    13.2080    10.1730    24.2880     2.4950   -12.0540 
  248.2500    74.7690    14.8860    12.6770     9.3190    24.2070     2.4510   -12.0210 
  248.3750    74.7690    15.1980    12.7830     9.7220    24.0810     2.4220   -11.9640 
  248.5000    74.7690    15.7950    13.2300    10.4800    23.9890     2.4150   -11.8960 
  248.6250    74.7690    16.2890    13.7130    11.4620    23.9460     2.4270   -11.8700 
  248.7500    74.7690    16.4900    14.0070    12.6300    23.9470     2.4500   -11.8380 
  248.8750    74.7690    16.3840    14.0430    13.8160    24.0190     2.4730   -11.7870 
  249.0000    74.7690    16.0680    13.8640    14.1340    24.1310     2.4850   -11.8350 
  249.1250    74.7690    15.6920    13.5670    13.4250    24.2180     2.4830   -11.8620 
  249.2500    74.7690    15.3850    13.2730    13.0120    24.2040     2.4680   -11.8680 
  249.3750    74.7690    15.1870    13.0270    13.2790    24.1260     2.4450   -11.8700 
  249.5000    74.7690    15.0830    12.8360    14.3320    24.1190     2.4250   -11.9320 
  249.6250    74.7690    15.0260    12.6890    15.0330    24.2620     2.4120   -11.9130 
  249.7500    74.7690    14.9720    12.5630    14.8210    24.4530     2.4070   -11.8990 
  249.8750    74.7690    14.9290    12.4670    13.3990    24.5860     2.4050   -11.9490 
  250.0000    74.7690    14.9360    12.4280    11.6290    24.5970     2.4020   -11.8900 
  250.1250    74.7690    15.0600    12.4970    11.2850    24.5590     2.4010   -11.8180 
  250.2500    74.7690    15.3000    12.6700    11.7490    24.5450     2.4070   -11.7640 
  250.3750    74.7690    15.6220    12.9230    12.9360    24.5820     2.4220   -11.6380 
  250.5000    74.7690    15.9650    13.2080    14.5500    24.6500     2.4400   -11.4930 
  250.6250    74.7690    16.2490    13.4620    15.7930    24.7170     2.4530   -11.3920 
  250.7500    74.7690    16.4410    13.6480    15.5720    24.7310     2.4580   -11.2880 
  250.8750    74.7690    16.5330    13.7510    14.8920    24.7060     2.4560   -11.1800 
  251.0000    74.7690    16.5370    13.7780    14.4750    24.6820     2.4560   -11.0840 
  251.1250    74.7690    16.4780    13.7310    13.8400    24.6740     2.4620   -11.0180 
