~V
VERS. 2.00: Ver 2.00
~W
STRT.M 67.0000:
STOP.M 264.0000:
STEP.M 0.1250:
NULL. -999.2500:
UWI. DF3014:
~C
DEPT.M :
GR.API :
CALI.CM :
RXO.OHMM :
RI. :
RML.OHMM :
DEN.GM/CC :
SP.MV :
~A
# ...
  157.0000    70.0610    23.8580    68.1560    82.2750    92.5490     2.3180   -25.5650 
  157.1250    72.2390    23.8090    61.8260    82.3880    92.5810     2.3290   -25.6730 
  157.2500    72.4550    23.8060    57.3870    83.2070    93.3230     2.3210   -25.7600 
  157.3750    71.9450    23.8870    60.2730    84.9150    94.9840     2.2970   -25.8560 
  157.5000    69.6190    24.1250    68.0620    87.3380    97.3270     2.2770   -25.9550 
  157.6250    67.1760    24.0030    74.0000    90.1070    99.9810     2.2760   -26.0260 
  157.7500    68.8860    24.0310    76.8860    93.2920   103.0150     2.2840   -26.0710 
  157.8750    73.1820    23.8870    75.2670    96.7390   106.2140     2.2860   -26.1170 
  158.0000    74.7500    23.8570    78.8610   100.0130   109.0820     2.2790   -26.1810 
  158.1250    73.1850    23.8090    87.6000   102.8620   111.4030     2.2710   -26.2710 
  158.2500    73.1930    23.8880    89.6350   105.1800   112.9430     2.2690   -26.4040 
  158.3750    73.2550    23.8780    84.7470   106.5650   113.2570     2.2720   -26.5690 
  158.5000    70.6330    23.7400    79.5990   106.8200   112.2460     2.2780   -26.7180 
  158.6250    68.0030    23.7720    81.8400   105.4900   109.5140     2.2860   -26.8340 
  158.7500    68.9880    23.8740    82.1790   102.7330   105.4820     2.2940   -26.9070 
  158.8750    71.3760    23.7780    79.3820    99.2520   101.0660     2.3000   -26.9570 
  159.0000    70.6190    23.7110    74.9530    96.2540    97.4050     2.3040   -27.0230 
  159.1250    68.0610    23.6350    73.1330    94.5680    95.4970     2.3150   -27.1080 
  159.2500    66.8180    23.6070    69.2530    94.5010    95.3780     2.3290   -27.2000 
  159.3750    66.9300    23.6120    67.5820    96.0980    96.9570     2.3340   -27.2870 
  159.5000    67.5940    23.6370    69.6250    98.3770    99.1500     2.3180   -27.3580 
  159.6250    69.6050    23.6700    78.8480   100.0070   100.6330     2.2940   -27.3970 
  159.7500    72.1160    23.8320    84.6760   100.3810   100.8320     2.2860   -27.4010 
  159.8750    72.9060    23.8600    86.5600    99.3920    99.6750     2.2960   -27.4010 
  160.0000    70.8060    23.8710    84.7430    97.4570    97.5960     2.3090   -27.4070 
  160.1250    68.7080    23.9100    77.0550    95.6880    95.8400     2.3030   -27.4940 
  160.2500    67.9570    24.0800    64.6600    95.4440    95.7540     2.2820   -27.5990 
  160.3750    68.2270    24.1930    56.5110    96.7630    97.3750     2.2550   -27.6130 
  160.5000    68.2320    24.1960    67.3020    99.1640   100.0960     2.2300   -27.5110 
  160.6250    67.6370    24.0910    87.6630   101.3170   102.3740     2.2120   -27.3750 
  160.7500    69.0800    23.9980    95.0290   101.7430   102.8190     2.2130   -27.3430 
  160.8750    71.8720    23.9940    90.0040   100.3030   101.3570     2.2370   -27.4120 
  161.0000    72.1080    24.1430    82.7590    97.6090    98.7160     2.2700   -27.5290 
  161.1250    68.1720    24.1620    71.9530    94.8650    96.2850     2.2900   -27.4990 
  161.2500    65.7040    24.1280    60.2520    93.9330    95.8770     2.2950   -27.3310 
  161.3750    65.7450    24.1200    50.8080    96.0680    98.6360     2.2910   -27.1950 
  161.5000    64.0470    24.1660    57.3740   101.5070   104.6510     2.2840   -27.2240 
  161.6250    60.6580    24.1610    73.2320   108.9790   112.7290     2.2730   -27.3690 
  161.7500    58.8140    24.1120    82.9600   116.2970   120.5460     2.2640   -27.4440 
  161.8750    58.3580    24.1500    83.5820   121.9310   126.4550     2.2620   -27.4130 
  162.0000    57.4330    24.1710    84.6980   124.9870   129.5090     2.2650   -27.3400 
  162.1250    59.2750    24.1590    86.5540   124.8480   129.2610     2.2690   -27.4030 
  162.2500    64.1320    24.0990    85.0380   122.9630   127.4160     2.2720   -27.6240 
  162.3750    67.2860    24.0400    78.5780   121.0430   125.9920     2.2750   -27.8680 
  162.5000    65.5110    23.9790    70.1160   120.8520   126.7750     2.2740   -28.0230 
  162.6250    61.6060    24.2010    70.8060   123.5870   130.8100     2.2640   -28.0740 
  162.7500    59.1880    24.3180    80.5800   128.8680   137.5040     2.2510   -28.1360 
  162.8750    58.7470    24.4110    85.5060   136.3970   146.7450     2.2440   -28.2670 
  163.0000    60.7050    24.4430    88.6330   146.2730   158.6260     2.2430   -28.4500 
  163.1250    63.9320    24.1150    91.4150   158.8760   173.4900     2.2400   -28.6790 
  163.2500    65.9740    23.8010    96.2030   173.2410   190.4050     2.2360   -28.8960 
  163.3750    65.8320    23.7970   102.6350   189.0580   208.8550     2.2350   -29.0940 
  163.5000    64.0550    24.3900   111.6410   205.9450   228.5280     2.2350   -29.2920 
  163.6250    61.3250    24.4930   120.3650   223.4160   248.8320     2.2210   -29.4750 
  163.7500    58.1290    24.5040   124.5760   239.7680   267.4650     2.2010   -29.6610 
  163.8750    56.3410    24.5300   128.5730   252.6150   281.3840     2.1900   -29.8790 
  164.0000    55.6040    24.2770   132.7840   258.6220   286.0930     2.1920   -30.1400 
  164.1250    56.7900    24.4000   129.8160   251.3320   273.6550     2.1980   -30.3510 
  164.2500    57.4460    24.6710   122.1820   229.8500   244.2060     2.2040   -30.5180 
  164.3750    57.5910    24.6740   115.7920   197.8130   204.4080     2.2190   -30.6630 
  164.5000    58.4570    24.7440   109.7870   161.8720   163.1380     2.2430   -30.7680 
  164.6250    59.6150    24.5460    95.9580   129.4100   128.5820     2.2640   -30.8840 
  164.7500    59.7240    24.5140    74.8350   103.9220   102.9220     2.2760   -31.0150 
  164.8750    60.3210    24.4960    49.3830    86.7330    86.4480     2.2810   -31.1650 
  165.0000    64.0230    24.5200    30.4760    77.5450    78.0980     2.2870   -31.3230 
  165.1250    68.9580    24.5150    31.3730    75.9530    76.9860     2.2950   -31.4730 
  165.2500    71.1820    24.4680    46.1120    78.9600    79.9100     2.3010   -31.5890 
  165.3750    70.2540    24.2870    62.6880    83.9760    84.3820     2.3050   -31.6500 
  165.5000    68.0710    23.9040    84.0380    88.5310    88.0130     2.3060   -31.7020 
  165.6250    67.8070    23.4950    98.9710    90.2050    88.5380     2.2950   -31.7750 
  165.7500    68.8660    23.2000    92.6300    88.3710    85.6730     2.2790   -31.8690 
  165.8750    69.4760    23.2710    71.1250    83.3890    80.1290     2.2690   -31.9590 
  166.0000    68.7210    23.4150    54.5670    76.9180    73.7420     2.2720   -32.0070 
  166.1250    66.9570    24.0520    43.9330    71.2520    68.6990     2.2860   -32.0280 
  166.2500    64.3450    24.4470    42.6750    67.2350    65.6400     2.3010   -32.0490 
  166.3750    61.9960    24.5050    49.5660    65.3150    64.8360     2.3110   -32.0890 
  166.5000    62.5120    24.5120    50.6620    65.3540    66.0580     2.3150   -32.1230 
  166.6250    67.5730    24.6120    43.6840    67.4510    69.4220     2.3180   -32.1760 
  166.7500    72.6410    24.7840    43.4470    71.3970    74.6760     2.3260   -32.2750 
  166.8750    72.9920    24.7280    49.2140    77.5210    82.1180     2.3320   -32.4060 
  167.0000    69.5440    24.6720    56.9320    86.0190    92.0250     2.3250   -32.5430 
  167.1250    66.5140    24.7990    62.7090    97.6360   105.2080     2.3050   -32.6430 
  167.2500    65.1760    24.8200    69.0640   112.1510   121.4230     2.2810   -32.6990 
  167.3750    63.8330    24.7810    77.9620   128.9730   140.2220     2.2630   -32.7460 
  167.5000    63.9930    24.6810    91.2360   146.4000   160.1160     2.2530   -32.8420 
  167.6250    66.7520    24.7300   107.4810   161.3800   177.9400     2.2500   -32.9840 
  167.7500    67.3280    24.8010   119.9610   171.7520   190.9180     2.2460   -33.1410 
  167.8750    64.0400    24.7240   126.7600   176.6030   197.7280     2.2400   -33.2660 
  168.0000    59.9240    24.6900   128.3230   176.4730   198.9330     2.2370   -33.3430 
  168.1250    59.0990    24.6810   121.7140   172.8390   196.1910     2.2410   -33.3640 
