~V
VERS. 2.00: Ver 2.00
~W
STRT.M 54.0000:
STOP.M 250.0000:
STEP.M 0.1250:
NULL. -999.2500:
UWI. DF3016:
~C
DEPT.M :
GR.API :
RML.OHMM :
RI. :
RXO.OHMM :
CALI.CM :
DEN.GM/CC :
SP.MV :
~A
# ...
  177.7500    56.2710   294.3810   260.7880   400.8130    24.5490     2.4520   -19.9550 
  177.8750    56.2590   252.6540   226.9010   357.0210    24.5330     2.4340   -20.3020 
  178.0000    56.6920   209.0220   189.6460   276.9260    24.4720     2.4310   -20.5500 
  178.1250    58.3760   170.2940   154.6510   218.9070    24.4480     2.4470   -20.7180 
  178.2500    59.9360   138.1490   124.5260   183.0360    24.4510     2.4710   -20.8010 
  178.3750    61.1810   111.7820    99.5070   143.2180    24.4640     2.4970   -20.8240 
  178.5000    61.2400    89.5690    78.7330    98.1980    24.4710     2.5270   -20.7640 
  178.6250    61.2730    70.9300    61.8100    74.6630    24.4580     2.5600   -20.6300 
  178.7500    62.8770    55.4380    47.9580    67.3230    24.4290     2.5830   -20.4310 
  178.8750    64.7860    43.6330    37.4220    67.9390    24.4000     2.5840   -20.2100 
  179.0000    66.4210    35.8570    30.3880    53.0680    24.3610     2.5580   -19.9890 
  179.1250    67.9700    32.6540    27.2510    32.6620    24.3250     2.5200   -19.7430 
  179.2500    70.3210    32.8550    26.9990    24.9340    24.3140     2.5010   -19.4640 
  179.3750    72.1520    35.6490    29.0230    27.8200    24.2990     2.5130   -19.1670 
  179.5000    70.8380    39.7900    32.4040    37.0020    24.3220     2.5580   -18.8540 
  179.6250    67.2440    43.2610    35.5400    47.5270    24.3450     2.6210   -18.5180 
  179.7500    64.0760    44.2140    36.6860    57.6200    24.3400     2.6780   -18.1880 
  179.8750    62.0880    41.5450    34.7940    59.6830    24.3260     2.7190   -17.8500 
  180.0000    60.1810    35.5340    29.9570    48.7540    24.3130     2.7420   -17.5050 
  180.1250    57.8770    27.3830    23.4710    39.4780    24.2690     2.7460   -17.1430 
  180.2500    55.8440    19.5750    17.3920    34.6790    24.1860     2.7330   -16.8180 
  180.3750    54.5110    13.0880    12.6090    26.7560    24.0230     2.7050   -16.5340 
  180.5000    53.7000     8.3200     9.2870    16.8620    23.8090     2.6670   -16.2960 
  180.6250    53.0300     6.5150     7.3460     8.9880    23.6320     2.6210   -16.1380 
  180.7500    52.4280     5.8480     6.2210     5.8590    23.5800     2.5690   -16.0340 
  180.8750    52.7940     5.6170     5.6520     4.8930    23.6960     2.5160   -15.9580 
  181.0000    54.4800     5.6030     5.4300     4.4690    24.0060     2.4660   -15.8870 
  181.1250    56.3730     5.6160     5.3860     3.8940    24.3060     2.4310   -15.7970 
  181.2500    57.0750     5.5320     5.3420     3.4910    24.4790     2.4160   -15.7100 
  181.3750    56.7350     5.3310     5.2320     3.5740    24.5180     2.4180   -15.5910 
  181.5000    57.3750     5.0610     5.0590     3.9910    24.4610     2.4280   -15.4480 
  181.6250    61.0430     4.8300     4.8840     4.5670    24.3560     2.4300   -15.2720 
  181.7500    66.2380     4.7290     4.7850     4.8830    24.2990     2.4200   -15.1180 
  181.8750    70.1210     4.8090     4.8090     4.9040    24.3140     2.4040   -14.9870 
  182.0000    71.7400     5.0730     4.9760     5.2100    24.2660     2.3920   -14.8560 
  182.1250    71.8660     5.4930     5.2840     5.8290    24.0980     2.3920   -14.7740 
  182.2500    71.3080     5.9620     5.6600     6.4640    23.8980     2.4000   -14.6820 
  182.3750    69.1910     6.4060     6.0450     6.5020    23.7600     2.4090   -14.6000 
  182.5000    66.1250     6.7720     6.3870     6.2750    23.7040     2.4150   -14.5320 
  182.6250    62.0590     7.0260     6.6400     6.4020    23.6950     2.4180   -14.4870 
  182.7500    56.5110     7.2000     6.8140     6.8450    23.6950     2.4200   -14.4070 
  182.8750    49.4690     7.3120     6.9140     7.2530    23.6940     2.4210   -14.3050 
  183.0000    44.6670     7.3760     6.9460     7.2340    23.6810     2.4190   -14.2030 
  183.1250    45.9830     7.3950     6.9070     6.7870    23.6310     2.4120   -14.1200 
  183.2500    47.9340     7.3970     6.8300     6.3580    23.5620     2.4010   -14.0560 
  183.3750    46.9860     7.4050     6.7440     6.1630    23.5310     2.3910   -14.0470 
  183.5000    44.9600     7.4390     6.6760     6.1110    23.5590     2.3870   -14.0930 
  183.6250    44.4930     7.5170     6.6510     6.1400    23.5810     2.3950   -14.1750 
  183.7500    43.7300     7.6310     6.6710     6.1560    23.5880     2.4150   -14.3100 
  183.8750    41.5160     7.7770     6.7340     6.2170    23.5880     2.4430   -14.5220 
  184.0000    40.3550     7.9520     6.8370     6.2500    23.5990     2.4750   -14.8320 
  184.1250    43.2590     8.1660     6.9810     6.3050    23.6450     2.4980   -15.1840 
  184.2500    47.8970     8.4160     7.1580     6.4390    23.7630     2.5040   -15.5940 
  184.3750    52.9770     8.6930     7.3580     6.6120    23.9400     2.4880   -16.0190 
  184.5000    58.9910     8.9750     7.5710     6.8650    24.1030     2.4500   -16.4610 
  184.6250    66.3240     9.2200     7.7690     7.0740    24.0770     2.3980   -16.9450 
  184.7500    74.6020     9.4010     7.9300     7.3720    23.9310     2.3500   -17.4620 
  184.8750    83.4220     9.5150     8.0440     7.6340    23.7720     2.3220   -18.0110 
  185.0000    91.0120     9.5860     8.1170     7.7790    23.7080     2.3230   -18.5970 
  185.1250    97.1360     9.6670     8.1770     7.8070    23.7260     2.3550   -19.2520 
  185.2500   101.8540     9.8060     8.2610     7.9980    23.7680     2.3990   -19.9550 
  185.3750   103.9450    10.0190     8.3930     8.4010    23.8250     2.4380   -20.7230 
  185.5000   102.0770    10.2920     8.5740     8.8030    23.8390     2.4630   -21.4970 
  185.6250    99.7100    10.5790     8.7830     9.2550    23.7650     2.4710   -22.2880 
  185.7500   101.4000    10.8160     8.9700     9.6000    23.7580     2.4700   -23.0740 
  185.8750   105.3620    10.9630     9.0960     9.5490    23.8740     2.4640   -23.8370 
  186.0000   106.8340    11.0110     9.1410     9.8230    23.9710     2.4510   -24.5240 
  186.1250   104.5510    10.9750     9.1020    10.4740    23.9970     2.4300   -25.0760 
  186.2500   101.4520    10.9180     9.0330    11.1140    24.0960     2.4060   -25.5490 
  186.3750    99.5870    10.8910     8.9790    11.0790    24.2430     2.3840   -25.9080 
  186.5000    98.6020    10.9320     8.9810    10.9570    24.5040     2.3710   -26.1900 
  186.6250    96.3710    11.0720     9.0810    11.3150    24.7360     2.3710   -26.3520 
  186.7500    96.0160    11.2840     9.2680    11.8840    24.8310     2.3790   -26.4040 
  186.8750    99.9530    11.5340     9.5250    12.0870    24.8100     2.3890   -26.3230 
  187.0000   104.8280    11.7880     9.8200    12.3910    24.7130     2.3940   -26.1050 
  187.1250   104.2770    12.0190    10.1230    13.1270    24.5840     2.3950   -25.7770 
  187.2500   100.1110    12.2430    10.4160    14.0300    24.5110     2.3960   -25.3050 
  187.3750    98.1350    12.4790    10.6930    14.6990    24.4940     2.4020   -24.7470 
  187.5000    99.2410    12.7200    10.9380    14.5590    24.5100     2.4180   -24.1030 
  187.6250    99.8330    12.8850    11.0830    13.9240    24.5330     2.4460   -23.3700 
  187.7500    98.2580    12.8650    11.0570    13.2960    24.5210     2.4800   -22.5860 
  187.8750    96.5790    12.5520    10.7820    13.2370    24.4980     2.5100   -21.7510 
  188.0000    96.8750    11.9020    10.2260    12.8880    24.4630     2.5270   -20.9050 
  188.1250    96.6330    10.9620     9.4260    11.5880    24.4150     2.5200   -20.0610 
  188.2500    91.4070     9.9790     8.5780    10.4510    24.4360     2.4960   -19.2780 
  188.3750    82.1940     9.1580     7.8500     8.9960    24.6090     2.4650   -18.5500 
  188.5000    73.9740     8.6640     7.3740     7.5430    24.7850     2.4410   -17.9080 
  188.6250    71.6840     8.6270     7.2770     7.1890    24.6000     2.4330   -17.3900 
  188.7500    73.5190     8.9180     7.4830     7.6160    24.4770     2.4370   -16.9650 
  188.8750    77.9490     9.3910     7.9010     8.2110    24.4570     2.4450   -16.6400 
