~V
VERS. 2.00: Ver 2.00
~W
STRT.M 63.0000:
STOP.M 257.0000:
STEP.M 0.1250:
NULL. -999.2500:
UWI. DF3070:
~C
DEPT.M :
DEN.GM/CC :
GR.API :
RML.OHMM :
RI. :
RXO.OHMM :
CALI.CM :
SP.MV :
~A
# ...
   96.7500  -999.2500    77.0610     8.6510     6.5980     7.6490    23.9560   -22.6320 
   96.8750  -999.2500    76.2130     9.3380     7.2000     8.2220    23.7120   -22.8560 
   97.0000  -999.2500    78.3130     9.8140     7.6640     8.5710    23.4210   -23.0770 
   97.1250  -999.2500    82.5080     9.8810     7.8030     8.6450    22.9880   -23.1660 
   97.2500  -999.2500    85.8600     9.5650     7.6130     8.4970    22.5270   -23.0320 
   97.3750  -999.2500    87.6010     8.9460     7.1460     8.0760    22.2220   -22.8100 
   97.5000  -999.2500    89.3820     8.1580     6.5090     7.4150    22.1640   -22.3880 
   97.6250  -999.2500    92.8650     7.3730     5.8380     6.6510    22.2100   -21.9770 
   97.7500  -999.2500    96.4870     6.7460     5.2660     6.0290    22.4470   -21.5940 
   97.8750  -999.2500    96.5480     6.3900     4.8860     5.6130    22.8830   -21.3580 
   98.0000  -999.2500    95.6590     6.3850     4.7660     5.4640    23.2290   -21.3810 
   98.1250  -999.2500    99.6580     6.8170     4.9890     5.7730    23.2100   -21.6690 
   98.2500  -999.2500   103.6130     7.5700     5.4900     6.7780    23.1090   -22.3300 
   98.3750  -999.2500    99.5910     8.5220     6.2020     8.4890    23.2000   -23.1730 
   98.5000  -999.2500    87.2150     9.5060     7.0190    10.3430    23.4080   -24.2000 
   98.6250  -999.2500    76.6440    10.3070     7.7860    11.1010    23.4800   -25.2200 
   98.7500  -999.2500    72.9970    10.8350     8.3910    11.0010    23.4200   -26.2910 
   98.8750  -999.2500    73.9970    11.0840     8.7860    10.9700    23.3550   -27.2340 
   99.0000  -999.2500    76.6470    11.1170     8.9800    11.1700    23.3470   -28.1010 
   99.1250  -999.2500    78.4510    11.0220     9.0070    11.2500    23.3630   -28.8530 
   99.2500  -999.2500    77.9580    10.9010     8.9580    11.2910    23.4150   -29.3550 
   99.3750  -999.2500    75.3340    10.7960     8.8790    11.2560    23.4750   -29.7700 
   99.5000  -999.2500    72.6040    10.7300     8.8030    11.1690    23.4450   -29.9990 
   99.6250  -999.2500    72.1820    10.7290     8.7620    11.1390    23.2820   -30.1710 
   99.7500  -999.2500    73.0470    10.7900     8.7640    11.1880    23.1280   -30.2490 
   99.8750  -999.2500    73.4230    10.9020     8.8060    11.2880    23.0690   -30.2720 
  100.0000  -999.2500    73.1510    11.0360     8.8740    11.4210    23.0750   -30.3160 
  100.1250  -999.2500    72.6930    11.1520     8.9450    11.5280    23.0790   -30.2830 
  100.2500  -999.2500    73.4170    11.2250     9.0000    11.5530    23.0790   -30.2950 
  100.3750  -999.2500    76.0800    11.2500     9.0290    11.5230    23.0780   -30.2200 
  100.5000  -999.2500    78.5570    11.2390     9.0330    11.4900    23.0780   -30.1940 
  100.6250  -999.2500    77.0160    11.2030     9.0130    11.4370    23.0820   -30.2540 
  100.7500  -999.2500    73.7540    11.1460     8.9720    11.3040    23.0890   -30.2610 
  100.8750  -999.2500    72.2780    11.0630     8.9080    11.1510    23.0940   -30.3790 
  101.0000  -999.2500    74.1300    10.9500     8.8180    11.0750    23.0940   -30.4020 
  101.1250  -999.2500    75.3390    10.8200     8.7060    11.0370    23.0890   -30.5130 
  101.2500  -999.2500    73.0970    10.7000     8.5890    10.9200    23.0830   -30.6370 
  101.3750  -999.2500    67.9070    10.6060     8.4810    10.7440    23.0920   -30.7970 
  101.5000  -999.2500    62.8380    10.5430     8.3930    10.6400    23.1160   -31.0060 
  101.6250  -999.2500    62.4080    10.5010     8.3310    10.6760    23.1090   -31.1840 
  101.7500  -999.2500    66.2640    10.4570     8.2880    10.7260    23.0570   -31.4790 
  101.8750  -999.2500    71.8870    10.3960     8.2540    10.7830    22.9940   -31.7280 
  102.0000  -999.2500    75.6540    10.3150     8.2230    10.8700    22.9540   -32.0860 
  102.1250  -999.2500    75.1680    10.2260     8.1900    10.8600    22.9370   -32.3320 
  102.2500  -999.2500    74.4130    10.1500     8.1580    10.6480    22.9240   -32.5560 
  102.3750  -999.2500    75.6250    10.1010     8.1280    10.3200    22.9160   -32.7250 
  102.5000  -999.2500    75.9250    10.0780     8.1000    10.0790    22.9150   -32.7820 
  102.6250  -999.2500    72.8910    10.0630     8.0650    10.0430    22.9140   -32.8430 
  102.7500  -999.2500    69.9260    10.0310     8.0160    10.0740    22.8960   -32.7330 
  102.8750  -999.2500    69.4160     9.9700     7.9480    10.0630    22.8760   -32.5180 
  103.0000  -999.2500    70.7870     9.8800     7.8690     9.9270    22.9080   -32.2200 
  103.1250  -999.2500    73.5720     9.7780     7.7910     9.5830    22.9920   -31.8690 
  103.2500  -999.2500    77.1710     9.6880     7.7320     9.1790    23.0670   -31.5220 
  103.3750  -999.2500    79.3680     9.6260     7.6990     8.9510    23.1680   -31.1740 
  103.5000  -999.2500    79.0000     9.5960     7.6950     8.9690    23.2670   -30.8350 
  103.6250  -999.2500    78.1550     9.5960     7.7220     8.9530    23.2030   -30.4240 
  103.7500  -999.2500    78.6140     9.6150     7.7670     8.6620    22.9960   -30.0020 
  103.8750  -999.2500    79.5390     9.6500     7.8270     8.2920    22.8250   -29.6070 
  104.0000  -999.2500    78.5650     9.6960     7.8920     8.1200    22.8000   -29.0650 
  104.1250  -999.2500    78.3800     9.7180     7.9370     8.1940    22.8480   -28.5640 
  104.2500  -999.2500    82.8650     9.6510     7.9190     8.2770    22.9070   -27.9140 
  104.3750  -999.2500    87.8660     9.4190     7.7830     8.1760    22.9830   -27.1820 
  104.5000  -999.2500    86.7850     8.9830     7.4950     7.9200    23.0240   -26.3310 
  104.6250  -999.2500    81.2120     8.3810     7.0550     7.6230    23.2450   -25.3390 
  104.7500  -999.2500    82.6360     7.7950     6.5790     7.1870    23.7740   -24.3070 
  104.8750  -999.2500    92.3170     7.3770     6.1740     6.4790    24.2620   -23.1890 
  105.0000  -999.2500   102.4810     7.2090     5.9160     5.7770    24.3670   -22.2050 
  105.1250  -999.2500   108.8370     7.2800     5.8300     5.6780    24.4240   -21.2300 
  105.2500  -999.2500   110.9300     7.4090     5.8200     6.2220    24.7060   -20.4190 
  105.3750  -999.2500   108.0980     7.4470     5.7970     6.9720    24.8240   -19.6360 
  105.5000  -999.2500   104.0110     7.2950     5.6900     7.1620    24.5320   -19.0190 
  105.6250  -999.2500   106.7970     6.9460     5.4750     6.4010    24.2460   -18.5640 
  105.7500  -999.2500   113.8810     6.5770     5.2400     5.5680    24.2150   -18.2740 
  105.8750  -999.2500   116.5930     6.3620     5.0940     5.2880    24.2510   -18.2130 
  106.0000  -999.2500   112.9710     6.4300     5.1340     5.5350    24.2430   -18.1150 
  106.1250  -999.2500   108.0910     6.8630     5.4440     6.0470    24.2450   -18.1410 
  106.2500  -999.2500   105.8380     7.5080     5.9390     6.8520    24.2380   -18.2190 
  106.3750  -999.2500   106.2540     8.1830     6.5050     7.9490    24.2130   -18.4200 
  106.5000  -999.2500   107.9280     8.6850     6.9880     8.9370    24.1590   -18.7560 
  106.6250  -999.2500   104.1300     8.8020     7.2050     9.1410    24.0470   -19.1050 
  106.7500  -999.2500    96.4100     8.5940     7.1540     8.6590    23.9500   -19.4730 
  106.8750  -999.2500    91.4450     8.1950     6.9100     7.7870    24.0300   -19.8040 
  107.0000  -999.2500    92.7640     7.7800     6.6000     6.8630    24.1730   -20.1960 
  107.1250  -999.2500    96.8220     7.5150     6.3630     6.4030    23.9820   -20.5750 
  107.2500  -999.2500    99.9540     7.4310     6.2550     6.3930    23.5280   -20.8400 
  107.3750  -999.2500   102.5210     7.5060     6.2770     6.4540    23.2100   -21.1290 
  107.5000  -999.2500   101.7040     7.6890     6.3980     6.4370    23.1690   -21.2950 
  107.6250  -999.2500    94.1170     7.9180     6.5720     6.5360    23.2940   -21.5000 
  107.7500  -999.2500    87.5490     8.1240     6.7360     6.8420    23.6780   -21.6000 
  107.8750  -999.2500    85.3430     8.2660     6.8510     7.1590    24.4190   -21.6280 
