~V
VERS. 2.00: Ver 2.00
~W
STRT.M 56.0000:
STOP.M 296.0000:
STEP.M 0.1250:
NULL. -999.2500:
UWI. DF301:
~C
DEPT.M :
DEN.GM/CC :
SP.MV :
AC.US/MT :
GR.API :
CALI.CM :
RXO.OHMM :
RI. :
RML.OHMM :
~A
# ...
  126.0000     2.2290   -14.0870   431.3600    69.9940    23.5280    10.2320     7.3390     8.5290 
  126.1250     2.2300   -14.1650   432.2540    74.2690    23.5270     9.8380     7.3060     8.6190 
  126.2500     2.2330   -14.1380   432.9000    78.1760    23.5140     9.4140     7.3280     8.6830 
  126.3750     2.2400   -14.1040   432.3720    79.1500    23.4990     9.3010     7.3950     8.7670 
  126.5000     2.2450   -14.2200   430.5010    77.3310    23.4820     9.6370     7.5390     8.9230 
  126.6250     2.2430   -14.4880   427.5970    74.9700    23.4510    10.1970     7.7630     9.1510 
  126.7500     2.2360   -14.8210   424.5350    75.2510    23.4560    10.6790     8.0270     9.3820 
  126.8750     2.2340   -15.2840   422.4080    75.5020    23.4660    11.0110     8.2420     9.5240 
  127.0000     2.2410   -15.8430   421.8150    71.8390    23.4040    11.2260     8.3440     9.5250 
  127.1250     2.2540   -16.3510   422.7980    67.4470    23.2770    11.2940     8.3130     9.3870 
  127.2500     2.2610   -16.7740   424.8530    67.5300    23.2140    11.2440     8.1670     9.1540 
  127.3750     2.2510   -17.0550   426.8470    69.8920    23.2640    11.2450     7.9870     8.9160 
  127.5000     2.2320   -17.1810   428.0670    69.4640    23.4060    11.3580     7.8200     8.7290 
  127.6250     2.2170   -17.1720   428.1770    66.5380    23.5810    11.4690     7.6990     8.6270 
  127.7500     2.2190   -17.0650   427.2300    66.1810    23.7230    11.4000     7.6470     8.6390 
  127.8750     2.2260   -16.9070   426.0190    66.8480    23.8260    11.2870     7.6480     8.7300 
  128.0000     2.2300   -16.7190   425.3000    66.1820    23.9140    11.3070     7.6880     8.8550 
  128.1250     2.2360   -16.5250   425.8090    64.5190    23.9750    11.4420     7.7420     8.9510 
  128.2500     2.2470   -16.3590   428.2250    64.6340    23.9920    11.3390     7.7670     8.9350 
  128.3750     2.2510   -16.1990   431.9410    66.2620    24.0000    10.9650     7.7250     8.7820 
  128.5000     2.2360   -16.0390   435.9020    68.0080    24.0250    10.5180     7.5950     8.5030 
  128.6250     2.2100   -15.9040   438.6690    69.3290    23.9920    10.1320     7.3840     8.1480 
  128.7500     2.2000   -15.7230   438.6450    69.9490    23.8910     9.7310     7.1380     7.8060 
  128.8750     2.2120   -15.4940   436.1980    70.9290    23.8190     9.2200     6.9330     7.5660 
  129.0000     2.2320   -15.2740   432.3800    72.9360    23.8730     8.8510     6.8250     7.4820 
  129.1250     2.2400   -15.0640   428.6000    74.1170    23.9350     8.8240     6.8460     7.5670 
  129.2500     2.2290   -14.8340   426.2790    72.9070    23.9770     9.2070     7.0030     7.7810 
  129.3750     2.2110   -14.5080   425.7310    71.0300    24.0110     9.7230     7.1960     7.9790 
  129.5000     2.2010   -14.0260   426.8770    70.7700    23.9970    10.1520     7.3090     8.0280 
  129.6250     2.2070   -13.3760   429.2780    71.7020    23.9040    10.2370     7.2250     7.8280 
  129.7500     2.2330   -12.5020   432.1310    72.6260    23.8010     9.6660     6.8620     7.3370 
  129.8750     2.2700   -11.5270   434.4710    75.2520    23.9040     8.4870     6.3340     6.7090 
  130.0000     2.3110   -10.4790   436.0520    80.1620    24.1670     7.2660     5.7660     6.0900 
  130.1250     2.3420    -9.4000   437.2150    84.0750    24.4820     6.4640     5.2690     5.5940 
  130.2500     2.3530    -8.2780   438.3540    85.6790    24.6510     6.0390     4.9280     5.3040 
  130.3750     2.3580    -7.3010   438.9860    87.6190    24.7980     5.7180     4.7360     5.1820 
  130.5000     2.3680    -6.5090   438.0850    89.3280    24.9010     5.5850     4.6810     5.1970 
  130.6250     2.3720    -5.9730   435.2560    89.4830    24.9430     5.6020     4.7480     5.3240 
  130.7500     2.3490    -5.8840   431.6940    88.5030    24.9100     5.7710     4.9380     5.5600 
  130.8750     2.3080    -5.9560   429.5880    88.0530    24.8610     5.9750     5.2100     5.8580 
  131.0000     2.2750    -6.1550   429.6980    87.2790    24.7530     6.2470     5.5120     6.1610 
  131.1250     2.2620    -6.4190   431.2130    86.1560    24.5810     6.7140     5.7660     6.3810 
  131.2500     2.2620    -6.6110   432.6140    85.9070    24.3420     7.1370     5.8460     6.3970 
  131.3750     2.2690    -6.7580   433.3710    85.5770    24.2570     7.0960     5.7210     6.2030 
  131.5000     2.2940    -6.8960   433.9230    85.5440    24.3530     6.5870     5.4250     5.8570 
  131.6250     2.3310    -6.9550   434.4990    85.4120    24.5540     6.0180     5.0560     5.4730 
  131.7500     2.3550    -6.9300   433.6720    85.7110    24.6300     5.7890     4.7590     5.2270 
  131.8750     2.3550    -6.9810   429.1180    87.8100    24.5770     5.8090     4.6410     5.2250 
  132.0000     2.3360    -7.0770   418.9770    90.2110    24.4960     6.1230     4.7670     5.5170 
  132.1250     2.3160    -7.2920   403.4260    89.7970    24.4180     6.6780     5.1570     6.0860 
  132.2500     2.3090    -7.7700   385.7190    85.6020    24.2520     7.4540     5.7880     6.8360 
  132.3750     2.3180    -8.4130   371.7890    81.9740    24.0140     8.2730     6.4710     7.5320 
  132.5000     2.3270    -9.0860   365.8690    79.1790    23.7370     9.0870     7.0230     7.9880 
  132.6250     2.3180    -9.7360   369.3550    76.7460    23.4250     9.5950     7.3020     8.1090 
  132.7500     2.2880   -10.3100   380.6730    74.8300    23.2760     9.5530     7.2660     7.9250 
  132.8750     2.2580   -10.7190   393.6830    71.9870    23.2120     9.3080     7.1040     7.6730 
  133.0000     2.2370   -11.0160   404.6430    69.2060    23.1670     9.2140     6.9580     7.5090 
  133.1250     2.2290   -11.1520   411.9340    68.7640    23.1500     9.2660     6.9060     7.4940 
  133.2500     2.2290   -11.1940   415.5960    71.1900    23.1480     9.3930     6.9520     7.5890 
  133.3750     2.2290   -11.0810   417.6630    73.0440    23.1430     9.5620     6.9970     7.6590 
  133.5000     2.2290   -10.8510   419.1010    73.1630    23.1230     9.6560     6.9700     7.6220 
  133.6250     2.2320   -10.5760   420.2520    72.4870    23.1090     9.3560     6.8490     7.4670 
  133.7500     2.2440   -10.2290   421.0080    73.8860    23.1440     8.4780     6.6800     7.2490 
  133.8750     2.2560    -9.9100   421.4250    77.6500    23.2840     7.7240     6.5410     7.0620 
  134.0000     2.2570    -9.5680   421.6930    80.3240    23.5590     7.6960     6.4650     6.9530 
  134.1250     2.2470    -9.1860   422.0620    77.4500    23.7940     8.2530     6.4490     6.9200 
  134.2500     2.2420    -8.6120   422.6040    72.7290    23.6930     8.5500     6.4540     6.9190 
  134.3750     2.2570    -7.9900   423.1470    72.0070    23.5430     8.1800     6.4170     6.8760 
  134.5000     2.2870    -7.3820   423.7180    74.0990    23.6610     7.4820     6.2950     6.7460 
  134.6250     2.3170    -6.8070   424.7060    76.3210    23.9840     6.9790     6.0750     6.5140 
  134.7500     2.3350    -6.2990   426.9750    79.6860    24.2190     6.8120     5.7550     6.1710 
  134.8750     2.3430    -5.7270   430.7030    84.0590    24.3190     6.5350     5.3710     5.7510 
  135.0000     2.3450    -5.1930   435.7500    86.6140    24.4150     6.0680     4.9450     5.2780 
  135.1250     2.3450    -4.7510   441.5720    86.3070    24.5240     5.5990     4.5240     4.8100 
  135.2500     2.3550    -4.4970   446.7060    85.5060    24.6390     5.2930     4.2160     4.4920 
  135.3750     2.3730    -4.4430   448.5060    87.9260    24.7240     5.0710     4.1210     4.4460 
  135.5000     2.3870    -4.5260   443.0580    93.2000    24.7510     5.1630     4.3130     4.7660 
  135.6250     2.3910    -4.6920   427.2440    96.9580    24.6450     5.9900     4.8260     5.4670 
  135.7500     2.4000    -4.8510   401.5960    94.6970    24.3440     8.1810     5.6520     6.4460 
  135.8750     2.4230    -5.0900   376.5790    91.5380    24.0780    10.9440     6.5310     7.3340 
