~V
VERS. 2.00: Ver 2.00
~W
STRT.M 55.0000:
STOP.M 252.0000:
STEP.M 0.1250:
NULL. -999.2500:
UWI. DF3024:
~C
DEPT.M :
GR.API :
RML.OHMM :
RI. :
RXO.OHMM :
CALI.CM :
DEN.GM/CC :
SP.MV :
~A
# ...
  212.5000    89.9920    11.6630    11.7730     9.9260    24.1870     2.4380   -25.3550 
  212.6250    94.1360    11.4160    11.4650    10.1490    24.1060     2.4360   -25.8920 
  212.7500    98.5000    11.1400    11.0460    10.3310    24.1320     2.4280   -26.3590 
  212.8750   103.9810    10.8680    10.5610    10.3390    24.2210     2.4150   -26.7940 
  213.0000   109.5500    10.6360    10.0760    10.1720    24.2070     2.4040   -27.3020 
  213.1250   112.0460    10.5620     9.7080    10.0030    23.9970     2.3970   -27.7500 
  213.2500   110.4200    10.7860     9.5650    10.0190    23.9480     2.3950   -28.2110 
  213.3750   107.5540    11.3820     9.7570    10.3680    24.0730     2.3940   -28.7220 
  213.5000   106.0080    12.4730    10.3820    11.1070    24.1930     2.3870   -29.3040 
  213.6250   103.5610    13.9040    11.5790    12.7460    24.2370     2.3740   -29.8640 
  213.7500    99.1010    15.6140    13.2350    15.1250    24.2410     2.3560   -30.3930 
  213.8750    93.4060    17.3010    15.2230    18.5320    24.2520     2.3420   -30.9410 
  214.0000    88.9070    18.7710    17.3350    22.2110    24.2570     2.3360   -31.4220 
  214.1250    86.7260    20.7830    19.2820    24.7080    24.2400     2.3390   -31.8810 
  214.2500    86.4090    22.4510    20.8950    25.9670    24.2180     2.3470   -32.2640 
  214.3750    86.2870    23.7850    22.1340    26.4910    24.2080     2.3530   -32.5320 
  214.5000    84.6650    24.8620    23.0530    27.1200    24.2070     2.3550   -32.7770 
  214.6250    80.6830    25.7260    23.7040    28.3940    24.2070     2.3520   -32.9760 
  214.7500    77.5360    26.3890    24.1530    29.1860    24.2070     2.3470   -33.0790 
  214.8750    78.4040    26.7740    24.3700    29.3930    24.2090     2.3450   -33.0940 
  215.0000    81.9980    26.8230    24.3260    29.3450    24.2240     2.3470   -33.1180 
  215.1250    82.5540    26.5450    24.0360    28.9440    24.2540     2.3510   -33.0530 
  215.2500    81.5920    26.1900    23.7010    28.4120    24.2770     2.3560   -32.8990 
  215.3750    84.6420    26.0060    23.5190    27.7970    24.2740     2.3600   -32.8220 
  215.5000    89.6270    26.2140    23.6810    27.6640    24.2620     2.3620   -32.6240 
  215.6250    89.6940    27.0150    24.3830    28.4550    24.2600     2.3610   -32.3160 
  215.7500    86.2960    28.2670    25.5420    30.2530    24.2630     2.3550   -32.0960 
  215.8750    83.8060    29.8090    27.0480    32.7860    24.2640     2.3470   -31.7300 
  216.0000    82.2990    31.4450    28.7320    35.7590    24.2610     2.3420   -31.3180 
  216.1250    79.9250    32.9570    30.3650    36.6870    24.2340     2.3430   -30.9850 
  216.2500    77.5550    34.1130    31.7250    36.9470    24.2000     2.3540   -30.5400 
  216.3750    75.7240    34.7060    32.5960    35.9990    24.1790     2.3740   -30.0570 
  216.5000    73.7960    34.6120    32.7670    35.2620    24.1700     2.3960   -29.5720 
  216.6250    73.8300    33.5590    31.9170    35.9380    24.1620     2.4120   -29.0320 
  216.7500    75.5400    31.9870    30.2080    34.7910    24.1290     2.4170   -28.5220 
  216.8750    78.4070    30.1740    27.8880    31.7230    24.0640     2.4070   -28.0630 
  217.0000    81.6310    28.4200    25.3680    28.3590    24.0170     2.3930   -27.6010 
  217.1250    82.4580    27.1120    23.2000    24.5150    24.0020     2.3810   -27.1510 
  217.2500    81.6120    25.4550    21.7030    21.6550    24.0020     2.3730   -26.7490 
  217.3750    80.4920    24.8470    21.0330    20.2950    24.0020     2.3720   -26.3940 
  217.5000    80.3000    25.2640    21.2150    20.0680    24.0020     2.3760   -26.0810 
  217.6250    80.4450    26.6610    22.2710    20.5940    24.0020     2.3870   -25.8480 
  217.7500    79.2890    28.5880    23.8550    21.9760    24.0020     2.4080   -25.6080 
  217.8750    77.3690    30.6910    25.6810    23.9730    23.9960     2.4400   -25.3550 
  218.0000    75.0160    32.5750    27.4110    26.5000    23.9860     2.4700   -25.1720 
  218.1250    74.1250    33.7140    28.5890    29.2640    23.9770     2.4890   -25.0510 
  218.2500    73.9770    33.9400    29.0340    31.1320    24.0060     2.4870   -24.9090 
  218.3750    73.4630    33.2550    28.7100    31.6340    24.0480     2.4610   -24.7400 
  218.5000    73.3130    31.8900    27.7720    30.9140    24.0740     2.4210   -24.7020 
  218.6250    73.5720    30.2280    26.4830    29.1200    24.0850     2.3790   -24.6070 
  218.7500    72.2650    28.6730    25.1780    26.4070    24.0860     2.3400   -24.4700 
  218.8750    69.3990    27.3540    23.9900    24.0030    24.0860     2.3140   -24.4880 
  219.0000    67.7260    26.2350    22.9450    23.2190    24.0840     2.2990   -24.4030 
  219.1250    69.9480    25.2240    22.0360    23.8620    24.0840     2.2960   -24.2590 
  219.2500    72.9710    24.2510    21.2220    23.9780    24.0850     2.3000   -24.2320 
  219.3750    73.8390    23.3320    20.4980    22.8840    24.0790     2.3080   -24.1030 
  219.5000    73.9020    22.4740    19.8400    21.0990    24.0590     2.3170   -23.9140 
  219.6250    74.4060    21.6150    19.1810    19.8230    23.9980     2.3260   -23.7510 
  219.7500    74.6190    20.6740    18.4550    19.4680    23.8900     2.3340   -23.6000 
  219.8750    74.4350    19.6540    17.6680    19.4470    23.7230     2.3430   -23.3800 
  220.0000    77.1630    18.6860    16.9190    18.9600    23.6130     2.3500   -23.1270 
  220.1250    84.0800    18.0710    16.4330    17.6670    23.5860     2.3540   -22.9320 
  220.2500    89.3220    17.9630    16.3360    15.7620    23.6020     2.3530   -22.6810 
  220.3750    89.2770    18.3700    16.6650    14.6400    23.6380     2.3450   -22.4630 
  220.5000    84.5940    19.1200    17.3160    15.2380    23.7060     2.3340   -22.2660 
  220.6250    78.4320    19.8440    18.0250    17.3760    23.8360     2.3220   -22.0300 
  220.7500    73.4170    20.1670    18.4430    18.9930    23.9510     2.3120   -21.7960 
  220.8750    69.9620    19.8940    18.3450    18.6260    23.9960     2.3090   -21.5900 
  221.0000    67.8380    19.0400    17.6860    17.0860    24.0020     2.3120   -21.4180 
  221.1250    68.8450    17.8120    16.5990    16.6350    23.9920     2.3190   -21.2300 
  221.2500    72.3090    16.6100    15.4570    15.6780    23.9420     2.3270   -21.0640 
  221.3750    74.2730    15.6680    14.4900    14.2770    23.8260     2.3340   -20.8980 
  221.5000    73.2920    15.1090    13.8350    13.1170    23.6810     2.3380   -20.7400 
  221.6250    73.3200    15.0780    13.6330    13.1910    23.6050     2.3400   -20.6440 
  221.7500    76.4230    15.5770    13.8850    13.9420    23.5780     2.3400   -20.4690 
  221.8750    81.6090    16.6950    14.6600    14.6140    23.5710     2.3330   -20.3120 
  222.0000    86.7240    18.4930    16.0190    14.8510    23.6090     2.3180   -20.2400 
  222.1250    87.5610    21.0030    18.0360    16.4080    23.7420     2.2960   -20.0160 
  222.2500    85.4580    23.8380    20.4350    19.7080    23.9740     2.2750   -19.8000 
  222.3750    85.4210    26.5640    22.8900    24.3090    24.2280     2.2640   -19.6400 
  222.5000    88.1330    28.6900    24.9750    29.3800    24.4290     2.2630   -19.3610 
  222.6250    86.3210    29.6300    26.1300    30.8190    24.4830     2.2690   -19.1550 
  222.7500    80.9640    29.4910    26.3320    29.5090    24.4100     2.2700   -18.9760 
  222.8750    78.4230    28.5870    25.7760    28.3930    24.3270     2.2580   -18.7290 
  223.0000    79.2750    27.4880    24.9020    28.1670    24.3220     2.2380   -18.4940 
  223.1250    77.3040    27.0410    24.3850    27.4540    24.3760     2.2290   -18.2750 
  223.2500    70.9690    27.7060    24.6670    27.2150    24.4250     2.2490   -18.0980 
  223.3750    64.9800    29.5230    25.8570    27.9620    24.4280     2.3070   -17.9070 
  223.5000    64.0390    31.9930    27.6330    31.1360    24.3300     2.3760   -17.7070 
  223.6250    66.2910    33.8880    29.0590    40.2050    24.0150     2.4290   -17.5060 
