~V
VERS. 2.00: Ver 2.00
~W
STRT.M 63.0000:
STOP.M 257.0000:
STEP.M 0.1250:
NULL. -999.2500:
UWI. DF3070:
~C
DEPT.M :
DEN.GM/CC :
GR.API :
RML.OHMM :
RI. :
RXO.OHMM :
CALI.CM :
SP.MV :
~A
# ...
  198.0000     2.4160    87.3160    29.4890    23.5370    25.7790    24.5290   -20.0440 
  198.1250     2.3880    83.0550    45.0900    34.8460    38.2480    24.5310   -20.5410 
  198.2500     2.3540    74.6920    64.4460    50.2080    57.2900    24.5320   -21.0330 
  198.3750     2.3190    67.2190    86.3560    68.4910    84.1440    24.5250   -21.5650 
  198.5000     2.2900    64.7960   109.7260    87.7160   114.9080    24.5170   -22.0820 
  198.6250     2.2650    66.6110   131.6330   105.5850   128.2130    24.5160   -22.6010 
  198.7500     2.2430    68.9630   151.2560   121.5990   131.9700    24.5190   -23.0930 
  198.8750     2.2280    71.5320   169.7520   136.5120   141.6600    24.5270   -23.5430 
  199.0000     2.2250    73.1140   188.8030   151.3740   155.1620    24.5380   -23.9260 
  199.1250     2.2390    71.2500   208.8750   166.4730   167.6080    24.5390   -24.2680 
  199.2500     2.2570    69.2460   228.1090   180.7750   174.8640    24.5350   -24.5390 
  199.3750     2.2670    68.7290   244.3200   192.9320   178.6190    24.5370   -24.7650 
  199.5000     2.2680    68.9570   255.8130   201.8850   181.7410    24.5500   -24.9820 
  199.6250     2.2430    68.0960   261.2430   206.7600   184.9220    24.5610   -25.1950 
  199.7500     2.2200    67.1860   262.5760   208.8460   186.5100    24.5640   -25.3570 
  199.8750     2.2060    67.7270   261.5460   209.2980   185.5190    24.5630   -25.5510 
  200.0000     2.2030    69.1100   259.7980   209.2740   182.4910    24.5630   -25.7200 
  200.1250     2.2080    69.1580   258.5510   209.7150   179.4440    24.5630   -25.8640 
  200.2500     2.2180    68.1500   258.0220   210.8430   179.1300    24.5630   -26.0160 
  200.3750     2.2280    67.5930   257.8910   212.4640   182.4230    24.5630   -26.1050 
  200.5000     2.2360    66.5280   257.6720   214.1570   187.0630    24.5630   -26.2210 
  200.6250     2.2390    65.0270   256.9090   215.3820   187.8930    24.5600   -26.2440 
  200.7500     2.2360    65.9520   255.6140   215.9630   183.5970    24.5570   -26.3270 
  200.8750     2.2300    69.4310   253.8420   215.8670   178.1390    24.5580   -26.3290 
  201.0000     2.2210    70.6630   251.5810   215.1060   175.4840    24.5610   -26.3980 
  201.1250     2.2100    67.6580   248.7140   213.6350   175.6760    24.5630   -26.3990 
  201.2500     2.1990    65.7030   245.4050   211.6890   175.4970    24.5630   -26.4220 
  201.3750     2.1870    67.7790   241.8450   209.4630   175.0270    24.5630   -26.4590 
  201.5000     2.1770    71.7800   238.2430   207.1860   174.7280    24.5630   -26.4530 
  201.6250     2.1710    72.4890   234.7870   205.1590   174.2440    24.5630   -26.4650 
  201.7500     2.1700    69.8540   231.6910   203.6670   174.1240    24.5630   -26.4890 
  201.8750     2.1720    66.7430   229.4360   203.1650   174.3900    24.5630   -26.5270 
  202.0000     2.1770    64.8010   228.7020   204.2350   173.2470    24.5620   -26.5200 
  202.1250     2.1810    65.7560   230.4310   207.6900   168.5730    24.5690   -26.5210 
  202.2500     2.1820    68.9710   234.1120   212.9930   164.4760    24.5830   -26.4980 
  202.3750     2.1800    71.7540   238.0630   219.0620   165.1310    24.5960   -26.5120 
  202.5000     2.1740    70.6790   240.0740   223.9370   171.0380    24.6030   -26.5070 
  202.6250     2.1660    67.6070   236.4020   224.0370   180.0970    24.6020   -26.4850 
  202.7500     2.1580    66.4380   226.1180   217.5170   186.8960    24.6020   -26.4220 
  202.8750     2.1520    68.4890   209.4060   203.6080   186.6540    24.6020   -26.3640 
  203.0000     2.1510    71.3960   189.9190   183.5580   178.7440    24.6040   -26.3430 
  203.1250     2.1580    72.7470   170.0460   160.6170   166.7000    24.6110   -26.2950 
  203.2500     2.1790    74.6350   151.4350   139.4020   153.9880    24.6070   -26.3060 
  203.3750     2.2090    77.6800   133.5930   122.6420   139.2570    24.6060   -26.2570 
  203.5000     2.2380    79.9030   122.8980   111.8760   119.6350    24.6350   -26.2940 
  203.6250     2.2560    78.3070   120.7570   108.9110   100.8800    24.6750   -26.3580 
  203.7500     2.2530    76.6110   125.9110   112.7370    93.4080    24.7270   -26.4680 
  203.8750     2.2390    76.2590   138.1170   123.0620   100.0100    24.7830   -26.5730 
  204.0000     2.2230    74.9850   156.6280   139.0640   120.3430    24.7940   -26.7210 
  204.1250     2.2120    72.7170   180.2510   159.4610   144.0950    24.7000   -26.8770 
  204.2500     2.2070    70.1060   205.4180   180.9810   155.2130    24.6050   -27.0050 
  204.3750     2.2020    67.6260   229.5660   201.3490   160.0060    24.6120   -27.1700 
  204.5000     2.1940    67.9510   250.8480   218.9870   167.6410    24.6710   -27.3190 
  204.6250     2.1810    70.2640   267.7610   232.6280   172.9520    24.6690   -27.4570 
  204.7500     2.1690    69.2400   280.7010   242.7690   170.3430    24.6310   -27.5880 
  204.8750     2.1620    65.3120   289.2440   249.2360   165.9820    24.6880   -27.7140 
  205.0000     2.1600    64.4210   292.5520   251.5290   166.6600    24.7950   -27.8010 
  205.1250     2.1640    69.1830   289.1260   248.5170   172.3780    24.7050   -27.8820 
  205.2500     2.1710    72.5730   280.8270   241.5810   176.1420    24.4560   -27.9540 
  205.3750     2.1780    72.6050   269.6790   232.2160   173.4420    24.2620   -27.9890 
  205.5000     2.1830    71.5730   258.0160   222.2620   166.8220    24.2380   -27.9600 
  205.6250     2.1870    71.7380   248.0660   213.6000   161.7940    24.2680   -27.9100 
  205.7500     2.1910    72.5210   240.4770   206.9130   158.5340    24.2620   -27.8530 
  205.8750     2.1960    72.8250   235.2990   202.3230   154.7390    24.2590   -27.8150 
  206.0000     2.2010    73.0470   232.3130   199.6710   150.6010    24.3390   -27.7950 
  206.1250     2.2080    72.5500   231.5960   199.0070   149.5990    24.4900   -27.7650 
  206.2500     2.2120    70.3970   232.7010   199.8990   151.8170    24.6380   -27.7770 
  206.3750     2.2130    68.3320   235.5700   202.2590   154.9970    24.7300   -27.7800 
  206.5000     2.2070    68.2770   240.0180   205.9030   157.8640    24.7140   -27.8690 
  206.6250     2.1960    69.4140   245.6430   210.4540   162.3270    24.5740   -27.9740 
  206.7500     2.1830    69.5970   251.2710   214.9580   169.6920    24.4430   -28.0330 
  206.8750     2.1720    68.6840   255.7500   218.5190   178.8580    24.4290   -28.0880 
  207.0000     2.1660    66.8580   257.9450   220.2640   188.3600    24.4690   -28.0580 
  207.1250     2.1660    64.0850   256.5140   219.1270   197.8440    24.4340   -28.0870 
  207.2500     2.1710    63.5260   251.9450   215.4570   203.6080    24.3780   -28.0150 
  207.3750     2.1780    65.7740   244.8870   209.7420   202.0740    24.3480   -27.9850 
  207.5000     2.1830    67.1080   236.3060   202.7580   194.3640    24.3540   -27.8440 
  207.6250     2.1830    66.1870   227.2260   195.3700   183.5360    24.3610   -27.6780 
  207.7500     2.1800    66.8490   218.5860   188.3680   172.3500    24.3710   -27.5120 
  207.8750     2.1750    69.9900   210.9340   182.2060   162.7820    24.3990   -27.3360 
  208.0000     2.1730    73.4400   204.7310   177.2660   156.5460    24.4390   -27.1970 
  208.1250     2.1750    73.2920   200.8820   174.3210   152.7510    24.4670   -27.0420 
  208.2500     2.1830    69.3810   199.6480   173.6220   148.4230    24.4760   -26.8980 
  208.3750     2.1930    65.4130   201.2880   175.4260   142.9190    24.4790   -26.7500 
  208.5000     2.2040    64.5490   205.3550   179.3900   137.9600    24.4880   -26.6660 
  208.6250     2.2100    65.9090   210.0550   184.0690   137.4730    24.4950   -26.6110 
  208.7500     2.2090    66.3760   212.2370   186.7890   141.9410    24.4890   -26.5690 
  208.8750     2.2030    66.7160   209.1270   185.1570   149.3090    24.4750   -26.5080 
  209.0000     2.1970    67.8980   199.1750   177.7100   156.9300    24.4710   -26.4650 
  209.1250     2.1930    67.5470   182.3870   164.0780   161.4360    24.4790   -26.3960 
