~V
VERS. 2.00: Ver 2.00
~W
STRT.M 60.0000:
STOP.M 266.0000:
STEP.M 0.1250:
NULL. -999.2500:
UWI. DF3052:
~C
DEPT.M :
GR.API :
CALI.CM :
RXO.OHMM :
RI. :
RML.OHMM :
DEN.GM/CC :
SP.MV :
~A
# ...
  240.0000    76.7520    24.0070    47.4770    48.8280    50.0820     2.2160   -11.8560 
  240.1250    74.9000    24.0050    43.3260    44.7500    46.0060     2.2170   -11.9330 
  240.2500    74.4240    24.0010    41.2620    40.6810    42.0010     2.2110   -12.0340 
  240.3750    76.6760    24.0010    40.2000    36.8090    38.2010     2.2140   -12.1640 
  240.5000    81.0480    24.0050    36.7950    33.3910    34.8950     2.2280   -12.3320 
  240.6250    85.7920    24.0090    30.8940    31.0730    32.8080     2.2480   -12.5500 
  240.7500    89.0070    24.0060    26.5340    30.0350    32.0970     2.2650   -12.7950 
  240.8750    89.6330    23.9970    25.9180    30.2530    32.8010     2.2850   -13.0940 
  241.0000    87.7710    23.9880    27.3800    31.7760    34.8730     2.3100   -13.4170 
  241.1250    84.9490    23.9890    30.1950    34.6340    38.2370     2.3290   -13.7340 
  241.2500    82.4180    23.9680    34.9110    38.3850    42.3350     2.3310   -14.0550 
  241.3750    80.3630    23.8940    40.6210    42.6560    46.6980     2.3150   -14.3700 
  241.5000    78.9420    23.7860    44.0500    46.9550    50.8620     2.2880   -14.6610 
  241.6250    78.3180    23.6880    42.7280    50.6340    54.2370     2.2630   -14.8980 
  241.7500    77.3990    23.5930    40.8150    53.6060    56.8880     2.2510   -15.1330 
  241.8750    75.1390    23.5150    42.4340    56.0620    59.0400     2.2510   -15.3490 
  242.0000    72.1790    23.4990    49.5900    57.9550    60.6800     2.2520   -15.5420 
  242.1250    71.0640    23.5680    59.2850    58.6640    61.2120     2.2450   -15.7070 
  242.2500    72.2990    23.6530    64.3590    57.9110    60.4200     2.2310   -15.8660 
  242.3750    74.9680    23.7150    61.4090    55.9270    58.4940     2.2180   -16.0200 
  242.5000    78.0520    23.7430    54.6960    53.1030    55.6780     2.2100   -16.1640 
  242.6250    80.6860    23.7570    52.3040    49.5410    52.1390     2.2080   -16.3390 
  242.7500    81.5120    23.7740    50.5430    46.2140    48.9860     2.2150   -16.5100 
  242.8750    79.8260    23.7820    43.9340    44.0870    47.2030     2.2310   -16.6620 
  243.0000    76.7720    23.7730    36.0280    44.0580    47.7120     2.2530   -16.8170 
  243.1250    74.3970    23.7670    36.0220    47.4500    51.8450     2.2720   -16.9890 
  243.2500    72.6080    23.7640    47.4340    54.4830    59.3790     2.2800   -17.1440 
  243.3750    70.5030    23.7460    68.8960    64.4440    69.7430     2.2790   -17.3000 
  243.5000    68.2770    23.7170    93.4350    76.5620    82.3010     2.2730   -17.4520 
  243.6250    67.5320    23.7070   126.3990    89.9890    96.0900     2.2610   -17.5660 
  243.7500    68.6140    23.7180   170.4650   101.3320   107.6540     2.2410   -17.6390 
  243.8750    70.6600    23.7580   203.6640   107.7340   113.9440     2.2160   -17.6740 
  244.0000    72.3730    23.8350   192.0690   108.1760   113.9860     2.1960   -17.6680 
  244.1250    72.0700    23.9210   142.7040   103.3980   108.8710     2.1920   -17.6060 
  244.2500    69.9220    23.9770    99.4840    97.0960   102.8010     2.1960   -17.4990 
  244.3750    67.7550    24.0100    89.5010    91.7960    98.1500     2.2010   -17.3410 
  244.5000    68.3850    24.0330   112.7120    88.1590    95.1200     2.2090   -17.1280 
  244.6250    73.4510    24.0150   136.1560    85.2660    92.9310     2.2370   -16.8460 
  244.7500    79.1320    23.9760   125.0210    83.4490    91.7800     2.2770   -16.5030 
  244.8750    81.5250    23.9880    88.7230    82.8440    91.6710     2.3220   -16.1280 
  245.0000    79.4090    24.0860    63.6770    83.3000    92.3250     2.3710   -15.7330 
  245.1250    75.7810    24.2070    69.0420    84.7700    93.7200     2.4230   -15.2950 
  245.2500    75.0400    24.2750    81.0860    87.6070    96.3580     2.4560   -14.8510 
  245.3750    77.8960    24.2990    82.1220    93.0770   101.4020     2.4530   -14.3970 
  245.5000    81.4300    24.3090    74.5470   102.9030   110.2740     2.4320   -13.9370 
  245.6250    80.8960    24.3290    78.9560   118.3400   124.3580     2.4370   -13.4680 
  245.7500    77.0020    24.3340   105.8520   136.5280   140.1570     2.4740   -13.0330 
  245.8750    72.8420    24.2910   151.5640   152.9360   152.6400     2.5260   -12.6230 
  246.0000    70.1280    24.2060   202.3880   160.9040   156.0510     2.5740   -12.2050 
  246.1250    68.3070    24.1600   244.4300   150.8270   142.8240     2.6080   -11.8120 
  246.2500    67.1630    24.1590   256.1890   126.6980   116.7130     2.6250   -11.4380 
  246.3750    67.0890    24.1420   225.7430    96.1510    85.2590     2.6210   -11.0870 
  246.5000    66.8630    24.0850   157.7060    66.5220    56.0910     2.6000   -10.7720 
  246.6250    64.3930    24.0120    84.5480    43.2450    34.7180     2.5730   -10.5230 
  246.7500    61.2380    23.9270    34.6600    26.5300    20.4620     2.5460   -10.3090 
  246.8750    59.6000    23.8340    11.7920    15.4940    11.9400     2.5080   -10.1370 
  247.0000    59.7830    23.7830     5.1950     9.0670     7.3800     2.4530   -10.0170 
  247.1250    60.5840    23.7510     4.4110     6.1460     5.4850     2.3920    -9.9440 
  247.2500    60.9940    23.6640     4.3200     4.9340     4.7360     2.3470    -9.9090 
  247.3750    60.7600    23.5800     4.2770     4.5620     4.5750     2.3250    -9.9070 
  247.5000    59.7280    23.5960     4.2270     4.6200     4.7600     2.3180    -9.9280 
  247.6250    57.9650    23.6960     4.2190     4.8670     5.1200     2.3110    -9.9640 
  247.7500    56.6070    23.7640     4.2790     5.1240     5.4700     2.3010   -10.0260 
  247.8750    56.8830    23.7720     4.3640     5.3190     5.7170     2.2970   -10.1020 
  248.0000    58.9270    23.7600     4.3930     5.4360     5.8600     2.3010   -10.1880 
  248.1250    61.2680    23.7530     4.3430     5.5020     5.9540     2.3010   -10.3020 
  248.2500    62.1030    23.7300     4.3040     5.5470     6.0260     2.2930   -10.4320 
  248.3750    61.0710    23.6450     4.2780     5.5670     6.0800     2.2780   -10.5770 
  248.5000    58.9100    23.5180     4.2340     5.5650     6.1200     2.2610   -10.7270 
  248.6250    56.9770    23.4350     4.1790     5.5460     6.1570     2.2480   -10.8940 
  248.7500    55.7240    23.4170     4.2280     5.5290     6.2170     2.2470   -11.0570 
  248.8750    54.9320    23.4270     4.4700     5.5190     6.2890     2.2660   -11.2200 
  249.0000    54.4280    23.4220     4.8230     5.5260     6.3760     2.2980   -11.3870 
  249.1250    54.9160    23.4050     4.9730     5.5570     6.4720     2.3190   -11.5390 
  249.2500    56.2690    23.3990     4.8230     5.6100     6.5720     2.3180   -11.6630 
  249.3750    57.7360    23.3940     4.5960     5.6680     6.6750     2.3060   -11.7770 
  249.5000    58.6180    23.3750     4.5320     5.7270     6.7750     2.3000   -11.9070 
  249.6250    58.2220    23.3530     4.6540     5.8030     6.8810     2.3140   -12.0200 
  249.7500    57.2870    23.3450     4.8520     5.9010     7.0100     2.3400   -12.1010 
  249.8750    56.7760    23.3500     5.1350     6.0340     7.1830     2.3720   -12.1530 
  250.0000    57.3010    23.3570     5.5940     6.2050     7.3920     2.4010   -12.1800 
  250.1250    58.7000    23.3560     6.1900     6.4090     7.6160     2.4150   -12.1800 
  250.2500    60.4660    23.3460     6.6630     6.6240     7.8290     2.4190   -12.1770 
  250.3750    62.4510    23.3380     6.9240     6.8380     8.0230     2.4180   -12.1740 
  250.5000    64.0560    23.3430     7.0230     7.0490     8.1970     2.4180   -12.1550 
  250.6250    64.2180    23.3560     7.0520     7.2290     8.3460     2.4230   -12.1340 
  250.7500    64.0320    23.3600     7.1260     7.4080     8.4920     2.4260   -12.1290 
  250.8750    64.8160    23.3530     7.2890     7.6120     8.6810     2.4220   -12.1290 
  251.0000    65.7680    23.3550     7.5040     7.8780     8.9530     2.4090   -12.1100 
  251.1250    64.5330    23.3680     7.9010     8.2140     9.2980     2.3930   -12.0880 
