~V
VERS. 2.00: Ver 2.00
~W
STRT.M 64.0000:
STOP.M 264.0000:
STEP.M 0.1250:
NULL. -999.2500:
UWI. DF3031:
~C
DEPT.M :
DEN.GM/CC :
AC.US/MT :
GR.API :
CALI.CM :
RXO.OHMM :
RI. :
RML.OHMM :
SP.MV :
~A
# ...
  224.0000     2.5740   298.4070    68.8140    25.9430    67.7000    27.3780    29.4230   -15.3170 
  224.1250     2.5220   309.6430    70.9950    25.6900    26.6150    16.9040    17.2360   -14.9550 
  224.2500     2.4470   320.9180    74.4670    25.3080    10.5050    10.7910    10.2420   -14.6750 
  224.3750     2.3790   330.7380    83.2320    25.0410     5.8890     7.6220     6.7690   -14.5130 
  224.5000     2.3340   338.2230    94.2990    25.0420     4.9000     6.1920     5.4060   -14.4940 
  224.6250     2.3220   342.9840   100.5250    25.2580     5.1500     5.9340     5.4330   -14.6370 
  224.7500     2.3410   346.3270   101.8680    25.5360     5.9650     6.3400     6.1620   -14.9130 
  224.8750     2.3740   349.5080   102.9270    25.8130     7.1570     7.1940     7.2610   -15.2760 
  225.0000     2.4020   353.7370   105.9470    26.0170     8.2070     8.2440     8.3890   -15.6980 
  225.1250     2.4150   360.0270   110.0320    26.0950     8.6310     9.1360     9.1400   -16.1280 
  225.2500     2.4090   367.6930   115.7420    26.0990     8.6960     9.6490     9.4140   -16.5490 
  225.3750     2.3980   375.3290   120.6770    26.0750     8.6500     9.7570     9.2940   -16.9310 
  225.5000     2.3880   380.9130   120.2990    26.0440     8.5650     9.5810     8.9740   -17.2610 
  225.6250     2.3820   381.7280   118.0180    26.0240     8.4690     9.2680     8.6550   -17.5250 
  225.7500     2.3810   377.8790   119.0140    26.0150     8.4330     8.9360     8.4330   -17.7670 
  225.8750     2.3840   370.5980   122.0930    25.9980     8.4470     8.6040     8.3030   -18.0070 
  226.0000     2.3910   362.1800   122.6820    25.9620     8.4590     8.2820     8.2450   -18.2560 
  226.1250     2.4000   355.3240   120.2270    25.9150     8.4330     8.0370     8.3130   -18.5390 
  226.2500     2.4050   350.7930   116.8070    25.8600     8.4210     7.9590     8.5960   -18.8540 
  226.3750     2.4040   347.8310   112.5080    25.7970     8.5870     8.1370     9.2180   -19.2140 
  226.5000     2.3960   344.8940   107.7190    25.7390     9.3520     8.6500    10.2940   -19.6030 
  226.6250     2.3840   340.3500   104.1220    25.7010    11.4620     9.6170    11.9760   -20.0320 
  226.7500     2.3770   334.3310   100.7240    25.6680    14.4040    10.9570    14.0920   -20.4480 
  226.8750     2.3750   327.8890    96.1560    25.6290    16.8360    12.5560    16.4100   -20.8400 
  227.0000     2.3740   322.4680    91.8010    25.5900    17.8090    14.2210    18.6440   -21.1990 
  227.1250     2.3750   319.6230    91.0810    25.5520    18.0120    15.7200    20.5400   -21.5110 
  227.2500     2.3790   319.1760    89.8840    25.5010    18.8230    17.0050    22.1640   -21.7620 
  227.3750     2.3780   320.5230    86.8580    25.4460    20.2340    18.1270    23.6460   -21.9450 
  227.5000     2.3650   322.8040    84.7890    25.3970    21.5480    19.1510    25.0580   -22.0730 
  227.6250     2.3480   325.3500    88.4730    25.3210    22.1360    20.0300    26.2660   -22.1310 
  227.7500     2.3480   327.9540    92.7200    25.1660    22.0730    20.6640    27.0780   -22.1500 
  227.8750     2.3620   330.8250    91.8460    24.9720    21.5960    20.9830    27.3950   -22.1370 
  228.0000     2.3740   334.1950    86.3220    24.8770    21.2550    21.0310    27.3200   -22.1030 
  228.1250     2.3750   338.0740    83.8450    25.0060    21.9590    20.9780    27.1540   -22.0520 
  228.2500     2.3710   341.8790    87.5940    25.2450    23.3160    21.0660    27.2630   -21.9970 
  228.3750     2.3720   344.9070    91.8850    25.4480    24.2990    21.4710    27.8840   -21.9440 
  228.5000     2.3770   346.4900    90.5930    25.5470    24.6940    22.3050    29.1250   -21.8980 
  228.6250     2.3810   345.9800    87.6680    25.5640    25.7820    23.6180    30.9430   -21.8660 
  228.7500     2.3770   343.9560    87.9730    25.5610    28.1300    25.1500    32.9080   -21.8590 
  228.8750     2.3670   341.1790    89.2530    25.5510    30.8920    26.6410    34.6540   -21.8690 
  229.0000     2.3580   338.6020    87.7630    25.5270    32.6620    27.8410    35.8830   -21.8830 
  229.1250     2.3580   337.1710    83.9080    25.4830    32.1980    28.4730    36.3100   -21.8890 
  229.2500     2.3650   336.7740    82.1850    25.4460    30.5850    28.5800    36.1110   -21.9050 
  229.3750     2.3700   336.8110    82.5240    25.4300    29.4540    28.2830    35.4960   -21.9270 
  229.5000     2.3670   336.5060    82.3590    25.4260    29.4610    27.7530    34.6800   -21.9450 
  229.6250     2.3610   335.3080    81.7740    25.4080    29.1480    27.1380    33.8310   -21.9630 
  229.7500     2.3590   333.7100    84.9500    25.3790    27.5270    26.6010    33.1290   -21.9580 
  229.8750     2.3620   332.4190    88.7350    25.3500    25.1720    26.3030    32.7890   -21.9560 
  230.0000     2.3670   331.8770    87.1350    25.2740    22.9080    26.4280    33.0680   -21.9670 
  230.1250     2.3710   331.7260    81.1190    25.0820    21.6930    27.3330    34.4640   -22.0080 
  230.2500     2.3660   330.6920    77.6740    24.9000    22.6760    29.1460    37.1200   -22.0420 
  230.3750     2.3470   327.7240    77.9830    24.9030    26.6280    31.9820    41.1230   -22.0830 
  230.5000     2.3250   322.5660    79.5670    25.1360    33.4110    35.7560    46.2600   -22.1320 
  230.6250     2.3210   316.2170    80.7500    25.4380    42.9140    40.0580    51.8090   -22.1870 
  230.7500     2.3440   311.0030    80.0560    25.6300    53.2010    43.8880    56.3710   -22.2330 
  230.8750     2.3720   308.7020    78.0310    25.7010    59.5040    46.2480    58.6410   -22.2560 
  231.0000     2.3890   310.1310    77.5870    25.7090    57.8000    46.5000    57.9920   -22.2600 
  231.1250     2.3890   315.1160    78.7820    25.7060    50.4650    44.7030    54.9360   -22.2350 
  231.2500     2.3740   321.3280    78.6120    25.7060    44.8910    42.3260    51.5900   -22.1940 
  231.3750     2.3520   327.0530    77.7000    25.7060    42.3380    40.3990    49.2520   -22.1310 
  231.5000     2.3350   331.1790    77.5310    25.7060    41.3460    39.5610    48.5890   -22.0550 
  231.6250     2.3270   333.2560    78.4540    25.7060    41.5380    40.2360    49.9390   -21.9680 
  231.7500     2.3240   334.2940    77.7880    25.7060    43.6070    42.0050    52.5520   -21.9110 
  231.8750     2.3180   335.1710    76.0630    25.7060    47.4480    44.4390    55.7470   -21.8720 
  232.0000     2.3130   336.5100    75.7340    25.7060    51.6050    47.0090    58.7880   -21.8390 
  232.1250     2.3180   338.4810    75.6100    25.7070    54.0190    49.1290    60.9530   -21.8030 
  232.2500     2.3250   340.5630    74.9440    25.7040    54.2510    50.6400    62.2570   -21.7750 
  232.3750     2.3250   342.2970    73.7070    25.6890    52.9400    51.6630    63.0050   -21.7610 
  232.5000     2.3190   343.4410    72.1870    25.6640    51.4990    52.4780    63.6160   -21.7510 
  232.6250     2.3190   343.9440    70.4800    25.6590    50.9740    53.3350    64.3770   -21.7460 
  232.7500     2.3280   344.0150    70.0170    25.6790    50.8880    54.2330    65.1850   -21.7090 
  232.8750     2.3380   343.6260    71.9830    25.6970    51.2010    54.9980    65.7810   -21.6590 
  233.0000     2.3400   342.6590    73.9240    25.6960    52.3290    55.3850    65.8590   -21.6090 
  233.1250     2.3350   341.0300    74.0940    25.6980    53.4850    54.9820    64.9350   -21.5560 
  233.2500     2.3330   339.1590    74.1540    25.7140    53.4920    53.7100    62.9670   -21.4880 
  233.3750     2.3340   337.4930    75.0010    25.7330    52.6320    51.6750    60.1600   -21.4000 
  233.5000     2.3330   336.3520    75.2300    25.7440    51.4120    49.2890    57.0800   -21.2980 
  233.6250     2.3220   335.7360    74.5600    25.7650    48.2910    47.2310    54.6120   -21.1820 
  233.7500     2.3070   335.0480    73.1460    25.7850    43.7600    45.9760    53.2780   -21.0600 
  233.8750     2.2920   333.6680    72.1970    25.7780    41.3130    45.7610    53.3010   -20.9260 
