~V
VERS. 2.00: Ver 2.00
~W
STRT.M 120.0000:
STOP.M 278.0000:
STEP.M 0.1250:
NULL. -999.2500:
UWI. DF3047:
~C
DEPT.M :
DEN.GM/CC :
SP.MV :
AC.US/MT :
GR.API :
CALI.CM :
RXO.OHMM :
RI. :
RML.OHMM :
~A
# ...
  260.0000     2.4850   -10.9360   284.4910    62.4830    26.3160    10.7490     8.3480     9.8750 
  260.1250     2.4850   -10.9460   285.2290    62.8130    26.3950    11.4710     8.4500    10.0150 
  260.2500     2.4600   -10.9360   285.3170    64.2620    26.4510    11.6980     8.4940    10.0510 
  260.3750     2.4340   -10.9230   283.1330    64.3480    26.4710    12.0190     8.4940    10.0240 
  260.5000     2.4320   -10.9070   276.9670    62.8990    26.4660    12.5350     8.4910    10.0110 
  260.6250     2.4570   -10.8650   268.0980    63.0730    26.4660    13.1640     8.5370    10.0920 
  260.7500     2.4910   -10.8150   258.8820    64.2260    26.4690    13.4190     8.6370    10.2600 
  260.8750     2.5070   -10.7580   252.4690    63.2980    26.4570    12.9840     8.7630    10.4530 
  261.0000     2.4990   -10.6980   252.6770    61.1820    26.4130    12.7600     8.8750    10.6000 
  261.1250     2.4770   -10.6290   259.3610    62.4660    26.3440    14.7240     8.9630    10.6900 
  261.2500     2.4540   -10.5550   271.3670    64.6300    26.2870    17.7150     9.0810    10.8330 
  261.3750     2.4500   -10.4790   286.6630    63.6300    26.2790    18.9680     9.3040    11.1510 
  261.5000     2.4610   -10.4050   302.8430    59.9260    26.3160    17.3480     9.6880    11.7250 
  261.6250     2.4740   -10.3480   317.1450    57.1560    26.3460    14.6930    10.2410    12.5250 
  261.7500     2.4770   -10.2990   326.6660    55.3910    26.3480    12.9750    10.7980    13.2660 
  261.8750     2.4750   -10.2640   328.0740    54.2740    26.3500    12.0530    11.1440    13.6190 
  262.0000     2.4760   -10.2410   317.6750    54.6600    26.3740    11.5340    11.0900    13.3510 
  262.1250     2.4740   -10.2120   299.9410    56.2100    26.3900    11.6830    10.5510    12.4480 
  262.2500     2.4630   -10.2020   282.0280    57.7000    26.3690    12.4980     9.7900    11.3480 
  262.3750     2.4490   -10.1980   272.7280    59.0680    26.3150    13.3090     9.0270    10.3650 
  262.5000     2.4400   -10.2040   281.2530    61.1660    26.3090    13.6680     8.4140     9.6810 
  262.6250     2.4290   -10.2230   303.8900    61.7650    26.4080    14.3860     8.0520     9.3830 
  262.7500     2.4150   -10.2500   331.8850    59.6790    26.5030    15.7380     7.8870     9.3400 
  262.8750     2.4030   -10.2680   352.6610    56.6330    26.5020    16.2140     7.8660     9.4440 
  263.0000     2.3920   -10.2590   351.5060    55.8850    26.4880    14.7690     7.9280     9.5930 
  263.1250     2.3800   -10.2400   329.4350    59.7190    26.5720    13.3810     8.0190     9.7080 
  263.2500     2.3710   -10.1880   294.1360    64.0290    26.5840    15.4170     8.0890     9.7550 
  263.3750     2.3720   -10.1130   258.0170    64.7210    26.4480    21.7350     8.1110     9.7220 
  263.5000     2.3780   -10.0210   235.2860    61.3660    26.3460    29.6960     8.0630     9.5980 
  263.6250     2.3740    -9.9060   228.7370    58.9620    26.5580    33.2650     7.9200     9.3600 
  263.7500     2.3500    -9.7870   235.6930    59.7230    26.9720    31.0650     7.7000     9.0300 
  263.8750     2.3130    -9.6680   250.8780    61.2230    27.2650    25.6280     7.4230     8.6400 
  264.0000     2.2870    -9.5600   269.5300    60.6340    27.2460    20.0210     7.1250     8.2370 
  264.1250     2.2830    -9.4760   287.5580    58.5600    27.2990    15.9340     6.8440     7.8740 
  264.2500     2.2920    -9.4100   302.4590    57.2970    27.6800    12.9950     6.5990     7.5700 
  264.3750     2.3090    -9.3660   312.2210    58.0910    27.9870    10.6380     6.3980     7.3330 
  264.5000     2.3300    -9.3370   315.3900    61.1220    27.7960     8.7670     6.2410     7.1570 
  264.6250     2.3380    -9.3190   314.8100    64.5170    27.4810     7.6350     6.1320     7.0410 
  264.7500     2.3090    -9.3040   313.4630    65.5580    27.6620     6.8860     6.0520     6.9600 
  264.8750     2.2480    -9.2960   313.9480    63.9620    28.2780     6.2390     5.9920     6.9000 
  265.0000     2.2070    -9.3000   317.8590    62.4570    29.1720     5.6650     5.9430     6.8490 
  265.1250     2.2050    -9.2880   324.1600    63.8970    30.3470     5.3300     5.9030     6.8060 
  265.2500     2.2350    -9.2850   331.7860    65.5970    31.3960     5.2280     5.8700     6.7800 
  265.3750     2.2740    -9.2770   339.5130    65.5450    32.0230     5.2420     5.8510     6.7800 
  265.5000     2.3050    -9.2670   345.3750    64.0670    32.4140     5.2420     5.8470     6.8090 
  265.6250     2.3170    -9.2520   348.0010    63.0650    32.9490     5.1740     5.8640     6.8690 
  265.7500     2.3120    -9.2360   346.8260    63.0650    33.3290     5.0850     5.8940     6.9460 
  265.8750     2.2960    -9.2140   342.2570    63.0650    33.3850     5.0050     5.9270     7.0260 
  266.0000     2.2760    -9.1870   334.2560    63.0650    33.4980     4.9560     5.9500     7.0880 
  266.1250     2.2520    -9.1730   322.6890    63.0650    33.4820     4.9800     5.9480     7.1040 
  266.2500     2.2290    -9.1610   306.8590    63.0650    32.5070     5.0680     5.9230     7.0680 
  266.3750     2.2040    -9.1550   287.7450    63.0650    30.7670     5.1660     5.8810     6.9960 
  266.5000     2.1640    -9.1430   269.6690    63.0650    29.7400     5.2040     5.8330     6.9330 
  266.6250     2.1150    -9.1390   257.8730    63.0650    30.4510     5.1430     5.7960     6.9340 
  266.7500     2.0830    -9.1370   255.2090    63.0650    31.2820     5.0480     5.7810     6.9990 
  266.8750     2.1000    -9.1380   261.0160    63.0650    31.0290     4.9870     5.7920     7.1100 
  267.0000     2.1540    -9.1460   271.3890    63.0650    29.9230     5.0010     5.8270     7.2390 
  267.1250     2.2220    -9.1520   280.2900    63.0650    28.9050     5.1190     5.8810     7.3620 
  267.2500     2.2890    -9.1660   284.8740    63.0650    28.2060     5.3140     5.9410     7.4730 
  267.3750     2.3340    -9.1890   284.8580    63.0650    27.7040     5.5310     6.0010     7.5690 
  267.5000     2.3500    -9.2200   281.8530    63.0650    27.5410     5.6610     6.0550     7.6480 
  267.6250     2.3520    -9.2710   279.0400    63.0650    27.7430     5.5710     6.0970     7.7010 
  267.7500     2.3630    -9.3280   278.3270    63.0650    27.8770     5.3590     6.1260     7.7330 
  267.8750     2.3850    -9.3980   280.8420    63.0650    27.6910     5.1870     6.1400     7.7510 
  268.0000     2.3980    -9.4790   287.6080    63.0650    27.3150     5.1390     6.1380     7.7560 
  268.1250     2.4010    -9.5660   297.4880    63.0650    27.1980     5.1340     6.1160     7.7450 
  268.2500     2.4000    -9.6460   308.9450    63.0650    27.4690     5.0530     6.0810     7.7260 
  268.3750     2.3910    -9.7120   319.6530    63.0650    28.0360     4.9100     6.0410     7.7070 
  268.5000     2.3750    -9.7720   326.6940    63.0650    28.8580     4.7960     6.0060     7.6940 
  268.6250     2.3610    -9.8050   329.7180    63.0650    29.5540     4.7590     5.9860     7.6980 
  268.7500     2.3530    -9.8220   329.2750    63.0650    29.4530     4.7610     5.9880     7.7230 
  268.8750     2.3430    -9.8160   326.2390    63.0650    28.4920     4.8440     6.0150     7.7790 
  269.0000     2.3320    -9.7760   321.1020    63.0650    27.4970     5.1300     6.0710     7.8740 
  269.1250     2.3270    -9.7230   314.8830    63.0650    27.3640     5.7340     6.1590     8.0150 
  269.2500     2.3340    -9.6550   308.2910    63.0650    27.6470     6.5240     6.2660     8.1790 
  269.3750     2.3600    -9.5870   301.9950    63.0650    27.9010     7.3310     6.3780     8.3390 
  269.5000     2.4050    -9.5270   296.7040    63.0650    28.1360     7.9330     6.4790     8.4710 
  269.6250     2.4490    -9.4740   292.6710    63.0650    28.3740     7.9500     6.5520     8.5590 
  269.7500     2.4670    -9.4300   290.2650    63.0650    28.3620     7.5140     6.5990     8.6140 
  269.8750     2.4530    -9.3970   289.9610    63.0650    27.9490     7.2920     6.6230     8.6490 
