~V
VERS. 2.00: Ver 2.00
~W
STRT.M 115.0000:
STOP.M 241.0000:
STEP.M 0.1250:
NULL. -999.2500:
UWI. DF3064:
~C
DEPT.M :
GR.API :
CALI.CM :
RXO.OHMM :
RI. :
RML.OHMM :
DEN.GM/CC :
SP.MV :
~A
# ...
  227.5000    58.7550    24.1650    10.2910    13.0660    15.2220     2.5280   -20.0140 
  227.6250    59.8330    24.1890     9.7570    12.9960    15.1870     2.5340   -20.0130 
  227.7500    63.8300    24.1200     9.2780    12.9490    15.1950     2.5440   -20.0540 
  227.8750    65.8100    24.1360     9.0740    12.9130    15.2250     2.5570   -20.1360 
  228.0000    62.7730    24.1720     9.2630    12.8810    15.2700     2.5640   -20.2280 
  228.1250    58.3230    24.2940     9.5300    12.8560    15.3460     2.5550   -20.3360 
  228.2500    57.4570    24.3810     9.6790    12.8460    15.4510     2.5340   -20.4260 
  228.3750    59.4820    24.4330     9.8780    12.8520    15.5540     2.5230   -20.4330 
  228.5000    62.6270    24.4210    10.0480    12.8650    15.6960     2.5290   -20.3560 
  228.6250    66.2100    24.6520     9.5400    12.8960    15.8600     2.5410   -20.2080 
  228.7500    66.4190    24.7320     9.3040    12.9470    16.0110     2.5400   -20.0480 
  228.8750    63.2900    24.6980     9.9800    12.9930    16.1400     2.5230   -19.9010 
  229.0000    60.6690    24.6880    11.7660    13.0320    16.2490     2.5030   -19.8190 
  229.1250    62.9210    24.7320    13.7040    13.0710    16.3140     2.4920   -19.8130 
  229.2500    64.6110    24.7130    15.4700    13.1230    16.3850     2.4970   -19.8280 
  229.3750    63.6190    24.6960    16.3210    13.2100    16.4880     2.5030   -19.8750 
  229.5000    62.5570    24.7340    16.6190    13.3500    16.6520     2.5020   -19.8980 
  229.6250    62.5510    24.7120    16.8370    13.5600    16.9240     2.4930   -19.8830 
  229.7500    62.5510    24.6640    18.2360    13.8280    17.2950     2.4780   -19.8890 
  229.8750    62.5510    24.6800    22.3980    14.1180    17.7080     2.4630   -19.9320 
  230.0000    62.5510    24.7420    27.7150    14.3390    18.0170     2.4580   -19.9100 
  230.1250    62.5510    24.7270    29.9820    14.3610    18.0640     2.4750   -19.8300 
  230.2500    62.5510    24.6560    29.4990    14.1420    17.8060     2.5080   -19.7670 
  230.3750    62.5510    24.5110    27.3750    13.6570    17.2430     2.5320   -19.6950 
  230.5000    62.5510    24.4640    21.2410    12.9600    16.4580     2.5360   -19.5990 
  230.6250    62.5510    24.5950    13.6490    12.1270    15.5230     2.5270   -19.6050 
  230.7500    62.5510    24.6570     9.0840    11.2800    14.5370     2.5160   -19.6300 
  230.8750    62.5510    24.5610     7.7670    10.5310    13.6590     2.5060   -19.5760 
  231.0000    62.5510    24.4910     7.3530     9.9610    13.0170     2.4930   -19.5690 
  231.1250    62.5510    24.4660     7.0650     9.6710    12.7370     2.4730   -19.5810 
  231.2500    62.5510    24.4660     6.8560     9.6280    12.7310     2.4580   -19.5750 
  231.3750    62.5510    24.4500     6.7590     9.8270    12.9950     2.4570   -19.5830 
  231.5000    62.5510    24.4380     6.7380    10.2220    13.4320     2.4720   -19.6480 
  231.6250    62.5510    24.4500     7.0290    10.7420    14.0020     2.4990   -19.6400 
  231.7500    62.5510    24.4540     7.6520    11.2620    14.5870     2.5230   -19.6050 
  231.8750    62.5510    24.4330     8.0570    11.6780    15.0530     2.5270   -19.5700 
  232.0000    62.5510    24.4370     7.9400    11.8960    15.2780     2.5010   -19.5260 
  232.1250    62.5510    24.5720     8.0920    11.8390    15.2570     2.4580   -19.4960 
  232.2500    62.5510    24.6630     7.9330    11.5970    15.1360     2.4300   -19.5020 
  232.3750    62.5510    24.6460     7.4610    11.2630    14.9840     2.4250   -19.5260 
  232.5000    62.5510    24.7180     6.5100    10.9070    14.8450     2.4300   -19.5440 
  232.6250    62.5510    24.7180     5.7990    10.6180    14.7880     2.4300   -19.5370 
  232.7500    62.5510    24.6930     5.7100    10.4220    14.7730     2.4260   -19.4710 
  232.8750    62.5510    24.7150     5.7800    10.3090    14.7780     2.4270   -19.4290 
  233.0000    62.5510    24.6160     5.9110    10.2660    14.8070     2.4290   -19.4100 
  233.1250    62.5510    24.5410     6.2970    10.2650    14.8310     2.4280   -19.3950 
  233.2500    62.5510    24.4670     6.7550    10.2650    14.8480     2.4260   -19.3430 
  233.3750    62.5510    24.5560     6.9680    10.2430    14.8400     2.4270   -19.2730 
  233.5000    62.5510    24.7030     6.7720    10.1960    14.8420     2.4290   -19.2460 
  233.6250    62.5510    24.7030     6.5170    10.1260    14.8480     2.4240   -19.2240 
  233.7500    62.5510    24.6490     6.3350    10.0400    14.8250     2.4170   -19.2180 
  233.8750    62.5510    24.6950     6.0920     9.9420    14.8110     2.4210   -19.2350 
  234.0000    62.5510    24.7210     5.7750     9.8550    14.7850     2.4360   -19.2390 
  234.1250    62.5510    24.6690     5.6070     9.7720    14.7050     2.4530   -19.2380 
  234.2500    62.5510    24.6760     5.5960     9.7160    14.5860     2.4670   -19.2550 
  234.3750    62.5510    24.6460     5.6400     9.6860    14.4760     2.4780   -19.2580 
  234.5000    62.5510    24.7070     5.8220     9.6870    14.3640     2.4820   -19.2090 
  234.6250    62.5510    24.6660     6.2570     9.6830    14.2600     2.4810   -19.2130 
  234.7500    62.5510    24.5290     6.7060     9.6610    14.1540     2.4810   -19.2240 
  234.8750    62.5510    24.5210     7.0430     9.6270    14.0430     2.4880   -19.1980 
  235.0000    62.5510    24.5390     7.3480     9.5750    13.9430     2.4940   -19.1420 
  235.1250    62.5510    24.5040     7.4930     9.4980    13.8740     2.4950   -19.0660 
  235.2500    62.5510    24.6060     7.4600     9.4150    13.8510     2.4870   -18.9770 
  235.3750    62.5510    24.6870     7.3390     9.3310    13.8300     2.4800   -18.9070 
  235.5000    62.5510    24.6320     7.2810     9.2730    13.8310     2.4790   -18.8790 
  235.6250    62.5510    24.6610     7.6770     9.2730    13.8310     2.4860   -18.8380 
  235.7500    62.5510    24.6890     9.4360     9.2730    13.8310     2.4980   -18.8310 
  235.8750    62.5510    24.6310    12.2400     9.2730    13.8310     2.5080   -18.8410 
  236.0000    62.5510    24.6920    13.1410     9.2730    13.8310     2.5120   -18.8490 
  236.1250    62.5510    24.6590    10.8850     9.2730    13.8310     2.5080   -18.8110 
  236.2500    62.5510    24.7190     8.8470     9.2730    13.8310     2.4960   -18.8150 
  236.3750    62.5510    24.6630     8.2270     9.2730    13.8310     2.4860   -18.8380 
  236.5000    62.5510    24.7190     8.5840     9.2730    13.8310     2.4890   -18.8060 
  236.6250    62.5510    24.6340     9.6870     9.2730    13.8310     2.5020   -18.8080 
  236.7500    62.5510    24.6660    10.0590     9.2730    13.8310     2.5170   -18.8370 
  236.8750    62.5510    24.6960    10.0390     9.2730    13.8310     2.5330   -18.8290 
  237.0000    62.5510    24.5660    12.2780     9.2730    13.8310     2.5480   -18.8370 
  237.1250    62.5510    24.4570    15.4900     9.2730    13.8310     2.5550   -18.9130 
  237.2500    62.5510    24.4540    16.3610     9.2730    13.8310     2.5460   -18.9440 
  237.3750    62.5510    24.4390    15.4230     9.2730    13.8310     2.5270   -18.9790 
  237.5000    62.5510    24.5140    15.8930     9.2730    13.8310     2.5100   -18.9890 
  237.6250    62.5510    24.4680    16.5350     9.2730    13.8310     2.5030   -18.9890 
  237.7500    62.5510    24.5100    15.2710     9.2730    13.8310     2.5080  -999.2500 
  237.8750    62.5510    24.4550    13.8720     9.2730    13.8310     2.5120  -999.2500 
  238.0000    62.5510    24.4600    13.5200     9.2730    13.8310     2.5100  -999.2500 
  238.1250    62.5510    24.4280    13.2550     9.2730    13.8310     2.5120  -999.2500 
  238.2500    62.5510    24.3860    12.5700     9.2730    13.8310     2.5230  -999.2500 
  238.3750    62.5510    24.3790    12.0220     9.2730    13.8310     2.5330  -999.2500 
  238.5000    62.5510    24.2860    11.5620     9.2730    13.8310     2.5320  -999.2500 
  238.6250    62.5510    24.2320    11.2280     9.2730    13.8310     2.5160  -999.2500 
