~V
VERS. 2.00: Ver 2.00
~W
STRT.M 66.0000:
STOP.M 262.0000:
STEP.M 0.1250:
NULL. -999.2500:
UWI. DF3009:
~C
DEPT.M :
GR.API :
RML.OHMM :
RI. :
RXO.OHMM :
CALI.CM :
DEN.GM/CC :
SP.MV :
~A
# ...
  223.5000    82.7800     8.1980     7.4380     5.5200    23.8140     2.4010   -26.8130 
  223.6250    82.1120     8.4880     7.3090     5.7230    23.8660     2.4150   -27.2110 
  223.7500    81.3410     9.3900     7.8760     6.5030    23.7900     2.4350   -27.6120 
  223.8750    82.0690    10.4720     8.8050     7.5470    23.7600     2.4500   -28.1460 
  224.0000    84.3610    11.4020     9.7810     8.2580    23.6900     2.4580   -28.6440 
  224.1250    84.4710    11.9150    10.5030     8.4790    23.5670     2.4590   -29.0890 
  224.2500    84.0810    12.0700    10.9080     8.4930    23.5190     2.4570   -29.5930 
  224.3750    87.0670    11.9850    11.0490     8.5650    23.4100     2.4520   -29.9450 
  224.5000    94.7920    11.8020    11.0210     8.7810    23.4240     2.4440   -30.2860 
  224.6250   105.9630    11.6390    10.9030     9.0800    23.6760     2.4340   -30.5100 
  224.7500   117.1280    11.5450    10.7480     9.4160    23.8950     2.4260   -30.6640 
  224.8750   125.8090    11.5260    10.5650     9.7790    24.1440     2.4220   -30.8180 
  225.0000   132.2670    11.5720    10.3610    10.0700    24.2080     2.4230   -30.9450 
  225.1250   138.2080    11.6900    10.1580    10.2060    24.2590     2.4260   -31.0560 
  225.2500   143.1300    11.8740     9.9920    10.1940    24.2570     2.4290   -31.1460 
  225.3750   145.0110    12.1180     9.8890    10.1540    24.2160     2.4290   -31.2450 
  225.5000   144.1030    12.4060     9.8590    10.1270    24.2720     2.4250   -31.3900 
  225.6250   139.9990    12.6810     9.8890    10.1000    24.2160     2.4160   -31.5170 
  225.7500   136.3210    12.8590     9.9170    10.2080    24.2380     2.4030   -31.6990 
  225.8750   137.8160    12.8580     9.8840    10.4360    24.2000     2.3900   -31.7790 
  226.0000   139.7070    12.6260     9.7430    10.7940    24.1750     2.3800   -31.7810 
  226.1250   133.8170    12.1860     9.4930    11.0880    24.2540     2.3750   -31.8340 
  226.2500   126.0340    11.7620     9.2510    10.9900    24.2460     2.3740   -31.7750 
  226.3750   124.7330    11.6100     9.1730    10.6100    24.2520     2.3780   -31.7700 
  226.5000   126.5770    11.9770     9.4290    10.5480    24.1630     2.3830   -31.6530 
  226.6250   123.0920    13.1070    10.2310    11.1350    24.1480     2.3900   -31.5600 
  226.7500   115.6000    14.7920    11.5100    12.7000    24.1790     2.3980   -31.4330 
  226.8750   107.4270    16.7320    13.1120    15.4000    24.1390     2.4060   -31.2830 
  227.0000   102.0840    18.4990    14.7430    18.5630    24.1940     2.4120   -31.2130 
  227.1250   101.6780    19.5130    15.9130    20.6560    24.2170     2.4140   -30.9830 
  227.2500   104.1100    19.6270    16.3580    21.3440    24.2090     2.4110   -30.7520 
  227.3750   106.2210    18.9230    16.0380    20.3420    24.1970     2.4090   -30.4900 
  227.5000   108.4840    17.7130    15.1530    18.3550    24.1560     2.4100   -30.2180 
  227.6250   113.0660    16.4090    14.0230    16.3950    24.2470     2.4140   -30.0020 
  227.7500   115.9420    15.3040    12.9500    14.8580    24.2510     2.4220   -29.8160 
  227.8750   115.3480    14.4490    12.0250    12.9490    24.2450     2.4310   -29.6800 
  228.0000   112.5110    13.7480    11.2350    12.0850    24.3170     2.4410   -29.6570 
  228.1250   108.6690    13.0330    10.5210    11.8000    24.2590     2.4520   -29.7700 
  228.2500   103.7970    12.2520     9.8440    11.3220    24.3040     2.4620   -29.9710 
  228.3750   101.7570    11.5830     9.2720    11.1400    24.2520     2.4700   -30.2550 
  228.5000   107.6990    11.4570     9.0110    11.3350    24.2400     2.4720   -30.6640 
  228.6250   116.9940    12.9560     9.7430    13.0170    24.2410     2.4650   -31.1280 
  228.7500   118.1570    17.0850    12.3230    18.8060    24.2420     2.4430   -31.6160 
  228.8750   107.8220    25.0990    17.9550    32.2040    24.2820     2.4100   -32.2370 
  229.0000    91.3930    37.9300    27.7000    55.7170    24.2250     2.3720   -32.7820 
  229.1250    78.8690    56.0740    42.3400    98.2830    24.2920     2.3360   -33.3860 
  229.2500    74.2650    76.5810    59.4150   138.4000    24.3530     2.3160   -34.0270 
  229.3750    74.5620    96.1600    75.9940   144.2900    24.3650     2.3140   -34.5630 
  229.5000    72.9160   111.6600    89.2310   129.3100    24.3740     2.3300   -35.1070 
  229.6250    66.8420   121.3650    97.4240   123.6400    24.2690     2.3520   -35.4990 
  229.7500    61.0180   128.3950   102.7820   123.5580    24.2100     2.3650   -35.8980 
  229.8750    59.4040   135.1450   107.0440   126.6630    24.0500     2.3580   -36.1770 
  230.0000    62.3740   142.3370   111.0080   137.1730    23.9610     2.3340   -36.4130 
  230.1250    64.5170   148.8790   114.3630   153.5870    24.1290     2.3040   -36.6680 
  230.2500    63.7370   153.4700   116.6360   151.1860    24.2550     2.2830   -36.8010 
  230.3750    62.9400   155.4330   117.5750   146.0620    24.3080     2.2750   -37.0070 
  230.5000    65.4620   154.8650   117.2990   144.5090    24.1420     2.2780   -37.1030 
  230.6250    66.1750   152.5080   116.2410   142.3420    23.9040     2.2830   -37.1900 
  230.7500    63.9040   150.0710   115.2720   140.4130    23.6930     2.2840   -37.3170 
  230.8750    64.6250   148.7270   115.0220   139.3700    23.4930     2.2830   -37.3610 
  231.0000    69.3070   149.1980   115.9110   139.9100    23.4890     2.2820   -37.3470 
  231.1250    71.1750   151.7470   118.2030   140.4920    23.4770     2.2800   -37.3310 
  231.2500    67.9840   155.2000   121.2830   144.0800    23.4590     2.2810   -37.3290 
  231.3750    64.4950   158.3820   124.4840   153.3540    23.5280     2.2820   -37.2410 
  231.5000    64.8560   160.2750   127.1350   161.4130    23.6610     2.2840   -37.1950 
  231.6250    67.6050   160.1400   128.6120   163.2830    23.9590     2.2830   -37.1030 
  231.7500    69.5790   158.5350   129.0230   159.5650    23.9490     2.2790   -36.9660 
  231.8750    68.9140   155.9460   128.5310   150.9310    23.8260     2.2750   -36.8190 
  232.0000    68.3420   152.6600   127.2880   146.9390    23.6760     2.2720   -36.7550 
  232.1250    70.4270   148.3530   125.1280   150.6440    23.6520     2.2730   -36.5720 
  232.2500    71.4100   142.7080   121.9740   152.2570    23.7360     2.2760   -36.3460 
  232.3750    69.4560   135.5680   117.7380   142.8440    23.8020     2.2790   -36.1430 
  232.5000    66.9690   127.3900   112.6630   128.3620    23.8650     2.2820   -35.8580 
  232.6250    65.9330   119.5580   107.5580   112.2170    23.7080     2.2830   -35.6310 
  232.7500    65.6970   113.6230   103.5110   100.9590    23.6500     2.2850   -35.2510 
  232.8750    65.5350   110.4430   101.2240    90.6630    23.6530     2.2890   -34.9440 
  233.0000    65.2740   109.7820   100.7700    84.1450    23.5490     2.2980   -34.5820 
  233.1250    63.5760   110.5190   101.4290    82.7340    23.6510     2.3130   -34.1450 
  233.2500    62.4590   110.4350   101.5730    88.1750    23.6980     2.3350   -33.7890 
  233.3750    64.6420   108.4380   100.0760    96.3200    23.7610     2.3610   -33.3460 
  233.5000    69.4830   104.0610    96.5660   101.4960    23.7400     2.3810   -32.9590 
  233.6250    76.5740    99.0380    91.6140    97.1100    23.6200     2.3910   -32.5640 
  233.7500    82.3460    94.8580    86.9020    81.9790    23.4970     2.3840   -32.1560 
  233.8750    84.1050    91.7260    83.5750    67.2160    23.2760     2.3660   -31.7440 
  234.0000    83.1450    90.2160    82.1210    64.7500    23.1220     2.3440   -31.2870 
  234.1250    84.0650    90.7850    82.4200    73.0380    22.9370     2.3260   -30.8330 
  234.2500    85.0280    91.8960    83.2940    81.8240    22.7330     2.3200   -30.3620 
  234.3750    81.9030    92.5310    83.8940    86.2060    22.7820     2.3290   -29.8720 
  234.5000    75.9040    92.0670    83.6490    88.3440    22.9630     2.3540   -29.3330 
  234.6250    71.2250    89.9960    82.1460    84.6180    23.4170     2.3890   -28.7290 
