~V
VERS. 2.00: Ver 2.00
~W
STRT.M 60.0000:
STOP.M 254.0000:
STEP.M 0.1250:
NULL. -999.2500:
UWI. DF3029:
~C
DEPT.M :
SP.MV :
GR.API :
RML.OHMM :
RI. :
RXO.OHMM :
CALI.CM :
DEN.GM/CC :
~A
# ...
  161.2500   -26.5810    85.4210    33.0190    28.3720    20.8260    23.8980     2.3020 
  161.3750   -26.9160    86.4100    37.6420    30.9440    22.3200    23.7080     2.2960 
  161.5000   -27.2220    87.5260    46.4610    36.8560    24.7310    23.5390     2.2900 
  161.6250   -27.5910    83.0810    63.3410    49.4930    30.2660    23.4850     2.2790 
  161.7500   -28.0360    74.7900    90.2950    70.6150    40.2550    23.4050     2.2630 
  161.8750   -28.5140    66.8410   128.8090   101.4360    54.7080    23.2660     2.2430 
  162.0000   -28.9980    61.9400   177.0370   140.4160    75.6950    23.2220     2.2240 
  162.1250   -29.4310    59.7450   226.9370   181.2540    99.5350    23.3740     2.2070 
  162.2500   -29.8520    58.6040   265.0960   213.5890   120.1470    23.5980     2.1950 
  162.3750   -30.2550    59.5130   280.6870   229.2630   131.8160    23.7250     2.1890 
  162.5000   -30.6520    62.9990   269.9700   224.9660   131.1790    23.7890     2.1890 
  162.6250   -31.0260    66.7910   237.0030   202.1010   130.4390    23.8920     2.1960 
  162.7500   -31.3480    69.0910   196.8970   171.5230   128.7700    24.0320     2.2060 
  162.8750   -31.6010    71.4160   157.7880   139.8410   120.1280    24.0660     2.2190 
  163.0000   -31.7810    76.1150   124.5440   111.6190   100.5110    24.0310     2.2370 
  163.1250   -31.9560    80.7410   101.2860    90.8880    85.9640    23.7720     2.2600 
  163.2500   -32.1170    80.8940    87.5230    78.0030    64.0400    23.6160     2.2850 
  163.3750   -32.2130    77.6380    83.2920    73.4190    47.6060    23.5020     2.3010 
  163.5000   -32.3180    75.3330    88.3050    77.1880    46.8270    23.4080     2.3000 
  163.6250   -32.2130    75.3540   102.7600    89.7880    59.8670    23.3570     2.2760 
  163.7500   -32.1290    74.0350   122.4810   107.5610    83.8750    23.3740     2.2400 
  163.8750   -31.9630    71.6870   143.2160   126.6770   112.5850    23.5090     2.2020 
  164.0000   -31.8600    70.9090   159.9240   142.4810   131.6780    23.6740     2.1730 
  164.1250   -31.6390    72.3100   167.1250   149.8170   129.6780    23.7390     2.1570 
  164.2500   -31.4240    73.5370   166.3950   149.7220   121.6760    23.7200     2.1530 
  164.3750   -31.2180    75.0520   161.5610   145.3060   115.3520    23.6320     2.1550 
  164.5000   -31.0300    77.5580   156.8020   140.2850   111.7060    23.5200     2.1610 
  164.6250   -30.9080    77.9460   154.8840   137.3980   106.7540    23.4710     2.1690 
  164.7500   -30.7980    75.0140   155.6350   136.8640   108.1970    23.4620     2.1790 
  164.8750   -30.7250    70.8890   158.6390   138.4470   116.2630    23.4610     2.1920 
  165.0000   -30.6950    68.2700   163.5680   141.8950   129.5380    23.4640     2.2080 
  165.1250   -30.6690    67.7980   170.4910   147.2920   133.2970    23.5260     2.2160 
  165.2500   -30.6370    68.2670   178.7230   154.0100   130.1000    23.7070     2.2100 
  165.3750   -30.6270    68.2740   187.3880   161.2910   140.8850    23.9930     2.1860 
  165.5000   -30.6330    67.4380   195.2030   167.9840   152.0230    24.2610     2.1510 
  165.6250   -30.6590    66.5660   200.6160   172.6050   152.2930    24.3470     2.1190 
  165.7500   -30.7130    66.0240   204.0440   175.3160   144.8060    24.3350     2.1070 
  165.8750   -30.7890    65.5600   207.4650   177.7110   137.9500    24.2900     2.1180 
  166.0000   -30.8840    65.5790   215.0000   183.2810   131.1010    24.2260     2.1470 
  166.1250   -31.0380    65.8110   235.0880   199.1280   123.1760    24.1300     2.1760 
  166.2500   -31.1770    64.1750   271.1010   228.2980   116.5490    24.0250     2.1890 
  166.3750   -31.2970    60.4710   322.0250   270.2440   116.5710    23.9940     2.1850 
  166.5000   -31.3290    57.3370   379.2110   317.7540   132.7680    24.0430     2.1700 
  166.6250   -31.4670    56.6690   419.5780   352.6960   150.6150    24.0610     2.1580 
  166.7500   -31.5060    56.5370   423.4680   359.0180   157.1710    24.0250     2.1570 
  166.8750   -31.5730    56.5670   382.5230   330.3200   152.1360    23.9540     2.1670 
  167.0000   -31.5920    58.2190   312.0330   276.0040   145.3760    23.9100     2.1850 
  167.1250   -31.5030    62.3770   239.1180   218.3220   127.8090    23.9090     2.2090 
  167.2500   -31.4600    65.8040   184.2070   173.8740   104.4170    23.9550     2.2320 
  167.3750   -31.4540    67.9160   152.2640   145.1840    83.6230    23.9760     2.2510 
  167.5000   -31.5610    69.7350   137.0420   129.2920    72.6940    23.9550     2.2640 
  167.6250   -31.5920    70.9650   130.8920   123.0260    73.7190    23.9250     2.2690 
  167.7500   -31.7080    71.2130   129.0410   121.3580    75.2740    23.9000     2.2710 
  167.8750   -31.7640    71.2970   129.3260   121.9920    75.5840    23.8600     2.2720 
  168.0000   -31.7990    73.5700   130.1700   123.2190    74.1500    23.8060     2.2730 
  168.1250   -31.8690    75.3880   130.2770   123.5720    72.1590    23.7110     2.2770 
  168.2500   -31.8970    73.7620   129.0520   122.3900    70.3180    23.5800     2.2820 
  168.3750   -31.8740    70.2870   126.2660   119.4370    66.9200    23.3990     2.2880 
  168.5000   -31.7260    68.7780   122.1470   114.9460    63.4610    23.2060     2.2940 
  168.6250   -31.4410    70.1920   117.6290   109.7600    62.6230    23.1840     2.3000 
  168.7500   -31.0580    70.2060   114.1960   105.3320    61.5860    23.3810     2.3040 
  168.8750   -30.6290    68.5910   112.8950   102.6870    58.6630    23.6410     2.3060 
  169.0000   -30.1700    66.6120   114.2050   102.3450    56.1980    23.8050     2.3040 
  169.1250   -29.6720    65.6300   118.5290   104.7220    57.3500    23.8480     2.2960 
  169.2500   -29.2050    66.3320   125.3070   109.2830    63.7810    23.8380     2.2840 
  169.3750   -28.7470    68.6900   134.6600   116.0370    70.8670    23.7670     2.2720 
  169.5000   -28.4670    71.2050   146.9250   125.1460    74.1080    23.6710     2.2590 
  169.6250   -28.3050    72.8580   162.7650   137.0500    72.1730    23.6250     2.2460 
  169.7500   -28.2500    72.8360   180.7940   150.6670    72.8920    23.6260     2.2340 
  169.8750   -28.3000    70.0290   198.8620   164.3650    80.2610    23.6110     2.2240 
  170.0000   -28.4300    65.6520   213.8360   175.7440    87.4590    23.5450     2.2170 
  170.1250   -28.7780    64.7230   221.2600   181.3390    89.2300    23.4280     2.2170 
  170.2500   -29.0920    67.4040   220.9190   180.8450    86.6090    23.3240     2.2220 
  170.3750   -29.4620    70.4740   214.3930   175.3010    81.5860    23.2500     2.2290 
  170.5000   -29.7000    72.7840   204.8930   167.0980    75.3690    23.1650     2.2380 
  170.6250   -30.0080    74.7640   195.8780   159.0470    69.3560    23.0360     2.2460 
  170.7500   -30.2640    75.2480   189.0180   152.8070    61.7460    22.9170     2.2510 
  170.8750   -30.5710    74.0740   184.6150   148.8600    54.3240    22.8500     2.2530 
  171.0000   -30.8170    73.5880   182.4930   147.2190    51.4140    22.9200     2.2520 
  171.1250   -31.0130    75.3750   182.4810   147.9350    57.1060    23.1260     2.2500 
  171.2500   -31.1680    77.8400   183.6320   150.1620    67.0220    23.3070     2.2510 
  171.3750   -31.2480    79.4690   185.3450   153.3180    78.5620    23.4410     2.2550 
  171.5000   -31.2620    78.4870   187.1330   156.8240    89.1030    23.5450     2.2600 
  171.6250   -31.2670    76.2200   188.3900   159.9750    96.2500    23.6000     2.2660 
  171.7500   -31.2070    77.2310   188.0640   161.7820    99.5610    23.6120     2.2680 
  171.8750   -31.0420    80.3880   183.8940   160.4870    99.3580    23.5840     2.2660 
  172.0000   -30.7920    81.3470   172.7610   153.4860    95.6250    23.5410     2.2590 
  172.1250   -30.4520    77.7180   150.3040   136.7070    89.0720    23.4840     2.2480 
  172.2500   -30.1270    73.6460   119.6560   111.8490    85.2820    23.4630     2.2410 
  172.3750   -29.8290    72.6270    86.7290    83.2050    81.1220    23.4520     2.2450 
