~V
VERS. 2.00: Ver 2.00
~W
STRT.M 140.0000:
STOP.M 286.0000:
STEP.M 0.1250:
NULL. -999.2500:
UWI. DF3059:
~C
DEPT.M :
SP.MV :
GR.API :
RML.OHMM :
RI. :
RXO.OHMM :
CALI.CM :
DEN.GM/CC :
~A
# ...
  241.2500   -18.0330    71.7010    52.1530    39.1750    66.9460    25.0260     2.3290 
  241.3750   -18.4460    70.7820    61.7700    47.9030    65.9390    25.0240     2.3060 
  241.5000   -18.8600    71.4870    71.6470    56.7560    61.8140    25.0250     2.2740 
  241.6250   -19.2470    72.1390    83.9150    67.2070    68.9960    25.0160     2.2300 
  241.7500   -19.6110    71.1410   100.1300    80.5000    92.9630    24.9710     2.1800 
  241.8750   -19.8960    68.8570   120.7490    97.0370   118.3310    24.8730     2.1500 
  242.0000   -20.1290    66.8010   144.1740   115.6860   140.5050    24.8430     2.1590 
  242.1250   -20.2970    66.3030   165.4050   132.8080   167.5970    24.5960     2.2110 
  242.2500   -20.4800    65.0070   178.6320   144.1320   171.4410    24.4250     2.2850 
  242.3750   -20.6590    62.9090   179.9090   146.6830   158.8690    24.4070     2.3380 
  242.5000   -20.8430    62.2030   169.2530   140.1180   157.4440    24.4250     2.3460 
  242.6250   -20.9790    64.1090   151.2720   126.9690   168.1280    24.4780     2.3200 
  242.7500   -21.1060    66.1770   134.2690   113.3450   148.0460    24.4440     2.2820 
  242.8750   -21.2510    67.0240   121.6220   102.3970   107.5580    24.3160     2.2550 
  243.0000   -21.4170    68.0420   113.2390    94.8370    84.2780    24.2460     2.2360 
  243.1250   -21.6030    69.6510   107.2930    89.7720    79.8130    24.2430     2.2220 
  243.2500   -21.7070    72.0520   101.5110    85.2880    88.3980    24.2040     2.2130 
  243.3750   -21.8290    73.3650    95.4790    80.8020   101.9180    24.1730     2.2080 
  243.5000   -21.8380    72.0890    89.9610    76.6680   107.9190    24.1350     2.2060 
  243.6250   -21.9340    71.2740    86.8290    74.2620    93.0470    24.2030     2.2040 
  243.7500   -21.9240    72.0660    86.9250    74.4130    75.1680    24.0600     2.2010 
  243.8750   -21.9040    73.7690    90.3910    77.4240    69.8180    23.9830     2.1970 
  244.0000   -21.7960    75.3610    96.4010    82.7450    76.1600    23.9740     2.1950 
  244.1250   -21.6870    74.5440   103.0870    88.8910    83.3320    24.0370     2.1950 
  244.2500   -21.5550    74.4230   107.9490    93.6810    83.6020    24.0790     2.1950 
  244.3750   -21.3760    76.9780   109.2900    95.6040    83.6050    23.9720     2.1950 
  244.5000   -21.1790    80.8360   106.5250    94.0380    84.9290    23.8390     2.1950 
  244.6250   -20.9110    81.6980   100.0770    89.1240    79.1200    23.8860     2.1940 
  244.7500   -20.6540    79.2230    92.2230    82.7110    68.4360    24.0010     2.1900 
  244.8750   -20.3700    77.9100    84.3110    75.9630    59.4860    23.9570     2.1830 
  245.0000   -20.0620    78.3670    77.2180    69.7270    54.7040    23.8560     2.1740 
  245.1250   -19.7160    77.5990    71.7420    64.8060    52.1040    23.8790     2.1670 
  245.2500   -19.3850    76.0790    68.0940    61.4600    50.2260    23.9690     2.1670 
  245.3750   -19.0630    75.9670    66.7380    60.0890    48.9750    24.0200     2.1780 
  245.5000   -18.7680    78.2620    68.1320    61.0710    48.8050    23.9710     2.2000 
  245.6250   -18.4360    80.1300    72.8220    64.8950    49.3140    23.8220     2.2270 
  245.7500   -18.1850    79.7100    79.5490    70.5430    52.2840    23.7910     2.2470 
  245.8750   -17.9400    79.2010    86.7340    76.7440    58.2940    23.8300     2.2520 
  246.0000   -17.8220    78.6680    92.2510    81.7430    69.9260    23.8300     2.2470 
  246.1250   -17.6670    74.3170    93.2700    83.1300    84.7250    23.9300     2.2370 
  246.2500   -17.5450    67.6630    89.6630    80.5940    81.1430    23.7710     2.2270 
  246.3750   -17.4270    65.6660    82.5150    74.8320    64.0570    23.4760     2.2190 
  246.5000   -17.3400    70.5440    73.9890    67.5290    56.6880    23.3560     2.2140 
  246.6250   -17.3660    76.2280    66.7160    60.9400    53.9790    23.4640     2.2100 
  246.7500   -17.3160    78.3580    61.9890    56.4480    51.2150    23.4860     2.2100 
  246.8750   -17.3290    77.8270    60.1330    54.5180    48.3950    23.5700     2.2110 
  247.0000   -17.2670    74.9280    60.9160    55.0750    46.9650    23.6830     2.2080 
  247.1250   -17.3260    70.1680    64.0260    57.9920    49.4550    23.7110     2.2000 
  247.2500   -17.3640    67.3410    68.2080    62.1920    57.4640    23.8450     2.1910 
  247.3750   -17.4160    67.9890    72.4740    66.8000    66.0900    24.1310     2.1840 
  247.5000   -17.4250    70.5390    75.7420    70.7990    72.1900    24.3310     2.1770 
  247.6250   -17.4220    72.2060    76.4170    72.7660    73.6060    24.3800     2.1710 
  247.7500   -17.4100    72.4400    74.3450    72.1690    75.1780    24.3790     2.1650 
  247.8750   -17.3660    71.6260    69.5490    68.8330    74.9650    24.3960     2.1610 
  248.0000   -17.2910    71.8440    63.2670    63.2220    71.6000    24.4760     2.1640 
  248.1250   -17.1650    76.1820    56.3880    56.3200    64.8240    24.5430     2.1740 
  248.2500   -17.0380    83.0020    50.8340    49.6160    52.9640    24.5990     2.1890 
  248.3750   -16.9200    87.4440    46.7470    43.9130    38.8070    24.6470     2.2050 
  248.5000   -16.8150    88.6960    42.4010    39.5230    29.9210    24.5550     2.2200 
  248.6250   -16.6690    87.7010    39.2050    36.5380    27.3240    24.2980     2.2310 
  248.7500   -16.5440    86.9190    37.0510    34.4760    27.7700    24.0260     2.2380 
  248.8750   -16.4320    87.6440    35.7040    33.1370    27.7760    23.8970     2.2390 
  249.0000   -16.3630    89.5300    35.0700    32.4270    26.3250    23.9420     2.2380 
  249.1250   -16.3300    90.2780    35.2990    32.4590    26.7160    23.9860     2.2430 
  249.2500   -16.3600    89.4590    36.3630    33.2030    28.1370    24.0240     2.2640 
  249.3750   -16.3630    89.3090    38.4180    34.7880    30.5400    24.0140     2.3080 
  249.5000   -16.5040    89.8660    41.7680    37.4520    34.1160    23.9450     2.3630 
  249.6250   -16.6120    87.8280    47.2750    41.8990    39.9370    23.9110     2.4100 
  249.7500   -16.7750    83.5800    55.1460    48.3290    44.1950    23.8170     2.4270 
  249.8750   -16.9480    78.1900    65.3970    56.8330    50.0830    23.7710     2.3980 
  250.0000   -17.1330    73.8660    77.3190    66.9310    61.5030    23.7790     2.3490 
  250.1250   -17.3350    72.8900    89.0960    77.2420    85.2770    23.8580     2.3090 
  250.2500   -17.4740    74.1230    98.4910    85.8110   120.0020    23.9750     2.3060 
  250.3750   -17.6450    75.8750   104.0100    91.2330   134.3790    24.0330     2.3570 
  250.5000   -17.7310    78.1900   105.2700    92.9760   104.6340    24.0330     2.4370 
  250.6250   -17.9050    80.4720   102.5470    91.0340    84.7250    23.9900     2.5180 
  250.7500   -18.0330    80.5200    97.5910    86.8940    74.9020    23.9960     2.5760 
  250.8750   -18.1840    79.5630    91.1260    81.2730    73.9170    24.0250     2.6010 
  251.0000   -18.3410    82.0820    83.7040    74.7740    81.1310    24.0250     2.6080 
  251.1250   -18.5040    85.3430    76.4140    68.2590    81.9100    23.9690     2.6050 
  251.2500   -18.6860    82.0110    70.8250    62.8920    68.9220    23.9230     2.5940 
  251.3750   -18.8900    75.3190    67.8570    59.6550    53.8670    23.9460     2.5700 
  251.5000   -19.0980    74.0780    68.0860    59.0990    46.3210    24.0500     2.5370 
  251.6250   -19.3160    78.1210    70.4980    61.5020    51.0970    24.1840     2.4990 
  251.7500   -19.5070    79.0900    74.0600    65.6590    58.8800    24.2730     2.4620 
  251.8750   -19.6880    79.1760    77.2280    70.5900    60.6130    24.2540     2.4360 
  252.0000   -19.8300    82.0390    79.2630    75.3500    60.3270    24.1430     2.4260 
  252.1250   -19.9550    82.9450    83.5050    79.1290    57.0090    24.0730     2.4380 
  252.2500   -20.0560    80.9970    86.8880    81.9850    62.3460    24.0530     2.4680 
  252.3750   -20.1340    81.0620    89.7480    84.2040    71.9260    24.0470     2.5020 
