~V
VERS. 2.00: Ver 2.00
~W
STRT.M 64.0000:
STOP.M 264.0000:
STEP.M 0.1250:
NULL. -999.2500:
UWI. DF3031:
~C
DEPT.M :
DEN.GM/CC :
AC.US/MT :
GR.API :
CALI.CM :
RXO.OHMM :
RI. :
RML.OHMM :
SP.MV :
~A
# ...
  144.0000     2.5990   240.8610    60.5130    25.7100    22.1230    20.9780    25.1290   -12.9090 
  144.1250     2.5720   242.1170    60.8870    25.6970    21.0520    19.7190    23.1900   -12.8920 
  144.2500     2.5370   245.6770    66.2410    25.7030    19.2370    17.9470    20.7410   -12.8560 
  144.3750     2.5170   250.3510    70.7520    25.7050    16.8450    16.1290    18.3840   -12.8000 
  144.5000     2.5190   254.7890    70.9310    25.6340    14.5150    14.6290    16.5730   -12.7400 
  144.6250     2.5330   257.6330    67.5760    25.4590    13.1310    13.7450    15.6820   -12.6810 
  144.7500     2.5460   258.7880    65.0040    25.3050    12.8170    13.4360    15.5900   -12.6230 
  144.8750     2.5550   258.6450    64.2440    25.2560    13.3150    13.6480    16.1570   -12.5710 
  145.0000     2.5550   257.8680    64.2780    25.2780    14.0920    14.2680    17.1580   -12.5250 
  145.1250     2.5440   257.0940    65.5630    25.2770    14.7660    15.1430    18.3320   -12.5010 
  145.2500     2.5350   256.5970    68.6860    25.2480    15.5770    16.0390    19.4160   -12.4970 
  145.3750     2.5330   256.3270    72.9330    25.2130    16.7280    16.8280    20.2990   -12.5130 
  145.5000     2.5350   256.0970    75.4580    25.1770    17.7910    17.4380    20.9470   -12.5430 
  145.6250     2.5370   255.6490    73.4840    25.1480    18.0970    17.8030    21.3050   -12.5860 
  145.7500     2.5370   254.9460    70.2450    25.1320    18.1280    17.9260    21.3740   -12.6360 
  145.8750     2.5360   254.2400    69.4910    25.1290    18.3050    17.7810    21.1210   -12.6950 
  146.0000     2.5360   254.1200    70.2940    25.1300    18.1800    17.3920    20.5760   -12.7660 
  146.1250     2.5370   255.6120    69.6940    25.1300    16.9730    16.8440    19.8630   -12.8180 
  146.2500     2.5370   258.8420    68.3430    25.1300    15.3280    16.3220    19.2270   -12.8650 
  146.3750     2.5330   263.3300    68.3380    25.1300    14.2810    15.9620    18.8520   -12.9090 
  146.5000     2.5270   267.9150    69.7250    25.1210    14.3770    15.8570    18.8540   -12.9340 
  146.6250     2.5240   270.7960    68.9560    25.0940    15.3090    16.0620    19.2580   -12.9450 
  146.7500     2.5190   271.2700    66.3080    25.0590    16.1970    16.4270    19.8120   -12.9440 
  146.8750     2.5100   269.5120    64.3210    25.0650    16.8610    16.7880    20.2740   -12.9280 
  147.0000     2.5000   266.5030    64.5560    25.1580    17.3950    16.9790    20.4340   -12.8940 
  147.1250     2.4920   263.7230    66.3090    25.3600    17.4250    16.8590    20.1600   -12.8620 
  147.2500     2.4830   262.1180    66.9530    25.6000    16.7440    16.5280    19.6450   -12.8190 
  147.3750     2.4740   261.7520    68.4160    25.7970    15.7280    16.1150    19.0810   -12.7620 
  147.5000     2.4760   262.0940    72.2000    25.9100    14.9480    15.7420    18.6290   -12.7110 
  147.6250     2.5110   262.3160    74.2810    25.9650    14.7230    15.5170    18.4240   -12.6580 
  147.7500     2.5670   261.9410    73.0770    26.0060    14.8930    15.4490    18.4480   -12.6160 
  147.8750     2.6140   260.9540    71.2980    26.0250    15.2670    15.5210    18.6560   -12.5820 
  148.0000     2.6300   259.5800    71.7730    26.0150    15.5870    15.6970    18.9860   -12.5500 
  148.1250     2.6150   258.1300    73.2700    26.0170    15.6890    15.9490    19.3980   -12.5290 
  148.2500     2.5950   256.8760    74.2800    26.0390    15.8280    16.2460    19.8470   -12.5210 
  148.3750     2.5760   255.9520    76.7020    26.0580    16.1770    16.5630    20.3040   -12.5260 
  148.5000     2.5580   255.3660    79.2920    26.0590    16.6160    16.8660    20.7190   -12.5390 
  148.6250     2.5440   254.9670    76.9450    26.0500    16.9410    17.1010    21.0230   -12.5720 
  148.7500     2.5360   254.4860    72.8670    26.0430    17.1780    17.2630    21.2310   -12.6090 
  148.8750     2.5300   253.8800    72.1970    26.0440    17.2420    17.3820    21.4000   -12.6510 
  149.0000     2.5280   253.3940    75.5690    26.0520    17.0100    17.4990    21.5960   -12.7040 
  149.1250     2.5310   253.6310    77.7100    26.0540    16.8820    17.6250    21.8260   -12.7480 
  149.2500     2.5360   254.8250    76.9760    26.0660    17.4380    17.6940    21.9710   -12.7830 
  149.3750     2.5410   256.8540    77.1160    26.1060    18.2530    17.6070    21.8750   -12.8010 
  149.5000     2.5450   259.2580    79.7210    26.1630    18.1360    17.2830    21.4230   -12.8030 
  149.6250     2.5430   261.3970    81.1950    26.1970    16.5850    16.7060    20.6070   -12.7920 
  149.7500     2.5340   262.9660    80.1360    26.1930    14.9610    16.0440    19.6930   -12.7660 
  149.8750     2.5260   263.9670    76.9400    26.1810    14.1730    15.4460    18.9100   -12.7270 
  150.0000     2.5260   264.5550    73.3170    26.2020    14.2170    15.0300    18.4200   -12.6890 
  150.1250     2.5300   264.9070    69.8330    26.2470    14.5660    14.8870    18.3170   -12.6490 
  150.2500     2.5280   265.2720    68.8010    26.2420    14.8580    14.9460    18.4590   -12.6180 
  150.3750     2.5180   265.8680    70.6760    26.1640    15.4410    15.1400    18.7320   -12.6000 
  150.5000     2.5040   266.8870    74.1260    26.0610    16.7100    15.4020    19.0550   -12.5870 
  150.6250     2.4960   268.3970    77.8960    25.9880    17.9520    15.6860    19.3800   -12.5820 
  150.7500     2.4960   270.0070    79.1540    25.9760    17.9390    15.9420    19.6600   -12.5760 
  150.8750     2.4990   271.2990    76.5060    26.0440    16.8800    16.1170    19.8240   -12.5640 
  151.0000     2.4960   272.0130    73.0850    26.1340    16.0190    16.1410    19.7810   -12.5430 
  151.1250     2.4890   272.2100    73.0130    26.1190    16.0490    15.9240    19.4140   -12.5140 
  151.2500     2.4870   272.3960    74.5170    26.0010    16.0750    15.5070    18.7920   -12.4810 
  151.3750     2.4940   272.8830    74.4380    25.8460    15.4120    14.9590    18.0250   -12.4440 
  151.5000     2.5020   273.6870    73.1120    25.6410    14.2320    14.3790    17.2590   -12.4150 
  151.6250     2.4990   274.4500    72.7440    25.3350    13.4310    13.8880    16.6720   -12.3790 
  151.7500     2.4790   274.6950    73.1630    25.0700    13.3240    13.5460    16.3180   -12.3560 
  151.8750     2.4520   274.1310    73.4880    25.0060    13.4710    13.3720    16.1910   -12.3500 
  152.0000     2.4430   272.7320    72.0770    25.1830    13.4240    13.3460    16.2370   -12.3560 
  152.1250     2.4700   270.8170    69.6470    25.5050    13.2640    13.4320    16.3810   -12.3920 
  152.2500     2.5040   269.2260    68.8170    25.7900    13.3040    13.5500    16.5230   -12.4400 
  152.3750     2.5140   268.7180    69.0880    25.9480    13.4390    13.6540    16.6190   -12.4920 
  152.5000     2.4930   269.7930    69.3240    25.9980    13.4210    13.7230    16.6540   -12.5430 
  152.6250     2.4660   272.5760    69.7570    26.0350    13.2780    13.7440    16.6320   -12.5930 
  152.7500     2.4580   275.9990    70.2060    26.0740    13.2870    13.7290    16.5780   -12.6360 
  152.8750     2.4660   279.0420    70.4150    26.0660    13.4800    13.6850    16.5040   -12.6680 
  153.0000     2.4770   280.8350    69.8870    26.0170    13.6630    13.6190    16.4210   -12.6890 
  153.1250     2.4900   280.7130    68.0850    25.9830    13.6320    13.5420    16.3340   -12.6750 
  153.2500     2.5080   279.2680    66.7920    25.9780    13.4300    13.4680    16.2570   -12.6360 
  153.3750     2.5310   277.1990    68.2220    25.9800    13.1480    13.4090    16.2050   -12.5840 
  153.5000     2.5510   275.2620    73.6110    25.9710    12.8930    13.3760    16.1890   -12.5250 
  153.6250     2.5620   274.1690    77.2520    25.9590    12.8140    13.3670    16.2040   -12.4860 
  153.7500     2.5650   274.0990    73.9870    25.9560    12.9230    13.3720    16.2260   -12.4680 
  153.8750     2.5550   275.2730    68.9380    25.9440    13.1020    13.3860    16.2440   -12.4770 
