~V
VERS. 2.00: Ver 2.00
~W
STRT.M 61.0000:
STOP.M 279.0000:
STEP.M 0.1250:
NULL. -999.2500:
UWI. DF3040:
~C
DEPT.M :
GR.API :
CALI.CM :
RXO.OHMM :
RI. :
RML.OHMM :
DEN.GM/CC :
SP.MV :
~A
# ...
  263.5000    64.0940    23.2220     7.9420     8.5500    11.9580     2.4660   -12.1510 
  263.6250    69.2840    23.1620     9.0580     8.4570    11.7920     2.4690   -12.2170 
  263.7500    69.0670    23.0120     9.8310     8.3070    11.5890     2.4540   -12.2640 
  263.8750    66.7140    23.0050     9.7100     8.1260    11.3460     2.4390   -12.3020 
  264.0000    65.5210    23.0530     8.8130     7.9480    11.0600     2.4280   -12.3340 
  264.1250    65.3340    23.1670     8.3620     7.8000    10.8270     2.4180   -12.3560 
  264.2500    66.8270    23.1730     7.8470     7.6870    10.6580     2.4130   -12.3710 
  264.3750    70.2760    23.1030     7.5680     7.6150    10.5840     2.4170   -12.3860 
  264.5000    71.7160    23.0320     7.8690     7.5840    10.6020     2.4180   -12.3950 
  264.6250    67.4540    23.0240     8.3220     7.5910    10.7070     2.4100   -12.4170 
  264.7500    63.0070    23.0490     8.2350     7.6170    10.8330     2.4020   -12.4320 
  264.8750    61.7300    22.9090     7.6530     7.6530    10.9630     2.4110   -12.4380 
  265.0000    62.5400    22.8750     6.6510     7.6850    11.0560     2.4310   -12.4200 
  265.1250    63.1440    22.7320     5.7680     7.6890    11.0100     2.4430   -12.4010 
  265.2500    63.6630    22.7290     5.4810     7.6730    10.8690     2.4390   -12.3710 
  265.3750    63.9640    22.6510     5.5290     7.6370    10.7070     2.4270   -12.3400 
  265.5000    62.9850    22.2230     5.4910     7.5840    10.5490     2.4140   -12.3220 
  265.6250    61.2300    21.8520     5.3590     7.5250    10.4520     2.3930   -12.3240 
  265.7500    60.4960    21.3610     5.2750     7.4720    10.4010     2.3490   -12.3770 
  265.8750    61.3230    21.2160     5.4320     7.4230    10.3720     2.2790   -12.4710 
  266.0000    62.3280    21.4160     5.5520     7.3790    10.3620     2.2070   -12.6030 
  266.1250    61.5720    21.4730     5.5150     7.3520    10.3660     2.1580   -12.7340 
  266.2500    59.4000    21.3850     5.3020     7.3420    10.3780     2.1460   -12.8220 
  266.3750    58.7270    20.9860     5.0570     7.3530    10.3760     2.1730   -12.8790 
  266.5000    61.0790    19.9060     4.7610     7.3870    10.4020     2.2120   -12.9440 
  266.6250    65.3120    16.5220     4.6380     7.4420    10.4800     2.2450   -13.0430 
  266.7500    68.5290    15.3570     4.7110     7.4990    10.5660     2.2670   -13.1300 
  266.8750    69.2670    15.1430     4.9890     7.5370    10.6420     2.2870   -13.1530 
  267.0000    67.1640    15.8040     5.4680     7.5530    10.6650     2.3060   -13.0850 
  267.1250    64.3530    17.1270     6.7500     7.5350    10.6380     2.3160   -13.0450 
  267.2500    62.3650    18.8040     7.8730     7.4950    10.5730     2.3080   -13.0970 
  267.3750    62.1490    19.7750     8.1050     7.4420    10.4870     2.2820   -13.1170 
  267.5000    64.7620    20.2830     8.0560     7.3960    10.4070     2.2590   -13.0970 
  267.6250    68.9670    20.8050     7.7500     7.3680    10.3390     2.2610   -13.0800 
  267.7500    69.4620    21.1720     7.3120     7.3530    10.3040     2.2840   -12.9930 
  267.8750    64.7340    21.3710     6.8040     7.3440    10.2890     2.3010   -12.8830 
  268.0000    60.9550    21.4110     6.6690     7.3230    10.2620     2.2930   -12.8830 
  268.1250    64.4670    21.3410     6.5970     7.2790    10.1910     2.2680   -12.8420 
  268.2500    69.4190    21.4340     6.3420     7.2190    10.0890     2.2540   -12.7890 
  268.3750    70.9110    22.0610     6.1640     7.1500     9.9800     2.2740   -12.8080 
  268.5000    70.9110    22.6710     6.4660     7.0790     9.8750     2.3090   -12.8590 
  268.6250    70.9110    23.5810     6.9050     7.0120     9.7950     2.3290   -12.8220 
  268.7500    70.9110    24.2980     7.6230     6.9600     9.7530     2.3130   -12.8280 
  268.8750    70.9110    24.5910     8.0110     6.9350     9.7480     2.2630   -12.8940 
  269.0000    70.9110    24.4330     8.2870     6.9390     9.7760     2.2220   -12.9750 
  269.1250    70.9110    23.9510     8.6510     6.9710     9.8590     2.2170   -13.0570 
  269.2500    70.9110    23.2430     8.8570     7.0190     9.9410     2.2530   -13.1090 
  269.3750    70.9110    22.7280     8.7180     7.0720    10.0110     2.3160   -13.1380 
  269.5000    70.9110    22.6670     8.1760     7.1140    10.0490     2.3770   -13.1460 
  269.6250    70.9110    23.1680     7.7040     7.1290    10.0400     2.4180   -13.1760 
  269.7500    70.9110    23.6870     8.1740     7.1250     9.9970     2.4260   -13.2310 
  269.8750    70.9110    23.9150     8.9880     7.1160     9.9540     2.4010   -13.3000 
  270.0000    70.9110    23.9240     9.7280     7.1180     9.9450     2.3700   -13.2920 
  270.1250    70.9110    23.9200    10.5690     7.1580     9.9840     2.3600   -13.2720 
  270.2500    70.9110    23.8230    11.1900     7.2150    10.0570     2.3800   -13.2640 
  270.3750    70.9110    23.4510    11.7740     7.2780    10.1420     2.4260   -13.2800 
  270.5000    70.9110    23.0640    13.6080     7.3300    10.2100     2.4680   -13.3100 
  270.6250    70.9110    22.9900    15.3830     7.3500    10.2290     2.4890   -13.3540 
  270.7500    70.9110    22.9700    15.1430     7.3270    10.1820     2.4860   -13.3410 
  270.8750    70.9110    22.9170    13.5390     7.2640    10.0890     2.4670   -13.2770 
  271.0000    70.9110    22.8690    12.9110     7.1680     9.9640     2.4490   -13.2310 
  271.1250    70.9110    22.7100    12.5890     7.0610     9.8550     2.4420   -13.2510 
  271.2500    70.9110    22.7120    12.8700     6.9650     9.7940     2.4520   -13.2640 
  271.3750    70.9110    22.8590    13.1870     6.8870     9.7700     2.4740   -13.2830 
  271.5000    70.9110    23.0170    12.9120     6.8350     9.7680     2.4850   -13.2740 
  271.6250    70.9110    23.0550    11.7310     6.8220     9.8050     2.4720   -13.2070 
  271.7500    70.9110    22.9970    10.5610     6.8380     9.8610     2.4470   -13.1730 
  271.8750    70.9110    23.0150    10.2990     6.8790     9.9110     2.4360   -13.1620 
  272.0000    70.9110    23.2080    10.3750     6.9340     9.9380     2.4430   -13.1700 
  272.1250    70.9110    23.2590    10.6160     6.9950     9.9470     2.4530   -13.1200 
  272.2500    70.9110    23.2910    11.1210     7.0310     9.9310     2.4520   -13.0480 
  272.3750    70.9110    23.2630    10.9220     7.0520     9.9000     2.4430   -12.9670 
  272.5000    70.9110    23.0620    10.1160     7.0520     9.8740     2.4350   -12.9200 
  272.6250    70.9110    23.1750     9.7600     7.0220     9.8480     2.4320   -12.9020 
  272.7500    70.9110    23.1750    10.1270     6.9620     9.8590     2.4350   -12.8340 
  272.8750    70.9110    23.0690    10.6570     6.8920     9.9360     2.4470   -12.7720 
  273.0000    70.9110    23.0330    10.8150     6.8160    10.0700     2.4620   -12.7250 
  273.1250    70.9110    23.2110    10.5790     6.7330    10.2690     2.4700   -12.6830 
  273.2500    70.9110    23.2300    10.8370     6.6530    10.4990     2.4670   -12.6580 
  273.3750    70.9110    23.1340    11.6310     6.5790    10.7440     2.4550   -12.6500 
  273.5000    70.9110    23.2930    12.3190     6.5170    10.9610     2.4430   -12.6210 
  273.6250    70.9110    23.4350    11.4480     6.4740    11.0940     2.4330   -12.6180 
  273.7500    70.9110    23.3000    10.5450     6.4590    11.1040     2.4260   -12.6570 
  273.8750    70.9110    23.2750    10.5580     6.4490    11.0580     2.4220   -12.6880 
  274.0000    70.9110    23.3480    11.2530     6.4310    11.0120     2.4270   -12.7000 
  274.1250    70.9110    23.5260    11.6600     6.4260    10.9950     2.4430   -12.7430 
  274.2500    70.9110    23.4340    11.4490     6.4310    10.9750     2.4670   -12.7640 
  274.3750    70.9110    23.3180    11.4000     6.4310    10.9750     2.4850   -12.8180 
  274.5000    70.9110    23.2900    11.2640     6.4310    10.9750     2.4830   -12.9080 
  274.6250    70.9110    23.3000    10.8700     6.4310    10.9750     2.4640   -12.9750 
