~V
VERS. 2.00: Ver 2.00
~W
STRT.M 60.0000:
STOP.M 273.0000:
STEP.M 0.1250:
NULL. -999.2500:
UWI. DF3001:
~C
DEPT.M :
DEN.GM/CC :
SP.MV :
AC.US/MT :
GR.API :
RML.OHMM :
RI. :
RXO.OHMM :
CALI.CM :
~A
# ...
  130.0000  -999.2500   -20.8060  -999.2500    64.8780    10.3610     9.6640    11.9050    22.7060 
  130.1250  -999.2500   -21.0380  -999.2500    67.1700    10.4290     9.5810    11.8580    22.7060 
  130.2500  -999.2500   -21.1750  -999.2500    69.5390    10.5830     9.6300    11.9120    22.7060 
  130.3750  -999.2500   -21.2110  -999.2500    69.1640    10.8350     9.8100    11.9900    22.7060 
  130.5000  -999.2500   -21.1780  -999.2500    70.1270    11.2300    10.1440    12.2330    22.7060 
  130.6250  -999.2500   -21.1470  -999.2500    74.1960    11.7660    10.6310    13.0480    22.7480 
  130.7500  -999.2500   -21.0830  -999.2500    75.5830    12.2790    11.1360    14.2310    22.8460 
  130.8750  -999.2500   -20.9680  -999.2500    72.2340    12.5790    11.5010    15.4700    22.9440 
  131.0000  -999.2500   -20.8600  -999.2500    68.8170    12.5090    11.5790    16.1290    22.9860 
  131.1250  -999.2500   -20.7800  -999.2500    67.8080    11.9830    11.2540    15.1410    22.9920 
  131.2500  -999.2500   -20.6550  -999.2500    66.3880    11.2390    10.6740    12.8280    23.0030 
  131.3750  -999.2500   -20.4750  -999.2500    65.0210    10.4970    10.0050    11.2590    23.0090 
  131.5000  -999.2500   -20.2550  -999.2500    67.5090     9.9200     9.4070    10.4900    23.0120 
  131.6250  -999.2500   -19.9660  -999.2500    72.6390     9.6220     9.0200    10.0850    23.0260 
  131.7500  -999.2500   -19.6350  -999.2500    73.5670     9.5650     8.8580     9.9080    23.0820 
  131.8750  -999.2500   -19.2760  -999.2500    70.7500     9.7270     8.9160     9.9680    23.2060 
  132.0000  -999.2500   -18.8440  -999.2500    68.1120    10.0670     9.1610    10.0070    23.3950 
  132.1250  -999.2500   -18.3400  -999.2500    68.0620    10.4900     9.5210    10.0200    23.4920 
  132.2500  -999.2500   -17.8730  -999.2500    70.8980    10.7930     9.8140    10.2160    23.5730 
  132.3750  -999.2500   -17.4380  -999.2500    76.3040    10.7760     9.8630    10.6190    23.7060 
  132.5000  -999.2500   -17.0120  -999.2500    81.0990    10.3080     9.5320    10.9750    23.8710 
  132.6250  -999.2500   -16.6740  -999.2500    80.9140     9.3540     8.7500    10.7050    23.9910 
  132.7500  -999.2500   -16.4200  -999.2500    79.5770     8.2010     7.7290     9.2570    23.9670 
  132.8750  -999.2500   -16.2220  -999.2500    81.9450     7.0920     6.6670     7.1090    23.8600 
  133.0000  -999.2500   -16.1150  -999.2500    88.2400     6.2170     5.7450     6.0810    23.7770 
  133.1250  -999.2500   -16.1360  -999.2500    96.2650     5.7350     5.1350     5.7870    23.8790 
  133.2500  -999.2500   -16.2790  -999.2500   101.3990     5.6090     4.8490     5.6930    24.1530 
  133.3750  -999.2500   -16.5730  -999.2500   101.8490     5.8240     4.8940     5.6040    24.3420 
  133.5000  -999.2500   -16.9870  -999.2500    97.9600     6.3480     5.2530     5.9970    24.2350 
  133.6250  -999.2500   -17.4170  -999.2500    88.8630     7.1610     5.9230     7.0430    23.8620 
  133.7500  -999.2500   -17.8560  -999.2500    78.9590     8.1210     6.7800     8.3260    23.6810 
  133.8750  -999.2500   -18.3140  -999.2500    72.9850     9.1050     7.7180     9.4040    23.6330 
  134.0000  -999.2500   -18.7130  -999.2500    71.9010     9.9640     8.6060    10.2650    23.6310 
  134.1250  -999.2500   -18.9240  -999.2500    73.0910    10.4940     9.2470    10.8860    23.6310 
  134.2500  -999.2500   -18.9540  -999.2500    71.8430    10.6370     9.5480    11.1980    23.6320 
  134.3750  -999.2500   -18.7970  -999.2500    69.9890    10.3660     9.4520    11.0640    23.6330 
  134.5000  -999.2500   -18.4930  -999.2500    70.2980     9.7190     8.9740    10.5510    23.6420 
  134.6250  -999.2500   -18.1330  -999.2500    75.1740     8.7900     8.1710     9.7180    23.7330 
  134.7500  -999.2500   -17.7450  -999.2500    82.0620     7.8270     7.2690     8.7420    23.9740 
  134.8750  -999.2500   -17.3480  -999.2500    88.0350     7.0320     6.4530     7.5590    24.3020 
  135.0000  -999.2500   -17.0030   404.2600    92.2130     6.5730     5.8820     6.5680    24.4970 
  135.1250  -999.2500   -16.8320   404.2600    94.7610     6.6280     5.7370     6.5410    24.5180 
  135.2500  -999.2500   -16.7830   401.7690    92.3170     7.1450     6.0010     7.1360    24.3750 
  135.3750  -999.2500   -16.7940   400.3880    82.2530     8.0460     6.6380     8.3500    24.0650 
  135.5000  -999.2500   -16.8380   400.0170    69.8090     9.1250     7.5230     9.9620    23.8230 
  135.6250  -999.2500   -16.8160   400.7070    64.8030    10.0160     8.3890    11.3260    23.7540 
  135.7500  -999.2500   -16.7000   402.3370    66.3720    10.4070     8.9320    11.4620    23.7980 
  135.8750  -999.2500   -16.4920   405.1780    68.8940    10.1950     8.9710    10.7160    23.9000 
  136.0000  -999.2500   -16.1900   409.3210    70.5160     9.4890     8.5120     9.6510    24.0630 
  136.1250  -999.2500   -15.8300   413.5190    74.9060     8.6570     7.7450     8.3360    24.2760 
  136.2500  -999.2500   -15.4390   414.8250    83.7210     7.9580     7.0010     7.1810    24.4630 
  136.3750  -999.2500   -15.0210   411.6930    92.5830     7.3460     6.4240     6.5570    24.5430 
  136.5000  -999.2500   -14.6210   404.7370    95.9460     6.8170     6.0400     6.7030    24.4830 
  136.6250  -999.2500   -14.3200   395.7730    91.7640     6.5670     5.8180     7.1540    24.4420 
  136.7500  -999.2500   -14.0530   387.8010    88.4420     6.4580     5.6710     7.3050    24.5140 
  136.8750  -999.2500   -13.8220   383.6790    89.8450     6.4040     5.5730     6.8110    24.5860 
  137.0000  -999.2500   -13.7230   385.3700    93.6530     6.4010     5.5360     6.0520    24.5370 
  137.1250  -999.2500   -13.6940   390.5630    95.0710     6.5210     5.5980     5.8810    24.2730 
  137.2500  -999.2500   -13.6070   391.6110    92.2410     6.7330     5.7390     6.1720    23.9300 
  137.3750  -999.2500   -13.4780   383.8350    88.4660     6.9600     5.9100     6.6010    23.7080 
  137.5000  -999.2500   -13.3560   369.0240    87.9110     7.0980     6.0400     6.9100    23.6350 
  137.6250  -999.2500   -13.2280   358.5170    89.6410     7.0430     6.0390     6.6660    23.6310 
  137.7500  -999.2500   -13.1060   362.2430    92.7720     6.8400     5.9100     6.0240    23.6320 
  137.8750  -999.2500   -12.9930   378.9890    97.6780     6.5670     5.6890     5.5610    23.6380 
  138.0000  -999.2500   -12.8250   398.3850   103.1240     6.3010     5.4330     5.4340    23.6510 
  138.1250  -999.2500   -12.6170   409.7090   105.5490     6.0960     5.2020     5.3830    23.6580 
  138.2500  -999.2500   -12.4240   414.8290   106.0040     5.9530     5.0240     5.3120    23.6670 
  138.3750  -999.2500   -12.2410   417.8830   106.7960     5.8710     4.9060     5.3070    23.7220 
  138.5000  -999.2500   -12.0980   420.0680   107.7550     5.8470     4.8460     5.3870    23.8940 
  138.6250  -999.2500   -12.0100   419.9960   104.9260     5.8810     4.8460     5.5570    24.2370 
  138.7500  -999.2500   -11.9230   418.1990    98.8340     5.9490     4.8830     5.6330    24.6170 
  138.8750  -999.2500   -11.8270   415.6250    94.2270     6.0320     4.9430     5.5960    24.9240 
  139.0000  -999.2500   -11.7490   413.2320    93.4750     6.1170     5.0150     5.6120    25.0650 
  139.1250  -999.2500   -11.6890   411.4120    94.1860     6.2060     5.0930     5.6180    25.0900 
  139.2500     0.0000   -11.6270   410.0590    92.8830     6.3060     5.1690     5.6100    25.0900 
  139.3750     0.0000   -11.5870   409.1760    92.2350     6.4010     5.2310     5.6180    25.0900 
  139.5000     0.0000   -11.5350   408.5230    93.4110     6.4550     5.2540     5.6260    25.0900 
  139.6250     0.0000   -11.4380   408.1440    93.7740     6.3910     5.1900     5.5970    25.0940 
  139.7500     1.1270   -11.3970   408.3150    96.1000     6.1930     5.0270     5.4720    25.1280 
  139.8750     2.2330   -11.3970   408.7680   102.1660     5.8720     4.7670     5.1610    25.2260 
