~V
VERS. 2.00: Ver 2.00
~W
STRT.M 120.0000:
STOP.M 278.0000:
STEP.M 0.1250:
NULL. -999.2500:
UWI. DF3047:
~C
DEPT.M :
DEN.GM/CC :
SP.MV :
AC.US/MT :
GR.API :
CALI.CM :
RXO.OHMM :
RI. :
RML.OHMM :
~A
# ...
  230.0000     2.2320   -18.3440   375.7160    64.8880    26.8340    79.2130    75.1050    88.9960 
  230.1250     2.2400   -18.3590   374.0460    63.0370    26.8490    84.5560    75.0980    89.4180 
  230.2500     2.2510   -18.4100   374.6490    64.6930    26.8200    84.8630    74.6120    89.0720 
  230.3750     2.2610   -18.4900   377.1370    68.0750    26.7100    78.1920    73.5710    87.9210 
  230.5000     2.2630   -18.5890   380.3030    68.3760    26.5550    68.8480    72.2970    86.4780 
  230.6250     2.2540   -18.6820   382.8000    66.1700    26.4300    65.1820    71.5180    85.7740 
  230.7500     2.2390   -18.7430   384.1510    65.9080    26.3670    69.3250    71.6980    86.3640 
  230.8750     2.2280   -18.7630   384.2270    65.8850    26.3870    77.6310    72.8170    88.1250 
  231.0000     2.2270   -18.7610   382.9770    63.5370    26.4930    83.7060    74.2670    90.1510 
  231.1250     2.2350   -18.7110   380.1690    61.4590    26.6380    83.6300    74.7990    90.6260 
  231.2500     2.2370   -18.6350   376.0490    62.1890    26.7220    81.3140    73.6770    88.6550 
  231.3750     2.2330   -18.5290   370.4590    64.0390    26.7030    78.1860    70.8500    84.4060 
  231.5000     2.2400   -18.3920   362.6900    65.4940    26.6300    71.8090    66.9560    78.9840 
  231.6250     2.2840   -18.1970   350.5270    68.2410    26.5860    62.4190    63.2540    74.1850 
  231.7500     2.3600   -17.9690   333.5010    72.4170    26.5370    55.7570    60.8480    71.2570 
  231.8750     2.4440   -17.6970   312.5940    75.3650    26.4360    53.5080    60.2200    70.7070 
  232.0000     2.5110   -17.3300   290.5390    74.2990    26.3310    54.1640    61.4780    72.6380 
  232.1250     2.5490   -16.8890   270.5770    69.7590    26.3180    61.2200    64.7250    76.9940 
  232.2500     2.5860   -16.3790   252.8750    67.5960    26.3450    76.3990    68.0620    80.8200 
  232.3750     2.6420   -15.7990   236.1120    69.5780    26.3450    90.4250    67.7360    78.5820 
  232.5000     2.7020   -15.1710   220.1520    72.1430    26.3270    95.7210    59.7540    65.8240 
  232.6250     2.7170   -14.5260   210.2710    71.9200    26.2550    88.9270    44.3510    46.1840 
  232.7500     2.6700   -13.8860   213.1290    71.2840    26.1070    67.2030    29.1440    29.2470 
  232.8750     2.5760   -13.2960   233.0970    71.6320    26.0460    36.7270    17.9980    17.7850 
  233.0000     2.4610   -12.8030   268.6250    70.9760    26.2380    14.7130    11.2670    11.0780 
  233.1250     2.3490   -12.4270   312.1090    65.8420    26.5470     7.5060     8.0140     7.9060 
  233.2500     2.2630   -12.1550   351.7420    59.4550    26.6250     5.8220     6.3780     6.4700 
  233.3750     2.2180   -11.9820   381.0280    56.2610    26.4790     5.8630     5.6980     6.1110 
  233.5000     2.2150   -11.8880   397.6120    57.3000    26.3750     6.0900     5.6270     6.3930 
  233.6250     2.2530   -11.8630   400.9720    60.4430    26.5140     6.3000     5.9350     6.9580 
  233.7500     2.3050   -11.8660   396.2480    62.7340    26.8420     6.6080     6.3240     7.4520 
  233.8750     2.3490   -11.8570   386.7710    62.2340    27.2210     6.9610     6.6460     7.7420 
  234.0000     2.3770   -11.8360   375.9750    59.6550    27.3740     7.2340     6.8360     7.8200 
  234.1250     2.4030   -11.7650   367.5640    57.8070    27.1150     7.2050     6.8730     7.7260 
  234.2500     2.4290   -11.6590   363.9860    57.4690    26.8140     6.8700     6.8070     7.5500 
  234.3750     2.4390   -11.5360   361.5020    56.9950    26.7100     6.4330     6.6570     7.3230 
  234.5000     2.4300   -11.4080   363.1630    57.0290    26.6840     6.1580     6.4250     7.0380 
  234.6250     2.4140   -11.3160   366.5220    60.3600    26.5220     6.1020     6.1010     6.6690 
  234.7500     2.4010   -11.2820   371.8610    67.0330    26.2840     5.9970     5.7300     6.2620 
  234.8750     2.3870   -11.3300   379.1410    77.3380    26.0710     5.7140     5.3800     5.9080 
  235.0000     2.3690   -11.4560   386.8330    87.9620    25.9210     5.3760     5.1270     5.7170 
  235.1250     2.3540   -11.6620   391.9410    92.9340    25.7980     5.4120     5.0630     5.8260 
  235.2500     2.3550   -11.9040   392.1700    91.8290    25.6660     6.0900     5.1860     6.2270 
  235.3750     2.3740   -12.1270   386.9100    90.2300    25.6320     7.3060     5.4800     6.8730 
  235.5000     2.4030   -12.3010   377.3290    92.8150    25.8450     8.4930     5.8900     7.6350 
  235.6250     2.4270   -12.3990   367.2070   101.1680    26.2180     8.9460     6.3070     8.2780 
  235.7500     2.4390   -12.4280   359.2070   110.9740    26.4590     8.8060     6.6160     8.6370 
  235.8750     2.4470   -12.3870   354.9790   117.9420    26.5300     8.4700     6.7600     8.6840 
  236.0000     2.4530   -12.2830   355.2430   121.3480    26.5130     8.1900     6.7570     8.5200 
  236.1250     2.4540   -12.1450   358.0210   123.4050    26.4580     8.0200     6.6770     8.3200 
  236.2500     2.4490   -12.0180   361.8170   124.4280    26.3920     7.9330     6.6070     8.2180 
  236.3750     2.4440   -11.9560   365.5710   124.0370    26.3350     7.9390     6.5850     8.2370 
  236.5000     2.4380   -11.9790   368.6380   122.7580    26.2850     8.0460     6.6220     8.3480 
  236.6250     2.4310   -12.0850   370.8470   123.9070    26.2380     8.2500     6.7070     8.5030 
  236.7500     2.4260   -12.2370   372.0370   126.1660    26.2290     8.4550     6.8070     8.6460 
  236.8750     2.4230   -12.4030   372.3140   126.3170    26.2830     8.5670     6.8970     8.7460 
  237.0000     2.4180   -12.5790   372.2060   123.0800    26.3550     8.5570     6.9610     8.7890 
  237.1250     2.4100   -12.7460   372.2930   118.6660    26.3740     8.4310     6.9970     8.7770 
  237.2500     2.4040   -12.8890   372.4770   115.9850    26.3520     8.2580     7.0200     8.7310 
  237.3750     2.4000   -12.9820   372.3490   114.5450    26.2900     8.1210     7.0380     8.6640 
  237.5000     2.3970   -13.0300   371.7840   114.0210    26.1680     8.1070     7.0570     8.6000 
  237.6250     2.3950   -13.0310   371.3120   114.5420    26.0320     8.1750     7.0850     8.5670 
  237.7500     2.3990   -12.9930   371.1390   116.7100    25.9770     8.1740     7.1330     8.5600 
  237.8750     2.4060   -12.9360   370.7370   120.9320    26.0160     8.1180     7.2100     8.6090 
  238.0000     2.4150   -12.8500   368.6450   124.5070    26.0770     8.1600     7.3140     8.7740 
  238.1250     2.4230   -12.7480   364.3510   123.9170    26.0850     8.4090     7.4310     9.0860 
  238.2500     2.4320   -12.6320   358.4420   122.3440    26.0510     8.6380     7.5200     9.4240 
  238.3750     2.4410   -12.5090   352.5540   122.5510    26.0110     8.6220     7.5270     9.6280 
  238.5000     2.4420   -12.3850   349.0350   122.9790    26.0000     8.3610     7.3990     9.5380 
  238.6250     2.4300   -12.2710   348.3430   122.2920    26.0620     8.0920     7.1010     9.0630 
  238.7500     2.4140   -12.1880   349.6660   121.8200    26.1580     7.9070     6.7600     8.4820 
  238.8750     2.4060   -12.1540   351.2900   119.1650    26.2080     7.6780     6.5540     8.1760 
  239.0000     2.4040   -12.1950   350.7430   111.5100    26.1690     7.5410     6.6990     8.5650 
  239.1250     2.4050   -12.3210   346.6900   101.1380    26.0860     8.8190     7.6450    10.4000 
  239.2500     2.4190   -12.5260   338.6800    91.9100    26.0250    13.4990     9.8500    14.2060 
  239.3750     2.4510   -12.8250   327.7670    83.4800    25.9550    24.3740    14.1600    20.9130 
  239.5000     2.4740   -13.1940   317.4510    75.7580    25.8820    44.1050    21.7090    31.7720 
  239.6250     2.4390   -13.6120   312.0360    70.2390    25.9210    70.5690    34.0200    48.7730 
  239.7500     2.3640   -14.0560   314.0380    67.7620    26.0830    94.0950    49.0470    69.3500 
  239.8750     2.2910   -14.4920   323.1430    67.5080    26.2840   108.9280    63.0760    87.7140 
