~V
VERS. 2.00: Ver 2.00
~W
STRT.M 65.0000:
STOP.M 252.0000:
STEP.M 0.1250:
NULL. -999.2500:
UWI. DF3012:
~C
DEPT.M :
GR.API :
RML.OHMM :
RI. :
RXO.OHMM :
CALI.CM :
DEN.GM/CC :
SP.MV :
~A
   65.0000    55.1780     0.2100     0.2700     0.0000    23.8670  -999.2500    31.5800 
   65.1250    60.6410     1.0830     0.6310     0.0000    23.8720  -999.2500    22.3040 
   65.2500    67.1450     2.6150     1.3070     0.0000    23.8460  -999.2500    12.4790 
   65.3750    71.8220     4.4970     2.2970     0.0000    23.7440  -999.2500     2.6440 
   65.5000    74.7720     5.7190     3.4860     0.0000    23.6770  -999.2500    -6.7440 
   65.6250    81.0940     6.2480     4.6240     0.0000    23.6540  -999.2500   -15.1060 
   65.7500    90.8550     6.3990     5.5560     0.0000    23.6490  -999.2500   -22.2690 
   65.8750    96.9260     6.5530     6.3610     0.0000    23.6490  -999.2500   -28.1310 
   66.0000    92.7700     7.0500     7.2400     0.0000    23.6380  -999.2500   -32.6780 
   66.1250    82.7790     8.0130     8.3390     0.0000    23.5850  -999.2500   -36.0290 
   66.2500    78.1710     9.1370     9.5190     0.0000    23.4820  -999.2500   -38.6990 
   66.3750    79.4180    10.0940    10.5260     0.0000    23.3760  -999.2500   -41.0400 
   66.5000    81.4100    10.5950    11.0900     0.0000    23.2980  -999.2500   -43.2070 
   66.6250    82.7760    10.4540    10.9900     0.0000    23.2930  -999.2500   -45.3520 
   66.7500    84.8480     9.9600    10.4760     0.0000    23.3390  -999.2500   -47.4180 
   66.8750    85.2560     9.4080     9.8360     0.0000    23.3950  -999.2500   -49.3100 
   67.0000    82.1730     9.0260     9.3140     0.0000    23.3780  -999.2500   -51.0190 
   67.1250    78.6960     8.9420     9.0820     0.0000    23.2440  -999.2500   -52.3150 
   67.2500    77.5520     9.0830     9.1050     0.0000    23.0800  -999.2500   -53.2530 
   67.3750    79.1060     9.3830     9.3310     0.0000    23.0260  -999.2500   -53.9350 
   67.5000    80.5670     9.7770     9.6870     0.0000    23.1230  -999.2500   -54.3820 
   67.6250    79.1010    10.2020    10.0890     0.0000    23.1790  -999.2500   -54.3060 
   67.7500    76.3880    10.5770    10.4400     0.0000    23.1360  -999.2500   -53.8390 
   67.8750    75.9440    10.8120    10.6440     0.0000    23.0720  -999.2500   -53.1070 
   68.0000    79.2230    10.8060    10.6020     0.0000    23.0820  -999.2500   -52.0930 
   68.1250    82.9830    10.4360    10.1960     0.0000    23.1680  -999.2500   -50.7630 
   68.2500    84.3320     9.7830     9.5100     0.0000    23.3230  -999.2500   -49.2130 
   68.3750    84.5010     8.9810     8.6730     0.0000    23.4950  -999.2500   -47.5480 
   68.5000    86.0530     8.2170     7.8630     0.0000    23.6540  -999.2500   -45.8920 
   68.6250    91.2520     7.7240     7.2940     0.0000    23.8310  -999.2500   -44.5490 
   68.7500    95.7360     7.5660     7.0300     0.0000    23.9100  -999.2500   -43.7070 
   68.8750    93.9380     7.7470     7.0880     0.0000    23.8690  -999.2500   -43.2680 
   69.0000    85.2830     8.2110     7.4350     0.0000    23.8060  -999.2500   -43.1520 
   69.1250    75.4190     8.8630     8.0180     0.0000    23.8020  -999.2500   -43.5620 
   69.2500    69.0020     9.5210     8.6690     0.0000    23.7440  -999.2500   -44.2810 
   69.3750    67.9430    10.0420     9.2530     0.0000    23.5910  -999.2500   -45.0770 
   69.5000    69.3870    10.3210     9.6480     0.0000    23.4510  -999.2500   -45.9470 
   69.6250    69.0520    10.2800     9.7380     0.0000    23.3340  -999.2500   -46.6630 
   69.7500    67.5770    10.0350     9.5880     0.0000    23.2400  -999.2500   -46.9660 
   69.8750    69.2080     9.6960     9.2830     0.0000    23.2210  -999.2500   -46.9950 
   70.0000    74.7090     9.3740     8.9240     0.0000    23.2600  -999.2500   -46.8320 
   70.1250    77.0920     9.1660     8.6150     0.0000    23.2500  -999.2500   -46.2970 
   70.2500    75.1030     9.0810     8.3970     0.0000    23.1000  -999.2500   -45.6850 
   70.3750    74.3080     9.0960     8.2750     0.0000    22.8720  -999.2500   -45.0320 
   70.5000    75.9890     9.1670     8.2210     0.0000    22.7580  -999.2500   -44.1710 
   70.6250    74.3620     9.2420     8.1960     0.0000    22.8240  -999.2500   -43.2920 
   70.7500    70.8770     9.2820     8.1610     0.0000    22.8730  -999.2500   -42.5570 
   70.8750    72.1950     9.2650     8.0980     0.0000    22.8750  -999.2500   -41.8030 
   71.0000    79.2550     9.1740     8.0040     0.0000    22.8640  -999.2500   -40.9610 
   71.1250    83.8190     9.0090     7.8850     0.0000    22.9240  -999.2500   -40.2360 
   71.2500    83.5820     8.8640     7.7920     0.0000    23.0140  -999.2500   -39.5930 
   71.3750    82.0660     8.9030     7.8290     0.0000    23.0820  -999.2500   -38.9140 
   71.5000    81.7580     9.3350     8.1410     0.0000    23.1250  -999.2500   -38.2570 
   71.6250    82.3800    10.3710     8.9080     0.0000    23.1710  -999.2500   -37.6360 
   71.7500    81.2300    11.7560     9.9870     0.0000    23.2270  -999.2500   -36.8650 
   71.8750    79.2650    13.0720    11.0910     0.0000    23.3590  -999.2500   -35.9440 
   72.0000    80.8850    13.7980    11.8040     0.0000    23.5900  -999.2500   -35.1010 
   72.1250    88.5420    13.3740    11.6030     0.0000    23.8270  -999.2500   -34.3570 
   72.2500    95.1980    12.0690    10.5950     0.0000    23.9380  -999.2500   -33.5970 
   72.3750    98.0520    10.4140     9.1700     0.0000    23.9110  -999.2500   -33.0660 
   72.5000   100.2200     9.0070     7.8330     0.0000    23.8270  -999.2500   -32.8490 
   72.6250   100.9890     8.2860     6.9940     0.0000    23.7380  -999.2500   -32.7910 
   72.7500    97.0550     8.1170     6.6330     0.0000    23.6000  -999.2500   -33.0200 
   72.8750    91.6120     8.2920     6.6530     0.0000    23.2810  -999.2500   -33.6150 
   73.0000    89.9600     8.5850     6.9100     0.0000    22.7590  -999.2500   -34.2770 
   73.1250    91.4650     8.8430     7.2720     0.0000    22.2380  -999.2500   -34.9640 
   73.2500    91.6650     9.0930     7.6670     0.0000    22.0650  -999.2500   -35.7120 
   73.3750    89.9470     9.4480     8.1290     0.0000    22.1640  -999.2500   -36.2210 
   73.5000    86.1210     9.9920     8.7110     0.0000    22.3730  -999.2500   -36.4010 
   73.6250    80.3670    10.6780     9.3970     0.0000    22.5770  -999.2500   -36.3480 
   73.7500    76.4200    11.2390     9.9960     0.0000    22.8520  -999.2500   -35.8730 
   73.8750    76.4960    11.4140    10.2800     0.0000    23.1290  -999.2500   -35.0100 
   74.0000    80.5840    11.0430    10.0650     0.0000    23.3010  -999.2500   -34.0390 
   74.1250    91.0670    10.1310     9.2760     0.0000    23.3850  -999.2500   -33.0370 
   74.2500   105.0600     9.0680     8.2430     0.0000    23.4820  -999.2500   -31.9730 
   74.3750   117.7080     8.1680     7.2570     0.0000    23.5820  -999.2500   -30.9460 
   74.5000   126.0750     7.6140     6.5140     0.0000    23.6340  -999.2500   -30.1210 
   74.6250   131.2800     7.4540     6.1090     0.0000    23.6440  -999.2500   -29.5360 
   74.7500   131.7450     7.4710     5.9160     0.0000    23.6280  -999.2500   -29.1590 
   74.8750   124.6870     7.4820     5.8190     0.0000    23.5940  -999.2500   -28.9840 
   75.0000   115.4870     7.3560     5.7100     0.0000    23.5690  -999.2500   -28.9980 
   75.1250   115.0710     7.0760     5.5410     0.0000    23.5610  -999.2500   -29.1030 
   75.2500   120.8700     6.8510     5.4050     0.0000    23.5610  -999.2500   -29.2880 
   75.3750   125.2700     6.9340     5.4620     0.0000    23.5590  -999.2500   -29.7150 
   75.5000   123.7680     7.5280     5.8680     0.0000    23.5550  -999.2500   -30.1700 
   75.6250   118.4560     8.7290     6.7590     0.0000    23.5270  -999.2500   -30.6640 
   75.7500   111.0110    10.1870     7.9410     0.0000    23.4440  -999.2500   -31.4210 
   75.8750    99.4630    11.4960     9.1440     0.0000    23.2690  -999.2500   -32.3150 
   76.0000    85.7650    12.2660    10.0340     0.0000    23.0210  -999.2500   -33.1360 
   76.1250    75.9470    12.2330    10.2860     0.0000    22.8870  -999.2500   -34.0220 
