~V
VERS. 2.00: Ver 2.00
~W
STRT.M 57.0000:
STOP.M 290.0000:
STEP.M 0.1250:
NULL. -999.2500:
UWI. DF3043:
~C
DEPT.M :
SP.MV :
DEN.GM/CC :
AC.US/MT :
GR.API :
CALI.CM :
RXO.OHMM :
RI. :
RML.OHMM :
~A
# ...
   77.0000   -25.8050  -999.2500  -999.2500    75.4400    26.7630    10.7840     8.4590     9.7300 
   77.1250   -25.6740  -999.2500  -999.2500    76.5430    26.5660    10.4750     8.1880     9.3500 
   77.2500   -25.4540  -999.2500  -999.2500    75.8970    25.6500     9.7000     7.9910     9.1570 
   77.3750   -25.1710  -999.2500  -999.2500    76.4820    24.3470     9.6390     7.9040     9.1570 
   77.5000   -24.8490  -999.2500  -999.2500    78.3020    23.3220    10.0630     7.8890     9.2660 
   77.6250   -24.5110  -999.2500  -999.2500    79.4700    23.0320    10.1260     7.8580     9.3480 
   77.7500   -24.1620  -999.2500  -999.2500    79.0070    23.0770    10.5900     7.7480     9.3210 
   77.8750   -23.8050  -999.2500  -999.2500    77.6130    23.2040     9.7980     7.5330     9.1530 
   78.0000   -23.4710  -999.2500  -999.2500    76.4110    23.4030     7.7240     7.2100     8.8210 
   78.1250   -23.1950  -999.2500  -999.2500    77.8430    23.5290     6.9150     6.7530     8.2340 
   78.2500   -22.9810  -999.2500  -999.2500    81.2450    23.4440     7.9840     6.1820     7.4200 
   78.3750   -22.8320  -999.2500  -999.2500    85.0710    23.2240     8.6060     5.5740     6.5520 
   78.5000   -22.7600  -999.2500  -999.2500    88.8580    23.0890     7.7910     5.0910     5.9530 
   78.6250   -22.8310  -999.2500  -999.2500    93.4800    23.2200     6.1740     4.9790     6.0620 
   78.7500   -23.0350  -999.2500  -999.2500    96.5810    23.4580     5.8790     5.3210     6.9600 
   78.8750   -23.3500  -999.2500  -999.2500    94.6290    23.6080    11.7430     6.1820     8.6580 
   79.0000   -23.7450  -999.2500  -999.2500    87.3600    23.6080    29.6990     7.5290    10.9500 
   79.1250   -24.2160  -999.2500  -999.2500    78.1160    23.5790    43.4320     9.0180    13.0550 
   79.2500   -24.7910  -999.2500  -999.2500    71.3840    23.5170    37.1610     9.9770    13.9430 
   79.3750   -25.4790  -999.2500  -999.2500    68.5430    23.3160    20.8730    10.0800    13.3560 
   79.5000   -26.2260  -999.2500  -999.2500    67.8180    23.1090    12.0850     9.5490    12.0010 
   79.6250   -26.9200  -999.2500  -999.2500    67.6190    23.2860    11.2000     8.8820    10.8800 
   79.7500   -27.4780  -999.2500  -999.2500    66.4650    23.7610    11.0310     8.4180    10.3460 
   79.8750   -27.8760  -999.2500  -999.2500    64.8290    24.1910    11.0690     8.2150    10.3270 
   80.0000   -28.1180  -999.2500  -999.2500    63.1190    24.3110    11.2960     8.2180    10.6050 
   80.1250   -28.1850  -999.2500  -999.2500    62.5590    24.0710    11.7140     8.3320    10.9460 
   80.2500   -28.1290  -999.2500  -999.2500    63.7550    23.6330    12.0050     8.4220    11.1640 
   80.3750   -27.9620  -999.2500  -999.2500    66.7290    23.0930    11.7250     8.4010    11.1480 
   80.5000   -27.7020  -999.2500  -999.2500    71.8320    22.4940    11.2250     8.2160    10.8340 
   80.6250   -27.3720  -999.2500  -999.2500    77.0840    21.9230    11.1240     7.8660    10.2370 
   80.7500   -27.0230  -999.2500  -999.2500    77.8420    21.5490    10.4760     7.4760     9.6060 
   80.8750   -26.7120  -999.2500  -999.2500    74.3040    21.4940     8.9400     7.1720     9.1810 
   81.0000   -26.4800  -999.2500  -999.2500    71.4220    21.7160     8.0460     7.0780     9.1640 
   81.1250   -26.3520  -999.2500  -999.2500    73.2240    22.1590     8.6260     7.3260     9.7240 
   81.2500   -26.3120  -999.2500  -999.2500    75.2270    22.7260     9.4630     7.8740    10.6960 
   81.3750   -26.3430  -999.2500  -999.2500    74.2190    23.2680     9.8990     8.6230    11.8510 
   81.5000   -26.4370  -999.2500  -999.2500    72.0050    23.6120    10.0970     9.3790    12.8220 
   81.6250   -26.5830  -999.2500  -999.2500    71.0270    23.6810    10.2740     9.8220    13.0930 
   81.7500   -26.7280  -999.2500  -999.2500    71.5120    23.6280    10.3870     9.8460    12.6670 
   81.8750   -26.8440  -999.2500  -999.2500    71.8880    23.5320    10.2230     9.5210    11.8220 
   82.0000   -26.9230  -999.2500  -999.2500    70.4610    23.4790    10.0450     9.0260    10.9270 
   82.1250   -26.9810  -999.2500  -999.2500    68.0670    23.6480    10.0930     8.5490    10.2770 
   82.2500   -27.0300  -999.2500  -999.2500    66.7670    24.0440    10.0120     8.2000     9.9060 
   82.3750   -27.0310  -999.2500  -999.2500    66.6050    24.5070     9.9530     8.0090     9.7780 
   82.5000   -26.9570  -999.2500  -999.2500    66.5520    24.8360    10.1880     7.9530     9.8150 
   82.6250   -26.7830  -999.2500  -999.2500    66.7400    24.9430    10.3730     7.9760     9.9140 
   82.7500   -26.5400  -999.2500  -999.2500    67.4820    24.9550    10.3750     7.9990     9.9650 
   82.8750   -26.2270  -999.2500  -999.2500    67.6740    24.9540    10.6780     7.9890     9.9140 
   83.0000   -25.8080  -999.2500  -999.2500    67.3260    24.9310    11.1480     7.9420     9.7700 
   83.1250   -25.2530  -999.2500  -999.2500    66.5270    24.8260    10.8740     7.9200     9.7110 
   83.2500   -24.6040  -999.2500  -999.2500    65.2150    24.6590    10.3030     8.0580    10.0180 
   83.3750   -23.8920  -999.2500  -999.2500    63.9320    24.4720    10.7480     8.4940    10.8830 
   83.5000   -23.1390  -999.2500  -999.2500    63.1630    24.3100    11.7350     9.2520    12.2490 
   83.6250   -22.3200  -999.2500  -999.2500    63.8390    24.1980    12.8100    10.0910    13.5420 
   83.7500   -21.4450  -999.2500  -999.2500    65.3280    24.1010    18.3400    10.4350    13.7750 
   83.8750   -20.5280  -999.2500  -999.2500    66.6610    23.9810    25.6600     9.8490    12.3870 
   84.0000   -19.6010  -999.2500  -999.2500    71.4780    23.8490    23.1100     8.4480     9.8750 
   84.1250   -18.7130  -999.2500  -999.2500    84.1840    23.9030    10.6300     6.8940     7.5360 
   84.2500   -17.8930  -999.2500  -999.2500    97.8300    24.2130     4.8450     5.7370     6.0650 
   84.3750   -17.2010  -999.2500  -999.2500   103.9890    24.5660     4.4630     5.0880     5.4700 
   84.5000   -16.6850  -999.2500  -999.2500   101.5680    24.5390     4.9830     4.8880     5.5290 
   84.6250   -16.3920  -999.2500  -999.2500    97.8960    23.9090     6.1870     5.0220     5.9260 
   84.7500   -16.2730  -999.2500  -999.2500    97.9880    23.2020     7.0530     5.2120     6.2080 
   84.8750   -16.2790  -999.2500  -999.2500   101.8960    22.7800     6.2030     5.2680     6.1530 
   85.0000   -16.3530  -999.2500  -999.2500   107.7960    22.6190     4.3540     5.1220     5.7890 
   85.1250   -16.4420  -999.2500  -999.2500   109.7220    22.4880     4.2110     4.8350     5.3250 
   85.2500   -16.5070  -999.2500  -999.2500   108.7740    22.3830     4.2900     4.5550     4.9660 
   85.3750   -16.5720  -999.2500  -999.2500   109.2760    22.4600     4.3390     4.3820     4.8100 
   85.5000   -16.6770  -999.2500  -999.2500   111.6160    22.7450     4.3340     4.3810     4.9080 
   85.6250   -16.8730  -999.2500  -999.2500   111.8710    23.0830     4.3680     4.5900     5.3060 
   85.7500   -17.1280  -999.2500  -999.2500   108.2200    23.3470     4.8250     4.9270     5.8910 
   85.8750   -17.3880  -999.2500  -999.2500   102.8520    23.6550     6.3370     5.3090     6.5210 
   86.0000   -17.6450  -999.2500  -999.2500    97.2930    24.1570     7.4140     5.6170     6.9820 
   86.1250   -17.9410  -999.2500  -999.2500    93.5930    24.8090     7.3770     5.6940     7.0230 
   86.2500   -18.2910  -999.2500  -999.2500    94.4160    25.2870     6.4840     5.5520     6.7350 
   86.3750   -18.6740  -999.2500  -999.2500    98.7870    25.3830     6.3240     5.2910     6.3280 
   86.5000   -19.0450  -999.2500  -999.2500   103.5160    25.1100     6.4280     5.0380     6.0150 
   86.6250   -19.3910  -999.2500  -999.2500   105.5350    24.5550     6.1600     4.9090     5.9410 
   86.7500   -19.7520  -999.2500  -999.2500   105.3260    23.8980     6.1660     4.9050     6.0480 
   86.8750   -20.1580  -999.2500  -999.2500   103.6710    23.3080     6.4210     4.9840     6.2540 
