~V
VERS. 2.00: Ver 2.00
~W
STRT.M 64.0000:
STOP.M 264.0000:
STEP.M 0.1250:
NULL. -999.2500:
UWI. DF3031:
~C
DEPT.M :
DEN.GM/CC :
AC.US/MT :
GR.API :
CALI.CM :
RXO.OHMM :
RI. :
RML.OHMM :
SP.MV :
~A
# ...
  214.0000     2.2970   388.8020    71.3840    24.9300    47.2730   111.3850   124.5190   -20.8950 
  214.1250     2.2930   389.6700    71.7840    24.8180    50.8920   106.3930   117.8380   -20.7630 
  214.2500     2.2900   389.0220    72.4910    24.8890    55.6770    99.9100   109.7720   -20.6390 
  214.3750     2.2810   387.1230    73.6900    25.1000    58.7320    92.8450   101.3820   -20.5250 
  214.5000     2.2690   384.5770    73.9600    25.3490    59.5120    85.9470    93.4210   -20.4190 
  214.6250     2.2630   382.0920    72.6790    25.6550    59.2990    79.8780    86.5260   -20.3300 
  214.7500     2.2630   380.2290    72.0090    25.9770    58.8150    74.7980    80.7740   -20.2490 
  214.8750     2.2600   379.3730    70.6790    26.1940    57.8820    70.7780    76.2220   -20.1650 
  215.0000     2.2480   379.6370    67.8940    26.2610    56.4210    67.8080    72.8520   -20.0860 
  215.1250     2.2290   380.5750    66.9080    26.2560    54.4670    66.0020    70.7580   -20.0190 
  215.2500     2.2190   380.9330    68.2160    26.2450    52.7690    65.0840    69.6120   -19.9730 
  215.3750     2.2240   379.7410    68.7240    26.2070    52.1840    64.9150    69.2650   -19.9200 
  215.5000     2.2410   376.6870    66.4680    26.1490    52.8450    65.3160    69.5420   -19.8770 
  215.6250     2.2620   372.1800    65.0480    26.1100    53.6870    66.0910    70.2400   -19.8120 
  215.7500     2.2770   367.3730    65.7110    26.0970    53.5270    66.8560    70.9360   -19.7690 
  215.8750     2.2800   362.7360    65.6500    26.0810    52.1470    67.2470    71.2090   -19.7370 
  216.0000     2.2720   358.3650    63.6280    26.0540    50.1280    66.8740    70.6290   -19.7020 
  216.1250     2.2620   354.5640    61.8070    26.0610    48.6410    65.2690    68.7360   -19.6510 
  216.2500     2.2570   351.9550    62.1620    26.1040    47.8630    62.6530    65.8460   -19.6050 
  216.3750     2.2530   351.2480    63.7890    26.1360    46.7290    59.3820    62.4070   -19.5660 
  216.5000     2.2510   352.5950    65.6100    26.1260    44.6320    56.0180    59.0680   -19.5330 
  216.6250     2.2580   355.2780    67.8550    26.1010    42.9520    53.4430    56.8210   -19.5180 
  216.7500     2.2730   357.6430    69.9450    26.1080    42.5490    52.2270    56.2150   -19.5190 
  216.8750     2.2870   358.7460    70.9390    26.1250    42.8190    52.7610    57.6340   -19.5390 
  217.0000     2.2870   358.3450    70.9550    26.1060    43.9650    55.2280    61.2150   -19.5810 
  217.1250     2.2700   356.5540    70.9020    26.0320    48.1480    59.7040    66.9110   -19.6350 
  217.2500     2.2450   353.9100    69.9510    25.9500    53.7770    65.1140    73.4440   -19.6910 
  217.3750     2.2210   350.5980    68.0520    25.9060    57.2640    70.4340    79.6370   -19.7580 
  217.5000     2.2020   347.0050    66.4850    25.9090    57.5300    74.7760    84.5360   -19.8300 
  217.6250     2.1970   344.3490    64.7340    25.9200    56.9010    77.5640    87.6160   -19.9120 
  217.7500     2.2030   343.9860    62.3680    25.8510    56.2800    79.3950    89.7360   -19.9740 
  217.8750     2.2160   346.7890    60.5690    25.6630    54.8180    80.9460    91.7300   -20.0280 
  218.0000     2.2300   352.5360    61.2290    25.4240    52.8710    82.6970    94.0930   -20.0710 
  218.1250     2.2410   359.6900    64.3490    25.2520    51.9350    84.5470    96.5840   -20.1300 
  218.2500     2.2450   365.6930    67.9550    25.2050    52.8140    85.8670    98.4270   -20.1760 
  218.3750     2.2440   368.9970    70.0380    25.2930    55.9110    86.1190    99.0370   -20.2020 
  218.5000     2.2400   369.1090    69.3990    25.4840    60.6340    85.0830    98.2520   -20.2140 
  218.6250     2.2420   366.2670    69.4290    25.7250    64.9510    83.0040    96.4840   -20.2230 
  218.7500     2.2490   362.1210    70.8010    25.9790    67.3410    80.8940    94.8990   -20.2430 
  218.8750     2.2510   357.6290    71.2350    26.2470    68.3960    79.4720    94.2920   -20.2470 
  219.0000     2.2410   353.2780    69.3560    26.4990    69.9540    79.1360    95.0610   -20.2430 
  219.1250     2.2200   348.7820    67.9680    26.6400    73.4120    80.0880    97.3360   -20.2080 
  219.2500     2.2040   343.0770    68.0070    26.6400    76.9550    81.7050   100.2290   -20.1790 
  219.3750     2.1960   334.7880    66.7070    26.5390    78.6920    83.2440   102.7200   -20.1590 
  219.5000     2.1870   322.7270    64.5380    26.4450    78.7350    84.0400   103.9880   -20.1520 
  219.6250     2.1770   306.0200    63.4550    26.4500    78.9430    83.9280   103.9610   -20.1430 
  219.7500     2.1820   286.9110    61.9420    26.5080    79.1380    83.7030   103.8760   -20.1460 
  219.8750     2.2100   268.3530    60.2330    26.5600    78.8460    84.1350   104.8290   -20.1800 
  220.0000     2.2480   254.0960    60.2920    26.5720    81.0990    85.7830   107.5120   -20.2320 
  220.1250     2.2570   249.3540    64.5650    26.4420    87.6200    88.5960   111.6440   -20.3060 
  220.2500     2.2340   254.5630    68.4650    26.1080    89.6320    90.8660   114.7600   -20.3840 
  220.3750     2.2050   268.5460    69.2170    25.6560    82.7790    90.6140   114.1260   -20.4630 
  220.5000     2.1920   287.8340    67.7050    25.2960    72.5660    86.6060   108.2470   -20.5140 
  220.6250     2.1950   307.2710    67.1590    25.1760    65.1120    78.9580    97.8170   -20.5360 
  220.7500     2.1940   322.7350    69.0120    25.1740    58.0810    70.3700    86.7110   -20.4980 
  220.8750     2.1850   327.8780    71.7060    25.2040    51.3230    62.7880    77.3480   -20.4100 
  221.0000     2.1760   338.7070    72.6470    25.2730    47.6230    57.2800    70.8020   -20.2870 
  221.1250     2.1750   341.9560    71.9080    25.4450    47.6220    54.2800    67.4070   -20.1460 
  221.2500     2.1840   345.2200    71.6020    25.7210    48.0860    52.9730    66.0420   -19.9760 
  221.3750     2.1960   349.5550    71.6470    26.0310    48.3340    52.8710    66.0060   -19.7790 
  221.5000     2.2060   355.2410    71.6320    26.2550    49.1790    53.4230    66.5390   -19.5810 
  221.6250     2.2150   362.0380    70.2620    26.3230    50.7270    54.0240    66.8850   -19.4010 
  221.7500     2.2260   368.8140    69.4740    26.3250    51.5980    54.2840    66.7240   -19.2530 
  221.8750     2.2350   374.2900    70.4360    26.3300    51.0170    54.0860    66.0240   -19.1120 
  222.0000     2.2350   377.0320    72.2780    26.3560    49.2890    53.3960    64.8090   -18.9770 
  222.1250     2.2310   375.2250    74.1940    26.3990    47.3100    52.1490    63.0420   -18.8450 
  222.2500     2.2380   369.5450    75.5400    26.4450    45.5410    50.5320    60.9260   -18.7190 
  222.3750     2.2570   361.3250    76.5050    26.4770    43.7820    48.7310    58.6530   -18.6010 
  222.5000     2.2810   352.6610    78.5620    26.4920    41.8400    46.9580    56.4300   -18.4940 
  222.6250     2.2900   345.9740    81.5170    26.4970    40.1000    45.4740    54.5070   -18.3920 
  222.7500     2.2730   341.6070    82.2870    26.4740    39.3720    44.4280    53.0350   -18.2840 
  222.8750     2.2370   338.3870    79.4340    26.4050    40.1340    44.0000    52.2570   -18.1660 
  223.0000     2.2170   334.1770    76.1740    26.3090    41.7210    44.4040    52.5260   -18.0330 
  223.1250     2.2660   326.4410    75.4930    26.2280    43.2100    46.1570    54.6740   -17.8490 
  223.2500     2.3660   315.4990    73.9130    26.1690    46.1430    49.5510    59.0700   -17.6340 
  223.3750     2.4710   303.1030    70.9710    26.1200    53.6020    54.8030    65.7300   -17.3750 
  223.5000     2.5410   291.9950    68.2450    26.0500    66.7900    60.8560    72.9100   -17.0560 
  223.6250     2.5680   285.7180    66.0290    25.9620    85.8040    62.9120    74.2400   -16.6640 
  223.7500     2.5860   285.0140    65.0120    25.9170   106.8930    56.5090    65.0420   -16.2190 
  223.8750     2.5930   289.6480    66.1130    25.9470   104.1140    42.5530    47.5220   -15.7640 
