~V
VERS. 2.00: Ver 2.00
~W
STRT.M 60.0000:
STOP.M 250.0000:
STEP.M 0.1250:
NULL. -999.2500:
UWI. DF3018:
~C
DEPT.M :
DEN.GM/CC :
GR.API :
RML.OHMM :
RI. :
RXO.OHMM :
CALI.CM :
SP.MV :
~A
# ...
  105.0000  -999.2500    69.7520    10.8080     8.7940    10.6880    23.2420   -18.6160 
  105.1250  -999.2500    72.3650    10.4160     8.4530    10.5110    23.1410   -18.4300 
  105.2500  -999.2500    73.7160    10.1380     8.1950    10.1600    23.1120   -18.1910 
  105.3750  -999.2500    74.0520    10.0120     8.0520     9.7070    23.1120   -17.8850 
  105.5000  -999.2500    75.7960    10.0440     8.0340     9.2240    23.1260   -17.5050 
  105.6250  -999.2500    78.2700    10.1880     8.1170     8.8150    23.1570   -17.0060 
  105.7500  -999.2500    79.0690    10.3010     8.2020     8.6060    23.1830   -16.3700 
  105.8750  -999.2500    81.2340    10.2440     8.1850     8.5950    23.2040   -15.6280 
  106.0000  -999.2500    87.8540     9.9150     7.9830     8.6160    23.2670   -14.8130 
  106.1250  -999.2500    95.8050     9.2810     7.5390     8.4610    23.4510   -13.9650 
  106.2500  -999.2500   100.5950     8.5270     6.9630     7.8560    23.8490   -13.1620 
  106.3750  -999.2500   104.5440     7.8290     6.3800     6.8310    24.4260   -12.4470 
  106.5000  -999.2500   109.9960     7.3340     5.9140     5.6500    24.9520   -11.8470 
  106.6250  -999.2500   112.4550     7.1730     5.6890     5.2350    25.1300   -11.4060 
  106.7500  -999.2500   108.9540     7.2780     5.6870     5.3300    24.9590   -11.1390 
  106.8750  -999.2500   105.8310     7.5540     5.8590     5.6920    24.7070   -11.0180 
  107.0000  -999.2500   107.7000     7.8690     6.1150     6.0730    24.5460   -10.9990 
  107.1250  -999.2500   109.9080     8.0690     6.3310     6.3930    24.4330   -11.0760 
  107.2500  -999.2500   107.7650     8.1090     6.4350     6.6220    24.3430   -11.1660 
  107.3750  -999.2500   104.2040     8.0230     6.4270     6.8800    24.3090   -11.2430 
  107.5000  -999.2500   102.1100     7.9010     6.3560     6.8110    24.3440   -11.2980 
  107.6250  -999.2500    99.6700     7.8330     6.2860     6.2300    24.3170   -11.3340 
  107.7500  -999.2500    98.3360     7.8240     6.2410     5.9300    24.1350   -11.3650 
  107.8750  -999.2500    99.2860     7.8240     6.2020     5.8830    23.8770   -11.3950 
  108.0000  -999.2500    99.9360     7.7810     6.1400     5.9780    23.6950   -11.4750 
  108.1250  -999.2500   101.2140     7.6700     6.0420     6.0360    23.8070   -11.5950 
  108.2500  -999.2500   106.6690     7.5510     5.9440     5.8930    24.1220   -11.7890 
  108.3750  -999.2500   114.1770     7.5010     5.8960     5.7970    24.4100   -12.0790 
  108.5000  -999.2500   117.8460     7.5790     5.9470     5.9100    24.5580   -12.4270 
  108.6250  -999.2500   114.7700     7.8260     6.1370     6.3130    24.5340   -12.8590 
  108.7500  -999.2500   109.5210     8.1780     6.4260     6.8810    24.4450   -13.3000 
  108.8750  -999.2500   105.1000     8.5720     6.7660     7.4210    24.2700   -13.7270 
  109.0000  -999.2500   102.4330     8.9410     7.1060     8.2980    23.9720   -14.1170 
  109.1250  -999.2500   101.8690     9.2200     7.3840     9.2750    23.5760   -14.4450 
  109.2500  -999.2500   101.5140     9.4000     7.5760     9.1930    23.3590   -14.6820 
  109.3750  -999.2500    99.2570     9.4850     7.6730     8.0560    23.3020   -14.8040 
  109.5000  -999.2500    95.9850     9.4750     7.6660     7.5590    23.3510   -14.8250 
  109.6250  -999.2500    95.6780     9.3360     7.5310     7.5460    23.5050   -14.7700 
  109.7500  -999.2500    97.4460     9.0790     7.2930     7.6190    23.6970   -14.7090 
  109.8750  -999.2500    99.6210     8.7380     6.9890     7.4700    23.8540   -14.7170 
  110.0000  -999.2500   101.1990     8.4040     6.6930     7.3250    23.9560   -14.8250 
  110.1250  -999.2500   104.1930     8.2680     6.5420     7.1640    24.0620   -15.0600 
  110.2500  -999.2500   104.9140     8.4570     6.6300     6.8980    24.1310   -15.4540 
  110.3750  -999.2500   101.0320     9.0200     7.0060     6.8750    24.1140   -15.9850 
  110.5000  -999.2500    94.0610     9.8850     7.6400     7.3060    24.0030   -16.6500 
  110.6250     2.2160    89.8510    10.8410     8.4190     8.1340    23.8470   -17.4270 
  110.7500     2.2160    89.8150    11.5830     9.1200     9.1010    23.6810   -18.2490 
  110.8750     2.1950    88.4470    11.9130     9.5760     9.8730    23.4800   -19.0440 
  111.0000     2.1650    83.9780    11.7960     9.7120    10.0600    23.2810   -19.7450 
  111.1250     2.1490    83.3070    11.3830     9.5670     9.9000    23.1880   -20.3630 
  111.2500     2.1470    85.8760    11.0020     9.3660     9.8810    23.1780   -20.8560 
  111.3750     2.1560    84.9350    10.8280     9.2530     9.8930    23.1790   -21.2390 
  111.5000     2.1710    80.9050    10.9120     9.2970     9.8740    23.1700   -21.5090 
  111.6250     2.1830    80.2760    11.1940     9.4800     9.9330    23.1360   -21.6400 
  111.7500     2.1890    81.5900    11.4770     9.6710    10.3310    23.0750   -21.6550 
  111.8750     2.1870    80.5460    11.6190     9.7650    10.7490    23.0320   -21.5700 
  112.0000     2.1820    77.1750    11.5430     9.6960    10.8730    23.0470   -21.4110 
  112.1250     2.1810    76.6220    11.2220     9.4360    10.6680    23.1390   -21.1410 
  112.2500     2.1870    79.5330    10.7610     9.0620    10.0890    23.2240   -20.8100 
  112.3750     2.1980    81.7980    10.2380     8.6430     9.4420    23.2400   -20.4100 
  112.5000     2.2070    80.2420     9.7570     8.2570     9.0540    23.1600   -19.9460 
  112.6250     2.2070    77.0680     9.5430     8.0660     8.9090    22.9930   -19.3920 
  112.7500     2.2010    77.3900     9.7870     8.2110     8.9060    22.7910   -18.7740 
  112.8750     2.2020    79.5580    10.5950     8.7880     9.3070    22.6460   -18.0740 
  113.0000     2.2270    79.6350    11.8430     9.7410    10.3600    22.6590   -17.2970 
  113.1250     2.2880    78.2040    13.0660    10.7590    12.4510    22.9450   -16.4670 
  113.2500     2.3650    77.4130    13.6380    11.3590    15.6920    23.3810   -15.6040 
  113.3750     2.4260    80.1640    13.1670    11.2060    20.9170    23.7770   -14.7540 
  113.5000     2.4450    88.0790    11.7210    10.2610    23.7900    24.0300   -13.9650 
  113.6250     2.4110    97.9370     9.9370     8.8680    14.2150    24.0990   -13.3010 
  113.7500     2.3580   102.5450     8.5870     7.6290     7.5150    23.9990   -12.7230 
  113.8750     2.3090   100.0760     7.8990     6.8080     5.8720    23.6510   -12.2270 
  114.0000     2.2760    95.2930     7.7860     6.4420     5.8750    23.2550   -11.8410 
  114.1250     2.2620    94.5580     8.0260     6.4560     6.1150    23.1610   -11.5340 
  114.2500     2.2600    98.7750     8.2630     6.5920     6.2050    23.3460   -11.2700 
  114.3750     2.2670   104.9760     8.3040     6.6820     6.1020    23.6720   -11.0340 
  114.5000     2.2810   109.0990     8.0950     6.6310     5.9220    24.0290   -10.8030 
  114.6250     2.2970   108.2350     7.7320     6.4400     5.6570    24.2930   -10.5930 
  114.7500     2.3090   106.9360     7.4120     6.2280     5.3660    24.4470   -10.4340 
  114.8750     2.3120   107.1710     7.2410     6.0810     5.1120    24.4510   -10.3580 
  115.0000     2.3080   106.4460     7.2560     6.0460     5.0060    24.3280   -10.3390 
  115.1250     2.3030   103.0310     7.4440     6.1290     5.0970    24.1110   -10.4100 
  115.2500     2.2990    99.8440     7.6780     6.2520     5.3850    23.7600   -10.4830 
  115.3750     2.2990    97.9920     7.8560     6.3460     5.6760    23.3550   -10.5560 
  115.5000     2.3010    97.7870     7.8990     6.3550     5.9110    22.9750   -10.6200 
  115.6250     2.3030   103.2420     7.7780     6.2520     6.0120    22.8220   -10.6890 
  115.7500     2.3070   111.6820     7.5940     6.0920     5.8950    22.8440   -10.7360 
  115.8750     2.3150   114.0850     7.4390     5.9310     5.6050    22.8890   -10.7790 
  116.0000     2.3320   109.7430     7.3600     5.8040     5.2900    22.9030   -10.8280 
  116.1250     2.3550   105.9770     7.3280     5.7070     5.2750    22.9110   -10.8960 
