~V
VERS. 2.00: Ver 2.00
~W
STRT.M 125.0000:
STOP.M 275.0000:
STEP.M 0.1250:
NULL. -999.2500:
UWI. DF3074:
~C
DEPT.M :
GR.API :
CALI.CM :
RXO.OHMM :
RI. :
RML.OHMM :
DEN.GM/CC :
SP.MV :
~A
# ...
  237.5000    69.8770    25.6960    43.4470    65.7890    78.3790     2.2050   -11.2950 
  237.6250    66.5990    25.7010    40.6820    64.8260    77.7240     2.2080   -11.3330 
  237.7500    65.1770    25.6990    45.3560    67.5050    81.2110     2.2020   -11.3390 
  237.8750    66.3800    25.7120    55.2890    72.7090    87.6000     2.1940   -11.3110 
  238.0000    67.4420    25.7400    65.1330    78.8460    94.9570     2.1910   -11.3530 
  238.1250    66.6460    25.7340    70.2050    83.6570   100.2840     2.1910   -11.3440 
  238.2500    65.9430    25.7020    72.8630    85.7680   101.8990     2.1890   -11.3970 
  238.3750    67.7430    25.6540    73.7360    84.6700    99.3940     2.1810   -11.4610 
  238.5000    71.8090    25.6020    72.6700    80.6460    93.4620     2.1750   -11.5000 
  238.6250    73.7120    25.5310    69.7010    74.6610    85.7000     2.1810   -11.5670 
  238.7500    73.1640    25.4730    64.6680    68.7690    78.6170     2.2020   -11.6530 
  238.8750    71.3590    25.4150    55.5240    64.4870    73.8640     2.2270   -11.7560 
  239.0000    69.9090    25.3310    43.7340    63.0630    72.6170     2.2440   -11.8360 
  239.1250    69.4480    25.2900    47.1470    66.1720    76.4650     2.2480   -11.9100 
  239.2500    69.6530    25.3070    68.4130    73.5930    85.0750     2.2460   -12.0050 
  239.3750    69.5470    25.3390    97.6850    84.8650    98.0920     2.2470   -12.0670 
  239.5000    67.4090    25.3360   116.0600    98.4610   113.9020     2.2540   -12.1370 
  239.6250    64.0600    25.3620   115.0470   110.7290   127.6500     2.2610   -12.2120 
  239.7500    62.5050    25.4370   112.6580   117.5460   133.5050     2.2610   -12.2940 
  239.8750    63.4470    25.5130   111.7140   116.6200   128.8770     2.2610   -12.2990 
  240.0000    65.4570    25.5560   105.6730   108.4290   115.9170     2.2660   -12.2020 
  240.1250    66.2980    25.5700    85.0750    95.4250    99.3460     2.2730   -12.1770 
  240.2500    66.3010    25.5540    61.6960    81.9500    83.9730     2.2710   -12.0890 
  240.3750    68.6930    25.5360    45.1130    70.2250    71.5070     2.2570   -11.9740 
  240.5000    73.3120    25.5510    37.6630    61.0170    62.0250     2.2360   -11.9320 
  240.6250    77.0070    25.5840    37.4150    54.2430    55.0320     2.2220   -11.9100 
  240.7500    77.2420    25.5920    38.5700    48.8960    49.4120     2.2220   -11.8770 
  240.8750    75.4680    25.5310    37.3280    44.7320    44.9540     2.2330   -11.8930 
  241.0000    73.5910    25.4250    32.1580    41.8560    41.8510     2.2450   -12.0120 
  241.1250    72.3000    25.3120    27.8350    41.0500    41.0120     2.2480   -12.1510 
  241.2500    73.6450    25.2400    29.0930    42.7020    42.8280     2.2310   -12.2650 
  241.3750    77.9980    25.2390    37.8660    47.4770    47.9050     2.2080   -12.4110 
  241.5000    80.4290    25.2770    53.5670    56.0020    56.8120     2.1890   -12.5760 
  241.6250    76.5300    25.3000    74.5250    69.1740    70.6340     2.1830   -12.7420 
  241.7500    70.1790    25.3250    98.2870    85.3590    88.0700     2.1850   -12.9780 
  241.8750    66.4040    25.3920   124.5040   102.1270   106.8140     2.1880   -13.2530 
  242.0000    65.3140    25.4980   153.2260   115.8300   122.5690     2.1880   -13.4830 
  242.1250    65.1740    25.5640   169.3830   121.3580   128.5170     2.1860   -13.6480 
  242.2500    64.6130    25.5760   167.6830   118.4430   124.2020     2.1860   -13.8240 
  242.3750    64.2800    25.5620   155.5600   109.0390   112.8510     2.1910   -14.0380 
  242.5000    65.6230    25.5240   140.2880    96.9850    99.6400     2.2120   -14.2810 
  242.6250    69.3870    25.4150   114.3590    86.7210    89.3880     2.2510   -14.4520 
  242.7500    73.4300    25.1430    86.1370    80.4550    83.5990     2.2930   -14.4970 
  242.8750    76.2540    24.6740    71.2020    78.8360    82.5700     2.3040   -14.4940 
  243.0000    77.5490    24.4280    72.8660    81.7280    86.0680     2.2760   -14.5520 
  243.1250    77.5750    24.6630    84.6170    88.8380    93.8380     2.2300   -14.6580 
  243.2500    75.5190    25.1190   101.2430    97.5200   103.1630     2.2030   -14.7390 
  243.3750    71.2860    25.5180   122.6520   104.9320   110.8230     2.2020   -14.7480 
  243.5000    65.7560    25.6780   140.9150   108.2620   113.4750     2.2190   -14.6470 
  243.6250    63.3970    25.6290   135.9300   105.4370   109.0070     2.2440   -14.5740 
  243.7500    65.6670    25.5950   109.4630    98.9510   100.9360     2.2540   -14.6000 
  243.8750    69.1510    25.5740    80.6380    91.6180    92.6890     2.2430   -14.6470 
  244.0000    70.4890    25.5640    63.8850    85.8390    86.6770     2.2210   -14.6180 
  244.1250    67.8980    25.5650    60.2470    82.9770    83.9720     2.2090   -14.4750 
  244.2500    64.3710    25.5650    65.7590    81.8940    83.0790     2.2180   -14.3250 
  244.3750    62.1230    25.5640    86.9220    81.2550    82.4830     2.2390   -14.2520 
  244.5000    62.2650    25.5600   111.5830    79.9590    80.9850     2.2660   -14.2740 
  244.6250    64.3100    25.5280   101.1400    77.8090    78.4760     2.3010   -14.2790 
  244.7500    67.4280    25.4760    69.7830    75.9640    76.3540     2.3460   -14.2120 
  244.8750    71.7340    25.4280    50.9660    75.3970    75.7020     2.3870   -14.0780 
  245.0000    74.7820    25.3890    54.3700    76.3610    76.8010     2.4070   -13.8930 
  245.1250    74.5220    25.3290    77.3080    78.1390    78.9110     2.3980   -13.7870 
  245.2500    73.5270    25.2760    94.9860    79.0470    80.1010     2.3610   -13.7800 
  245.3750    74.2080    25.2150    89.4200    77.8150    78.8350     2.3220   -13.7670 
  245.5000    77.0080    25.1820    67.7520    74.1270    74.7890     2.3040   -13.7250 
  245.6250    80.3610    25.2320    51.3560    68.9710    69.2870     2.3160   -13.6500 
  245.7500    82.8600    25.2830    43.6120    64.4230    64.6460     2.3430   -13.5750 
  245.8750    83.6830    25.2920    40.9450    61.7260    62.0980     2.3610   -13.5330 
  246.0000    83.4040    25.2840    43.5050    61.4770    62.1710     2.3630   -13.4980 
  246.1250    82.9160    25.3280    49.6610    64.0690    65.2810     2.3590   -13.3660 
  246.2500    81.6620    25.3240    59.7090    68.4720    70.4320     2.3730   -13.1140 
  246.3750    79.6740    25.2260    72.7780    73.5790    76.5250     2.4110   -12.7840 
  246.5000    78.5970    25.0980    81.0620    77.9640    81.9590     2.4520   -12.4150 
  246.6250    79.5450    25.0690    77.7740    80.0420    84.7550     2.4720   -12.0940 
  246.7500    80.2880    25.0910    69.5640    79.9540    84.9650     2.4670   -11.8070 
  246.8750    79.7400    25.1440    64.6730    78.3650    83.4060     2.4620   -11.4810 
  247.0000    79.1950    25.1690    62.4180    76.2570    81.2890     2.4690   -11.1040 
  247.1250    79.6370    25.1040    67.9890    74.8540    80.0620     2.4880   -10.7600 
  247.2500    79.8470    24.9510    71.0240    74.9160    80.5970     2.5160   -10.4900 
  247.3750    79.7630    24.8470    67.9490    76.8900    83.4650     2.5510   -10.2740 
  247.5000    80.9130    24.8150    61.2920    80.7550    88.7340     2.5860   -10.0720 
  247.6250    80.3430    24.8070    74.2140    84.5280    93.8690     2.6120    -9.7980 
  247.7500    75.3990    24.8690   103.8050    83.3390    91.8990     2.6230    -9.4900 
  247.8750    68.7320    25.0240   118.3070    73.1520    77.7950     2.6210    -9.2270 
  248.0000    63.8730    25.1710    93.7540    55.4460    55.9420     2.5970    -9.0840 
  248.1250    62.4410    25.2210    49.2660    37.6170    36.8100     2.5450    -9.0730 
  248.2500    63.4130    25.2690    21.4250    24.6610    23.9020     2.4720    -9.1720 
  248.3750    66.4920    25.3160    10.6790    16.7390    16.2060     2.4090    -9.3920 
  248.5000    69.5860    25.3660     8.0130    12.4350    12.0310     2.3660    -9.7060 
  248.6250    70.0240    25.3970     8.1810    10.5010    10.2540     2.3380   -10.1550 
