~V
VERS. 2.00: Ver 2.00
~W
STRT.M 61.0000:
STOP.M 276.0000:
STEP.M 0.1250:
NULL. -999.2500:
UWI. DF3051:
~C
DEPT.M :
SP.MV :
GR.API :
CALI.CM :
RXO.OHMM :
RI. :
RML.OHMM :
DEN.GM/CC :
~A
# ...
  106.0000   -28.6980    66.1060    25.4390     8.7240     7.1710     9.1260     2.1530 
  106.1250   -28.5360    65.0180    25.4400     8.6550     6.9920     8.9210     2.1520 
  106.2500   -28.3340    63.2140    25.4240     8.4890     6.9090     8.8550     2.1490 
  106.3750   -28.1190    62.5280    25.3910     8.2240     6.8910     8.8570     2.1470 
  106.5000   -27.9010    63.8090    25.3530     7.9390     6.8900     8.8500     2.1490 
  106.6250   -27.6540    64.5420    25.3330     7.7210     6.8300     8.7240     2.1630 
  106.7500   -27.3240    64.0850    25.3520     7.5700     6.6660     8.4290     2.1860 
  106.8750   -26.8370    66.7310    25.4240     7.3550     6.3900     7.9710     2.2180 
  107.0000   -26.2540    73.7580    25.5610     6.8830     6.0390     7.4290     2.2570 
  107.1250   -25.6290    80.1500    25.7390     6.1730     5.6850     6.9400     2.2940 
  107.2500   -24.9910    82.4950    25.8900     5.6300     5.3890     6.5770     2.3140 
  107.3750   -24.3530    82.6540    25.9810     5.4430     5.1610     6.3220     2.3050 
  107.5000   -23.7360    83.2390    26.0230     5.4500     4.9660     6.0850     2.2760 
  107.6250   -23.1840    83.8430    26.0390     5.3680     4.7470     5.7450     2.2600 
  107.7500   -22.7530    84.2280    26.0500     5.1760     4.4920     5.3140     2.2750 
  107.8750   -22.5110    84.5470    26.0580     4.9680     4.2430     4.9120     2.3120 
  108.0000   -22.4440    86.6510    26.0500     4.8460     4.0800     4.7080     2.3460 
  108.1250   -22.5400    88.8130    25.9730     5.1380     4.1180     4.9070     2.3550 
  108.2500   -22.7710    85.3850    25.8080     6.0680     4.3760     5.5070     2.3380 
  108.3750   -23.1210    77.0950    25.5970     7.4670     4.8540     6.4560     2.3070 
  108.5000   -23.5530    71.2680    25.4230     8.7010     5.5100     7.6040     2.2710 
  108.6250   -24.0280    72.1270    25.3550     9.1390     6.2440     8.6790     2.2370 
  108.7500   -24.5370    71.9200    25.3610     9.2310     6.9000     9.4720     2.2180 
  108.8750   -25.0840    67.0880    25.4050     9.9030     7.3880     9.9410     2.2230 
  109.0000   -25.6390    63.2610    25.4540    11.8430     7.6990    10.1780     2.2470 
  109.1250   -26.1420    65.3270    25.4120    13.9770     7.8690    10.3010     2.2670 
  109.2500   -26.5920    68.1310    25.2070    14.0080     7.9720    10.3940     2.2700 
  109.3750   -27.0010    67.2910    24.8870    12.0320     8.0220    10.4520     2.2640 
  109.5000   -27.3990    64.2810    24.6050    10.0990     8.0180    10.4610     2.2590 
  109.6250   -27.7970    64.8150    24.4890     9.5420     7.9570    10.4170     2.2550 
  109.7500   -28.1590    67.8750    24.4640     9.4870     7.8720    10.3540     2.2430 
  109.8750   -28.4460    70.2720    24.4560     9.4170     7.7900    10.2950     2.2230 
  110.0000   -28.6180    70.1820    24.4580     9.2940     7.7340    10.2630     2.2070 
  110.1250   -28.7030    68.0350    24.4890     9.2160     7.7220    10.2690     2.2070 
  110.2500   -28.7850    66.3720    24.5420     9.2230     7.7400    10.2960     2.2220 
  110.3750   -28.8470    65.8840    24.6170     9.2590     7.7660    10.3160     2.2430 
  110.5000   -28.8340    66.3390    24.7330     9.2120     7.7620    10.2890     2.2530 
  110.6250   -28.7180    67.6910    24.9040     8.9640     7.6790    10.1720     2.2350 
  110.7500   -28.4660    69.4670    25.0490     8.5630     7.5180     9.9770     2.2030 
  110.8750   -28.0690    70.6860    25.0660     8.1440     7.3050     9.7300     2.1730 
  111.0000   -27.6300    70.9870    24.9350     7.8720     7.0830     9.4730     2.1560 
  111.1250   -27.2540    70.1660    24.7650     7.8290     6.9040     9.2630     2.1550 
  111.2500   -26.9310    68.3010    24.6740     7.8580     6.7870     9.1210     2.1600 
  111.3750   -26.6900    66.8010    24.6600     7.8620     6.7310     9.0510     2.1620 
  111.5000   -26.5500    67.5690    24.6620     7.8560     6.7230     9.0350     2.1610 
  111.6250   -26.4910    70.4260    24.6470     7.9060     6.7420     9.0510     2.1610 
  111.7500   -26.5280    69.9280    24.6350     8.0030     6.7590     9.0750     2.1620 
  111.8750   -26.6810    64.6440    24.6490     8.1130     6.7640     9.0980     2.1600 
  112.0000   -26.9200    59.9920    24.6820     8.2010     6.7530     9.1120     2.1540 
  112.1250   -27.2180    62.4030    24.7060     8.2230     6.7300     9.1060     2.1510 
  112.2500   -27.5530    66.9700    24.7240     8.2010     6.7070     9.0790     2.1530 
  112.3750   -27.9230    68.0570    24.7750     8.2070     6.6960     9.0490     2.1550 
  112.5000   -28.3110    65.8780    24.9000     8.3070     6.7100     9.0460     2.1530 
  112.6250   -28.7100    65.6500    25.0960     8.4980     6.7520     9.0920     2.1500 
  112.7500   -29.0810    66.7740    25.2770     8.6660     6.8010     9.1600     2.1430 
  112.8750   -29.3800    66.7510    25.3810     8.7270     6.8350     9.2060     2.1330 
  113.0000   -29.5660    65.9040    25.3980     8.6730     6.8300     9.1910     2.1240 
  113.1250   -29.5760    65.1740    25.3600     8.5740     6.7850     9.1160     2.1220 
  113.2500   -29.4210    64.7810    25.2850     8.4910     6.7500     9.0720     2.1220 
  113.3750   -29.0770    65.0350    25.1000     8.4110     6.7840     9.1580     2.1230 
  113.5000   -28.5670    64.2290    24.7360     8.3460     6.9330     9.4350     2.1320 
  113.6250   -27.9570    63.7200    24.2680     8.4430     7.2030     9.8720     2.1590 
  113.7500   -27.3240    65.7700    23.9250     8.7540     7.4750    10.2510     2.1920 
  113.8750   -26.6990    70.5820    23.8280     9.0350     7.6050    10.3270     2.2190 
  114.0000   -26.0930    76.3700    23.9960     8.8420     7.4720     9.9360     2.2370 
  114.1250   -25.5400    82.4640    24.4480     7.9710     7.0430     9.1220     2.2520 
  114.2500   -25.0700    89.0070    25.0210     7.0000     6.5080     8.2630     2.2640 
  114.3750   -24.6870    92.9550    25.4850     6.3860     6.0140     7.5950     2.2690 
  114.5000   -24.3940    92.8530    25.6570     6.2350     5.6480     7.1980     2.2660 
  114.6250   -24.1630    89.0340    25.5760     6.3110     5.4400     7.0370     2.2640 
  114.7500   -23.9620    87.4240    25.5230     6.2300     5.3120     6.9340     2.2700 
  114.8750   -23.7790    91.8170    25.6020     5.9020     5.1990     6.7740     2.2870 
  115.0000   -23.6150    96.9670    25.7480     5.5090     5.0660     6.5260     2.3110 
  115.1250   -23.4680    94.9570    25.8220     5.3340     4.9440     6.2900     2.3250 
  115.2500   -23.3290    89.0760    25.7940     5.3640     4.8920     6.1920     2.3190 
  115.3750   -23.2200    85.1060    25.6990     5.5160     4.9470     6.2900     2.2950 
  115.5000   -23.1280    84.6170    25.5740     5.8390     5.1040     6.5660     2.2660 
  115.6250   -22.9790    87.2700    25.4320     6.3860     5.3080     6.9250     2.2500 
  115.7500   -22.7660    90.7170    25.3190     6.7550     5.4540     7.1790     2.2570 
  115.8750   -22.5030    90.9480    25.3040     6.5950     5.4680     7.1890     2.2840 
  116.0000   -22.2310    89.5250    25.4190     6.0430     5.3330     6.9370     2.3190 
  116.1250   -22.0190    90.6760    25.6080     5.6190     5.0990     6.5250     2.3440 
  116.2500   -21.8250    93.5600    25.7670     5.4710     4.8740     6.1450     2.3620 
  116.3750   -21.6670    97.8270    25.8620     5.5220     4.7230     5.9100     2.3760 
  116.5000   -21.5620   102.6890    25.9010     5.7480     4.6760     5.8700     2.3830 
  116.6250   -21.5870   103.5020    25.9060     6.0460     4.7420     6.0250     2.3670 
  116.7500   -21.6790    99.1130    25.8920     6.1970     4.8680     6.2720     2.3310 
  116.8750   -21.7260    94.9850    25.8390     6.1980     5.0200     6.5490     2.2910 
  117.0000   -21.8210    93.4250    25.7250     6.2240     5.1730     6.8170     2.2640 
  117.1250   -21.9970    89.8410    25.5610     6.4020     5.3170     7.0540     2.2610 
