~V
VERS. 2.00: Ver 2.00
~W
STRT.M 100.0000:
STOP.M 264.0000:
STEP.M 0.1250:
NULL. -999.2500:
UWI. DF3023:
~C
DEPT.M :
GR.API :
CALI.CM :
RXO.OHMM :
RI. :
RML.OHMM :
SP.MV :
DEN.GM/CC :
AC.US/MT :
~A
# ...
  240.0000    73.5050    24.7950    16.0990    15.4820    16.5300   -11.7670     2.5640   245.7830 
  240.1250    73.0720    24.8460    16.3690    15.9370    17.0000   -11.8100     2.5860   245.0370 
  240.2500    73.8530    24.9070    16.6790    16.3410    17.3830   -11.8830     2.5850   246.0140 
  240.3750    74.4470    24.9360    17.0820    16.6490    17.6430   -11.9480     2.5660   247.7550 
  240.5000    72.4900    24.9250    17.2740    16.8630    17.7940   -11.9870     2.5410   248.4540 
  240.6250    69.2620    24.9140    17.9690    17.0000    17.8710   -11.9990     2.5270   247.9010 
  240.7500    67.6690    24.9150    19.0440    17.1010    17.9390   -11.9740     2.5370   247.2580 
  240.8750    68.3090    24.9250    19.3880    17.1930    18.0390   -11.9260     2.5490   247.5810 
  241.0000    70.8720    24.9470    18.9610    17.3120    18.2050   -11.8880     2.5460   248.4490 
  241.1250    71.0880    24.9740    18.3540    17.4900    18.4500   -11.8650     2.5200   249.0610 
  241.2500    69.8220    24.9820    17.5160    17.7010    18.7220   -11.8410     2.4920   249.0070 
  241.3750    69.5870    24.9580    17.2090    17.8810    18.9530   -11.8260     2.4530   247.0610 
  241.5000    71.8670    24.9280    17.0130    17.9590    19.0720   -11.8330     2.4220   241.3170 
  241.6250    75.7790    24.9250    16.2340    17.8680    19.0280   -11.8560     2.4450   231.8910 
  241.7500    77.5950    24.8960    14.9840    17.6760    18.8980   -11.9020     2.5050   223.4860 
  241.8750    78.0240    24.7740    13.7800    17.4810    18.7780   -11.9930     2.5380   223.0350 
  242.0000    79.4280    24.5700    13.0790    17.3760    18.7590   -12.1050     2.5160   228.1500 
  242.1250    80.7760    24.3940    13.4420    17.4290    18.9270   -12.1690     2.4960   233.9160 
  242.2500    77.7150    24.3220    15.1130    17.6110    19.2370   -12.1700     2.5020   237.6070 
  242.3750    71.3220    24.3520    18.9070    17.8860    19.6150   -12.1230     2.5100   240.4860 
  242.5000    68.0680    24.4610    23.1270    18.2260    19.9890   -12.0460     2.5090   243.0690 
  242.6250    72.0420    24.6260    25.3160    18.6260    20.3430   -11.9750     2.5150   243.8310 
  242.7500    76.5510    24.7850    24.2230    19.1040    20.7510   -11.9290     2.5440   242.3300 
  242.8750    77.3940    24.9110    22.3120    19.6890    21.2810   -11.8890     2.5830   237.9090 
  243.0000    74.0350    25.0220    20.9270    20.3290    21.8700   -11.8500     2.6060   230.2860 
  243.1250    70.8110    25.1230    19.1910    20.7570    22.1780   -11.8450     2.5830   220.1810 
  243.2500    70.5670    25.1670    17.1850    20.6520    21.8440   -11.8660     2.5430   213.0180 
  243.3750    72.1910    25.0840    16.2990    19.8260    20.7160   -11.8830     2.5300   216.6190 
  243.5000    74.7830    24.9180    16.4000    18.3930    19.0070   -11.8690     2.5330   228.3160 
  243.6250    76.4270    24.8310    16.6840    16.7560    17.2490   -11.8040     2.5300   241.9400 
  243.7500    74.5340    24.8500    17.2880    15.3630    15.8950   -11.7140     2.5330   250.5780 
  243.8750    70.0590    24.8900    18.2100    14.3790    15.0640   -11.6410     2.5470   251.2490 
  244.0000    68.0410    24.8660    19.3900    13.8040    14.6750   -11.6110     2.5550   249.4730 
  244.1250    70.3320    24.8240    21.6520    13.5800    14.5590   -11.6230     2.5490   250.9600 
  244.2500    71.6260    24.8370    22.8430    13.5030    14.4780   -11.6390     2.5540   256.8250 
  244.3750    71.2970    24.8940    22.1780    13.4550    14.3390   -11.6420     2.5670   262.0050 
  244.5000    71.1030    24.9480    21.2400    13.3770    14.1560   -11.6290     2.5740   263.8790 
  244.6250    71.8850    24.9640    19.6010    13.2950    14.0170   -11.6150     2.5710   264.4090 
  244.7500    72.5670    24.9890    18.4100    13.2780    13.9930   -11.6270     2.5650   267.3730 
  244.8750    71.0420    25.0470    17.6900    13.3810    14.1150   -11.6640     2.5580   273.0230 
  245.0000    67.8770    25.1260    17.4390    13.6350    14.3860   -11.7030     2.5560   277.1690 
  245.1250    66.9890    25.1910    17.5450    14.0380    14.7860   -11.7320     2.5490   277.8710 
  245.2500    70.2720    25.2250    17.4090    14.4910    15.2290   -11.7500     2.5190   274.5750 
  245.3750    72.6700    25.2370    17.5320    14.9090    15.6500   -11.7660     2.4800   268.6410 
  245.5000    70.8090    25.2390    17.9220    15.2340    16.0030   -11.7940     2.4550   262.9870 
  245.6250    67.7220    25.2410    18.1200    15.4390    16.2650   -11.8380     2.4490   259.2180 
  245.7500    67.3620    25.2430    18.3820    15.5940    16.4860   -11.9060     2.4340   256.8900 
  245.8750    68.6800    25.2360    18.9050    15.7590    16.7160   -11.9880     2.4000   253.4450 
  246.0000    70.7050    25.2130    19.6250    15.9650    16.9810   -12.0390     2.3680   248.4250 
  246.1250    74.2310    25.1620    20.3990    16.2030    17.2710   -12.0330     2.3840   242.8950 
  246.2500    76.5990    25.0990    21.1540    16.4290    17.5390   -11.9980     2.4350   238.5680 
  246.3750    76.3040    25.0450    20.8780    16.6130    17.7500   -11.9740     2.4880   236.6660 
  246.5000    75.2120    25.0160    20.1830    16.7470    17.8940   -11.9950     2.5090   235.9330 
  246.6250    76.0660    25.0120    20.7210    16.8310    17.9930   -12.0460     2.5140   235.4170 
  246.7500    75.8020    25.0120    21.5300    16.8930    18.0880   -12.0850     2.5290   235.4020 
  246.8750    72.3670    25.0130    21.7460    16.9480    18.1910   -12.0930     2.5400   237.0640 
  247.0000    68.4020    25.0170    21.3860    17.0100    18.2930   -12.0820     2.5360   239.0820 
  247.1250    66.6320    25.0180    21.0640    17.0800    18.3770   -12.0820     2.5280   240.2970 
  247.2500    67.2830    25.0030    20.8100    17.1560    18.4390   -12.0750     2.5330   240.7710 
  247.3750    69.7210    24.9740    21.4240    17.2320    18.4870   -12.0490     2.5450   240.8960 
  247.5000    71.6620    24.9490    22.1320    17.2970    18.5370   -12.0230     2.5610   240.5110 
  247.6250    73.0660    24.9430    21.9310    17.3410    18.5980   -12.0250     2.5780   240.2580 
  247.7500    74.2090    24.9450    23.8680    17.3610    18.6510   -12.0660     2.5730   241.0200 
  247.8750    73.9080    24.9460    25.6310    17.3600    18.6780   -12.1180     2.5220   242.1240 
  248.0000    72.4850    24.9460    24.9260    17.3500    18.6840   -12.1480     2.4590   242.6050 
  248.1250    71.6070    24.9460    21.4200    17.3680    18.6870   -12.1480     2.4530   242.9690 
  248.2500    70.9140    24.9280    22.5430    17.4370    18.7090   -12.1420     2.4890   243.4570 
  248.3750    71.0330    24.8830    25.2830    17.5570    18.7620   -12.1510     2.5290   243.1390 
  248.5000    72.9850    24.8310    26.5180    17.7080    18.8400   -12.1800     2.5540   241.6780 
  248.6250    74.4880    24.8180    24.1050    17.8640    18.9260   -12.2210     2.5660   239.4540 
  248.7500    73.3360    24.8430    20.5480    18.0080    19.0010   -12.2820     2.5800   236.8490 
  248.8750    72.2610    24.8580    19.2360    18.1350    19.0590   -12.3690     2.5920   235.0120 
  249.0000    71.7880    24.8280    18.5560    18.2420    19.0950   -12.4820     2.5930   234.5710 
  249.1250    68.7590    24.7800    18.5630    18.3170    19.1070   -12.5960     2.5670   235.3110 
  249.2500    67.0080    24.7570    19.1870    18.3500    19.1020   -12.6730     2.5420   236.0820 
  249.3750    69.6010    24.7610    19.8080    18.3360    19.0700   -12.6850     2.5380   235.9570 
  249.5000    73.1980    24.7780    20.3130    18.2680    18.9950   -12.6310     2.5420   235.3370 
  249.6250    74.0130    24.7900    20.1420    18.1440    18.8560   -12.5170     2.5510   234.6870 
  249.7500    73.0840    24.7950    19.3690    17.9910    18.6730   -12.3850     2.5750   234.5370 
  249.8750    71.5960    24.8050    18.1600    17.8390    18.4790   -12.2610     2.5970   234.7920 
