~V
VERS. 2.00: Ver 2.00
~W
STRT.M 56.0000:
STOP.M 263.0000:
STEP.M 0.1250:
NULL. -999.2500:
UWI. DF3034:
~C
DEPT.M :
DEN.GM/CC :
GR.API :
RML.OHMM :
RI. :
RXO.OHMM :
CALI.CM :
SP.MV :
~A
# ...
   89.7500  -999.2500    66.0780    11.0510     8.6670    10.2790    24.5640   -27.7710 
   89.8750  -999.2500    65.2410    10.8280     8.4370    10.0040    24.3710   -27.7370 
   90.0000  -999.2500    63.5770    10.5200     8.1820     9.4790    24.3000   -27.6240 
   90.1250  -999.2500    66.0540    10.1860     7.9090     8.8790    24.1720   -27.6240 
   90.2500  -999.2500    73.4930     9.9200     7.6700     8.4320    24.0160   -27.5910 
   90.3750  -999.2500    78.5060     9.7850     7.5140     8.3390    24.0720   -27.6490 
   90.5000  -999.2500    76.3790     9.8130     7.4710     8.4590    24.3470   -27.7040 
   90.6250  -999.2500    74.3680    10.0140     7.5660     8.5880    24.7390   -27.8750 
   90.7500  -999.2500    76.3350    10.3100     7.7530     8.7730    24.8660   -28.0610 
   90.8750  -999.2500    77.0870    10.6340     7.9910     9.1390    24.7810   -28.2930 
   91.0000  -999.2500    73.9640    10.9210     8.2340     9.5050    24.6350   -28.5030 
   91.1250  -999.2500    70.3990    11.1120     8.4280     9.9010    24.4830   -28.6990 
   91.2500  -999.2500    67.7150    11.2090     8.5520     9.9570    24.1750   -28.8480 
   91.3750  -999.2500    67.0560    11.2300     8.6060    10.0020    24.0940   -28.9610 
   91.5000  -999.2500    68.5570    11.2030     8.6080     9.9000    23.9920   -29.0530 
   91.6250  -999.2500    68.0380    11.1610     8.5810    10.0710    24.1360   -29.1350 
   91.7500  -999.2500    64.3850    11.1340     8.5580    10.1300    24.1640   -29.1870 
   91.8750  -999.2500    62.3320    11.1330     8.5540    10.2740    24.0910   -29.1750 
   92.0000  -999.2500    63.9260    11.1560     8.5720    10.4850    24.1110   -29.2050 
   92.1250  -999.2500    64.1500    11.1970     8.6130    10.4240    24.2060   -29.0590 
   92.2500  -999.2500    60.8600    11.2410     8.6620    10.3190    24.3100   -28.9520 
   92.3750  -999.2500    59.7640    11.2840     8.7120    10.2300    24.3810   -28.7900 
   92.5000  -999.2500    62.8810    11.3290     8.7600    10.3110    24.1540   -28.6190 
   92.6250  -999.2500    66.4010    11.3930     8.8110    10.4630    23.7870   -28.4070 
   92.7500  -999.2500    66.7850    11.4780     8.8670    10.6840    24.0350   -28.1950 
   92.8750  -999.2500    65.9250    11.5660     8.9220    10.8220    24.6550   -28.0520 
   93.0000  -999.2500    66.4810    11.6170     8.9540    11.0280    25.1530   -27.8620 
   93.1250  -999.2500    68.2490    11.5600     8.9270    11.0800    25.0590   -27.8370 
   93.2500  -999.2500    69.3320    11.3780     8.8280    10.9870    24.5990   -27.7920 
   93.3750  -999.2500    69.7730    11.0880     8.6620    10.4940    24.0930   -27.8350 
   93.5000  -999.2500    70.8450    10.7580     8.4610     9.6860    23.8120   -27.8870 
   93.6250  -999.2500    72.6240    10.5000     8.2850     9.2820    23.7340   -27.9660 
   93.7500  -999.2500    72.7240    10.3810     8.1800     9.4700    23.8200   -28.0940 
   93.8750  -999.2500    70.5770    10.4120     8.1660     9.8150    24.0190   -28.2360 
   94.0000  -999.2500    68.6530    10.5510     8.2310    10.1860    24.3230   -28.4180 
   94.1250  -999.2500    70.3260    10.7140     8.3330    10.8950    24.4150   -28.4910 
   94.2500  -999.2500    72.3710    10.8080     8.4130    11.1650    24.5140   -28.5340 
   94.3750  -999.2500    73.5210    10.8010     8.4420    11.1450    24.6200   -28.4390 
   94.5000  -999.2500    73.7420    10.7040     8.4160    11.1110    24.7150   -28.2960 
   94.6250  -999.2500    71.9860    10.5670     8.3570    11.0590    24.6600   -27.9570 
   94.7500  -999.2500    70.5420    10.4580     8.3050    10.8500    24.4860   -27.5300 
   94.8750  -999.2500    72.9740    10.4030     8.2810    10.6410    24.2030   -26.9190 
   95.0000  -999.2500    78.1010    10.3810     8.2740    10.7060    24.0570   -26.2570 
   95.1250  -999.2500    79.0830    10.3180     8.2400    10.5830    24.0040   -25.4410 
   95.2500  -999.2500    76.6040    10.1600     8.1360    10.3920    23.9030   -24.5330 
   95.3750  -999.2500    76.6080     9.9070     7.9510    10.1390    23.8450   -23.5930 
   95.5000  -999.2500    81.3390     9.6220     7.7130     9.7920    23.8390   -22.5520 
   95.6250  -999.2500    88.0590     9.3990     7.4760     9.0960    23.8610   -21.6600 
   95.7500  -999.2500    92.3240     9.2490     7.2700     8.3160    23.8430   -20.7460 
   95.8750  -999.2500    93.1450     9.1030     7.0690     7.8720    23.7760   -19.9140 
   96.0000  -999.2500    92.7930     8.8570     6.8210     8.1260    23.7380   -19.0860 
   96.1250  -999.2500    95.9930     8.4090     6.4650     8.4440    23.8450   -18.3440 
   96.2500  -999.2500   103.5380     7.8270     6.0270     7.8660    24.1060   -17.7640 
   96.3750  -999.2500   112.2860     7.2260     5.5660     6.6200    24.4290   -17.3450 
   96.5000  -999.2500   117.9280     6.7430     5.1650     5.4880    24.5950   -17.2180 
   96.6250  -999.2500   117.4300     6.5420     4.9370     5.0970    24.6430   -17.1810 
   96.7500  -999.2500   114.4940     6.6570     4.9300     5.2560    24.4830   -17.3740 
   96.8750  -999.2500   112.9960     7.1020     5.1760     5.7120    24.3210   -17.7080 
   97.0000  -999.2500   111.1850     7.8240     5.6620     6.2100    24.2250   -18.2190 
   97.1250  -999.2500   104.0780     8.6770     6.3170     6.6800    24.1410   -18.7880 
   97.2500  -999.2500    94.1060     9.3930     6.9450     7.3870    23.9310   -19.2630 
   97.3750  -999.2500    87.7890     9.7580     7.3770     8.4310    23.6640   -19.5910 
   97.5000  -999.2500    88.3510     9.6680     7.4980     9.0250    23.4040   -19.7140 
   97.6250  -999.2500    91.3100     9.1920     7.2880     9.0320    23.3300   -19.6400 
   97.7500  -999.2500    93.3780     8.6840     6.9650     8.5500    23.3730   -19.4030 
   97.8750  -999.2500    95.7200     8.4030     6.7120     7.7070    23.4210   -19.0700 
   98.0000  -999.2500    97.6200     8.4700     6.6440     6.6810    23.4380   -18.6340 
   98.1250  -999.2500    95.0620     8.8610     6.7940     6.6520    23.4250   -18.2820 
   98.2500  -999.2500    90.6710     9.2880     7.0070     7.0650    23.3360   -17.9140 
   98.3750  -999.2500    86.5150     9.5050     7.1290     7.4760    23.2910   -17.6330 
   98.5000  -999.2500    83.2590     9.3450     7.0370     7.6270    23.2890   -17.3460 
   98.6250  -999.2500    84.0000     8.7880     6.6780     7.5360    23.3390   -17.2210 
   98.7500  -999.2500    89.4800     8.1360     6.2220     6.9020    23.4490   -17.1260 
   98.8750  -999.2500    96.2860     7.6510     5.8400     5.8620    23.5810   -17.1100 
   99.0000  -999.2500   100.7070     7.5010     5.6630     5.2320    23.7270   -17.1690 
   99.1250  -999.2500   101.0570     7.7560     5.7790     5.3000    23.8530   -17.1750 
   99.2500  -999.2500    97.9370     8.2360     6.0970     5.7880    23.9380   -17.3000 
   99.3750  -999.2500    90.4300     8.7750     6.5150     6.6000    23.8830   -17.4030 
   99.5000  -999.2500    82.0910     9.2130     6.9120     7.6220    23.7860   -17.5660 
   99.6250  -999.2500    77.7510     9.4170     7.1690     8.1330    23.7440   -17.6090 
   99.7500  -999.2500    76.1300     9.4390     7.2790     8.1960    23.7380   -17.6240 
   99.8750  -999.2500    77.7740     9.3600     7.2810     7.9340    23.7380   -17.5290 
  100.0000  -999.2500    81.5780     9.2530     7.2260     7.7890    23.7380   -17.2910 
  100.1250  -999.2500    86.7460     9.1340     7.1430     7.7970    23.7420   -17.0870 
  100.2500  -999.2500    87.2920     8.9710     7.0310     7.8500    23.7710   -16.7510 
  100.3750  -999.2500    83.6080     8.7390     6.8770     7.6280    23.8510   -16.3970 
  100.5000  -999.2500    82.3910     8.4450     6.6820     7.5460    24.0250   -15.9730 
  100.6250  -999.2500    86.1280     8.1570     6.4800     7.3470    24.2340   -15.6080 
  100.7500  -999.2500    89.0770     7.9740     6.3380     6.9910    24.4870   -15.2620 
  100.8750  -999.2500    89.5150     7.9750     6.3130     6.7440    24.6170   -14.9840 
