~V
VERS. 2.00: Ver 2.00
~W
STRT.M 61.0000:
STOP.M 279.0000:
STEP.M 0.1250:
NULL. -999.2500:
UWI. DF3040:
~C
DEPT.M :
GR.API :
CALI.CM :
RXO.OHMM :
RI. :
RML.OHMM :
DEN.GM/CC :
SP.MV :
~A
# ...
  184.7500    67.3480    23.3770    54.5510    59.5300    64.3850     2.3430   -23.6530 
  184.8750    71.2390    23.3630    43.8980    55.0300    60.2300     2.3670   -23.8160 
  185.0000    73.4390    23.3640    40.3220    53.8390    59.6570     2.3830   -23.9970 
  185.1250    70.1140    23.3680    41.5820    55.5290    61.9460     2.3670   -24.1790 
  185.2500    67.2530    23.3880    45.8410    58.6480    65.7210     2.3270   -24.3450 
  185.3750    68.1170    23.5130    51.1230    62.4750    69.9800     2.2850   -24.4520 
  185.5000    70.6650    23.5890    57.0210    66.4370    74.0470     2.2590   -24.4730 
  185.6250    71.9920    23.5930    66.3300    69.9360    77.2300     2.2550   -24.4590 
  185.7500    71.2760    23.5940    73.2800    72.8700    79.3880     2.2580   -24.4060 
  185.8750    70.9190    23.5520    73.4840    75.3710    80.9490     2.2630   -24.3160 
  186.0000    71.0770    23.3470    72.2130    77.5880    82.1340     2.2750   -24.2170 
  186.1250    69.6460    23.3670    74.8300    79.7420    83.2760     2.2930   -24.1440 
  186.2500    68.3950    23.3610    75.5050    81.8000    84.3290     2.3080   -24.1010 
  186.3750    70.1450    23.3560    72.7490    83.2730    84.8180     2.3110   -24.1360 
  186.5000    70.8310    23.3540    68.7330    83.4510    84.1910     2.3070   -24.2470 
  186.6250    66.5440    23.3690    69.5520    81.3850    81.3870     2.3040   -24.3950 
  186.7500    63.0690    23.4540    70.4660    76.6400    76.2450     2.3040   -24.5560 
  186.8750    65.0170    23.6200    71.2790    68.9890    68.5250     2.3080   -24.7110 
  187.0000    70.2730    23.6480    70.6940    59.1030    58.9590     2.3120   -24.8510 
  187.1250    74.6190    23.5860    66.1140    49.1260    49.2990     2.3140   -24.9400 
  187.2500    76.1910    23.4080    55.6710    40.7370    41.0560     2.3210   -25.0130 
  187.3750    74.5310    23.3920    43.1900    34.6760    35.2670     2.3390   -25.0540 
  187.5000    74.1900    23.4970    33.4150    31.2930    32.6650     2.3700   -25.0530 
  187.6250    79.4270    23.5990    23.6220    31.7050    34.7530     2.3960   -25.0510 
  187.7500    82.2390    23.5970    15.8590    35.6750    41.0100     2.4030   -25.0920 
  187.8750    77.4270    23.6140    17.1250    43.4540    51.5080     2.3870   -25.1980 
  188.0000    68.1570    23.6670    39.2230    55.5250    66.4550     2.3550   -25.3820 
  188.1250    61.7950    23.9600    71.7050    72.8100    86.4790     2.3190   -25.6410 
  188.2500    60.3590    24.1400    87.6420    93.5970   110.1500     2.2960   -25.9430 
  188.3750    61.1530    24.1610    92.9440   116.1530   135.8020     2.2970   -26.2960 
  188.5000    62.4240    24.1270   111.0520   137.4970   160.7200     2.3170   -26.7000 
  188.6250    63.6550    23.9670   145.9580   154.3650   180.6440     2.3340   -27.1160 
  188.7500    63.3020    24.0740   172.7020   167.5110   197.0220     2.3310   -27.5110 
  188.8750    60.0060    24.2030   187.2290   179.4040   213.7830     2.3110   -27.8740 
  189.0000    55.7020    24.2520   191.7970   190.0010   230.4670     2.2890   -28.1880 
  189.1250    55.4630    24.4090   190.8570   198.0190   244.5390     2.2770   -28.4720 
  189.2500    57.4080    24.3750   188.5910   202.6230   253.8190     2.2690   -28.7130 
  189.3750    57.5970    24.3300   197.8520   203.9380   258.3270     2.2590   -28.8850 
  189.5000    56.9390    24.2930   204.9090   202.6320   258.1600     2.2490   -28.9810 
  189.6250    56.6070    24.2360   193.2340   200.0310   255.0640     2.2480   -29.0470 
  189.7500    55.3250    24.2510   182.4220   197.5830   251.8110     2.2550   -29.1000 
  189.8750    53.0640    24.4310   173.4370   196.3520   249.4980     2.2570   -29.1720 
  190.0000    52.9640    24.5340   159.9910   196.8720   249.7370     2.2460   -29.2800 
  190.1250    55.3670    24.5040   152.4330   200.3680   253.7110     2.2290   -29.4340 
  190.2500    56.3110    24.3980   163.0660   206.8730   261.7060     2.2210   -29.6340 
  190.3750    54.7280    24.2700   178.6320   215.6390   272.2440     2.2220   -29.8790 
  190.5000    55.3050    24.2260   196.5250   224.8960   283.0370     2.2260   -30.1830 
  190.6250    60.7820    24.2540   210.6540   233.2190   292.2320     2.2210   -30.5000 
  190.7500    64.3340    24.3530   213.4410   239.9390   297.8210     2.2060   -30.8260 
  190.8750    62.6260    24.4240   213.1040   244.4880   299.5400     2.1970   -31.0980 
  191.0000    59.8400    24.4080   221.9860   246.8180   297.0500     2.2110   -31.3110 
  191.1250    62.4740    24.2840   227.3780   246.3660   290.3670     2.2390   -31.4700 
  191.2500    66.6390    24.1090   214.3440   243.0870   279.6760     2.2420   -31.5710 
  191.3750    66.8310    23.9980   198.3980   236.3520   264.3990     2.2150   -31.5840 
  191.5000    63.8350    23.9820   197.0850   225.5560   244.5560     2.1840   -31.5130 
  191.6250    62.9580    23.7620   215.7120   209.2560   219.3120     2.1830   -31.4030 
  191.7500    63.6680    23.2300   210.7090   189.5890   192.5390     2.2040   -31.3020 
  191.8750    63.4150    22.8510   181.6870   168.4930   166.6880     2.2330   -31.2700 
  192.0000    63.6630    22.8710   148.9520   148.4350   143.8980     2.2580   -31.2870 
  192.1250    66.7290    22.8530   121.6970   131.5960   126.2620     2.2750   -31.3370 
  192.2500    69.4210    22.6960   102.8490   118.5580   113.2050     2.2860   -31.4300 
  192.3750    71.0210    22.9940    89.0670   109.6180   104.8460     2.2880   -31.6100 
  192.5000    72.6700    23.1960    84.2570   104.6920   100.5470     2.2820   -31.8790 
  192.6250    71.5850    23.5890    84.4040   103.6940   100.3120     2.2730   -32.2030 
  192.7500    67.3270    23.7660    89.3360   105.5890   103.1020     2.2660   -32.5370 
  192.8750    65.5460    24.0410    97.4980   110.1640   108.8550     2.2640   -32.8260 
  193.0000    68.9050    24.1400   104.6320   117.4700   117.8240     2.2670   -33.0620 
  193.1250    70.2820    23.9710   112.4950   128.3670   130.8140     2.2720   -33.2510 
  193.2500    67.2740    23.9930   114.8310   143.4330   148.3790     2.2710   -33.3790 
  193.3750    63.7850    24.1180   117.8040   163.0800   171.0630     2.2640   -33.4340 
  193.5000    62.1780    24.1650   129.9090   187.4100   199.6790     2.2550   -33.4280 
  193.6250    61.1030    24.1550   162.6370   217.0400   235.9820     2.2470   -33.3870 
  193.7500    61.5240    24.1140   199.1570   249.6790   277.7200     2.2390   -33.3400 
  193.8750    62.6110    24.0160   231.3920   283.1800   322.4950     2.2330   -33.3240 
  194.0000    60.5570    23.9720   250.2740   314.6940   365.9200     2.2390   -33.3300 
  194.1250    55.7780    23.9710   243.4340   339.3460   400.9910     2.2580   -33.3400 
  194.2500    53.3250    23.9930   229.8140   353.5290   420.6420     2.2700   -33.3700 
  194.3750    54.5010    24.1070   221.7150   356.3010   423.6230     2.2620   -33.4460 
  194.5000    56.6830    24.1650   229.7670   349.4330   412.8350     2.2340   -33.5260 
  194.6250    57.4070    24.1610   245.9040   335.7220   393.2510     2.1980   -33.5450 
  194.7500    56.3460    24.0740   249.5570   320.7540   374.3270     2.1670   -33.4920 
  194.8750    54.3770    23.9370   242.0660   309.0560   360.7910     2.1570   -33.3430 
  195.0000    54.7340    23.6430   241.3490   303.5970   356.2450     2.1720   -33.1050 
  195.1250    57.7220    23.2370   227.2240   308.4230   363.6620     2.1970   -32.7860 
  195.2500    60.2360    22.9590   198.8280   321.8680   381.7170     2.2110   -32.4120 
  195.3750    59.9550    23.3630   190.2540   342.9080   408.9350     2.2120   -31.9520 
  195.5000    57.9940    23.9240   223.2930   368.5980   442.1110     2.2090   -31.4580 
  195.6250    56.5500    24.2400   255.3110   395.3240   477.4130     2.2120   -30.9740 
  195.7500    55.8440    24.2890   268.1740   417.9730   507.4130     2.2170   -30.5120 
  195.8750    54.9290    24.2760   271.8680   434.4250   529.9840     2.2170   -30.0680 
