~V
VERS. 2.00: Ver 2.00
~W
STRT.M 120.0000:
STOP.M 235.0000:
STEP.M 0.1250:
NULL. -999.2500:
UWI. DF3022:
~C
DEPT.M :
SP.MV :
GR.API :
CALI.CM :
RXO.OHMM :
RI. :
RML.OHMM :
DEN.GM/CC :
~A
# ...
  198.7500   -22.4440    60.1400    24.9080   126.1480   114.6190   115.6970     2.1830 
  198.8750   -22.5430    59.0470    24.9080   132.6730   121.6420   123.1660     2.1820 
  199.0000   -22.6460    55.9160    24.9080   135.1300   127.5030   129.4230     2.1840 
  199.1250   -22.7600    53.6260    24.9080   136.8430   131.5790   133.6090     2.1870 
  199.2500   -22.8670    52.4420    24.9080   139.3800   134.6540   136.5980     2.1870 
  199.3750   -22.9510    51.5300    24.9080   141.9900   137.5170   139.3310     2.1870 
  199.5000   -23.0200    50.6080    24.9080   144.1800   140.7350   142.4880     2.1920 
  199.6250   -23.0750    49.6830    24.9080   146.5420   144.3750   146.4960     2.1970 
  199.7500   -23.1190    48.5610    24.9080   151.8610   148.3000   150.4600     2.1980 
  199.8750   -23.1570    47.5840    24.9080   159.4060   151.5510   153.8680     2.1990 
  200.0000   -23.2030    48.5230    24.9080   165.0350   153.3190   156.0060     2.2010 
  200.1250   -23.2310    51.7080    24.9080   164.7270   152.8270   156.1080     2.1990 
  200.2500   -23.2520    53.4710    24.9080   159.0670   150.5750   154.5550     2.1970 
  200.3750   -23.2500    53.4230    24.9080   154.6530   147.1460   151.8550     2.1970 
  200.5000   -23.2410    54.4790    24.9080   153.4000   143.1980   148.6330     2.2010 
  200.6250   -23.2450    56.2670    24.9080   151.8210   139.2180   145.3670     2.1980 
  200.7500   -23.2640    56.3720    24.9070   147.6600   135.3020   142.1230     2.1910 
  200.8750   -23.2710    56.1170    24.9050   144.0920   131.2840   138.7040     2.1840 
  201.0000   -23.2410    56.6320    24.9020   142.5540   127.0200   134.9750     2.1790 
  201.1250   -23.1990    55.8600    24.8880   139.7710   122.6880   131.1730     2.1800 
  201.2500   -23.1490    54.0360    24.8350   133.3020   118.8700   127.9370     2.2030 
  201.3750   -23.1110    53.8100    24.7440   124.0330   116.1060   125.7990     2.2540 
  201.5000   -23.0730    55.2370    24.6830   112.4950   114.5960   124.8970     2.3050 
  201.6250   -23.0220    55.9870    24.6670   102.0060   113.9900   124.7810     2.3190 
  201.7500   -22.9510    56.2180    24.6670    96.6520   113.0400   124.2100     2.2940 
  201.8750   -22.8750    56.1030    24.6670    99.1750   110.6550   122.1450     2.2530 
  202.0000   -22.8290    55.2910    24.6790   104.9720   106.2740   118.0540     2.2230 
  202.1250   -22.7930    54.2780    24.7330   105.7610   100.1270   112.0840     2.2060 
  202.2500   -22.7570    54.4140    24.8230   101.5210    93.6990   105.6240     2.1980 
  202.3750   -22.7150    56.2320    24.8870    96.9920    87.9760    99.6250     2.1930 
  202.5000   -22.6690    57.6320    24.9080    93.4510    83.4100    94.5810     2.1930 
  202.6250   -22.6250    56.6720    24.9080    90.6300    80.0140    90.5780     2.1990 
  202.7500   -22.6040    55.4970    24.9080    88.4080    77.1620    87.1090     2.2080 
  202.8750   -22.6120    56.7900    24.9080    85.3130    74.6130    84.0270     2.2180 
  203.0000   -22.6150    59.5890    24.9080    80.7980    72.5280    81.5730     2.2220 
  203.1250   -22.6170    60.1730    24.9080    76.2030    71.7130    80.6240     2.2200 
  203.2500   -22.6270    59.4790    24.9080    74.4470    72.7060    81.6930     2.2150 
  203.3750   -22.6420    58.0210    24.9080    75.5850    75.9390    85.2160     2.2110 
  203.5000   -22.6840    57.2230    24.9080    83.0330    81.5040    91.2450     2.2120 
  203.6250   -22.7550    58.6930    24.9080   100.5880    89.0800    99.2950     2.2180 
  203.7500   -22.8400    59.5800    24.9080   119.4280    96.8140   107.3250     2.2230 
  203.8750   -22.9200    58.2100    24.9080   129.7780   102.7790   113.3910     2.2180 
  204.0000   -22.9810    56.2630    24.9080   130.7080   105.4340   116.0350     2.2110 
  204.1250   -23.0540    56.0320    24.9080   126.3300   104.0620   114.5220     2.2200 
  204.2500   -23.1490    55.0190    24.9080   119.7020   100.6490   110.7620     2.2440 
  204.3750   -23.2330    52.9740    24.9080   113.6410    96.7890   106.3660     2.2580 
  204.5000   -23.3170    53.3580    24.9080   109.8310    93.6000   102.5510     2.2450 
  204.6250   -23.3740    56.8080    24.9080   105.4700    91.7490   100.0800     2.2230 
  204.7500   -23.3970    59.5980    24.9080    99.5320    91.0020    98.7360     2.2070 
  204.8750   -23.4260    59.5490    24.9080    96.0650    91.0970    98.2220     2.1990 
  205.0000   -23.4540    58.3630    24.9080    97.5180    91.6720    98.1550     2.1990 
  205.1250   -23.4580    57.7840    24.9080   100.7620    92.3800    98.2000     2.2060 
  205.2500   -23.4470    56.7260    24.9080    99.8420    93.0550    98.2240     2.2120 
  205.3750   -23.4350    55.2240    24.9080    96.8230    93.7920    98.3060     2.2100 
  205.5000   -23.3700    56.0040    24.9080    95.2250    94.8000    98.5830     2.2040 
  205.6250   -23.3070    59.1100    24.9080    97.9290    96.3890    99.2710     2.2060 
  205.7500   -23.2560    59.8730    24.9080   103.6670    98.6590   100.5160     2.2140 
  205.8750   -23.1930    57.3110    24.9080   109.8340   101.8260   102.6700     2.2140 
  206.0000   -23.1260    54.8620    24.9080   115.1700   106.3260   106.3470     2.2070 
  206.1250   -23.0980    54.7540    24.9080   117.9430   113.3090   112.9050     2.2110 
  206.2500   -23.0620    55.8190    24.9110   123.2640   123.1920   122.6120     2.2300 
  206.3750   -23.0250    56.0280    24.9180   135.4220   135.9520   135.0770     2.2470 
  206.5000   -23.0040    54.8650    24.9260   157.5840   149.8940   148.3000     2.2370 
  206.6250   -22.9380    55.7950    24.9210   187.4130   158.8740   156.8860     2.2160 
  206.7500   -22.8290    59.9240    24.8940   201.9520   156.1030   155.8230     2.2130 
  206.8750   -22.7030    64.0200    24.8440   191.3160   139.5690   143.0930     2.2390 
  207.0000   -22.5620    64.2950    24.7890   163.4530   114.9660   121.7500     2.2760 
  207.1250   -22.3810    61.1670    24.7540   126.6790    91.0420    98.2150     2.2980 
  207.2500   -22.1500    59.3540    24.7430    90.6510    71.5500    77.5740     2.3030 
  207.3750   -21.8970    60.8490    24.7410    62.8920    56.4260    61.0340     2.3020 
  207.5000   -21.6320    63.6470    24.7410    49.8090    44.8640    48.3600     2.3060 
  207.6250   -21.3550    66.5280    24.7410    45.0520    36.5660    39.3320     2.3110 
  207.7500   -21.0680    69.3390    24.7410    36.9230    30.5560    32.8000     2.3150 
  207.8750   -20.7740    71.5780    24.7410    27.2540    26.4620    28.3050     2.3200 
  208.0000   -20.5110    72.5580    24.7410    22.3780    23.8540    25.3410     2.3230 
  208.1250   -20.2690    72.1220    24.7410    23.8700    22.3340    23.4810     2.3250 
  208.2500   -20.0570    71.0420    24.7410    25.9490    21.2730    22.1460     2.3380 
  208.3750   -19.8400    69.3210    24.7410    25.6660    20.5050    21.2340     2.3760 
  208.5000   -19.6040    67.8400    24.7410    22.9700    20.1680    20.8970     2.4320 
  208.6250   -19.4110    67.5140    24.7410    22.4600    20.8950    21.7230     2.4820 
  208.7500   -19.2640    64.3600    24.7410    31.6990    23.1860    24.1870     2.5150 
  208.8750   -19.1350    58.1810    24.7410    56.7080    27.6150    28.9650     2.5360 
  209.0000   -18.9630    52.8520    24.7410    94.7120    34.6080    36.6000     2.5470 
  209.1250   -18.7520    51.2700    24.7410   116.2300    44.3170    47.1170     2.5510 
  209.2500   -18.5210    52.2350    24.7380   116.5990    54.0590    57.2980     2.5570 
  209.3750   -18.2790    53.5950    24.7240   105.4340    59.1010    62.1570     2.5690 
  209.5000   -18.0480    54.3200    24.6910    87.9560    55.0490    57.5840     2.5780 
  209.6250   -17.7700    54.5330    24.6610    67.7370    42.8530    44.7460     2.5710 
  209.7500   -17.4270    55.2080    24.6500    51.4700    30.1790    31.4770     2.5390 
  209.8750   -17.0550    54.8880    24.6480    35.1710    20.2650    21.2070     2.4880 
