~V
VERS. 2.00: Ver 2.00
~W
STRT.M 56.0000:
STOP.M 270.0000:
STEP.M 0.1250:
NULL. -999.2500:
UWI. DF3053:
~C
DEPT.M :
GR.API :
CALI.CM :
RXO.OHMM :
RI. :
RML.OHMM :
DEN.GM/CC :
SP.MV :
~A
# ...
   78.3750    61.2750    22.9260     8.8890     7.2450     8.7460  -999.2500   -17.6640 
   78.5000    60.1260    22.9310     8.6810     7.2150     8.8680  -999.2500   -17.6320 
   78.6250    57.7450    22.9380     8.5600     7.1830     8.9470  -999.2500   -17.5860 
   78.7500    55.8030    22.9420     8.5800     7.1630     8.9680  -999.2500   -17.5350 
   78.8750    55.9690    22.9420     8.6740     7.1620     8.9480  -999.2500   -17.5050 
   79.0000    57.4010    22.9420     8.7030     7.1790     8.9220  -999.2500   -17.5230 
   79.1250    58.5060    22.9410     8.6540     7.2070     8.9300  -999.2500   -17.5970 
   79.2500    58.7290    22.9400     8.6100     7.2330     9.0100  -999.2500   -17.6970 
   79.3750    57.7990    22.9640     8.6160     7.2480     9.2110  -999.2500   -17.8010 
   79.5000    55.7140    23.0390     8.7770     7.2530     9.5470  -999.2500   -17.9020 
   79.6250    54.5320    23.1440     8.9920     7.2530     9.9280  -999.2500   -17.9960 
   79.7500    55.0390    23.2160     9.1640     7.2550    10.1940  -999.2500   -18.0790 
   79.8750    55.8860    23.2400     9.1560     7.2580    10.2480  -999.2500   -18.1320 
   80.0000    56.5380    23.2430     9.0210     7.2550    10.0630  -999.2500   -18.1400 
   80.1250    57.1670    23.2420     8.9080     7.2550     9.7630  -999.2500   -18.0980 
   80.2500    57.2970    23.2170     8.7250     7.2830     9.5780  -999.2500   -18.0230 
   80.3750    56.8960    23.1580     8.5820     7.3610     9.6020  -999.2500   -17.9290 
   80.5000    58.1030    23.0590     8.5720     7.4950     9.8330  -999.2500   -17.8170 
   80.6250    62.0640    22.9310     8.6870     7.6660    10.2010  -999.2500   -17.6730 
   80.7500    64.5730    22.8290     8.8500     7.8300    10.5470  -999.2500   -17.4900 
   80.8750    63.3430    22.7730     8.9860     7.9470    10.7730  -999.2500   -17.2620 
   81.0000    59.7470    22.7240     9.0260     7.9930    10.8190  -999.2500   -16.9950 
   81.1250    56.7510    22.6370     8.9030     7.9510    10.6430  -999.2500   -16.7080 
   81.2500    56.1290    22.5700     8.7560     7.8440    10.2980  -999.2500   -16.4170 
   81.3750    58.0250    22.5680     8.6200     7.6920     9.8650  -999.2500   -16.1240 
   81.5000    60.3040    22.5950     8.3530     7.5210     9.4700  -999.2500   -15.8230 
   81.6250    59.8050    22.5750     8.1240     7.3610     9.1950  -999.2500   -15.5110 
   81.7500    58.2410    22.5170     7.9540     7.2230     9.0210  -999.2500   -15.1880 
   81.8750    59.0610    22.4890     8.0000     7.1110     8.9180  -999.2500   -14.8600 
   82.0000    61.7240    22.5680     8.1360     7.0290     8.8250  -999.2500   -14.5320 
   82.1250    63.1460    22.7790     8.2970     6.9790     8.7270  -999.2500   -14.2080 
   82.2500    64.2580    23.0010     7.9130     6.9440     8.6340  -999.2500   -13.8780 
   82.3750    66.5640    23.1460     7.6940     6.9090     8.5460  -999.2500   -13.5470 
   82.5000    69.0750    23.2080     7.8370     6.8500     8.4410  -999.2500   -13.2100 
   82.6250    69.9830    23.2290     7.9190     6.7290     8.2400  -999.2500   -12.8430 
   82.7500    70.7970    23.2430     7.5630     6.5370     7.9030  -999.2500   -12.4420 
   82.8750    72.3300    23.2460     7.0110     6.2830     7.4370  -999.2500   -12.0250 
   83.0000    74.7210    23.2450     6.5450     6.0090     6.9200  -999.2500   -11.6160 
   83.1250    80.7390    23.2450     6.2530     5.8000     6.5300  -999.2500   -11.2490 
   83.2500    87.1700    23.2450     6.1900     5.7130     6.3630  -999.2500   -10.9160 
   83.3750    89.5950    23.2440     6.2750     5.7530     6.4080  -999.2500   -10.5970 
   83.5000    86.5880    23.2480     6.5280     5.8630     6.5800  -999.2500   -10.2710 
   83.6250    82.3240    23.2820     8.3470     5.9240     6.7550  -999.2500    -9.9590 
   83.7500    82.1810    23.3750    10.5810     5.8470     6.8470  -999.2500    -9.6870 
   83.8750    87.1730    23.5100     9.6900     5.6250     6.8130  -999.2500    -9.4670 
   84.0000    95.2340    23.6320     6.0160     5.3280     6.6310  -999.2500    -9.2840 
   84.1250    99.2690    23.6970     5.5890     5.0690     6.3540  -999.2500    -9.1150 
   84.2500    96.9340    23.7370     5.5360     4.9280     6.1600  -999.2500    -8.9420 
   84.3750    92.7850    23.7810     5.5090     4.9360     6.1880  -999.2500    -8.7790 
   84.5000    90.7250    23.8020     5.5440     5.0900     6.4990  -999.2500    -8.6350 
   84.6250    89.3500    23.7070     6.1110     5.3650     7.0350  -999.2500    -8.5270 
   84.7500    86.6420    23.5160     6.9470     5.6810     7.5540  -999.2500    -8.4500 
   84.8750    85.7900    23.3450     7.4350     5.9860     7.8880  -999.2500    -8.4120 
   85.0000    87.8480    23.2710     7.0840     6.2410     7.9920  -999.2500    -8.4230 
   85.1250    89.4900    23.2160     6.9320     6.4150     7.9660  -999.2500    -8.5090 
   85.2500    88.3920    23.0810     6.8880     6.5210     7.9660  -999.2500    -8.6500 
   85.3750    85.2600    22.9180     7.0730     6.5680     8.0280  -999.2500    -8.8320 
   85.5000    82.3960    22.8170     7.0800     6.5580     8.1140  -999.2500    -9.0370 
   85.6250    80.8240    22.8190     6.9170     6.4490     8.0660  -999.2500    -9.2620 
   85.7500    80.3540    22.8620     6.8520     6.2220     7.7930  -999.2500    -9.4940 
   85.8750    79.7810    22.9020     6.9730     5.9000     7.3790  -999.2500    -9.7300 
   86.0000    79.3460    22.9160     7.0150     5.5990     7.0740  -999.2500    -9.9520 
   86.1250    81.0000    22.9180     6.8010     5.5450     7.2800  -999.2500   -10.1390 
   86.2500    82.6390    22.9130     6.6270     5.8610     8.1360  -999.2500   -10.2920 
   86.3750    82.4040    22.9370     7.4050     6.6090     9.6580  -999.2500   -10.4290 
   86.5000    78.5760    23.0450    13.4460     7.7490    11.6510  -999.2500   -10.5540 
   86.6250    71.6640    23.1980    22.4320     8.9830    13.4730  -999.2500   -10.6890 
   86.7500    65.5410    23.2230    24.0640     9.7250    14.2280  -999.2500   -10.8430 
   86.8750    61.0960    23.0730    16.6830     9.6420    13.5270  -999.2500   -11.0350 
   87.0000    58.5620    22.8820     9.6270     8.9110    11.8800  -999.2500   -11.2860 
   87.1250    58.4410    22.8110     8.3790     8.0470    10.3020  -999.2500   -11.6000 
   87.2500    59.7850    22.8200     8.1850     7.4480     9.3590  -999.2500   -11.9300 
   87.3750    60.8000    22.8350     8.3960     7.2210     9.1520  -999.2500   -12.2180 
   87.5000    60.6900    22.8360     9.2300     7.3330     9.5830  -999.2500   -12.4150 
   87.6250    62.4680    22.8470    12.4170     7.6740    10.3710  -999.2500   -12.4980 
   87.7500    65.7130    22.8740    13.4610     8.0350    11.0160  -999.2500   -12.4980 
   87.8750    67.0160    22.9020    11.3180     8.2830    11.2330  -999.2500   -12.4530 
   88.0000    65.7840    22.9170     8.9370     8.3520    10.9710  -999.2500   -12.3980 
   88.1250    65.0030    22.9200     8.4900     8.2420    10.3590  -999.2500   -12.3560 
   88.2500    64.3870    22.9470     8.5690     8.0570     9.6940  -999.2500   -12.3370 
   88.3750    62.5770    23.0180     8.6520     7.8630     9.1990  -999.2500   -12.3300 
   88.5000    60.5080    23.1050     8.6880     7.6970     9.0060  -999.2500   -12.3230 
   88.6250    60.0040    23.1560     8.7060     7.5740     9.2010  -999.2500   -12.2900 
   88.7500    60.5710    23.1820     8.6910     7.4950     9.6280  -999.2500   -12.2230 
   88.8750    61.7820    23.2100     8.6700     7.4660    10.0940  -999.2500   -12.1160 
   89.0000    63.6660    23.2380     8.6450     7.4880    10.4480  -999.2500   -11.9620 
   89.1250    65.2690    23.2490     8.5550     7.5280    10.6120  -999.2500   -11.7550 
   89.2500    65.3480    23.2380     8.4600     7.5230    10.5880  -999.2500   -11.5100 
   89.3750    65.3290    23.1980     8.4100     7.4210    10.3530  -999.2500   -11.2320 
   89.5000    66.1470    23.1410     8.5780     7.1960     9.8850  -999.2500   -10.9340 
