~V
VERS. 2.00: Ver 2.00
~W
STRT.M 125.0000:
STOP.M 265.0000:
STEP.M 0.1250:
NULL. -999.2500:
UWI. DF3008:
~C
DEPT.M :
DEN.GM/CC :
GR.API :
CALI.CM :
RXO.OHMM :
RI. :
RML.OHMM :
SP.MV :
~A
# ...
  203.7500     2.3620    73.5350    25.1680    15.5560    14.4380    19.3760   -19.8840 
  203.8750     2.3390    71.5580    25.1680    17.7670    16.0000    21.4880   -20.1280 
  204.0000     2.3230    76.8340    25.1670    21.2710    18.1670    24.3870   -20.3720 
  204.1250     2.3140    80.9590    25.1640    26.2860    20.7770    27.7650   -20.6100 
  204.2500     2.3100    77.9600    25.1620    29.6910    23.2820    30.8500   -20.8540 
  204.3750     2.3070    71.2020    25.1610    30.3990    25.2250    33.0670   -21.0930 
  204.5000     2.3030    68.4550    25.1610    29.3460    26.3900    34.2440   -21.3360 
  204.6250     2.2990    68.7230    25.1610    28.0160    26.8270    34.5700   -21.5890 
  204.7500     2.2970    69.5140    25.1610    27.1140    27.0910    34.7500   -21.8510 
  204.8750     2.2950    71.0560    25.1610    26.7400    27.7170    35.4180   -22.1220 
  205.0000     2.2960    70.8430    25.1610    26.6410    29.3050    37.2770   -22.4090 
  205.1250     2.2990    67.1210    25.1610    27.3740    32.9380    41.5870   -22.7170 
  205.2500     2.2920    62.4500    25.1610    31.3010    39.3690    49.1120   -23.0440 
  205.3750     2.2690    59.8860    25.1610    44.1030    49.7040    61.0970   -23.3930 
  205.5000     2.2350    58.8090    25.1610    69.5670    64.6660    78.7740   -23.7510 
  205.6250     2.2090    58.3510    25.1610    97.4800    83.6480   102.7550   -24.1000 
  205.7500     2.1970    59.9110    25.1610   111.7250   101.8550   127.2120   -24.4400 
  205.8750     2.1980    62.1920    25.1610   113.8070   114.4070   144.0930   -24.7760 
  206.0000     2.2040    63.1590    25.1610   112.6160   118.9340   148.8430   -25.0990 
  206.1250     2.2100    61.8600    25.1610   111.3760   117.1000   144.7860   -25.4000 
  206.2500     2.2160    59.8090    25.1610   112.0170   114.6660   140.6670   -25.6760 
  206.3750     2.2240    59.6390    25.1610   116.0760   114.7000   140.0850   -25.9290 
  206.5000     2.2300    60.6530    25.1610   124.6720   118.5620   144.2190   -26.1730 
  206.6250     2.2290    59.5070    25.1610   141.1690   127.2230   154.0550   -26.4060 
  206.7500     2.2210    56.5010    25.1610   162.5590   139.3950   168.1930   -26.6120 
  206.8750     2.2140    54.3970    25.1610   184.1080   153.6170   185.0380   -26.7680 
  207.0000     2.2090    55.2380    25.1610   199.8390   167.4680   201.4890   -26.8680 
  207.1250     2.2000    57.0160    25.1610   201.4730   176.0950   210.3790   -26.8990 
  207.2500     2.1890    58.5400    25.1500   193.7150   175.8520   206.0570   -26.8900 
  207.3750     2.1890    58.8670    25.1100   181.6570   165.4410   187.9590   -26.8530 
  207.5000     2.2040    59.8480    25.0210   170.3160   147.7170   162.7010   -26.7830 
  207.6250     2.2210    61.6600    24.9230   161.6580   128.8020   139.8430   -26.6870 
  207.7500     2.2240    62.7900    24.8440   148.3400   114.2330   123.9500   -26.5720 
  207.8750     2.2130    61.8890    24.8910   130.9570   106.4000   116.0080   -26.4670 
  208.0000     2.1940    60.2230    25.1350   117.6240   105.9510   115.8160   -26.3990 
  208.1250     2.1810    59.6680    25.3260   118.7600   113.4390   123.9250   -26.3920 
  208.2500     2.1760    59.3180    25.3980   131.1010   126.3490   138.0970   -26.4350 
  208.3750     2.1750    58.8250    25.4060   149.3760   142.7030   156.3880   -26.5140 
  208.5000     2.1760    57.8320    25.4060   166.5620   159.8820   175.6280   -26.6180 
  208.6250     2.1820    56.2030    25.4060   178.1010   175.1960   192.1340   -26.7510 
  208.7500     2.1910    55.8210    25.4060   187.7920   188.4310   205.8380   -26.8990 
  208.8750     2.1990    56.6200    25.4060   199.3590   200.3890   218.1850   -27.0560 
  209.0000     2.2050    57.9370    25.4020   215.0100   211.4790   229.8460   -27.2040 
  209.1250     2.2100    60.2200    25.3710   231.2240   220.6800   239.2930   -27.3070 
  209.2500     2.2100    62.5600    25.3100   239.2070   226.7570   244.5980   -27.3470 
  209.3750     2.2020    61.1820    25.2570   232.4900   228.2080   243.8010   -27.3230 
  209.5000     2.1920    55.7150    25.2350   219.6470   223.7130   235.4770   -27.2400 
  209.6250     2.1920    53.9480    25.2180   209.2780   214.0880   215.2460   -27.0970 
  209.7500     2.2020    57.5890    25.1840   201.8160   190.8490   196.5450   -26.9170 
  209.8750     2.2140    60.2620    25.1540   187.8500   164.6790   173.7170   -26.7050 
  210.0000     2.2220    57.3860    25.1420   161.2980   139.2280   149.7830   -26.4780 
  210.1250     2.2240    55.6250    25.1420   127.3060   118.3190   128.5360   -26.2770 
  210.2500     2.2230    57.5220    25.1420   100.9340   102.5740   111.6990   -26.1060 
  210.3750     2.2230    58.8860    25.1420    85.2660    91.7280    99.6610   -25.9580 
  210.5000     2.2270    57.4540    25.1420    76.4140    84.8370    91.8060   -25.8190 
  210.6250     2.2340    57.1190    25.1420    73.4810    80.8520    87.2380   -25.6730 
  210.7500     2.2390    58.0780    25.1420    74.4940    77.9960    84.0770   -25.5110 
  210.8750     2.2380    57.6710    25.1440    76.1040    75.6370    81.6130   -25.3170 
  211.0000     2.2380    57.9570    25.1480    73.2740    73.8720    79.8940   -25.0930 
  211.1250     2.2470    59.8240    25.1560    66.9260    73.6940    79.9330   -24.8340 
  211.2500     2.2540    60.2660    25.1600    64.8020    75.7790    82.4390   -24.5750 
  211.3750     2.2480    57.1340    25.1610    74.2170    80.7050    88.0630   -24.3290 
  211.5000     2.2300    53.5750    25.1610    94.6680    88.6200    96.9320   -24.0990 
  211.6250     2.2170    51.3860    25.1610   116.2160    99.1490   108.4440   -23.9050 
  211.7500     2.2180    51.3180    25.1610   128.0850   110.0100   120.0210   -23.7510 
  211.8750     2.2250    53.7140    25.1610   131.4370   118.8680   129.2610   -23.6520 
  212.0000     2.2210    53.8710    25.1610   130.4900   123.7160   134.2450   -23.5800 
  212.1250     2.1980    55.2220    25.1610   126.1710   122.3950   132.8830   -23.5420 
  212.2500     2.1740    62.0390    25.1630   119.7440   115.3140   125.6680   -23.5010 
  212.3750     2.1660    69.2170    25.1650   112.4510   103.1460   113.1900   -23.4550 
  212.5000     2.1810    70.2680    25.1650   104.5990    88.2600    97.5640   -23.4160 
  212.6250     2.2260    70.4710    25.1650    90.1150    74.5350    82.5780   -23.3700 
  212.7500     2.3010    70.9160    25.1630    71.1620    64.3450    71.0900   -23.3240 
  212.8750     2.3840    66.3370    25.1640    55.7070    58.3290    64.0490   -23.2830 
  213.0000     2.4370    58.3700    25.1680    50.0000    56.2280    61.2660   -23.2630 
  213.1250     2.4250    56.8650    25.1700    55.2140    57.7730    62.4470   -23.2570 
  213.2500     2.3770    58.9340    25.1710    62.1240    61.4700    66.0350   -23.2600 
  213.3750     2.3220    58.2930    25.1710    65.8700    66.4780    71.2130   -23.2720 
  213.5000     2.2790    56.5700    25.1710    66.7940    72.2250    77.4080   -23.3060 
  213.6250     2.2550    55.2380    25.1710    68.5710    78.8330    84.6850   -23.3550 
  213.7500     2.2430    54.3110    25.1710    75.0880    86.6850    93.2110   -23.4130 
  213.8750     2.2280    53.4890    25.1710    88.8500    95.9550   102.8880   -23.4710 
  214.0000     2.2050    53.9750    25.1710   110.7340   105.6470   112.4150   -23.5320 
  214.1250     2.1940    55.5010    25.1710   132.2410   112.2070   118.1690   -23.5760 
  214.2500     2.2080    56.5330    25.1710   139.1110   112.8220   117.9680   -23.6140 
  214.3750     2.2290    56.4800    25.1710   130.2130   107.3870   112.0140   -23.6480 
  214.5000     2.2340    55.5660    25.1730   112.2590    98.6840   102.9120   -23.6660 
  214.6250     2.2200    54.9810    25.1750    93.2000    90.5260    94.2750   -23.6780 
  214.7500     2.2030    54.8420    25.1770    78.4380    84.9650    88.2620   -23.6780 
  214.8750     2.1930    55.2880    25.1760    75.1640    82.4550    85.4420   -23.6730 
