~V
VERS. 2.00: Ver 2.00
~W
STRT.M 60.0000:
STOP.M 268.0000:
STEP.M 0.1250:
NULL. -999.2500:
UWI. DF3035:
~C
DEPT.M :
GR.API :
CALI.CM :
RXO.OHMM :
RI. :
RML.OHMM :
SP.MV :
DEN.GM/CC :
AC.US/MT :
~A
# ...
  180.0000    58.5300    25.5600   209.4260   276.5790   343.0410   -32.5240     2.1960   404.4280 
  180.1250    61.1560    25.5170   205.7000   236.5260   288.6340   -32.3890     2.1850   403.2840 
  180.2500    62.3390    25.4580   177.7980   191.8410   230.6120   -32.2200     2.1840   400.7790 
  180.3750    62.8820    25.3660   134.5920   151.1100   180.4410   -32.0290     2.2000   397.0830 
  180.5000    65.1240    25.2600    97.4890   119.4670   143.2180   -31.8320     2.2270   393.1090 
  180.6250    67.5190    25.2010    80.4510    99.5450   120.5300   -31.6450     2.2520   390.6420 
  180.7500    68.0960    25.2090    75.8400    87.8950   107.4520   -31.4580     2.2660   390.6310 
  180.8750    67.9150    25.2540    78.8440    82.4360   101.4270   -31.2780     2.2680   393.0520 
  181.0000    68.3150    25.2930    85.6810    81.2920   100.2710   -31.1100     2.2630   396.9000 
  181.1250    70.5340    25.3000    89.8180    83.1420   102.4410   -30.9580     2.2540   400.5600 
  181.2500    73.4400    25.2970    88.4800    86.1880   105.8290   -30.8160     2.2440   402.9810 
  181.3750    74.9290    25.2940    86.1000    89.2250   108.9420   -30.6770     2.2350   404.1810 
  181.5000    73.7780    25.2930    88.5960    90.8700   110.1640   -30.5300     2.2280   405.1540 
  181.6250    72.4710    25.2960    97.4470    89.7850   108.2050   -30.3640     2.2230   408.0020 
  181.7500    74.0790    25.2960    96.7530    86.8950   104.5610   -30.1960     2.2230   413.7760 
  181.8750    77.2730    25.2650    74.6960    83.6740   101.1390   -30.0130     2.2280   422.0590 
  182.0000    80.1870    25.1990    43.2760    81.6100    99.6010   -29.8040     2.2390   430.5390 
  182.1250    81.4350    25.1710    32.2330    81.6910   100.7420   -29.5590     2.2590   434.4700 
  182.2500    79.4890    25.1890    44.1470    82.5060   102.3180   -29.3000     2.2780   431.4600 
  182.3750    75.0840    25.1870    66.5370    81.8300   101.2240   -29.0560     2.2790   421.8800 
  182.5000    70.6880    25.1490    76.6370    77.7530    95.0640   -28.8390     2.2620   409.0070 
  182.6250    69.6250    25.1480    65.2430    69.8080    83.8490   -28.6420     2.2530   398.0380 
  182.7500    71.1810    25.1880    52.5570    60.7590    71.8390   -28.4540     2.2700   391.6640 
  182.8750    72.4030    25.2000    45.8760    52.8580    61.9870   -28.2860     2.3060   389.5790 
  183.0000    72.8100    25.1670    43.1180    47.4120    55.6130   -28.1430     2.3370   389.7800 
  183.1250    73.5400    25.1260    43.5160    44.9060    52.9320   -28.0320     2.3450   390.2470 
  183.2500    74.5300    25.1170    44.2500    44.1490    52.2890   -27.9590     2.3390   390.4590 
  183.3750    74.6710    25.1470    44.1900    44.3350    52.6530   -27.9060     2.3300   390.9090 
  183.5000    75.3750    25.1920    44.5640    44.7970    53.2260   -27.8520     2.3250   391.8480 
  183.6250    78.4490    25.2160    47.7010    45.1210    53.5930   -27.8330     2.3230   392.6860 
  183.7500    79.4290    25.2180    52.9980    45.3300    53.8890   -27.8180     2.3160   392.7430 
  183.8750    77.8870    25.2200    58.1040    45.6230    54.3870   -27.7970     2.3030   392.0810 
  184.0000    77.2130    25.2340    60.3820    46.2040    55.3240   -27.7710     2.2890   391.3310 
  184.1250    78.1820    25.2590    59.1820    47.3140    56.9830   -27.7410     2.2800   391.3290 
  184.2500    77.6750    25.2730    57.6470    48.9440    59.3340   -27.6810     2.2770   392.1540 
  184.3750    75.7060    25.2680    57.8110    51.0430    62.3080   -27.5770     2.2800   393.4710 
  184.5000    74.1950    25.2590    59.8630    53.4370    65.6700   -27.4290     2.2890   394.6500 
  184.6250    71.2960    25.2690    62.6870    55.8010    68.9770   -27.2270     2.2930   394.7470 
  184.7500    68.1640    25.3000    64.7470    57.8010    71.7520   -27.0350     2.2880   393.5550 
  184.8750    68.5850    25.3400    65.4650    59.0940    73.5130   -26.8620     2.2780   391.5210 
  185.0000    71.8400    25.3600    65.7510    59.2710    73.7270   -26.7080     2.2720   389.6880 
  185.1250    74.9820    25.3360    66.8520    57.8000    71.7880   -26.5890     2.2720   389.3720 
  185.2500    77.1330    25.3000    64.7510    55.1580    68.4400   -26.5070     2.2730   390.3270 
  185.3750    77.3390    25.2800    56.0210    52.0540    64.6830   -26.4950     2.2750   391.4450 
  185.5000    77.4620    25.2690    44.8550    49.3980    61.7230   -26.5670     2.2830   391.5690 
  185.6250    80.0480    25.2490    41.8750    48.3500    61.0430   -26.7050     2.2980   390.3510 
  185.7500    81.8690    25.2440    47.7380    49.2020    62.8650   -26.8660     2.3140   388.8400 
  185.8750    78.4620    25.2620    56.5590    51.9140    67.0010   -27.0460     2.3260   387.6440 
  186.0000    72.4350    25.2830    63.4110    56.0030    72.6720   -27.2330     2.3260   386.6150 
  186.1250    69.7920    25.2850    69.8970    60.3910    78.2380   -27.4220     2.3090   385.1740 
  186.2500    68.2700    25.2810    76.6820    63.5550    81.6920   -27.6200     2.2870   383.5130 
  186.3750    67.2330    25.2750    78.4920    64.5110    81.8690   -27.8140     2.2770   382.3930 
  186.5000    68.9010    25.2660    73.2510    63.1920    78.9980   -28.0020     2.2820   382.3490 
  186.6250    72.6780    25.2680    64.9010    60.3800    74.4950   -28.1860     2.2960   383.0290 
  186.7500    74.6710    25.2450    57.2990    57.5890    70.4040   -28.3560     2.3080   383.3620 
  186.8750    75.1290    25.1380    51.4850    55.7280    67.8040   -28.5070     2.3110   383.1010 
  187.0000    75.5160    24.9740    49.6600    55.2800    67.1320   -28.6250     2.3060   382.8210 
  187.1250    76.5780    24.8690    53.7950    56.3460    68.3320   -28.6820     2.3030   383.6180 
  187.2500    78.6340    24.8670    60.0930    58.0900    70.2800   -28.6590     2.3050   385.5230 
  187.3750    80.5660    24.9100    64.4090    59.7880    72.0590   -28.5570     2.3060   387.8110 
  187.5000    80.4760    24.9670    64.6770    60.6760    72.7170   -28.3860     2.3010   389.6620 
  187.6250    78.6100    25.0750    61.8320    59.6930    71.0040   -28.1660     2.2980   390.6190 
  187.7500    78.4630    25.1970    59.3660    56.9050    67.1980   -27.9420     2.3010   390.9820 
  187.8750    79.1010    25.2780    57.2170    52.9970    62.3150   -27.7240     2.3040   390.9750 
  188.0000    78.5140    25.3050    52.7440    49.1480    57.9010   -27.5490     2.3040   390.6990 
  188.1250    78.7590    25.3050    46.6710    47.0530    56.1420   -27.4580     2.3090   390.2710 
  188.2500    80.7240    25.3070    46.2000    47.8860    58.3450   -27.4700     2.3190   389.9430 
  188.3750    80.3470    25.3190    56.5340    52.8770    65.8260   -27.6030     2.3260   389.7890 
  188.5000    75.2910    25.3590    76.3540    63.1610    79.7790   -27.8690     2.3240   389.5490 
  188.6250    69.1140    25.3910    98.7860    80.5780   102.4520   -28.2650     2.3120   388.4940 
  188.7500    66.5690    25.3750   122.8170   103.3430   131.9070   -28.7320     2.2970   386.6100 
  188.8750    67.5390    25.3380   152.5830   127.7780   163.4570   -29.2780     2.2770   384.7200 
  189.0000    69.0080    25.3350   184.5170   147.2990   187.6090   -29.8930     2.2550   384.0590 
  189.1250    68.3730    25.3800   204.2880   153.4580   192.2900   -30.5430     2.2350   385.6510 
  189.2500    67.1320    25.4200   202.6320   148.2160   182.3500   -31.2130     2.2280   388.3360 
  189.3750    67.4750    25.4330   177.7030   137.0390   166.9660   -31.8530     2.2320   390.2920 
  189.5000    68.8820    25.4230   140.9020   126.4620   154.6450   -32.4080     2.2450   389.8360 
  189.6250    67.3260    25.3970   116.4020   123.1950   152.5920   -32.8370     2.2600   386.2590 
  189.7500    62.8590    25.3610   117.3330   129.5310   162.0890   -33.1530     2.2710   381.5840 
  189.8750    59.1550    25.3410   148.3780   146.6700   184.1260   -33.3510     2.2660   377.5690 
