~V
VERS. 2.00: Ver 2.00
~W
STRT.M 135.0000:
STOP.M 270.0000:
STEP.M 0.1250:
NULL. -999.2500:
UWI. DF3063:
~C
DEPT.M :
SP.MV :
GR.API :
CALI.CM :
RXO.OHMM :
RI. :
RML.OHMM :
DEN.GM/CC :
~A
# ...
  236.2500   -12.6510   107.1460    24.5790     9.5110     8.2550    10.5530     2.4640 
  236.3750   -12.4470   104.1910    24.6360     9.5130     8.1630    10.5600     2.4530 
  236.5000   -12.2490   101.8030    24.6380     9.5770     8.1970    10.7540     2.4400 
  236.6250   -12.0690   103.5900    24.5970     9.6090     8.3650    11.1450     2.4330 
  236.7500   -11.9320   108.5550    24.5550     9.6910     8.6360    11.6420     2.4440 
  236.8750   -11.8370   110.9070    24.5710     9.9030     8.9470    12.1330     2.4750 
  237.0000   -11.8040   106.8060    24.6020    11.2980     9.1960    12.4490     2.5080 
  237.1250   -11.7930   102.1100    24.5430    13.8230     9.2720    12.4630     2.5240 
  237.2500   -11.8040   103.9800    24.5450    16.3150     9.2520    12.3430     2.5140 
  237.3750   -11.8280   108.0370    24.6130    14.7850     9.2950    12.3710     2.4880 
  237.5000   -11.8580   108.4910    24.4680    11.4970     9.6230    12.9800     2.4640 
  237.6250   -11.8980   102.8660    24.4430    12.4430    10.7360    15.0100     2.4430 
  237.7500   -11.9500    93.4730    24.4550    13.6520    12.9350    18.6130     2.4160 
  237.8750   -12.0030    83.1510    24.5690    18.5410    16.4700    23.8490     2.3850 
  238.0000   -12.0570    74.5020    24.6110    35.3700    21.5900    30.6910     2.3650 
  238.1250   -12.1100    68.9890    24.5670    61.7140    28.5590    38.8120     2.3530 
  238.2500   -12.1510    66.1980    24.4120    80.4440    36.2270    46.7220     2.3290 
  238.3750   -12.1600    65.6320    24.4280    85.4190    43.0390    52.8830     2.2780 
  238.5000   -12.1360    67.0810    24.4750    74.0440    47.8380    56.4960     2.2320 
  238.6250   -12.0750    69.8310    24.6020    63.2420    50.3670    57.7920     2.2140 
  238.7500   -11.9740    70.7560    24.6020    57.2590    51.7560    58.2240     2.2240 
  238.8750   -11.8750    68.5000    24.4510    68.2400    52.8510    58.8180     2.2400 
  239.0000   -11.7760    66.3860    24.4820    79.7660    53.8270    59.5290     2.2420 
  239.1250   -11.6770    67.3480    24.6300    74.1750    53.6900    59.0590     2.2350 
  239.2500   -11.5780    67.0660    24.6420    62.0430    51.4250    56.3370     2.2310 
  239.3750   -11.4740    64.3890    24.6290    57.4610    46.5060    50.9160     2.2390 
  239.5000   -11.3890    63.3210    24.6160    61.6800    39.6100    43.4360     2.2530 
  239.6250   -11.3120    66.4850    24.5630    57.4600    32.3440    35.4160     2.2740 
  239.7500   -11.2420    73.1920    24.5480    42.6630    26.0660    28.4340     2.2980 
  239.8750   -11.1540    82.7170    24.5590    27.3840    21.4320    23.3390     2.3160 
  240.0000   -11.0440    90.5320    24.5830    17.9250    18.5960    20.4210     2.3230 
  240.1250   -10.9340    87.8550    24.5210    14.4270    17.6300    19.8400     2.3200 
  240.2500   -10.8280    78.5270    24.5160    16.1210    18.0330    20.9020     2.3110 
  240.3750   -10.7440    70.4340    24.5680    20.8670    19.5970    23.1680     2.2940 
  240.5000   -10.6600    67.1900    24.5730    24.5430    21.9700    25.9860     2.2740 
  240.6250   -10.5850    65.8420    24.5780    28.5160    24.3800    28.3070     2.2560 
  240.7500   -10.5230    66.0990    24.5980    36.9270    25.8880    29.3560     2.2530 
  240.8750   -10.4780    69.5850    24.6110    41.0190    25.9330    28.8000     2.2750 
  241.0000   -10.4460    73.6080    24.6350    34.7240    24.7290    27.0400     2.3110 
  241.1250   -10.4280    74.5440    24.6030    25.7300    23.1800    25.2110     2.3450 
  241.2500   -10.4250    72.9190    24.5330    20.9110    22.2120    24.3380     2.3610 
  241.3750   -10.4430    70.5810    24.5120    19.9710    22.1410    24.7470     2.3480 
  241.5000   -10.4800    68.4110    24.5920    20.4350    23.0000    26.3110     2.3250 
  241.6250   -10.5260    67.2590    24.5340    24.7380    24.5830    28.5200     2.3110 
  241.7500   -10.5650    67.0110    24.3900    40.3670    25.9540    30.2100     2.3100 
  241.8750   -10.5960    66.5690    24.3480    56.0870    26.3250    30.5650     2.3090 
  242.0000   -10.6200    66.2250    24.3720    54.3810    25.2370    29.1880     2.2980 
  242.1250   -10.6350    65.4530    24.4040    38.3830    22.8250    26.1930     2.2910 
  242.2500   -10.6570    65.8010    24.4990    25.7720    20.1470    22.8330     2.2990 
  242.3750   -10.6720    68.4420    24.5800    18.5880    17.8340    19.9350     2.3130 
  242.5000   -10.6870    70.5440    24.3830    19.8950    16.1600    17.9460     2.3130 
  242.6250   -10.7120    71.2540    24.1780    20.3450    15.2520    17.0710     2.2970 
  242.7500   -10.7540    72.1320    24.0080    19.4690    14.8860    16.8810     2.2820 
  242.8750   -10.8060    74.1800    23.9410    17.2730    14.8280    17.0070     2.2830 
  243.0000   -10.8520    76.3630    23.9620    15.9120    14.8240    17.1020     2.2950 
  243.1250   -10.8980    77.5640    23.5770    14.3290    14.7360    16.9960     2.3030 
  243.2500   -10.9370    75.7750    23.4830    13.4720    14.5390    16.7120     2.3010 
  243.3750   -10.9820    71.2210    23.4310    12.9600    14.2780    16.3260     2.2920 
  243.5000   -11.0140    68.1400    23.7690    12.7660    14.0410    15.9710     2.2870 
  243.6250   -11.0230    70.5700    24.1800    13.2000    13.8670    15.7280     2.2920 
  243.7500   -11.0170    75.1430    24.4320    13.3680    13.7650    15.6030     2.3030 
  243.8750   -10.9980    78.4620    24.4660    13.7790    13.7640    15.6220     2.3110 
  244.0000   -10.9650    78.2030    24.8280    14.7420    13.9150    15.8600     2.3110 
  244.1250   -10.9270    74.5130    24.7200    16.1480    14.3060    16.4420     2.3040 
  244.2500   -10.8760    70.6780    24.7360    17.8070    15.0300    17.4770     2.2930 
  244.3750   -10.8020    68.2860    24.8520    19.4310    16.1800    19.0370     2.2800 
  244.5000   -10.7390    66.7650    24.8890    23.1270    17.8140    21.1260     2.2670 
  244.6250   -10.6950    66.3050    24.7390    25.0180    19.9130    23.5660     2.2580 
  244.7500   -10.6570    68.0750    24.7390    26.2580    22.0500    25.8320     2.2540 
  244.8750   -10.6110    70.4290    24.8870    26.1230    23.7650    27.4590     2.2530 
  245.0000   -10.5620    70.6060    24.9460    27.9330    24.6030    28.0190     2.2550 
  245.1250   -10.4950    68.7630    24.8600    32.4500    24.1200    27.1330     2.2570 
  245.2500   -10.4130    67.9620    24.6150    34.1990    22.6280    25.2180     2.2610 
  245.3750   -10.3240    69.8020    24.5310    28.9300    20.5930    22.7910     2.2780 
  245.5000   -10.2240    73.7110    24.5000    20.8530    18.5180    20.4050     2.3150 
  245.6250   -10.1320    76.3370    24.5140    16.0470    16.8110    18.4860     2.3630 
  245.7500   -10.0350    75.3190    24.5550    14.1620    15.5740    17.1690     2.4000 
  245.8750    -9.9640    74.0650    24.5760    13.3370    14.8540    16.5000     2.4010 
  246.0000    -9.9280    75.7160    24.4920    13.4030    14.7240    16.5580     2.3790 
  246.1250    -9.9090    77.6620    24.4770    13.6890    15.3190    17.4250     2.3530 
  246.2500    -9.9120    75.5360    24.4680    13.7690    16.4260    18.7790     2.3410 
  246.3750    -9.9510    69.7590    24.1450    13.7110    17.8500    20.3470     2.3730 
  246.5000   -10.0130    62.7880    23.7680    13.4800    19.3030    21.7890     2.4490 
  246.6250   -10.0710    59.0580    23.8140    15.1860    20.3570    22.6900     2.5450 
  246.7500   -10.1630    59.9810    23.9830    22.0590    20.8450    22.9650     2.6100 
  246.8750   -10.2600    62.4540    24.0120    26.3280    20.8250    22.7580     2.5790 
  247.0000   -10.3550    62.9550    24.0360    23.6010    20.5800    22.5030     2.4740 
  247.1250   -10.4720    63.8340    24.2960    16.8070    20.8450    23.1940     2.3580 
  247.2500   -10.6080    68.3710    24.4050    16.7450    22.2300    25.3980     2.3040 
  247.3750   -10.7500    73.5010    24.3350    25.9030    25.1600    29.4340     2.3460 
