~V
VERS. 2.00: Ver 2.00
~W
STRT.M 130.0000:
STOP.M 280.0000:
STEP.M 0.1250:
NULL. -999.2500:
UWI. DF3042:
~C
DEPT.M :
DEN.GM/CC :
GR.API :
RML.OHMM :
RI. :
RXO.OHMM :
CALI.CM :
SP.MV :
~A
# ...
  220.0000     2.2030    71.2590   141.7790   121.6240    98.7150    24.6360   -28.5640 
  220.1250     2.1990    66.6190   147.1880   127.1530   107.3310    24.6830   -28.7320 
  220.2500     2.1950    64.8570   147.0730   128.1570   111.5400    24.7080   -28.8480 
  220.3750     2.1910    66.8150   141.2540   124.2310   109.6730    24.7040   -29.0010 
  220.5000     2.1880    67.9110   131.1140   116.2830   104.2400    24.6990   -29.1320 
  220.6250     2.1860    67.0730   119.1060   106.1850    94.2280    24.7190   -29.3240 
  220.7500     2.1870    67.5470   108.2820    96.6990    85.7420    24.7800   -29.5200 
  220.8750     2.1950    71.0140   100.5370    89.6160    82.3110    24.9160   -29.7060 
  221.0000     2.2100    75.0150    97.1720    86.2060    78.6640    25.0340   -29.8890 
  221.1250     2.2320    74.8230    99.7340    87.9480    76.2060    24.9260   -30.0460 
  221.2500     2.2540    70.4600   107.0500    93.9650    76.9030    24.9040   -30.2150 
  221.3750     2.2660    65.0740   117.7020   103.1440    88.3700    24.9880   -30.4310 
  221.5000     2.2600    62.1140   129.3260   113.4940   102.6250    25.0950   -30.6270 
  221.6250     2.2390    62.7680   138.3480   121.9210   116.9460    25.1800   -30.8640 
  221.7500     2.2120    64.8210   142.7330   126.4180   138.2080    25.3030   -31.0760 
  221.8750     2.1940    68.4480   142.2120   126.4760   143.8820    25.4150   -31.3160 
  222.0000     2.1880    71.9720   138.4420   123.2560   130.0390    25.4770   -31.5430 
  222.1250     2.1910    71.9340   134.6110   119.3290   117.5730    25.5010   -31.8500 
  222.2500     2.1980    68.5770   133.7180   117.5330   114.6220    25.5110   -32.1170 
  222.3750     2.2010    64.3360   137.5220   119.5750   115.9530    25.4940   -32.3840 
  222.5000     2.2020    61.5400   146.9420   126.3530   120.9140    25.4750   -32.5740 
  222.6250     2.2000    60.2050   162.8630   138.6210   129.3620    25.4820   -32.7650 
  222.7500     2.1950    60.2090   183.0500   154.4690   150.3200    25.5000   -32.9160 
  222.8750     2.1870    60.7120   205.1880   171.9860   181.5240    25.5130   -33.0630 
  223.0000     2.1770    60.6060   226.2240   188.7340   204.2260    25.5260   -33.1660 
  223.1250     2.1670    61.1180   242.0700   201.5420   208.1840    25.5220   -33.2140 
  223.2500     2.1600    61.5420   251.5900   209.5100   211.3110    25.5190   -33.3100 
  223.3750     2.1580    63.1150   255.0160   212.7650   215.9660    25.5130   -33.3370 
  223.5000     2.1580    65.9950   253.8190   212.3640   217.5400    25.5000   -33.3860 
  223.6250     2.1590    66.1960   249.5460   209.4480   210.9160    25.4810   -33.3540 
  223.7500     2.1590    63.0330   244.1190   205.5400   204.6770    25.4580   -33.3190 
  223.8750     2.1600    60.7770   238.2780   201.2410   202.6850    25.4260   -33.2240 
  224.0000     2.1630    60.8540   232.3220   196.8060   200.3450    25.3340   -33.1300 
  224.1250     2.1690    60.5710   225.9700   192.0230   192.1420    25.1640   -32.9990 
  224.2500     2.1760    60.5890   218.6850   186.4240   185.1220    25.0100   -32.8310 
  224.3750     2.1830    62.6360   210.1510   179.6280   184.2490    24.9430   -32.6580 
  224.5000     2.1900    64.7820   200.7840   171.8120   186.7440    24.9020   -32.4460 
  224.6250     2.1980    65.3710   192.1580   164.0760   185.7890    24.8630   -32.2360 
  224.7500     2.2070    66.6920   185.9960   157.9730   178.3380    24.7570   -32.0310 
  224.8750     2.2110    68.2380   183.5730   154.7260   164.4630    24.5780   -31.8770 
  225.0000     2.2100    68.9110   185.5000   155.0340   153.7040    24.4420   -31.7020 
  225.1250     2.2030    67.7910   192.0680   159.3100   152.2380    24.3990   -31.5320 
  225.2500     2.1940    64.9070   201.1840   165.8580   158.7420    24.4180   -31.3410 
  225.3750     2.1880    61.8810   210.8900   173.0630   168.1790    24.5270   -31.1510 
  225.5000     2.1840    60.3220   219.0290   179.1400   177.5210    24.8250   -31.0490 
  225.6250     2.1820    59.8340   223.2250   182.1370   188.9870    25.2260   -30.8790 
  225.7500     2.1780    60.1560   223.7570   182.1950   198.6360    25.5720   -30.7560 
  225.8750     2.1730    62.0500   221.7040   180.0930   200.6550    25.7080   -30.4990 
  226.0000     2.1680    64.7750   218.6470   176.7990   193.3180    25.7140   -30.2550 
  226.1250     2.1670    66.0030   214.0940   172.4050   176.1850    25.6370   -29.9380 
  226.2500     2.1690    65.9530   206.4040   166.0490   166.0800    25.5620   -29.5930 
  226.3750     2.1730    65.3180   192.5330   156.3110   166.8470    25.5280   -29.2430 
  226.5000     2.1770    64.5710   172.4030   142.4690   172.0210    25.5030   -28.8330 
  226.6250     2.1830    64.7670   145.7560   125.2570   165.4960    25.4530   -28.4700 
  226.7500     2.1900    65.0770   119.9940   108.1030   143.7640    25.3960   -28.0670 
  226.8750     2.1970    64.1850   101.9150    93.7390   110.9660    25.3690   -27.7560 
  227.0000     2.2020    63.7840    92.1280    83.9170    82.2250    25.3630   -27.4540 
  227.1250     2.2010    65.1690    88.6800    79.8470    68.8400    25.3620   -27.1800 
  227.2500     2.1930    65.4960    89.5760    79.8850    73.4950    25.3580   -26.9100 
  227.3750     2.1810    64.4500    93.3580    82.7070    81.3270    25.3500   -26.6220 
  227.5000     2.1700    63.8720    98.3280    86.7580    87.9600    25.3440   -26.3060 
  227.6250     2.1630    65.6800   102.4600    90.2110    93.7010    25.3420   -25.9660 
  227.7500     2.1630    67.5020   104.4880    91.8730    97.3460    25.3410   -25.5680 
  227.8750     2.1690    68.0970   104.0170    91.3310    97.0620    25.3350   -25.1600 
  228.0000     2.1770    68.7990   101.4080    88.8260    94.5560    25.3250   -24.7310 
  228.1250     2.1810    69.6760    97.4720    84.9840    91.1870    25.3270   -24.3350 
  228.2500     2.1780    68.5200    93.5160    80.9800    89.5340    25.3370   -23.9380 
  228.3750     2.1700    64.9490    90.4010    77.6080    86.5300    25.3420   -23.5600 
  228.5000     2.1640    62.5170    88.8450    75.5600    81.9750    25.3420   -23.1990 
  228.6250     2.1710    63.6650    89.8350    75.7970    78.6060    25.3420   -22.8840 
  228.7500     2.1980    65.7120    93.3120    78.3550    78.6220    25.3440   -22.5520 
  228.8750     2.2420    68.0360    99.2440    83.2260    80.8140    25.3330   -22.2580 
  229.0000     2.2850    70.0200   107.3250    90.0670    82.7660    25.2950   -21.8930 
  229.1250     2.3170    69.9710   116.7200    98.0040    88.4480    25.1080   -21.5190 
  229.2500     2.3400    69.3620   125.1550   105.0320    96.2350    24.8170   -21.1550 
  229.3750     2.3770    68.5530   129.9270   108.9880    93.4790    24.4940   -20.7580 
  229.5000     2.4380    67.4910   128.0370   107.5830    82.3050    24.3620   -20.3610 
  229.6250     2.5150    68.6540   115.1630    97.6270    84.0970    24.4570   -19.9260 
  229.7500     2.5790    73.0070    93.4290    80.5620    91.8950    24.5990   -19.5770 
  229.8750     2.5900    75.4480    67.4960    59.6540    88.6090    24.5980   -19.1860 
  230.0000     2.5500    75.0530    43.9870    39.8110    71.0100    24.4790   -18.9210 
  230.1250     2.4870    79.0540    27.6390    25.7060    55.5460    24.6740   -18.6570 
  230.2500     2.4260    86.1730    17.5700    16.9500    27.9540    24.8810   -18.4630 
  230.3750     2.3870    89.1730    12.5800    12.1740    13.0180    25.0000   -18.3200 
  230.5000     2.3700    87.3180    10.6530     9.8880     9.2420    25.0460   -18.2310 
  230.6250     2.3700    86.7070    10.2150     9.1770     9.1440    25.0530   -18.2300 
  230.7500     2.3790    87.9740    10.3620     9.1840     9.2070    25.0320   -18.2590 
  230.8750     2.3900    91.3340    10.7040     9.5610     9.0640    24.9870   -18.3100 
  231.0000     2.3990    96.9460    10.9860    10.0340     9.0710    24.9320   -18.3780 
  231.1250     2.4040   104.8730    11.0690    10.3910     9.1280    24.8810   -18.4830 
