~V
VERS. 2.00: Ver 2.00
~W
STRT.M 59.0000:
STOP.M 281.0000:
STEP.M 0.1250:
NULL. -999.2500:
UWI. DF3005:
~C
DEPT.M :
DEN.GM/CC :
SP.MV :
AC.US/MT :
GR.API :
CALI.CM :
RXO.OHMM :
RI. :
RML.OHMM :
~A
   59.0000  -999.2500    43.6700  -999.2500    45.3010    25.6400     2.6380     0.1750     0.7100 
   59.1250  -999.2500    40.5010  -999.2500    44.2970    25.6400     4.3820     0.1450     0.6740 
   59.2500  -999.2500    36.7470  -999.2500    42.5420    25.6400     4.1690     0.1110     0.6330 
   59.3750  -999.2500    32.3370  -999.2500    41.6140    25.6420     1.5450     0.0850     0.6020 
   59.5000  -999.2500    27.2680  -999.2500    42.8320    25.6330     0.4890     0.0790     0.5950 
   59.6250  -999.2500    21.5530  -999.2500    45.3270    25.6490     2.3120     0.1000     0.6200 
   59.7500  -999.2500    15.4290  -999.2500    47.0000    25.8560     8.9190     0.1450     0.6740 
   59.8750  -999.2500     9.0140  -999.2500    48.3100    26.5550    14.0020     0.2370     0.7840 
   60.0000  -999.2500     2.3840  -999.2500    51.3160    27.9510    12.9950     0.4420     1.0300 
   60.1250  -999.2500    -4.4090  -999.2500    56.3550    29.7810    12.2790     0.9300     1.6160 
   60.2500  -999.2500   -11.1850  -999.2500    59.4050    31.3560    10.6920     1.7770     2.6330 
   60.3750  -999.2500   -17.6610  -999.2500    59.1510    32.4330     9.9800     2.9230     4.0080 
   60.5000  -999.2500   -23.4530  -999.2500    57.0870    32.8680     9.3250     4.0680     5.3820 
   60.6250  -999.2500   -27.9970  -999.2500    55.0850    32.5500     8.6410     4.8730     6.3480 
   60.7500  -999.2500   -31.3070  -999.2500    54.9200    31.9980     8.3060     5.4320     7.0190 
   60.8750  -999.2500   -33.4680  -999.2500    58.0750    31.2900     8.4120     5.9030     7.5840 
   61.0000  -999.2500   -34.7430  -999.2500    63.5310    30.0010     9.5730     6.3510     8.1210 
   61.1250  -999.2500   -35.4320  -999.2500    66.7940    28.1220    11.9570     6.7200     8.5640 
   61.2500  -999.2500   -35.9210  -999.2500    65.8880    26.7510    13.7300     6.9730     8.8680 
   61.3750  -999.2500   -36.3630  -999.2500    63.3400    26.3280    14.1760     7.1300     9.0560 
   61.5000  -999.2500   -36.7960  -999.2500    61.7160    26.3710    13.9790     7.2490     9.1990 
   61.6250  -999.2500   -37.1450  -999.2500    61.6730    26.3990    13.9470     7.3790     9.3550 
   61.7500  -999.2500   -37.3500  -999.2500    63.8390    26.4020    13.9870     7.5070     9.5090 
   61.8750  -999.2500   -37.3840  -999.2500    66.6040    26.4050    14.0320     7.6090     9.6300 
   62.0000  -999.2500   -37.2710  -999.2500    67.2480    26.3970    14.0760     7.6790     9.7150 
   62.1250  -999.2500   -37.0520  -999.2500    66.1070    26.3220    14.0620     7.7400     9.7880 
   62.2500  -999.2500   -36.8180  -999.2500    65.5330    26.1870    14.1490     7.8190     9.8830 
   62.3750  -999.2500   -36.6080  -999.2500    64.7170    26.0380    14.3740     7.9300    10.0170 
   62.5000  -999.2500   -36.3910  -999.2500    63.1200    25.9190    14.3990     8.0810    10.1980 
   62.6250  -999.2500   -36.0460  -999.2500    61.5860    25.8220    14.5220     8.2840    10.4400 
   62.7500  -999.2500   -35.4940  -999.2500    60.8430    25.7190    14.7640     8.5340    10.7410 
   62.8750  -999.2500   -34.7110  -999.2500    61.2690    25.6280    15.2300     8.8540    11.1240 
   63.0000  -999.2500   -33.7520  -999.2500    63.4110    25.5700    15.6470     9.2650    11.6180 
   63.1250  -999.2500   -32.7030  -999.2500    65.0110    25.5540    15.9480     9.7190    12.1630 
   63.2500  -999.2500   -31.6230  -999.2500    63.6340    25.5540    16.2870    10.0260    12.5310 
   63.3750  -999.2500   -30.4900  -999.2500    62.0440    25.5460    16.7120     9.9640    12.4570 
   63.5000  -999.2500   -29.2560  -999.2500    63.0240    25.5160    16.9320     9.4180    11.8010 
   63.6250  -999.2500   -27.8660  -999.2500    66.8110    25.5370    15.5130     8.4720    10.4820 
   63.7500  -999.2500   -26.3740  -999.2500    73.6940    25.7280    12.4840     7.4760     8.5280 
   63.8750  -999.2500   -24.8450  -999.2500    83.1050    26.0870     9.5200     6.6280     7.2250 
   64.0000  -999.2500   -23.3370  -999.2500    90.2360    26.4550     7.9460     6.0080     6.5660 
   64.1250  -999.2500   -21.9270  -999.2500    91.6500    26.6430     7.2820     5.6680     6.5050 
   64.2500  -999.2500   -20.6900  -999.2500    93.2530    26.6930     7.1890     5.5460     6.7610 
   64.3750  -999.2500   -19.7010  -999.2500    97.5000    26.6960     7.2420     5.5860     7.1200 
   64.5000  -999.2500   -19.0170  -999.2500   102.3180    26.6960     7.5420     5.6810     7.4130 
   64.6250  -999.2500   -18.7040  -999.2500   104.5020    26.6810     8.5390     5.6640     7.4270 
   64.7500  -999.2500   -18.6410  -999.2500   105.0540    26.7540     8.8470     5.4620     7.1020 
   64.8750  -999.2500   -18.7230  -999.2500   103.7610    27.1070     7.4500     5.1240     6.6130 
   65.0000  -999.2500   -18.8490  -999.2500   101.4620    27.8440     5.6000     4.7820     6.2060 
   65.1250  -999.2500   -18.9570  -999.2500   100.2560    28.5440     5.7380     4.6240     6.1020 
   65.2500  -999.2500   -19.0370  -999.2500    98.8450    28.5700     5.8850     4.7660     6.3280 
   65.3750  -999.2500   -19.0930  -999.2500    96.0510    27.9220     6.0060     5.2790     6.9130 
   65.5000  -999.2500   -19.1570  -999.2500    91.7310    27.1390     7.0350     6.1380     7.8420 
   65.6250  -999.2500   -19.2510  -999.2500    88.9270    26.7550     9.2840     7.1170     8.8550 
   65.7500  -999.2500   -19.3580  -999.2500    88.3150    26.6550    11.5930     7.7660     9.3920 
   65.8750  -999.2500   -19.4700  -999.2500    88.9110    26.6760    11.5410     7.8060     9.1490 
   66.0000  -999.2500   -19.5420  -999.2500    91.6090    26.8200     9.1130     7.3100     8.3400 
   66.1250  -999.2500   -19.4930  -999.2500    97.0410    27.0300     6.7040     6.6090     7.4690 
   66.2500  -999.2500   -19.3220  -999.2500   101.6710    27.1760     6.2950     6.0310     6.8700 
   66.3750  -999.2500   -19.0710  -999.2500   102.2430    27.2140     6.8680     5.6720     6.6020 
   66.5000  -999.2500   -18.8360  -999.2500    99.1560    27.1970     7.5650     5.5300     6.5830 
   66.6250  -999.2500   -18.7130  -999.2500    96.3810    27.2060     7.5040     5.5540     6.6490 
   66.7500  -999.2500   -18.7010  -999.2500    97.2690    27.2300     6.6930     5.6200     6.6670 
   66.8750  -999.2500   -18.7730  -999.2500   101.2610    27.2200     6.3010     5.6590     6.6340 
   67.0000  -999.2500   -18.8870  -999.2500   104.5950    27.1590     6.9330     5.6370     6.5990 
   67.1250  -999.2500   -19.0420  -999.2500   105.8710    27.0990     7.0070     5.5470     6.5950 
   67.2500  -999.2500   -19.2270  -999.2500   106.2600    27.0790     6.4300     5.4350     6.5950 
   67.3750  -999.2500   -19.4180  -999.2500   105.6330    27.0710     6.1290     5.3400     6.5630 
   67.5000  -999.2500   -19.6140  -999.2500   104.8160    27.0370     6.3870     5.2920     6.5010 
   67.6250  -999.2500   -19.8270  -999.2500   104.5710    26.9640     6.9400     5.3110     6.4880 
   67.7500  -999.2500   -20.0780  -999.2500   103.6410    26.8740     7.2770     5.3930     6.6070 
   67.8750  -999.2500   -20.3760  -999.2500   101.0610    26.7790     7.5180     5.5460     6.8870 
   68.0000  -999.2500   -20.7080  -999.2500    98.9310    26.6820     7.6870     5.7850     7.2930 
   68.1250  -999.2500   -21.0540  -999.2500    96.3140    26.6030     8.1210     6.1090     7.7230 
   68.2500  -999.2500   -21.3640  -999.2500    91.4320    26.5690     8.5080     6.4300     8.0340 
   68.3750  -999.2500   -21.6050  -999.2500    86.8090    26.5850     8.9150     6.6520     8.1540 
   68.5000  -999.2500   -21.7400  -999.2500    84.7040    26.6170     9.3080     6.7300     8.1180 
   68.6250  -999.2500   -21.7160  -999.2500    85.1260    26.6290     9.2710     6.7020     8.0580 
   68.7500  -999.2500   -21.6070  -999.2500    87.0370    26.6290     8.8960     6.6880     8.1090 
   68.8750  -999.2500   -21.4850  -999.2500    88.4070    26.6290     8.7880     6.7580     8.3340 
