~V
VERS. 2.00: Ver 2.00
~W
STRT.M 60.0000:
STOP.M 251.0000:
STEP.M 0.1250:
NULL. -999.2500:
UWI. DF3020:
~C
DEPT.M :
GR.API :
RML.OHMM :
RI. :
RXO.OHMM :
CALI.CM :
DEN.GM/CC :
SP.MV :
~A
# ...
  195.0000   107.5420     9.5050     7.7370     9.6210    23.5580     2.4440   -29.0200 
  195.1250   106.6420    10.1340     8.1680     9.6780    23.5880     2.4490   -29.4970 
  195.2500   100.9280    10.8410     8.6750    10.0170    23.5530     2.4640   -29.9810 
  195.3750    95.4180    11.4820     9.1520    11.1120    23.5250     2.4850   -30.4280 
  195.5000    93.3600    11.8630     9.4570    12.5730    23.5400     2.5040   -30.8320 
  195.6250    92.0910    11.7490     9.4110    13.6190    23.6220     2.5130   -31.1420 
  195.7500    88.8660    11.2320     9.0550    13.4510    23.7340     2.5080   -31.3450 
  195.8750    87.1620    10.5260     8.5250    12.1250    23.8330     2.4910   -31.4790 
  196.0000    91.7080     9.9440     8.0340    10.4900    23.8940     2.4690   -31.5470 
  196.1250    99.1890     9.8400     7.8440     9.7270    23.9360     2.4550   -31.5210 
  196.2500   103.1280    10.2180     8.0020     9.5950    23.9740     2.4560   -31.4850 
  196.3750   101.8660    10.9300     8.4500     9.8960    23.9690     2.4720   -31.4230 
  196.5000    97.2220    11.7070     9.0360    10.6360    23.7260     2.4910   -31.3330 
  196.6250    92.6510    12.2230     9.5470    12.7050    23.5760     2.5000   -31.2150 
  196.7500    89.7190    12.4250     9.8800    14.5250    23.5060     2.4960   -31.0700 
  196.8750    89.8990    12.4950    10.0970    14.1910    23.4710     2.4900   -30.8710 
  197.0000    92.5720    12.7420    10.3740    11.7600    23.3870     2.4970   -30.6620 
  197.1250    92.5490    13.4330    10.8980    11.7680    23.2860     2.5320   -30.3300 
  197.2500    86.3600    14.3360    11.5690    13.1540    23.1810     2.5880   -29.9170 
  197.3750    79.1290    15.0060    12.1090    15.2240    23.0410     2.6480   -29.4260 
  197.5000    77.2910    14.9400    12.1570    16.8800    22.8820     2.6850   -28.8730 
  197.6250    79.4010    13.7130    11.3440    17.7680    22.7790     2.6630   -28.2260 
  197.7500    78.1800    11.7930     9.9390    16.5710    22.7900     2.5890   -27.5330 
  197.8750    72.9160     9.7830     8.3570    12.2000    23.0400     2.4870   -26.8320 
  198.0000    66.5360     8.2010     7.0080     7.4060    23.6110     2.3880   -26.1210 
  198.1250    59.9740     7.3640     6.1880     5.7510    23.8280     2.3170   -25.4810 
  198.2500    54.4790     7.0820     5.8180     5.4000    23.9850     2.2720   -24.9090 
  198.3750    52.9280     7.1750     5.7960     5.4820    24.2100     2.2430   -24.4150 
  198.5000    56.8630     7.4490     5.9900     5.6740    24.5100     2.2260   -23.9660 
  198.6250    65.4890     7.7070     6.2570     5.8770    24.3810     2.2250   -23.6390 
  198.7500    73.3000     7.8310     6.4640     5.9660    24.5150     2.2470   -23.4170 
  198.8750    77.9280     7.8000     6.5640     5.9870    24.8360     2.2900   -23.2530 
  199.0000    80.9540     7.6570     6.5600     6.1170    25.1520     2.3440   -23.1480 
  199.1250    85.1420     7.4750     6.4860     6.3010    24.8290     2.3860   -23.1280 
  199.2500    88.0860     7.3320     6.4040     6.3820    24.4650     2.4080   -23.1390 
  199.3750    88.3290     7.2720     6.3520     6.4770    24.1570     2.4150   -23.2090 
  199.5000    88.5650     7.3160     6.3510     6.6560    23.9990     2.4160   -23.3500 
  199.6250    88.9770     7.4800     6.4190     6.8810    23.9410     2.4170   -23.5400 
  199.7500    87.6160     7.7150     6.5290     7.1850    23.9410     2.4180   -23.7770 
  199.8750    85.7410     7.9700     6.6550     7.6000    23.9410     2.4190   -24.0540 
  200.0000    87.2820     8.1870     6.7630     7.6930    23.9410     2.4190   -24.3140 
  200.1250    91.0550     8.2970     6.8130     8.1200    23.9410     2.4190   -24.5730 
  200.2500    94.0450     8.2940     6.8020     8.3280    23.9410     2.4200   -24.8240 
  200.3750    96.4530     8.2150     6.7510     8.0540    23.9410     2.4220   -25.0330 
  200.5000    98.1990     8.1480     6.7210     7.8910    23.9410     2.4210   -25.2480 
  200.6250    96.7860     8.2630     6.8320     8.0560    23.9410     2.4170   -25.4050 
  200.7500    93.8000     8.6580     7.1610     8.4430    23.9410     2.4060   -25.5440 
  200.8750    90.4740     9.3600     7.7440     8.8280    23.9410     2.3900   -25.6460 
  201.0000    86.6370    10.2960     8.5430     9.5740    23.9410     2.3710   -25.7600 
  201.1250    82.7880    11.2680     9.4330    11.0940    23.9410     2.3510   -25.8580 
  201.2500    81.2610    12.0440    10.2200    12.9790    23.9410     2.3360   -25.9470 
  201.3750    84.0130    12.5080    10.7830    13.7530    23.9410     2.3290   -26.0400 
  201.5000    89.0950    12.6720    11.0880    13.3910    23.9410     2.3330   -26.1210 
  201.6250    91.4580    12.6290    11.1650    12.6780    23.9410     2.3460   -26.2350 
  201.7500    90.0430    12.5390    11.1490    12.1540    23.9410     2.3630   -26.3650 
  201.8750    87.7640    12.4700    11.1170    12.1380    23.9410     2.3750   -26.5170 
  202.0000    88.9920    12.4930    11.1370    13.1050    23.9410     2.3750   -26.6390 
  202.1250    93.6550    12.7330    11.3510    14.5810    23.9410     2.3550   -26.7750 
  202.2500    97.1930    13.2960    11.9120    14.9260    23.9420     2.3240   -26.9110 
  202.3750    97.0620    14.5330    13.0460    15.2410    23.9540     2.2920   -27.0470 
  202.5000    94.5780    16.6940    15.0190    17.7090    24.0200     2.2700   -27.1760 
  202.6250    92.8250    20.7500    18.2930    22.0420    24.1910     2.2650   -27.3140 
  202.7500    91.1330    26.3940    22.8140    28.5320    24.3750     2.2680   -27.3930 
  202.8750    87.6480    33.6890    28.4740    33.0710    24.4670     2.2730   -27.4360 
  203.0000    82.3070    42.1930    34.9370    35.0370    24.4880     2.2770   -27.4570 
  203.1250    76.9490    49.5190    41.7010    39.3210    24.4110     2.2800   -27.3840 
  203.2500    72.5510    56.5480    48.2480    47.4140    24.4020     2.2810   -27.2740 
  203.3750    70.8370    63.1550    54.3810    57.7400    24.4030     2.2810   -27.1320 
  203.5000    71.8290    69.3940    60.0760    66.9810    24.4110     2.2720   -26.9140 
  203.6250    73.8910    75.2570    65.2860    72.4680    24.4640     2.2590   -26.6730 
  203.7500    74.4200    80.6670    70.0210    77.0460    24.5050     2.2430   -26.4320 
  203.8750    71.4470    85.3440    74.1290    80.6110    24.5750     2.2280   -26.2360 
  204.0000    66.2410    88.9320    77.3900    84.1620    24.6110     2.2170   -26.0780 
  204.1250    63.5010    90.9490    79.4780    85.9360    24.6800     2.2120   -26.0050 
  204.2500    64.3760    91.8020    80.7100    84.9440    24.7250     2.2130   -26.0050 
  204.3750    66.5590    92.0730    81.5260    82.8220    24.7330     2.2200   -26.0820 
  204.5000    67.5210    92.5130    82.5060    81.2890    24.7330     2.2290   -26.2430 
  204.6250    67.3280    93.8840    84.2570    80.9460    24.7330     2.2370   -26.4150 
  204.7500    66.3070    96.0780    86.6900    81.8110    24.7250     2.2390   -26.5750 
  204.8750    65.9290    98.5100    89.3340    84.6420    24.6800     2.2360   -26.6580 
  205.0000    68.4820   100.3400    91.4650    87.9020    24.6140     2.2330   -26.7000 
  205.1250    71.1050   100.4570    92.2230    91.1110    24.5970     2.2320   -26.6680 
  205.2500    71.4480    98.9180    91.7520    92.2680    24.5600     2.2340   -26.5660 
  205.3750    71.4320    96.8950    90.7050    88.0490    24.4910     2.2390   -26.3720 
  205.5000    72.8970    95.6590    90.1710    81.4810    24.4560     2.2420   -26.1080 
  205.6250    73.6190    98.4510    91.6820    78.1120    24.4250     2.2410   -25.8200 
  205.7500    72.8330   104.9980    95.6730    80.3050    24.4780     2.2360   -25.5930 
  205.8750    70.7520   115.7460   102.1120    86.3190    24.4780     2.2280   -25.4250 
  206.0000    67.9490   129.6320   110.3590    98.1670    24.4780     2.2170   -25.3030 
  206.1250    66.0410   139.8450   119.1910   110.0520    24.4660     2.2030   -25.2460 
