~V
VERS. 2.00: Ver 2.00
~W
STRT.M 60.0000:
STOP.M 264.0000:
STEP.M 0.1250:
NULL. -999.2500:
UWI. DF303:
~C
DEPT.M :
DEN.GM/CC :
SP.MV :
AC.US/MT :
GR.API :
CALI.CM :
RXO.OHMM :
RI. :
RML.OHMM :
~A
# ...
  150.0000     2.5910   -18.6900   279.1300    65.9120    25.0040    23.0900    24.0410    28.6230 
  150.1250     2.6150   -18.7270   271.6730    67.7300    25.0040    27.0600    25.0480    29.5540 
  150.2500     2.6260   -18.7610   267.3460    66.5500    25.0060    29.4150    24.8770    29.0790 
  150.3750     2.6240   -18.7900   269.6640    64.6300    25.0090    27.7850    23.8470    27.5860 
  150.5000     2.6090   -18.8060   278.9640    63.2700    25.0090    23.3750    22.4790    25.7450 
  150.6250     2.5800   -18.8280   290.8120    61.4720    25.0130    20.1080    21.3780    24.3800 
  150.7500     2.5470   -18.8460   299.0870    59.4800    25.0140    19.2460    20.7920    23.8010 
  150.8750     2.5190   -18.8550   302.1040    59.3450    25.0150    19.8850    20.7080    23.9540 
  151.0000     2.5070   -18.8490   301.2390    62.1430    25.0150    21.0190    20.9360    24.5260 
  151.1250     2.5050   -18.8440   298.8370    65.1180    25.0150    21.9220    21.1810    25.0130 
  151.2500     2.5040   -18.8490   296.8960    64.7870    25.0150    22.1280    21.2530    25.1140 
  151.3750     2.5070   -18.8440   295.9540    63.0110    25.0170    21.6630    21.2030    24.9230 
  151.5000     2.5180   -18.8430   295.5400    61.8820    25.0210    20.6670    21.2050    24.7480 
  151.6250     2.5370   -18.8280   294.0230    62.4030    25.0250    20.4240    21.4530    24.9280 
  151.7500     2.5570   -18.8060   290.5070    62.9800    25.0330    21.4040    21.9260    25.4570 
  151.8750     2.5730   -18.7760   285.6140    62.1330    25.0370    23.8890    22.5030    26.1730 
  152.0000     2.5880   -18.7450   281.4720    58.9530    25.0400    27.2940    23.0030    26.8000 
  152.1250     2.6000   -18.6970   280.8890    57.1610    25.0450    27.7200    23.1970    27.0030 
  152.2500     2.6070   -18.6390   282.8900    59.3240    25.0470    25.4740    23.0750    26.7780 
  152.3750     2.6060   -18.5940   284.7450    61.3750    25.0470    22.6460    22.7070    26.2610 
  152.5000     2.5910   -18.5620   284.5910    60.4820    25.0470    20.8990    22.2020    25.6240 
  152.6250     2.5710   -18.5550   283.9530    61.0840    25.0470    20.1710    21.6280    24.9610 
  152.7500     2.5600   -18.5530   285.6730    64.4480    25.0470    19.4740    21.0270    24.2760 
  152.8750     2.5580   -18.5700   289.7500    65.8260    25.0470    18.8620    20.4260    23.5770 
  153.0000     2.5490   -18.5990   293.8360    62.2010    25.0650    18.5010    19.8940    22.9400 
  153.1250     2.5270   -18.6400   295.3720    58.4370    25.1170    18.4040    19.5610    22.5470 
  153.2500     2.5070   -18.6930   294.7480    58.8600    25.1870    18.6160    19.4690    22.4700 
  153.3750     2.5020   -18.7420   293.3150    59.5200    25.2170    19.0050    19.6180    22.7090 
  153.5000     2.5110   -18.7820   292.7120    56.8780    25.2210    19.7840    19.9350    23.1710 
  153.6250     2.5210   -18.8000   294.4170    55.2600    25.2210    20.9190    20.2700    23.6490 
  153.7500     2.5280   -18.8280   297.4800    58.5180    25.2210    21.3940    20.4660    23.9300 
  153.8750     2.5340   -18.8510   300.0330    62.6090    25.2210    21.3400    20.4740    23.9420 
  154.0000     2.5420   -18.8670   300.6170    61.8890    25.2210    21.0780    20.3330    23.7490 
  154.1250     2.5510   -18.8810   299.3990    59.6930    25.2200    20.4060    20.1600    23.5220 
  154.2500     2.5590   -18.8860   298.1940    63.9860    25.2180    19.6110    20.1170    23.4750 
  154.3750     2.5570   -18.8900   297.7830    71.0050    25.2160    19.5460    20.3140    23.7550 
  154.5000     2.5450   -18.8920   298.0080    71.8540    25.2130    19.8500    20.7920    24.4160 
  154.6250     2.5280   -18.8870   297.9760    65.8570    25.2110    20.1170    21.5180    25.4200 
  154.7500     2.5200   -18.8670   296.3340    64.0910    25.2090    20.5640    22.2570    26.4610 
  154.8750     2.5230   -18.8520   292.1060    68.7630    25.2050    22.4450    22.7430    27.1710 
  155.0000     2.5300   -18.8370   286.1410    74.6920    25.2020    24.7730    22.7080    27.1560 
  155.1250     2.5350   -18.8220   282.4000    78.1210    25.1930    24.9430    21.9570    26.1170 
  155.2500     2.5400   -18.8030   283.6060    77.1330    25.1890    22.9110    20.8000    24.5080 
  155.3750     2.5450   -18.7760   288.8610    71.8970    25.1780    20.4020    19.5590    22.8200 
  155.5000     2.5480   -18.7390   294.5790    67.9840    25.1510    18.5430    18.5320    21.4850 
  155.6250     2.5460   -18.7120   296.9010    69.7310    25.0970    18.0670    17.9770    20.8430 
  155.7500     2.5470   -18.6870   296.4260    76.9700    25.0460    18.2300    17.8580    20.7920 
  155.8750     2.5510   -18.6490   295.1130    84.8190    25.0080    18.5300    18.0970    21.1840 
  156.0000     2.5560   -18.6050   294.2420    87.2830    24.9870    19.0010    18.5440    21.7940 
  156.1250     2.5640   -18.5500   293.3490    82.7080    24.9570    20.0020    18.9780    22.3140 
  156.2500     2.5720   -18.4920   291.7000    79.2910    24.8950    21.6110    19.2060    22.5120 
  156.3750     2.5770   -18.4430   289.9990    83.5950    24.8190    22.5500    19.1690    22.3400 
  156.5000     2.5800   -18.4040   289.6000    89.6440    24.7600    21.7160    18.9330    21.9200 
  156.6250     2.5830   -18.3700   291.0250    87.8100    24.7410    19.1060    18.5950    21.4380 
  156.7500     2.5880   -18.3270   292.3780    82.7370    24.7880    17.5460    18.2000    20.9750 
  156.8750     2.5900   -18.2800   292.2850    78.2670    24.8710    17.8040    17.6810    20.4450 
  157.0000     2.5840   -18.2270   291.3780    76.5800    24.9130    18.9240    16.9660    19.7120 
  157.1250     2.5710   -18.1730   293.1230    75.1970    24.9250    18.6950    16.0530    18.6970 
  157.2500     2.5570   -18.1170   299.5760    75.8550    24.9320    16.5490    15.1280    17.5960 
  157.3750     2.5440   -18.0510   309.5960    81.7670    24.9420    14.2570    14.3690    16.6610 
  157.5000     2.5260   -17.9830   319.5450    88.3230    24.9390    13.3920    13.9080    16.1110 
  157.6250     2.4970   -17.9080   325.0720    87.9760    24.8860    14.0390    13.8490    16.1150 
  157.7500     2.4740   -17.8420   325.8770    82.2850    24.7890    14.6190    14.0910    16.5210 
  157.8750     2.4700   -17.8000   322.7420    77.5140    24.7170    14.7370    14.5510    17.1880 
  158.0000     2.4890   -17.7690   316.6480    75.3090    24.6940    14.7460    15.1350    17.9760 
  158.1250     2.5170   -17.7580   308.8060    75.5180    24.6940    15.0250    15.7520    18.7820 
  158.2500     2.5410   -17.7450   301.5950    79.3950    24.6940    15.6410    16.3100    19.5230 
  158.3750     2.5570   -17.7390   296.7890    84.3120    24.6950    16.6640    16.7130    20.0830 
  158.5000     2.5670   -17.7450   295.1620    84.4930    24.7120    17.7120    16.8360    20.2820 
  158.6250     2.5790   -17.7560   296.7530    77.8880    24.7610    17.9330    16.5480    19.8960 
  158.7500     2.5880   -17.7810   300.0120    72.4030    24.8150    16.7000    16.0260    19.1620 
  158.8750     2.5850   -17.8210   303.7280    70.5250    24.8290    14.9640    15.5040    18.4310 
  159.0000     2.5660   -17.8610   306.5000    69.0650    24.8300    13.8220    15.1900    18.0220 
  159.1250     2.5480   -17.9160   306.2440    64.5610    24.8330    13.9210    15.2290    18.1520 
  159.2500     2.5430   -17.9800   302.9350    59.6190    24.8330    15.3230    15.5020    18.6320 
  159.3750     2.5460   -18.0440   298.1580    58.7140    24.8390    17.2120    15.8140    19.1630 
  159.5000     2.5460   -18.0870   294.6370    62.5010    24.8560    17.9640    15.9170    19.3690 
  159.6250     2.5440   -18.1220   294.6110    67.1720    24.8700    16.4500    15.5870    18.9090 
  159.7500     2.5500   -18.1380   296.4530    73.5220    24.8670    14.5820    14.9660    18.0140 
  159.8750     2.5610   -18.1320   298.2510    83.8860    24.8290    13.4890    14.2490    17.0050 
