~V
VERS. 2.00: Ver 2.00
~W
STRT.M 125.0000:
STOP.M 255.0000:
STEP.M 0.1250:
NULL. -999.2500:
UWI. DF3006:
~C
DEPT.M :
GR.API :
RML.OHMM :
RI. :
RXO.OHMM :
CALI.CM :
DEN.GM/CC :
SP.MV :
~A
# ...
  170.0000    88.7620    23.7710    21.5430    10.4930    24.5230     2.3660   -25.8040 
  170.1250    88.9140    27.5010    24.6210    15.3940    24.5380     2.3600   -26.0880 
  170.2500    90.0810    32.6780    29.5040    23.6820    24.5670     2.3460   -26.4090 
  170.3750    93.6580    38.0180    35.0660    33.9500    24.5950     2.3380   -26.6560 
  170.5000    97.4550    42.3890    40.0320    39.0130    24.5970     2.3390   -26.8360 
  170.6250    96.8150    44.7010    42.9510    38.4530    24.5730     2.3460   -27.1150 
  170.7500    91.1900    45.0830    43.6980    35.6860    24.5090     2.3500   -27.2450 
  170.8750    84.7730    43.8050    42.5320    31.2240    24.4810     2.3480   -27.3560 
  171.0000    80.3250    41.3770    40.0100    27.4120    24.5230     2.3420   -27.3670 
  171.1250    80.9670    38.6550    36.9030    25.8370    24.5320     2.3380   -27.2740 
  171.2500    85.3050    36.8720    34.3160    24.4820    24.5470     2.3410   -27.2080 
  171.3750    89.2060    37.1390    33.1640    22.3110    24.6280     2.3470   -27.1650 
  171.5000    89.4200    40.3370    34.2220    21.2330    24.6810     2.3530   -27.2080 
  171.6250    84.4680    47.3920    38.4390    26.2660    24.7940     2.3490   -27.1150 
  171.7500    77.1880    57.2600    45.2610    37.4980    24.8700     2.3370   -27.1410 
  171.8750    72.0700    68.6820    53.8910    51.2450    24.9680     2.3210   -27.1900 
  172.0000    71.6500    79.8500    62.9200    61.7820    24.9900     2.3030   -27.3420 
  172.1250    73.7280    88.3680    70.2600    67.4280    24.9460     2.2900   -27.4580 
  172.2500    74.5650    93.6830    75.0160    72.2100    24.8090     2.2810   -27.5740 
  172.3750    75.1170    96.5490    77.4810    74.5730    24.7090     2.2760   -27.7220 
  172.5000    75.1350    98.9240    79.0330    72.5630    24.5160     2.2730   -27.8060 
  172.6250    74.3750   103.8080    81.9410    69.8500    24.2580     2.2720   -28.0610 
  172.7500    75.4680   112.6830    87.6200    68.7710    24.1030     2.2700   -28.2610 
  172.8750    76.0230   125.7010    96.4680    71.6870    23.9670     2.2660   -28.4240 
  173.0000    73.1320   141.4160   107.7040    83.0250    23.8240     2.2580   -28.5630 
  173.1250    68.5410   156.4420   119.1870   105.4370    23.7830     2.2490   -28.6960 
  173.2500    66.5900   167.3560   128.3280   136.2160    23.7390     2.2410   -28.8740 
  173.3750    66.5440   172.6510   133.8000   153.3200    23.7250     2.2380   -28.9840 
  173.5000    66.1450   173.3170   135.9310   138.9060    23.6770     2.2400   -29.1800 
  173.6250    67.4550   172.5790   136.6640   118.9830    23.6680     2.2450   -29.2560 
  173.7500    69.4310   173.7300   138.5100   115.1730    23.8010     2.2480   -29.2860 
  173.8750    70.8880   177.3610   142.2350   123.9560    23.9150     2.2500   -29.3080 
  174.0000    72.8060   181.9690   147.0320   139.4570    23.8930     2.2510   -29.1610 
  174.1250    73.8740   184.0760   150.4420   160.8690    23.8830     2.2530   -29.0870 
  174.2500    71.5080   181.3350   150.3840   173.6610    23.9050     2.2520   -28.9170 
  174.3750    67.0170   173.0530   145.9330   162.1230    23.9340     2.2490   -28.8120 
  174.5000    64.6380   160.3380   137.5290   141.1320    23.9470     2.2430   -28.6420 
  174.6250    67.6040   145.6170   126.6600   126.6450    23.9460     2.2380   -28.5010 
  174.7500    72.5940   132.0240   115.9590   112.9420    23.9480     2.2370   -28.3460 
  174.8750    75.7190   121.2880   107.0400    99.3060    23.9560     2.2400   -28.2110 
  175.0000    75.3280   114.1610   100.7870    85.8080    23.9630     2.2450   -28.2460 
  175.1250    74.6670   110.9590    97.7140    79.9390    23.9250     2.2480   -28.2170 
  175.2500    75.9430   110.1480    96.7250    78.2700    23.9160     2.2500   -28.2820 
  175.3750    76.0430   110.6930    97.0110    82.4020    23.9850     2.2510   -28.3070 
  175.5000    74.1570   111.9170    97.9630    88.9850    23.9500     2.2510   -28.4590 
  175.6250    73.7560   114.2160    99.7870    93.4040    23.8740     2.2520   -28.5980 
  175.7500    73.9930   118.7790   103.3610    94.8510    23.8680     2.2540   -28.7520 
  175.8750    72.9640   127.3600   110.1160    97.1960    24.0110     2.2560   -29.0350 
  176.0000    70.5780   141.6200   121.4820   105.5410    24.1250     2.2540   -29.2470 
  176.1250    69.3280   163.5030   139.1420   124.5270    24.1110     2.2430   -29.4120 
  176.2500    69.6990   190.9750   161.4090   165.7670    24.0590     2.2280   -29.5490 
  176.3750    70.1210   221.5000   186.0860   210.0970    24.0310     2.2130   -29.6360 
  176.5000    70.2880   251.5990   210.2070   235.9100    24.0110     2.2030   -29.6920 
  176.6250    70.6720   276.9680   230.2120   242.5770    24.0080     2.2000   -29.7500 
  176.7500    71.5790   296.4930   245.3560   249.3220    24.0200     2.2020   -29.8880 
  176.8750    71.9880   310.5270   256.0690   264.3680    24.0350     2.2050   -29.9060 
  177.0000    70.7970   320.2160   263.4230   279.6680    24.0410     2.2080   -29.9120 
  177.1250    68.8450   326.0260   267.9620   285.8100    24.0400     2.2110   -30.0200 
  177.2500    66.3970   329.1970   270.6580   284.2260    24.0330     2.2120   -30.0890 
  177.3750    64.3350   330.5710   272.1410   282.1980    24.0180     2.2110   -30.2540 
  177.5000    63.8810   331.1320   273.2260   279.9570    24.0100     2.2110   -30.3330 
  177.6250    67.1780   331.4210   274.5880   277.4490    24.0060     2.2110   -30.5010 
  177.7500    72.0820   331.1190   276.0880   280.5610    24.0170     2.2120   -30.5350 
  177.8750    73.4080   329.3390   277.0490   288.4700    24.0280     2.2130   -30.5640 
  178.0000    69.4180   325.2410   276.6430   296.1900    24.0260     2.2120   -30.6440 
  178.1250    64.7500   318.1140   273.9660   296.5930    24.0020     2.2110   -30.6540 
  178.2500    65.4210   308.9420   269.4050   290.0600    24.0100     2.2090   -30.7210 
  178.3750    68.8590   298.5580   263.4460   276.8940    24.1010     2.2080   -30.7510 
  178.5000    70.2250   287.5220   256.5490   260.6540    24.2890     2.2080   -30.9250 
  178.6250    68.5940   275.6330   248.6550   251.1860    24.2840     2.2090   -30.9070 
  178.7500    67.7500   262.5700   239.6610   245.4030    24.1730     2.2110   -30.9130 
  178.8750    69.1500   248.3330   229.5460   241.6480    24.0760     2.2150   -30.9510 
  179.0000    70.7450   233.8250   218.9360   239.5290    24.0880     2.2210   -30.8460 
  179.1250    70.6640   221.4990   209.7160   231.5750    24.1610     2.2280   -30.7940 
  179.2500    68.6040   213.3560   203.7520   205.5580    24.2810     2.2340   -30.7210 
  179.3750    65.9710   210.3250   202.1340   172.8780    24.4650     2.2380   -30.5510 
  179.5000    66.2880   211.5840   204.4620   159.1380    24.5860     2.2380   -30.3210 
  179.6250    68.8410   214.2850   208.4410   170.9630    24.6420     2.2360   -30.2000 
  179.7500    68.8100   214.1890   210.1070   193.4510    24.7260     2.2370   -30.0950 
  179.8750    65.3810   208.5120   206.5810   229.4860    24.7760     2.2410   -29.9030 
  180.0000    62.4450   196.7290   196.8860   247.9060    24.7970     2.2500   -29.6860 
  180.1250    61.0940   181.5780   182.9330   208.0900    24.8000     2.2580   -29.5380 
  180.2500    60.5760   169.2430   170.6780   160.2760    24.8000     2.2620   -29.3600 
  180.3750    62.5010   164.5760   165.1770   131.3800    24.8000     2.2590   -29.3320 
  180.5000    67.3610   170.7910   170.0470   119.1850    24.8000     2.2500   -29.1980 
  180.6250    71.9280   190.4650   188.1040   133.6610    24.8000     2.2370   -29.0620 
  180.7500    73.2610   218.5390   214.3280   186.4130    24.8000     2.2250   -28.9780 
  180.8750    71.2200   248.7690   242.4930   281.0690    24.8000     2.2190   -28.9220 
  181.0000    67.2620   273.0020   264.8020   395.3180    24.8000     2.2190   -29.0510 
  181.1250    64.3840   281.1120   271.9920   428.7120    24.8000     2.2250   -29.0040 
