~V
VERS. 2.00: Ver 2.00
~W
STRT.M 120.0000:
STOP.M 268.0000:
STEP.M 0.1250:
NULL. -999.2500:
UWI. DF3028:
~C
DEPT.M :
DEN.GM/CC :
GR.API :
CALI.CM :
RXO.OHMM :
RI. :
RML.OHMM :
SP.MV :
~A
# ...
  142.5000     2.5050    63.9530    27.5890    19.2530    18.5240    23.9510   -18.6730 
  142.6250     2.5040    63.8550    27.5810    20.3560    19.5170    25.0480   -18.8060 
  142.7500     2.5060    64.1650    27.5670    21.4130    20.2710    25.7660   -18.9440 
  142.8750     2.5130    64.8750    27.5750    21.9510    20.6490    26.0210   -19.0880 
  143.0000     2.5230    63.6550    27.6020    21.7970    20.5560    25.7240   -19.2320 
  143.1250     2.5310    59.4960    27.6230    21.1280    19.8960    24.7380   -19.3940 
  143.2500     2.5330    55.5130    27.6300    19.9670    18.8670    23.3060   -19.5690 
  143.3750     2.5330    55.0390    27.6310    18.1900    17.6660    21.7020   -19.7540 
  143.5000     2.5320    60.0410    27.6290    16.3130    16.5220    20.2280   -19.9240 
  143.6250     2.5320    65.9860    27.6330    15.1870    15.6760    19.1990   -20.0360 
  143.7500     2.5300    67.2250    27.6230    14.7090    15.1670    18.6400   -20.0390 
  143.8750     2.5270    65.5240    27.5940    14.6780    14.9710    18.4890   -19.9080 
  144.0000     2.5230    65.6010    27.5960    15.1670    15.0120    18.6050   -19.6510 
  144.1250     2.5240    66.8070    27.6660    15.9590    15.2030    18.8400   -19.3010 
  144.2500     2.5280    64.7810    27.7310    16.1980    15.4370    19.0760   -18.9160 
  144.3750     2.5260    61.2030    27.7510    15.7100    15.6750    19.2910   -18.5080 
  144.5000     2.5110    60.8010    27.7510    15.2080    15.8920    19.4970   -18.0830 
  144.6250     2.4890    62.7220    27.7580    15.5710    16.0300    19.6600   -17.7030 
  144.7500     2.4760    63.8180    27.7480    16.2910    16.0320    19.6770   -17.4220 
  144.8750     2.4780    64.4980    27.7310    16.4320    15.8420    19.4370   -17.2580 
  145.0000     2.4830    66.2910    27.7310    15.5420    15.4460    18.8970   -17.2040 
  145.1250     2.4840    66.8460    27.7540    14.1500    14.8810    18.1080   -17.1960 
  145.2500     2.4880    64.7950    27.7630    13.1910    14.2560    17.2490   -17.2020 
  145.3750     2.5080    63.1630    27.7370    12.9510    13.6400    16.4310   -17.2070 
  145.5000     2.5390    63.9830    27.7060    13.1340    13.0890    15.7330   -17.2250 
  145.6250     2.5560    64.9510    27.7180    13.1430    12.8700    15.4680   -17.2320 
  145.7500     2.5500    66.2560    27.7550    12.9780    12.6170    15.1720   -17.2170 
  145.8750     2.5360    67.9660    27.8480    12.4120    12.4140    14.9800   -17.1920 
  146.0000     2.5290    69.9460    27.9580    12.0050    12.4430    15.1470   -17.1610 
  146.1250     2.5210    71.0250    28.0440    12.5910    12.7900    15.7910   -17.1390 
  146.2500     2.5030    71.0320    28.0870    13.8860    13.3790    16.7500   -17.1140 
  146.3750     2.4890    71.8950    28.0950    15.0930    14.1100    17.8200   -17.1020 
  146.5000     2.4900    73.7230    28.0960    15.6310    14.8210    18.7410   -17.0930 
  146.6250     2.4980    73.7610    28.1090    15.4620    15.2870    19.2200   -17.1060 
  146.7500     2.4950    70.5810    28.1210    15.0650    15.4500    19.2690   -17.1290 
  146.8750     2.4830    67.0230    28.1260    14.6600    15.3640    19.0180   -17.1560 
  147.0000     2.4780    67.7580    28.1250    14.3860    15.1620    18.6680   -17.1700 
  147.1250     2.4840    71.8490    28.1280    14.3390    14.9970    18.4200   -17.1820 
  147.2500     2.4850    75.2170    28.1370    14.4540    14.9510    18.3660   -17.2020 
  147.3750     2.4750    76.4510    28.1440    14.6910    15.0320    18.5150   -17.2110 
  147.5000     2.4600    76.1640    28.1440    15.1190    15.2080    18.8030   -17.2170 
  147.6250     2.4490    74.6980    28.1450    15.6430    15.3980    19.0900   -17.2150 
  147.7500     2.4410    72.0110    28.1460    15.8350    15.5000    19.2220   -17.2290 
  147.8750     2.4410    70.1030    28.1450    15.6060    15.4520    19.1170   -17.2480 
  148.0000     2.4530    70.0980    28.1400    15.3740    15.2530    18.7890   -17.2720 
  148.1250     2.4710    69.4100    28.1160    15.3270    14.9490    18.3350   -17.3050 
  148.2500     2.4800    67.5330    28.0650    14.9880    14.6320    17.8970   -17.3450 
  148.3750     2.4770    65.0970    28.0230    14.4030    14.3440    17.5310   -17.3910 
  148.5000     2.4690    63.6310    28.0350    14.1840    14.1030    17.2470   -17.4430 
  148.6250     2.4600    63.6980    28.1000    14.4990    13.9340    17.0670   -17.4950 
  148.7500     2.4610    64.2930    28.1520    14.5250    13.8610    17.0140   -17.5370 
  148.8750     2.4740    65.1680    28.1700    14.1250    13.9160    17.1390   -17.5690 
  149.0000     2.4950    66.5970    28.1720    14.0510    14.1150    17.4710   -17.6010 
  149.1250     2.5050    68.6230    28.1710    15.0020    14.4520    18.0020   -17.6120 
  149.2500     2.5030    70.5780    28.1660    16.0060    14.8310    18.5720   -17.5970 
  149.3750     2.5010    70.0150    28.1570    16.0930    15.1520    19.0120   -17.5720 
  149.5000     2.5060    68.0640    28.1490    15.3310    15.3060    19.1610   -17.5370 
  149.6250     2.5100    68.9350    28.1560    14.7390    15.1890    18.8910   -17.5050 
  149.7500     2.5050    71.0530    28.1730    14.6490    14.8800    18.3790   -17.4770 
  149.8750     2.4970    71.4800    28.1730    14.5940    14.4990    17.8350   -17.4560 
  150.0000     2.4880    69.9230    28.1240    14.1450    14.1710    17.4360   -17.4340 
  150.1250     2.4820    68.2480    28.0550    13.5340    13.9950    17.3070   -17.4420 
  150.2500     2.4850    66.7820    28.0470    13.4270    13.9690    17.4060   -17.4860 
  150.3750     2.5020    65.1920    28.1070    13.8700    14.0660    17.6680   -17.5390 
  150.5000     2.5270    64.8750    28.1820    14.3320    14.2280    17.9790   -17.5970 
  150.6250     2.5320    66.0760    28.2090    14.4650    14.3550    18.1810   -17.6440 
  150.7500     2.5150    67.1060    28.2080    14.6100    14.3970    18.2290   -17.6820 
  150.8750     2.4910    66.9890    28.2050    14.7520    14.3790    18.2000   -17.7140 
  151.0000     2.4760    67.1860    28.2100    14.5000    14.3940    18.2560   -17.7460 
  151.1250     2.4800    67.1740    28.2040    13.9120    14.5730    18.6040   -17.7570 
  151.2500     2.4970    67.2010    28.1910    13.8960    14.9310    19.2350   -17.7420 
  151.3750     2.5190    68.5440    28.1790    14.9560    15.4130    20.0370   -17.7270 
  151.5000     2.5380    71.4130    28.1390    16.6240    15.9160    20.8330   -17.7210 
  151.6250     2.5490    72.8150    28.0580    17.4900    16.3160    21.4270   -17.7180 
  151.7500     2.5490    71.7130    28.0130    17.1850    16.5860    21.8140   -17.7100 
  151.8750     2.5380    71.8050    28.0380    16.5560    16.7610    22.0870   -17.7110 
  152.0000     2.5220    73.6770    28.0800    16.5960    16.9080    22.3620   -17.7160 
  152.1250     2.5190    74.0540    28.0810    17.4970    17.0670    22.6860   -17.7340 
  152.2500     2.5220    73.0520    28.0690    18.4390    17.2090    22.9670   -17.7610 
  152.3750     2.5200    71.9770    28.0730    18.8770    17.2750    23.0890   -17.7780 
  152.5000     2.5150    70.7970    28.0960    18.7060    17.2240    23.0020   -17.7850 
  152.6250     2.5160    68.2710    28.0800    18.0980    17.0560    22.7460   -17.8030 
  152.7500     2.5170    65.3540    27.9990    17.6050    16.8430    22.4500   -17.8290 
  152.8750     2.5150    64.2090    27.8920    17.6710    16.6130    22.1540   -17.8460 
  153.0000     2.5180    66.4100    27.8210    18.2700    16.3590    21.8240   -17.8490 
  153.1250     2.5310    69.4050    27.8210    18.4290    16.0400    21.3790   -17.8420 
  153.2500     2.5420    67.5060    27.8630    17.5700    15.6700    20.8500   -17.8290 
  153.3750     2.5480    60.8650    27.9280    16.1820    15.3030    20.3400   -17.8070 
  153.5000     2.5490    55.7130    27.9890    15.1940    15.0080    19.9660   -17.7720 
  153.6250     2.5410    57.8500    28.0220    15.1060    14.8240    19.7880   -17.7290 
