~V
VERS. 2.00: Ver 2.00
~W
STRT.M 130.0000:
STOP.M 268.0000:
STEP.M 0.1250:
NULL. -999.2500:
UWI. DF3061:
~C
DEPT.M :
GR.API :
CALI.CM :
RXO.OHMM :
RI. :
RML.OHMM :
DEN.GM/CC :
SP.MV :
~A
# ...
  152.5000    48.4150    24.6810    20.4370    20.7670    22.7280     2.5910    -9.5770 
  152.6250    49.6400    24.7180    20.6870    20.6600    22.6060     2.5870    -9.6210 
  152.7500    51.1900    24.7240    19.4660    20.8280    22.8460     2.5870    -9.6530 
  152.8750    50.0040    24.6350    18.3420    21.3390    23.5130     2.5890    -9.6620 
  153.0000    48.6550    24.4080    19.3750    22.1870    24.5580     2.5950    -9.6810 
  153.1250    53.1590    24.4810    21.4250    23.2840    25.8030     2.6060    -9.7400 
  153.2500    58.2500    24.5670    24.4800    24.4080    27.0280     2.6190    -9.8330 
  153.3750    56.9870    24.6350    27.0390    25.3850    28.0990     2.6270    -9.9310 
  153.5000    50.7380    24.6280    29.3370    26.0130    28.7920     2.6310   -10.0100 
  153.6250    47.5380    24.4960    28.3600    26.0580    28.7700     2.6360   -10.0830 
  153.7500    49.0440    24.1020    25.4010    25.7220    28.3550     2.6320   -10.1350 
  153.8750    51.8790    24.0530    23.2740    25.1110    27.6860     2.6110   -10.1870 
  154.0000    53.0540    24.5080    23.3850    24.3430    26.8320     2.5760   -10.2720 
  154.1250    51.4970    24.6460    23.0480    23.6500    26.0290     2.5450   -10.3840 
  154.2500    50.0700    24.6460    20.2090    23.1570    25.4560     2.5350   -10.5130 
  154.3750    50.5260    24.6410    17.2920    22.8570    25.0530     2.5510   -10.6250 
  154.5000    51.6940    24.6230    17.1370    22.7430    24.8440     2.5730   -10.6990 
  154.6250    51.9230    24.5430    19.0240    22.7670    24.8050     2.5630   -10.7410 
  154.7500    53.2240    24.5090    20.8190    22.8160    24.7800     2.5220   -10.7760 
  154.8750    55.5430    24.6200    21.3650    22.9590    24.9150     2.4800   -10.8610 
  155.0000    56.9310    24.6290    19.7860    23.2260    25.3000     2.4660   -10.9920 
  155.1250    57.6780    24.4760    17.9250    23.6620    25.9560     2.4920   -11.1420 
  155.2500    58.5020    24.1250    17.7820    24.2160    26.6650     2.5270   -11.2670 
  155.3750    58.3170    24.2470    19.5450    24.8970    27.4890     2.5500   -11.3600 
  155.5000    57.4540    24.3520    21.4580    25.6760    28.4270     2.5570   -11.4250 
  155.6250    57.3030    24.5220    23.7030    26.3830    29.1810     2.5490   -11.4660 
  155.7500    58.9990    24.5460    26.0340    26.7790    29.4840     2.5330   -11.5290 
  155.8750    62.9890    24.5310    28.6350    26.6680    29.1370     2.5100   -11.6010 
  156.0000    67.0400    24.5750    26.7980    26.0850    28.2740     2.4880   -11.6630 
  156.1250    66.2210    24.4890    22.4640    25.2220    27.1520     2.4730   -11.7320 
  156.2500    63.8310    24.3100    19.6820    24.3430    26.1470     2.4610   -11.7940 
  156.3750    64.7250    24.4660    19.0000    23.7010    25.4790     2.4560   -11.8290 
  156.5000    67.7480    24.5950    17.9090    23.3920    25.1880     2.4640   -11.8340 
  156.6250    66.3000    24.6820    17.8680    23.4860    25.3500     2.4850   -11.8160 
  156.7500    62.5990    24.5730    19.5020    23.8660    25.7910     2.5070   -11.7820 
  156.8750    61.7030    24.3210    21.8860    24.4020    26.3120     2.5230   -11.7350 
  157.0000    63.0630    24.4100    24.2740    24.9350    26.7660     2.5330   -11.6880 
  157.1250    62.8720    24.4570    24.5650    25.3330    27.0930     2.5350   -11.6460 
  157.2500    61.2090    24.5380    23.9730    25.5840    27.2520     2.5280   -11.5930 
  157.3750    60.6460    24.6120    23.2650    25.6500    27.2140     2.5190   -11.5400 
  157.5000    61.7620    24.5770    23.2150    25.4520    26.9280     2.5200   -11.4740 
  157.6250    61.8610    24.4410    23.9490    24.9830    26.3640     2.5320   -11.4480 
  157.7500    60.3310    24.4480    23.6380    24.3000    25.6600     2.5380   -11.4920 
  157.8750    60.2610    24.4570    22.0950    23.3790    24.7250     2.5300   -11.6100 
  158.0000    64.3100    24.4790    22.0610    22.2320    23.4960     2.5130   -11.7730 
  158.1250    68.4640    24.6720    21.2380    21.0220    22.1840     2.5000   -11.9070 
  158.2500    68.0960    24.6290    19.4920    20.0110    21.0740     2.5000   -12.0230 
  158.3750    66.3700    24.6170    17.6850    19.3280    20.2860     2.5170   -12.1250 
  158.5000    67.2820    24.4970    17.5480    19.0900    19.9230     2.5500   -12.2430 
  158.6250    68.9870    24.2840    17.0920    19.2660    20.0220     2.5820   -12.3910 
  158.7500    66.1230    24.3880    17.1490    19.5690    20.3090     2.5950   -12.5510 
  158.8750    59.8310    24.4300    18.5200    19.7840    20.5430     2.5830   -12.7060 
  159.0000    55.1140    24.4680    20.7850    19.6470    20.4440     2.5590   -12.8470 
  159.1250    54.0060    24.4810    22.3080    18.8830    19.6080     2.5370   -12.9760 
  159.2500    53.9080    24.4340    20.8370    17.7290    18.3590     2.5180   -13.1000 
  159.3750    52.8460    24.2520    16.6730    16.5020    17.0550     2.4970   -13.2050 
  159.5000    51.4640    24.3410    13.1710    15.4630    15.9560     2.4750   -13.3040 
  159.6250    52.8940    24.0480    12.7460    14.8200    15.2680     2.4710   -13.4080 
  159.7500    56.3360    23.8590    13.3940    14.5900    15.0140     2.4830   -13.4990 
  159.8750    60.1280    23.8240    13.8030    14.7400    15.2000     2.5020   -13.5910 
  160.0000    61.0710    23.8130    14.0640    15.1990    15.7220     2.5130   -13.6760 
  160.1250    56.1310    23.8090    14.2450    15.8290    16.3920     2.5170   -13.7590 
  160.2500    51.2690    23.7770    14.4820    16.3640    16.9570     2.5220   -13.8410 
  160.3750    51.8500    23.7830    14.2660    16.6620    17.2530     2.5290   -13.9460 
  160.5000    57.2410    23.8280    14.1330    16.6770    17.2560     2.5300   -14.0610 
  160.6250    61.2280    24.1640    14.7600    16.3800    16.9250     2.5150   -14.1810 
  160.7500    62.3620    24.3810    14.8730    15.9360    16.4670     2.5000   -14.3350 
  160.8750    62.4720    24.3910    13.6430    15.5120    16.0300     2.4970   -14.5070 
  161.0000    60.8380    24.4080    12.0330    15.2190    15.7130     2.5090   -14.6890 
  161.1250    58.6850    24.3980    11.7180    15.1150    15.5610     2.5190   -14.8500 
  161.2500    59.5380    24.2990    12.1570    15.1130    15.4380     2.5190   -14.9880 
  161.3750    62.6770    24.2010    12.8650    15.0570    15.2240     2.5130   -15.1480 
  161.5000    65.0460    24.3950    14.3680    14.7630    14.7850     2.5000   -15.3660 
  161.6250    67.6150    24.2160    15.0980    14.0820    14.0520     2.4610   -15.6710 
  161.7500    72.0290    24.2360    13.7940    13.0690    13.0560     2.3990   -16.0030 
  161.8750    76.9250    24.3750    11.2880    11.8400    11.9360     2.3370   -16.3130 
  162.0000    80.3050    24.4200     9.0110    10.6040    10.8870     2.3020   -16.5610 
  162.1250    81.2790    24.5340     7.9790     9.5800    10.0490     2.3130   -16.7690 
  162.2500    80.5740    24.3860     7.8270     8.8480     9.4790     2.3490   -16.9820 
  162.3750    80.1610    24.1370     8.3870     8.4800     9.2430     2.3860   -17.2000 
  162.5000    82.5890    24.0370     8.3570     8.4990     9.3300     2.4060   -17.4220 
  162.6250    87.2230    24.0810     7.4710     8.9390     9.7980     2.4010   -17.6350 
  162.7500    91.2170    24.1210     6.8740     9.7000    10.5610     2.3870   -17.8520 
  162.8750    93.0190    24.2420     7.4120    10.7510    11.6070     2.3750   -18.0770 
  163.0000    91.3650    24.0200     8.8930    12.0140    12.8860     2.3660   -18.3060 
  163.1250    88.4540    23.5640    12.0610    13.4760    16.9790     2.3600   -18.5380 
  163.2500    87.2430    23.5190    13.8620    15.0950    19.0200     2.3590   -18.7850 
  163.3750    86.4770    23.6780    13.6440    16.8320    21.2090     2.3610   -19.0460 
  163.5000    85.1610    23.8440    12.9360    18.6440    23.4920     2.3590   -19.3310 
  163.6250    85.0300    23.8970    14.5920    20.4240    25.7340     2.3480   -19.5990 
