~V
VERS. 2.00: Ver 2.00
~W
STRT.M 60.0000:
STOP.M 258.0000:
STEP.M 0.1250:
NULL. -999.2500:
UWI. DF3032:
~C
DEPT.M :
GR.API :
RML.OHMM :
RI. :
RXO.OHMM :
CALI.CM :
DEN.GM/CC :
SP.MV :
~A
# ...
  127.5000    77.0290     9.8190     8.4270     9.1630    23.6650     2.2000   -24.8350 
  127.6250    78.1380     9.8760     8.4990     9.5020    23.6680     2.1820   -25.4380 
  127.7500    76.1660    10.0150     8.6120     9.8400    23.6680     2.1690   -25.8910 
  127.8750    72.4750    10.1850     8.7380    10.0880    23.6680     2.1650   -26.1570 
  128.0000    69.7840    10.3400     8.8380    10.2600    23.6610     2.1720   -26.4100 
  128.1250    71.4480    10.4480     8.8770    10.4630    23.6370     2.1890   -26.6920 
  128.2500    75.1950    10.5180     8.8640    10.6300    23.6060     2.2060   -26.8710 
  128.3750    76.7330    10.5580     8.8210    10.3650    23.5920     2.2170   -26.9580 
  128.5000    73.9520    10.5730     8.7670     9.9680    23.5900     2.2210   -26.9840 
  128.6250    71.0300    10.5510     8.7210     9.7270    23.5900     2.2160   -26.9350 
  128.7500    69.9730    10.5010     8.6880     9.7450    23.5840     2.2080   -26.9380 
  128.8750    69.0700    10.4380     8.6680     9.8330    23.5630     2.2000   -26.9910 
  129.0000    68.9410    10.3860     8.6600     9.7760    23.5300     2.1950   -27.0020 
  129.1250    70.4390    10.3710     8.6570     9.5880    23.5770     2.1940   -26.9710 
  129.2500    70.6480    10.3850     8.6510     9.4060    23.6740     2.1940   -26.9320 
  129.3750    69.5680    10.4120     8.6370     9.3490    23.7310     2.1930   -26.8550 
  129.5000    68.8160    10.4320     8.6110     9.4050    23.7240     2.1900   -26.7880 
  129.6250    68.5950    10.4260     8.5760     9.4490    23.6840     2.1850   -26.7530 
  129.7500    68.6470    10.3950     8.5440     9.4200    23.6670     2.1800   -26.5870 
  129.8750    69.4430    10.3490     8.5280     9.2860    23.6610     2.1740   -26.3790 
  130.0000    70.7930    10.3090     8.5450     9.1790    23.6600     2.1670   -26.3120 
  130.1250    71.1230    10.3180     8.6230     9.2510    23.6480     2.1590   -26.2330 
  130.2500    70.0880    10.3900     8.7580     9.3640    23.6240     2.1560   -26.0500 
  130.3750    68.8830    10.5160     8.9350     9.3480    23.5880     2.1700   -25.9760 
  130.5000    70.8730    10.6570     9.1150     9.2280    23.5400     2.2090   -26.0440 
  130.6250    77.6220    10.7400     9.2280     9.3120    23.4800     2.2700   -25.9960 
  130.7500    83.5300    10.7150     9.2320     9.5230    23.4890     2.3250   -26.0190 
  130.8750    82.3990    10.5710     9.1130     9.7280    23.5430     2.3500   -26.2020 
  131.0000    74.7690    10.3440     8.8960     9.9220    23.5850     2.3380   -26.3120 
  131.1250    68.5390    10.0980     8.6310     9.8900    23.6060     2.3020   -26.2730 
  131.2500    69.0600     9.8770     8.3720     9.5110    23.6220     2.2680   -26.3400 
  131.3750    72.7820     9.6690     8.1320     9.0390    23.6280     2.2470   -26.4570 
  131.5000    75.1520     9.4340     7.9000     8.9670    23.6290     2.2370   -26.4650 
  131.6250    76.4850     9.1410     7.6680     9.1700    23.6290     2.2360   -26.4130 
  131.7500    76.7920     8.8610     7.4730     9.3870    23.6270     2.2410   -26.3580 
  131.8750    75.1290     8.7460     7.4090     9.3640    23.6200     2.2500   -26.3030 
  132.0000    73.7000     9.0150     7.6240     9.3440    23.6030     2.2590   -26.3550 
  132.1250    75.0020     9.9840     8.3690    10.0720    23.6250     2.2680   -26.4820 
  132.2500    75.7200    11.5750     9.6410    11.4450    23.7430     2.2850   -26.5620 
  132.3750    75.2930    13.5350    11.3020    12.8390    23.9870     2.3230   -26.6840 
  132.5000    75.5980    15.3830    13.0050    14.6410    24.2780     2.3890   -26.8860 
  132.6250    74.9660    16.3700    14.1100    17.9570    24.4480     2.4680   -27.2220 
  132.7500    70.3340    16.2480    14.2720    21.5250    24.4020     2.5240   -27.7190 
  132.8750    64.3260    15.1470    13.5010    20.1990    24.1870     2.5250   -28.2390 
  133.0000    62.6830    13.5540    12.1770    14.6360    24.0010     2.4650   -28.6070 
  133.1250    67.2490    12.1200    10.8540    12.0940    23.9460     2.3740   -28.9670 
  133.2500    71.4910    11.1850     9.8700    11.3130    23.8260     2.2950   -29.3360 
  133.3750    71.4570    10.7860     9.3020    11.2010    23.6740     2.2480   -29.4450 
  133.5000    69.2300    10.8100     9.1050    11.1500    23.6050     2.2340   -29.3090 
  133.6250    70.1540    11.0990     9.2040    11.0630    23.6200     2.2410   -29.0370 
  133.7500    72.5590    11.4370     9.4210    11.0310    23.6530     2.2470   -28.4610 
  133.8750    73.4600    11.7010     9.6450    11.0360    23.6660     2.2390   -27.5590 
  134.0000    71.7380    11.8010     9.7790    11.0220    23.6650     2.2180   -26.5750 
  134.1250    68.4390    11.6290     9.7170    10.9750    23.6240     2.1940   -25.5520 
  134.2500    66.6770    11.2140     9.4610    10.9050    23.5260     2.1790   -24.3590 
  134.3750    69.4010    10.6250     9.0540    10.7300    23.4130     2.1860   -23.1290 
  134.5000    75.9040     9.9990     8.5890    10.2730    23.3570     2.2160   -22.0520 
  134.6250    79.6840     9.5590     8.2270     9.4320    23.3530     2.2610   -21.1140 
  134.7500    78.1380     9.4570     8.0850     8.8090    23.3590     2.3050   -20.2360 
  134.8750    75.6390     9.7640     8.2340     8.8730    23.3730     2.3320   -19.4690 
  135.0000    74.7600    10.4310     8.6640     9.4530    23.4120     2.3410   -18.8050 
  135.1250    75.2710    11.2590     9.2670    10.3260    23.5240     2.3350   -18.2660 
  135.2500    75.8670    11.8970     9.7840    10.8700    23.8190     2.3260   -17.8890 
  135.3750    75.1040    12.0920    10.0070    11.3220    24.2740     2.3180   -17.6640 
  135.5000    72.5440    11.7570     9.8270    11.6160    24.6460     2.3150   -17.5350 
  135.6250    71.6170    11.0150     9.2890    11.0480    24.6320     2.3150   -17.6390 
  135.7500    73.6900    10.2890     8.7050     9.6970    24.4380     2.3150   -17.9780 
  135.8750    76.3150     9.8740     8.3040     8.4390    24.2300     2.3110   -18.5130 
  136.0000    76.7490     9.9090     8.2240     8.1930    24.0480     2.2990   -19.2630 
  136.1250    76.4980    10.3830     8.5140     8.9900    23.9480     2.2780   -20.1570 
  136.2500    77.0430    11.0020     8.9880     9.8630    23.8570     2.2530   -21.0600 
  136.3750    77.0120    11.5250     9.4610    10.6710    23.7160     2.2310   -21.9910 
  136.5000    74.9770    11.7790     9.7630    11.1550    23.5260     2.2170   -22.9130 
  136.6250    72.3680    11.6830     9.7660    11.0960    23.4270     2.2200   -23.4980 
  136.7500    73.0120    11.4240     9.5790    10.6660    23.4410     2.2350   -23.8490 
  136.8750    76.4860    11.1750     9.3390    10.1110    23.4840     2.2540   -24.1640 
  137.0000    78.8510    11.0610     9.1660     9.5480    23.5020     2.2680   -24.3220 
  137.1250    78.9650    11.1350     9.1360     9.2920    23.5030     2.2650   -24.2250 
  137.2500    78.2540    11.3000     9.2020     9.5080    23.5060     2.2450   -24.1790 
  137.3750    75.8770    11.4570     9.3050    10.0090    23.5040     2.2130   -24.1560 
  137.5000    71.9490    11.5280     9.3840    10.4300    23.4620     2.1830   -23.9560 
  137.6250    69.1850    11.4840     9.4080    10.6120    23.3040     2.1670   -23.7270 
  137.7500    68.0420    11.4060     9.4110    10.6030    23.1240     2.1690   -23.5690 
  137.8750    68.9080    11.3820     9.4430    10.4940    23.0260     2.1860   -23.2590 
  138.0000    71.4120    11.4820     9.5490    10.3270    23.0370     2.2090   -22.7660 
  138.1250    71.8260    11.7360     9.7480    10.2880    23.0950     2.2260   -22.2010 
  138.2500    68.6900    12.0330     9.9680    10.5420    23.1640     2.2370   -21.5300 
  138.3750    66.0680    12.2310    10.1050    10.8860    23.2090     2.2450   -20.7490 
  138.5000    67.9000    12.1720    10.0370    10.9840    23.2260     2.2570   -19.8850 
  138.6250    73.1150    11.6800     9.6230    10.6330    23.2530     2.2770   -18.8740 
