~V
VERS. 2.00: Ver 2.00
~W
STRT.M 61.0000:
STOP.M 318.0000:
STEP.M 0.1250:
NULL. -999.2500:
UWI. DF302:
~C
DEPT.M :
DEN.GM/CC :
SP.MV :
AC.US/MT :
GR.API :
CALI.CM :
RXO.OHMM :
RI. :
RML.OHMM :
~A
# ...
  141.0000  -999.2500   -25.2940  -999.2500    73.9720    23.2470     8.3430     6.5210     8.0980 
  141.1250  -999.2500   -25.2170  -999.2500    71.2430    23.3040     8.8470     6.7010     8.4460 
  141.2500  -999.2500   -25.1880  -999.2500    69.6840    23.3130     9.1210     6.8740     8.6970 
  141.3750  -999.2500   -25.2070  -999.2500    68.7780    23.2850     9.0970     6.9650     8.7390 
  141.5000  -999.2500   -25.2690  -999.2500    68.4720    23.2390     8.8520     6.9340     8.5560 
  141.6250  -999.2500   -25.3850  -999.2500    69.2900    23.1790     8.5270     6.7880     8.2310 
  141.7500  -999.2500   -25.5230  -999.2500    69.9580    23.1130     8.2720     6.6080     7.9150 
  141.8750  -999.2500   -25.6770  -999.2500    69.6980    23.1210     8.1840     6.4450     7.6770 
  142.0000  -999.2500   -25.8500  -999.2500    69.1900    23.2840     8.3220     6.3340     7.5460 
  142.1250  -999.2500   -26.0480  -999.2500    67.3150    23.5650     8.5790     6.2990     7.5460 
  142.2500  -999.2500   -26.2470  -999.2500    63.3100    23.7900     8.7080     6.3250     7.6530 
  142.3750  -999.2500   -26.4320  -999.2500    60.6960    23.8680     8.6630     6.3970     7.8420 
  142.5000  -999.2500   -26.5840  -999.2500    62.5200    23.7650     8.5860     6.4950     8.0720 
  142.6250  -999.2500   -26.6430  -999.2500    65.6290    23.4830     8.6850     6.5860     8.2610 
  142.7500  -999.2500   -26.5670  -999.2500    66.1650    23.1920     8.9480     6.6180     8.2990 
  142.8750  -999.2500   -26.3340  -999.2500    64.9090    23.0490     9.2260     6.5310     8.0770 
  143.0000  -999.2500   -25.9180  -999.2500    62.6890    23.0600     9.3910     6.2890     7.5590 
  143.1250  -999.2500   -25.2560  -999.2500    62.3180    23.0190     9.3280     5.9410     6.8870 
  143.2500  -999.2500   -24.3830  -999.2500    68.8510    22.8530     9.0080     5.6580     6.3920 
  143.3750  -999.2500   -23.3500  -999.2500    80.2310    22.7400     8.8420     5.5960     6.3350 
  143.5000  -999.2500   -22.2160  -999.2500    86.5250    22.8850     9.9710     5.8770     6.8930 
  143.6250  -999.2500   -21.0610  -999.2500    83.3050    23.2900    14.1250     6.6510     8.2440 
  143.7500  -999.2500   -19.9660  -999.2500    80.9380    23.7480    20.0070     7.8000    10.0800 
  143.8750  -999.2500   -18.9730  -999.2500    83.6350    24.1810    23.7470     9.0290    11.7960 
  144.0000  -999.2500   -18.1340  -999.2500    87.0070    24.5420    22.4440     9.7750    12.4520 
  144.1250     2.4770   -17.5270  -999.2500    88.3320    24.7200    17.2780     9.4040    11.2800 
  144.2500     2.4770   -17.1540  -999.2500    89.9580    24.6960    12.2600     8.3090     9.2670 
  144.3750     2.4430   -16.9880  -999.2500    93.5020    24.5940     8.4820     7.0460     7.3510 
  144.5000     2.3740   -16.9890   418.3780    97.8200    24.6010     6.1800     6.0000     6.0110 
  144.6250     2.3040   -17.1480   418.3780    99.0190    24.7450     5.3740     5.3610     5.4000 
  144.7500     2.2590   -17.3800   426.4470    97.1190    24.8410     5.2670     5.0450     5.2710 
  144.8750     2.2440   -17.6370   435.8770    95.4470    24.8390     5.3710     4.9810     5.4570 
  145.0000     2.2480   -17.8900   442.4130    95.1140    24.7710     5.5270     5.0780     5.7850 
  145.1250     2.2550   -18.0880   439.2820    93.9800    24.4410     5.8260     5.2310     6.0580 
  145.2500     2.2600   -18.1810   428.1900    92.5080    23.8960     6.1540     5.3270     6.1410 
  145.3750     2.2720   -18.1420   414.3220    93.2990    23.5190     6.3960     5.3100     5.9770 
  145.5000     2.2950   -17.9630   403.6040    95.4220    23.6360     6.5980     5.1750     5.6090 
  145.6250     2.3160   -17.6380   399.1100    97.7270    24.1300     6.7800     5.0100     5.2550 
  145.7500     2.3220   -17.2390   394.5500    99.9940    24.5370     6.7910     4.9910     5.2340 
  145.8750     2.3210   -16.8080   382.3950    99.2190    24.7490     6.9860     5.2850     5.8130 
  146.0000     2.3370   -16.3830   357.9560    91.2630    24.8220     8.6920     6.0540     7.1870 
  146.1250     2.3980   -16.0450   323.3050    78.9800    24.8360    14.5290     7.4930     9.5300 
  146.2500     2.4740   -15.8660   292.4110    72.4830    24.8250    23.2670     9.3060    12.2130 
  146.3750     2.5180   -15.8900   278.0220    74.5820    24.7910    27.9880    10.7840    13.9690 
  146.5000     2.5020   -16.1440   287.2660    81.1780    24.7410    23.3950    11.0180    13.4940 
  146.6250     2.4320   -16.6380   318.5400    84.6420    24.6700    13.8380     9.7740    11.0580 
  146.7500     2.3510   -17.2970   354.5970    83.9140    24.5020     8.1860     8.2030     8.6810 
  146.8750     2.2740   -18.0640   384.0590    82.7870    24.1480     6.4570     6.9430     7.1270 
  147.0000     2.2120   -18.8720   401.6650    83.6110    23.6870     6.5470     6.1830     6.4320 
  147.1250     2.1770   -19.6300   408.1870    86.6000    23.3180     6.9170     5.9180     6.4160 
  147.2500     2.1720   -20.2820   411.2830    89.8330    23.1030     6.9260     5.9010     6.6420 
  147.3750     2.1900   -20.8050   414.8610    91.9340    22.9830     6.6440     5.9580     6.8360 
  147.5000     2.2110   -21.2080   419.5930    92.5060    22.9130     6.2730     5.9640     6.8430 
  147.6250     2.2160   -21.4970   423.4160    91.7690    22.9050     6.0500     5.8880     6.6830 
  147.7500     2.2050   -21.7140   425.7200    91.7780    22.9130     6.0700     5.8020     6.5240 
  147.8750     2.1840   -21.9120   428.4740    92.3030    22.9270     6.3140     5.7610     6.4680 
  148.0000     2.1620   -22.1260   433.8090    92.1150    22.9480     6.6650     5.7870     6.5460 
  148.1250     2.1520   -22.3910   441.8860    90.5650    22.9460     6.9410     5.8670     6.7240 
  148.2500     2.1570   -22.7180   448.5990    88.1020    22.9120     7.0400     5.9500     6.9000 
  148.3750     2.1720   -23.1110   450.5920    84.4290    22.8550     6.9950     5.9980     7.0070 
  148.5000     2.1800   -23.5270   447.1590    79.2190    22.8000     6.8830     5.9960     7.0200 
  148.6250     2.1700   -23.9220   439.9760    75.5230    22.7950     6.7540     5.9470     6.9500 
  148.7500     2.1540   -24.2740   432.1520    75.6870    22.8380     6.6610     5.8820     6.8580 
  148.8750     2.1500   -24.5560   424.4610    77.1520    22.8950     6.6420     5.8220     6.7760 
  149.0000     2.1620   -24.7610   416.7180    76.4380    22.9400     6.6870     5.7760     6.7130 
  149.1250     2.1780   -24.8820   409.6360    73.9460    22.9800     6.7070     5.7400     6.6670 
  149.2500     2.1810   -24.9250   404.9190    74.3080    23.0060     6.6590     5.7060     6.6370 
  149.3750     2.1650   -24.8780   403.9890    76.5720    22.9900     6.6070     5.6730     6.6270 
  149.5000     2.1440   -24.7560   406.2920    76.6790    22.9440     6.6640     5.6420     6.6380 
  149.6250     2.1390   -24.5740   409.5900    75.4460    22.9170     6.8810     5.6250     6.6660 
  149.7500     2.1520   -24.3570   411.4740    76.8830    22.9230     7.1180     5.6230     6.6840 
  149.8750     2.1730   -24.1250   410.8240    81.0130    22.9380     7.2510     5.6320     6.6750 
  150.0000     2.1890   -23.9020   407.5800    84.5710    22.9490     7.2560     5.6440     6.6330 
  150.1250     2.1930   -23.7330   402.6850    86.3140    22.9600     7.1800     5.6450     6.5710 
  150.2500     2.1910   -23.6440   398.0610    86.2620    22.9710     7.0830     5.6330     6.5160 
  150.3750     2.1850   -23.6680   394.5820    84.5500    22.9780     6.9760     5.6110     6.4820 
  150.5000     2.1740   -23.8090   392.5980    83.1510    22.9840     6.8740     5.5890     6.4730 
  150.6250     2.1600   -24.0550   392.5050    83.9450    23.0200     6.7920     5.5780     6.4870 
  150.7500     2.1470   -24.3660   394.0730    84.1650    23.0820     6.7280     5.5830     6.5110 
  150.8750     2.1360   -24.7120   397.3370    82.3180    23.1360     6.6880     5.6010     6.5350 
