~V
VERS. 2.00: Ver 2.00
~W
STRT.M 120.0000:
STOP.M 271.0000:
STEP.M 0.1250:
NULL. -999.2500:
UWI. DF3037:
~C
DEPT.M :
GR.API :
RML.OHMM :
RI. :
RXO.OHMM :
CALI.CM :
SP.MV :
DEN.GM/CC :
AC.US/MT :
~A
# ...
  250.0000    71.6930     8.8590     7.8500     6.9620    24.0000   -15.3250     2.4110   318.7150 
  250.1250    67.0980     8.7990     7.8080     6.9340    23.9900   -15.2440     2.4110   318.1650 
  250.2500    64.5250     8.6780     7.7580     7.0110    24.0200   -15.1840     2.4160   317.1010 
  250.3750    63.5960     8.5440     7.6970     7.0930    24.0380   -15.1060     2.4260   316.0550 
  250.5000    62.6460     8.4360     7.6250     7.0790    24.0300   -15.0870     2.4370   316.1550 
  250.6250    62.7910     8.3650     7.5530     7.0790    23.9840   -15.0420     2.4430   317.8720 
  250.7500    64.4490     8.3090     7.4910     7.1300    23.9180   -14.9950     2.4360   320.9230 
  250.8750    66.0880     8.2560     7.4480     7.1820    23.8720   -14.9610     2.4100   324.2350 
  251.0000    67.0500     8.1980     7.4280     7.2450    23.8170   -14.8970     2.3760   326.0460 
  251.1250    68.5420     8.1350     7.4330     6.9600    23.8060   -14.8700     2.3460   325.7760 
  251.2500    69.4620     8.0700     7.4560     6.7900    23.9090   -14.8270     2.3320   324.0000 
  251.3750    69.4170     8.0170     7.4910     6.7760    24.0060   -14.8350     2.3380   322.2320 
  251.5000    69.5070     7.9880     7.5280     6.7540    24.0480   -14.7810     2.3550   322.6320 
  251.6250    70.5510     7.9990     7.5570     6.7010    24.0850   -14.7570     2.3730   325.7440 
  251.7500    70.2980     8.0280     7.5710     6.7520    24.1430   -14.7170     2.3880   331.0130 
  251.8750    67.6680     8.0600     7.5730     7.0650    24.1760   -14.6690     2.3970   337.0420 
  252.0000    65.2670     8.0770     7.5730     7.4150    24.1930   -14.5980     2.4050   341.9440 
  252.1250    66.1050     8.0950     7.5840     7.5030    24.1940   -14.5790     2.4120   344.8780 
  252.2500    67.6230     8.1310     7.6120     7.4450    24.1880   -14.5370     2.4180   345.8800 
  252.3750    69.2940     8.1940     7.6530     7.4010    24.1680   -14.5190     2.4230   345.6260 
  252.5000    71.3200     8.2790     7.6930     7.4110    24.1540   -14.4820     2.4270   345.2030 
  252.6250    72.6130     8.3630     7.7160     7.4230    24.1430   -14.4820     2.4320   345.6860 
  252.7500    70.9640     8.4270     7.7140     7.3660    24.1290   -14.4700     2.4360   347.6100 
  252.8750    67.9320     8.4580     7.6900     7.3010    24.1160   -14.4670     2.4390   350.9650 
  253.0000    65.7960     8.4680     7.6520     7.3000    24.1100   -14.4640     2.4410   355.2700 
  253.1250    65.5210     8.4680     7.6100     7.3380    24.1100   -14.4560     2.4410   359.5420 
  253.2500    66.6280     8.4650     7.5720     7.2430    24.1060   -14.4550     2.4400   363.2590 
  253.3750    66.3290     8.4570     7.5440     7.0150    24.0930   -14.4350     2.4350   366.3000 
  253.5000    64.2320     8.4420     7.5240     6.8430    24.0620   -14.4460     2.4270   368.7960 
  253.6250    64.8160     8.4260     7.5170     6.7850    24.0470   -14.4440     2.4170   371.0770 
  253.7500    67.5920     8.4180     7.5180     6.7270    24.0410   -14.4270     2.4080   373.1350 
  253.8750    68.0370     8.4290     7.5290     6.6540    24.0410   -14.4150     2.4010   374.6780 
  254.0000    66.0190     8.4500     7.5500     6.6330    24.0480   -14.4340     2.3960   374.9250 
  254.1250    65.7050     8.4810     7.5810     6.6960    24.0690   -14.4060     2.3910   373.4150 
  254.2500    66.6930     8.5240     7.6240     6.8150    24.1060   -14.4000     2.3840   369.8190 
  254.3750    66.3440     8.5830     7.6830     6.9290    24.1660   -14.3710     2.3750   364.1890 
  254.5000    64.9370     8.6600     7.7600     7.0800    24.2930   -14.3240     2.3670   356.8460 
  254.6250    65.0310     8.7630     7.8630     7.2990    24.4190   -14.2200     2.3670   348.9710 
  254.7500    66.4250     8.8850     7.9850     7.5460    24.4780   -14.1470     2.3780   341.5490 
  254.8750    69.0450     9.0190     8.1190     7.6890    24.4230   -14.0230     2.3970   335.5410 
  255.0000    70.0920     9.1510     8.2510     7.8100    24.3600   -13.8780     2.4180   332.0020 
  255.1250    67.6970     9.2630     8.3630     8.0000    24.2920   -13.7350     2.4340   330.5790 
  255.2500    65.2200     9.3400     8.4400     8.2150    24.2490   -13.5360     2.4420   330.6460 
  255.3750    65.3730     9.3770     8.4770     8.3720    24.2310   -13.3380     2.4480   331.2860 
  255.5000    66.6200     9.3740     8.4740     8.4680    24.2310   -13.1340     2.4550   331.4960 
  255.6250    65.9530     9.3400     8.4400     8.4120    24.2300   -12.9440     2.4620   330.8290 
  255.7500    65.0550     9.3020     8.4020     8.1480    24.2290   -12.7400     2.4680   329.2660 
  255.8750    64.2650     9.2820     8.3820     7.8070    24.2260   -12.5720     2.4650   326.9340 
  256.0000    62.2230     9.2960     8.3960     7.6210    24.2250   -12.4070     2.4550   323.8310 
  256.1250    60.6190     9.3560     8.4560     7.7810    24.2240   -12.2440     2.4440   320.0640 
  256.2500    62.1420     9.4460     8.5460     8.5880    24.2280   -12.1170     2.4370   315.6390 
  256.3750    65.4430     9.5520     8.6520     9.9810    24.2470   -11.9720     2.4430   310.6310 
  256.5000    67.4770     9.6660     8.7660    11.0890    24.2820   -11.8150     2.4600   304.9020 
  256.6250    66.8220     9.7950     8.8950    11.3010    24.2930   -11.6950     2.4810   298.2860 
  256.7500    65.5260     9.9570     9.0570    11.4330    24.2990   -11.5650     2.5000   290.5650 
  256.8750    65.4290    10.1690     9.2690    11.7480    24.3090   -11.4810     2.5080   281.9860 
  257.0000    66.5840    10.4420     9.5420    11.9500    24.3220   -11.3700     2.5060   273.7600 
  257.1250    67.2520    10.7680     9.8680    12.2480    24.3410   -11.3060     2.4980   267.3720 
  257.2500    67.0250    11.0960    10.1960    12.4920    24.3560   -11.1960     2.4890   263.6670 
  257.3750    68.0530    11.3800    10.4800    12.5200    24.3410   -11.1320     2.4860   262.4390 
  257.5000    71.4690    11.5800    10.6800    12.7270    24.3210   -11.0890     2.4880   262.4150 
  257.6250    72.9170    11.6610    10.7610    12.2600    24.3130   -11.0420     2.4930   261.6810 
  257.7500    70.8460    11.6530    10.7530    11.5390    24.3120   -11.0030     2.4950   259.3340 
  257.8750    68.7760    11.5810    10.6810    11.2780    24.3110   -10.9100     2.4940   255.4680 
  258.0000    68.6810    11.4750    10.5750    11.1610    24.3090   -10.8630     2.4920   251.2080 
  258.1250    68.1680    11.3650    10.4650    10.9560    24.3080   -10.7640     2.4960   248.1820 
  258.2500    67.2000    11.2750    10.3750    10.6990    24.3110   -10.7100     2.5070   247.3810 
  258.3750    67.7890    11.2260    10.3260    10.4880    24.3210   -10.6160     2.5190   248.9970 
  258.5000    68.0410    11.2410    10.3410    10.5260    24.3480   -10.5640     2.5220   252.5690 
  258.6250    65.8970    11.3640    10.4640    10.8060    24.3720   -10.4850     2.5040   256.5480 
  258.7500    64.0830    11.5980    10.6980    10.8510    24.3780   -10.4390     2.4630   259.7310 
  258.8750    64.4960    11.9330    11.0330    10.9070    24.3950   -10.3750     2.4140   260.9220 
  259.0000    66.0880    12.3310    11.4320    11.3820    24.4620   -10.3010     2.3810   258.7720 
  259.1250    69.3390    12.7220    11.8240    12.5160    24.5820   -10.2540     2.3790   254.3690 
  259.2500    72.3570    13.0370    12.1370    13.7660    24.6290   -10.2100     2.4070   249.9540 
  259.3750    71.7540    13.2430    12.3380    14.9320    24.5770   -10.1790     2.4490   248.4830 
  259.5000    67.9640    13.3510    12.4330    16.2080    24.4470   -10.1180     2.4820   252.6140 
  259.6250    65.8900    13.3990    12.4690    18.1830    24.3670   -10.0710     2.4970   260.2900 
  259.7500    66.7630    13.4450    12.5230    19.9700    24.3720   -10.0240     2.4990   268.3550 
  259.8750    68.0830    13.5140    12.6420    20.5360    24.4000   -10.0180     2.4970   273.8520 
