~V
VERS. 2.00: Ver 2.00
~W
STRT.M 125.0000:
STOP.M 273.0000:
STEP.M 0.1250:
NULL. -999.2500:
UWI. DF3072:
~C
DEPT.M :
DEN.GM/CC :
GR.API :
CALI.CM :
RXO.OHMM :
RI. :
RML.OHMM :
SP.MV :
~A
# ...
  226.2500     2.6910    67.8480    24.9850    33.5590    21.3450    20.9230   -14.5790 
  226.3750     2.6520    64.4100    25.0110    14.8040    12.9890    12.4000   -13.7280 
  226.5000     2.5900    59.2500    25.0950     6.9670     8.3860     7.7160   -12.9970 
  226.6250     2.5240    53.5070    25.0870     5.2820     6.2590     5.6730   -12.4380 
  226.7500     2.4710    55.3890    24.9730     5.0810     5.2500     4.9310   -12.0790 
  226.8750     2.4400    68.5130    24.8430     5.3120     4.9450     5.0310   -11.9000 
  227.0000     2.4330    88.7000    24.7530     5.8980     5.1260     5.6820   -11.8570 
  227.1250     2.4420   105.7560    24.7870     7.0980     5.6750     6.6650   -11.9330 
  227.2500     2.4490   112.8010    25.0090     8.4170     6.3700     7.6620   -12.0300 
  227.3750     2.4460   108.9760    25.3820     9.2060     7.0440     8.4490   -12.0980 
  227.5000     2.4370   100.6350    25.7320     9.2400     7.5410     8.8720   -12.1260 
  227.6250     2.4340   100.0190    25.8960     8.9240     7.7200     8.8530   -12.0950 
  227.7500     2.4390   106.3320    25.9470     8.7430     7.6640     8.6050   -12.0130 
  227.8750     2.4450   113.8940    25.9610     8.7120     7.4770     8.3000   -11.9080 
  228.0000     2.4400   120.2410    25.9600     8.7010     7.2530     8.0570   -11.8010 
  228.1250     2.4250   124.4320    25.9490     8.5830     7.0560     7.9160   -11.7220 
  228.2500     2.4140   124.9420    25.9380     8.3800     6.8950     7.8310   -11.7160 
  228.3750     2.4130   123.0140    25.9370     8.2310     6.7830     7.7940   -11.7800 
  228.5000     2.4220   123.6450    25.9470     8.2730     6.7350     7.8310   -11.9080 
  228.6250     2.4310   124.8920    25.9280     8.4940     6.7740     8.0040   -12.0920 
  228.7500     2.4340   121.1520    25.8630     8.7840     6.8730     8.2930   -12.2840 
  228.8750     2.4370   112.3730    25.7820     9.1480     7.0050     8.6360   -12.4790 
  229.0000     2.4450   105.3220    25.7180     9.4900     7.1330     8.9430   -12.6770 
  229.1250     2.4560   105.8430    25.6800     9.4380     7.2120     9.0960   -12.8400 
  229.2500     2.4620   107.0900    25.6590     9.0220     7.2320     9.0890   -12.9630 
  229.3750     2.4610   104.7270    25.6440     8.6140     7.2070     8.9660   -13.0470 
  229.5000     2.4540   101.7920    25.6130     8.5060     7.1660     8.8080   -13.0690 
  229.6250     2.4420   104.9720    25.5180     8.6080     7.1540     8.7350   -13.0390 
  229.7500     2.4300   107.8790    25.3540     8.6940     7.1960     8.8020   -12.9800 
  229.8750     2.4200   106.6150    25.2490     8.7770     7.2930     8.9860   -12.8830 
  230.0000     2.4160   104.5460    25.3400     8.9900     7.4180     9.1870   -12.7540 
  230.1250     2.4230   104.8220    25.5630     9.4280     7.5150     9.2410   -12.6320 
  230.2500     2.4330   107.4620    25.6860     9.7670     7.5450     9.0890   -12.5170 
  230.3750     2.4330   111.4980    25.6770     9.5650     7.4980     8.7700   -12.4200 
  230.5000     2.4230   115.3210    25.6470     8.7840     7.4020     8.4150   -12.3610 
  230.6250     2.4180   116.1290    25.6500     8.0100     7.3290     8.2130   -12.3350 
  230.7500     2.4230   114.5710    25.6520     7.7280     7.3340     8.2150   -12.3460 
  230.8750     2.4290   112.7010    25.6480     7.9210     7.4210     8.3860   -12.3880 
  231.0000     2.4330   110.9700    25.6140     8.3770     7.5560     8.6400   -12.4590 
  231.1250     2.4400   111.6380    25.5260     8.6940     7.6650     8.8600   -12.5420 
  231.2500     2.4500   114.3350    25.4350     8.5040     7.6780     8.9550   -12.6420 
  231.3750     2.4500   114.8040    25.3790     7.9210     7.5580     8.8630   -12.7560 
  231.5000     2.4380   111.4950    25.3480     7.4710     7.2960     8.5390   -12.8820 
  231.6250     2.4230   108.4240    25.3030     7.5490     6.9140     7.9890   -13.0120 
  231.7500     2.4160   109.4740    25.2530     7.7770     6.5530     7.4610   -13.1660 
  231.8750     2.4190   112.7260    25.2290     7.8940     6.3970     7.3170   -13.3710 
  232.0000     2.4290   111.9750    25.2580     8.3260     6.6840     8.0340   -13.6370 
  232.1250     2.4380   101.0570    25.3410    11.6110     8.0360    10.5840   -14.0110 
  232.2500     2.4360    86.5540    25.4720    23.0380    11.3320    15.7910   -14.4740 
  232.3750     2.4200    76.1190    25.6560    55.9440    18.3430    25.2990   -15.0050 
  232.5000     2.3940    70.6330    25.8770   117.0510    31.7040    41.8280   -15.5930 
  232.6250     2.3610    66.5850    26.0680   159.9650    55.3880    71.1250   -16.2360 
  232.7500     2.3300    64.2550    26.1860   165.4560    85.1130   110.2850   -16.8870 
  232.8750     2.3070    64.7320    26.2270   155.7090   111.3360   145.5800   -17.5380 
  233.0000     2.2920    65.3050    26.1990   150.6120   125.6230   161.3860   -18.1640 
  233.1250     2.2740    63.7930    26.1190   146.8870   127.5210   159.2310   -18.7210 
  233.2500     2.2550    62.0210    26.0400   144.7110   125.3510   154.2380   -19.2230 
  233.3750     2.2440    60.6950    25.9870   141.9940   122.7070   150.8150   -19.6540 
  233.5000     2.2460    58.3190    25.9640   139.6170   120.7680   149.4900   -20.0250 
  233.6250     2.2510    56.7500    25.9580   143.3140   119.6130   149.5470   -20.3410 
  233.7500     2.2510    57.7190    25.9580   149.4720   118.4240   148.9610   -20.6000 
  233.8750     2.2510    60.8040    25.9600   148.5470   116.4470   146.0810   -20.8040 
  234.0000     2.2570    62.9870    25.9730   137.5680   113.3190   140.3710   -20.9690 
  234.1250     2.2660    63.8030    25.9970   125.4800   109.1470   132.6410   -21.0770 
  234.2500     2.2710    66.2090    26.0060   119.8230   104.6400   124.9000   -21.1400 
  234.3750     2.2720    68.3740    25.9910   119.5340   100.2500   118.1910   -21.1900 
  234.5000     2.2730    68.7830    25.9680   120.5340    96.2700   112.8400   -21.2080 
  234.6250     2.2730    68.1300    25.9590   117.5170    92.7980   108.5840   -21.2000 
  234.7500     2.2700    67.2950    25.9590   110.5720    89.5380   104.5280   -21.1970 
  234.8750     2.2650    65.1720    25.9600   103.7560    86.3080   100.2850   -21.1760 
  235.0000     2.2600    62.7060    25.9610   100.4310    83.0670    95.8730   -21.1400 
  235.1250     2.2540    62.9200    25.9540    98.8070    79.9880    91.7040   -21.1160 
  235.2500     2.2490    64.5320    25.9270    94.5520    77.3060    88.2010   -21.0800 
  235.3750     2.2510    66.6040    25.8700    87.9150    75.2310    85.6040   -21.0440 
  235.5000     2.2650    66.7890    25.7880    82.8130    73.8040    83.8610   -21.0240 
  235.6250     2.2760    64.7870    25.7120    83.4000    72.8980    82.7010   -21.0230 
  235.7500     2.2730    64.4390    25.6650    86.5030    72.1800    81.6640   -21.0540 
  235.8750     2.2580    66.8140    25.6490    87.1090    71.5670    80.6730   -21.1240 
  236.0000     2.2490    70.9310    25.6470    83.5670    71.1830    79.9920   -21.2170 
  236.1250     2.2590    72.0900    25.6480    80.5900    71.5010    80.3820   -21.3310 
  236.2500     2.2760    70.8060    25.6450    83.0960    72.8430    82.2550   -21.4560 
  236.3750     2.2880    68.6600    25.6090    90.8500    75.3080    85.6190   -21.5810 
  236.5000     2.2900    66.5720    25.5160   101.1640    78.5860    89.8790   -21.6950 
  236.6250     2.2870    66.6210    25.3860   112.6100    81.9140    93.7520   -21.7730 
  236.7500     2.2870    67.2580    25.3380   120.7620    84.3880    96.0410   -21.8060 
  236.8750     2.2830    68.2690    25.4310   118.8400    85.4180    96.2250   -21.8070 
  237.0000     2.2750    68.5640    25.6030   108.0510    84.8110    94.4880   -21.7760 
  237.1250     2.2700    68.2920    25.7130   100.8750    82.4180    91.0170   -21.7130 
  237.2500     2.2730    67.8680    25.7220   100.0290    78.6630    86.3090   -21.6480 
  237.3750     2.2790    67.1110    25.6870    97.3920    73.9330    80.7680   -21.5510 
