~V
VERS. 2.00: Ver 2.00
~W
STRT.M 100.0000:
STOP.M 264.0000:
STEP.M 0.1250:
NULL. -999.2500:
UWI. DF3023:
~C
DEPT.M :
GR.API :
CALI.CM :
RXO.OHMM :
RI. :
RML.OHMM :
SP.MV :
DEN.GM/CC :
AC.US/MT :
~A
# ...
  160.0000    69.8010    25.2920    95.9620    52.3150    43.5000   -25.2630     2.2190   412.9780 
  160.1250    74.4800    25.0470    35.9290    39.3460    33.5180   -25.2050     2.2580   413.0080 
  160.2500    78.7650    24.6590    24.8850    33.0380    28.9750   -25.2040     2.2940   414.0800 
  160.3750    82.1630    24.2870    26.5930    31.2040    28.0590   -25.2730     2.3220   415.0440 
  160.5000    85.3980    24.0810    30.1020    32.1580    29.2090   -25.3720     2.3210   415.1020 
  160.6250    87.7040    24.0570    37.2490    34.0320    30.4640   -25.4770     2.3010   414.5270 
  160.7500    86.8780    24.0700    43.9250    34.2410    29.8360   -25.5680     2.2970   414.4500 
  160.8750    84.1660    24.0670    41.8710    31.5320    26.7330   -25.6120     2.3080   415.6510 
  161.0000    84.8110    24.0500    28.1500    26.6790    22.1610   -25.6300     2.3220   418.0460 
  161.1250    90.6520    24.0250    16.3290    21.7540    17.9460   -25.6800     2.3470   420.6640 
  161.2500    95.1920    24.0110    12.0320    18.0300    14.9790   -25.7480     2.3910   422.6130 
  161.3750    94.6470    23.9950    11.7610    15.6580    13.3030   -25.8120     2.4180   423.8560 
  161.5000    91.7760    23.9500    12.1260    14.4390    12.7050   -25.8890     2.4130   424.3770 
  161.6250    92.1140    23.8840    12.8080    14.2910    13.1220   -25.9800     2.3910   423.8340 
  161.7500    95.8090    23.8370    13.7860    14.9700    14.3780   -26.0540     2.3850   422.1540 
  161.8750    98.1390    23.8180    15.1580    16.5560    16.6200   -26.1250     2.3890   419.5700 
  162.0000    94.8290    23.8110    17.5670    19.2930    20.1140   -26.2020     2.3870   416.6870 
  162.1250    87.7800    23.8130    26.3700    23.9150    25.4960   -26.2370     2.3750   414.6500 
  162.2500    83.8310    23.8340    38.0450    30.5520    32.7130   -26.2230     2.3550   413.6440 
  162.3750    84.4550    23.9400    46.8140    39.1160    41.6080   -26.1870     2.3350   413.1930 
  162.5000    84.5030    24.2330    54.4310    48.8830    51.5440   -26.1430     2.3170   412.5230 
  162.6250    80.2730    24.6840    63.3290    58.3270    61.2170   -26.1110     2.3020   411.2300 
  162.7500    76.8100    25.0430    72.3930    66.1080    69.4380   -26.1210     2.2910   409.9770 
  162.8750    76.6430    25.1920    78.6460    71.7700    75.7890   -26.1490     2.2860   409.0030 
  163.0000    77.3670    25.2010    82.2550    75.5620    80.4960   -26.1630     2.2880   408.2750 
  163.1250    75.1590    25.1940    82.7890    77.8160    83.7980   -26.1770     2.2870   408.2380 
  163.2500    72.4250    25.1940    82.2680    79.1060    86.0540   -26.2060     2.2760   408.9250 
  163.3750    71.8170    25.2030    81.6310    79.6450    87.3230   -26.2410     2.2590   409.4080 
  163.5000    72.9920    25.2290    79.9470    79.6800    87.7420   -26.2890     2.2540   408.8080 
  163.6250    74.1880    25.2670    76.4200    79.3540    87.2840   -26.3490     2.2690   407.3910 
  163.7500    74.3220    25.2940    71.0720    78.6470    85.8980   -26.3940     2.2850   406.1730 
  163.8750    73.3980    25.3020    68.9580    77.2310    83.2240   -26.4220     2.2880   405.8480 
  164.0000    71.9540    25.2980    69.9040    74.7800    79.0780   -26.4360     2.2790   407.0470 
  164.1250    72.1060    25.2900    70.6220    71.0360    73.5440   -26.4230     2.2670   409.1920 
  164.2500    74.1880    25.2870    65.7160    66.4790    67.5350   -26.3970     2.2650   410.4010 
  164.3750    75.5840    25.2940    57.7750    61.7500    61.9150   -26.3960     2.2750   410.1050 
  164.5000    75.9840    25.3010    48.8620    57.5690    57.3770   -26.4310     2.2870   409.0880 
  164.6250    77.6440    25.2910    50.8720    54.3430    54.1240   -26.4900     2.2900   408.4140 
  164.7500    79.8230    25.2730    50.0210    51.5140    51.2650   -26.5540     2.2810   407.6120 
  164.8750    80.3950    25.2620    47.2960    48.3280    47.8790   -26.5980     2.2740   406.3810 
  165.0000    80.1860    25.2600    45.6010    44.0410    43.2490   -26.6150     2.2700   405.3640 
  165.1250    82.9370    25.2610    45.3940    38.4930    37.4750   -26.6540     2.2790   405.5730 
  165.2500    84.9160    25.2610    33.6510    33.0570    32.1300   -26.7400     2.3090   406.8200 
  165.3750    84.0710    25.2600    22.8190    29.0000    28.5660   -26.8450     2.3420   408.4570 
  165.5000    84.5160    25.2670    18.2720    27.1330    27.6330   -26.9480     2.3600   410.0950 
  165.6250    87.6530    25.2910    20.3500    28.6320    30.4650   -27.0430     2.3550   410.9710 
  165.7500    87.6950    25.3270    39.3620    33.8760    37.0440   -27.1400     2.3410   410.8520 
  165.8750    84.4930    25.3700    65.4540    43.5000    47.6720   -27.2680     2.3220   410.2390 
  166.0000    81.8630    25.4050    82.6190    57.2610    62.0050   -27.4510     2.2940   409.7500 
  166.1250    79.5300    25.3950    87.8900    72.9110    77.9160   -27.6520     2.2620   409.4350 
  166.2500    74.1240    25.3220    89.9730    85.9690    90.9130   -27.8020     2.2410   408.9960 
  166.3750    69.7470    25.1910    90.4660    93.7550    98.1640   -27.8980     2.2390   408.5030 
  166.5000    70.0750    25.0310    90.4830    96.3370   100.0510   -27.9690     2.2450   408.2280 
  166.6250    71.7350    24.9020    90.3510    95.4800    98.9950   -28.0140     2.2510   408.3970 
  166.7500    71.5060    24.8250    93.0570    93.5790    97.4500   -28.0560     2.2560   408.6460 
  166.8750    72.2680    24.8010    95.4480    91.4570    96.0750   -28.1190     2.2600   408.7400 
  167.0000    75.2230    24.8680    89.0100    89.6260    95.2070   -28.1820     2.2540   408.5540 
  167.1250    75.2520    25.0660    82.0500    88.5740    95.1300   -28.2180     2.2430   408.0370 
  167.2500    70.5120    25.2820    78.4500    88.1320    95.4420   -28.2560     2.2430   407.4750 
  167.3750    66.7110    25.4010    81.4070    87.6880    95.3240   -28.2990     2.2410   407.2030 
  167.5000    67.4460    25.4160    87.6480    86.3880    93.7730   -28.3400     2.2170   407.2660 
  167.6250    69.9760    25.3700    92.7420    83.4560    90.0510   -28.4210     2.1940   407.0110 
  167.7500    70.4680    25.2270    92.8500    79.5390    85.3320   -28.5540     2.2050   406.2760 
  167.8750    70.5530    24.9670    82.8130    75.7390    81.1160   -28.6910     2.2260   405.2160 
  168.0000    71.8230    24.6930    68.1850    73.3140    78.7900   -28.8030     2.2410   404.0140 
  168.1250    72.9020    24.5630    60.0230    73.5100    79.4850   -28.9010     2.2550   402.6530 
  168.2500    72.9940    24.5390    70.1770    75.8830    82.4500   -28.9880     2.2650   401.3720 
  168.3750    73.3160    24.4830    80.1470    79.7230    86.7820   -29.0620     2.2470   400.9900 
  168.5000    74.0840    24.3330    83.7130    84.1330    91.4380   -29.1400     2.2190   402.2860 
  168.6250    73.7840    24.2830    84.3460    88.2420    95.4770   -29.2060     2.2180   405.3010 
  168.7500    71.0010    24.4980    83.3870    91.8470    98.9090   -29.2520     2.2410   407.5650 
  168.8750    67.8030    24.8520    83.1160    95.3620   102.3090   -29.2990     2.2520   407.5490 
  169.0000    67.3430    25.0740    89.4150    99.2810   106.1560   -29.3490     2.2510   406.3050 
  169.1250    68.2080    25.0320    97.2230   103.2220   109.7410   -29.3810     2.2480   405.5470 
  169.2500    68.0330    24.9020   101.8010   105.7520   111.3510   -29.3910     2.2530   405.2820 
  169.3750    67.6080    24.7940   102.1540   105.6580   109.7510   -29.3690     2.2600   405.2130 
  169.5000    67.8740    24.7400    98.8730   102.5690   104.8640   -29.3070     2.2700   405.6610 
  169.6250    66.7090    24.7460    89.9100    96.8180    97.5400   -29.2200     2.2730   406.6060 
  169.7500    64.4730    24.7590    78.3160    92.8530    92.8530   -29.1330     2.2630   407.3970 
  169.8750    63.5210    24.7520    73.5140    88.4830    88.9520   -29.0500     2.2620   408.3630 
