~V
VERS. 2.00: Ver 2.00
~W
STRT.M 125.0000:
STOP.M 276.0000:
STEP.M 0.1250:
NULL. -999.2500:
UWI. DF3039:
~C
DEPT.M :
SP.MV :
GR.API :
CALI.CM :
RXO.OHMM :
RI. :
RML.OHMM :
DEN.GM/CC :
~A
# ...
  248.7500   -16.9240    79.0230    20.1630    30.6720    75.1720    76.2970     2.5020 
  248.8750   -16.8390    83.5510    20.3350    27.1460    75.5880    76.2010     2.5250 
  249.0000   -16.7450    89.1740    20.3600    24.7170    73.9930    74.1380     2.5190 
  249.1250   -16.6010    88.2950    20.4700    27.1800    70.9740    70.8540     2.4890 
  249.2500   -16.4120    82.6130    20.6440    29.2430    68.0060    67.8930     2.4560 
  249.3750   -16.1730    78.8080    20.2860    28.0750    65.8070    65.8200     2.4440 
  249.5000   -15.9090    79.0450    19.8130    24.6490    63.8350    63.9420     2.4540 
  249.6250   -15.6370    78.6990    19.5800    23.1110    60.9880    61.1720     2.4660 
  249.7500   -15.3870    76.2360    19.6140    23.8800    56.4430    56.8040     2.4750 
  249.8750   -15.1650    74.1580    19.6690    25.3160    49.8200    50.4940     2.4930 
  250.0000   -14.9940    72.2450    19.6890    27.3440    41.8200    42.7080     2.5240 
  250.1250   -14.8720    72.4840    19.8100    26.1370    33.9180    34.6350     2.5420 
  250.2500   -14.7410    75.3820    19.8810    19.0620    27.1650    27.5380     2.5260 
  250.3750   -14.5590    78.4010    19.9070    12.7130    22.0020    22.1310     2.4840 
  250.5000   -14.3230    78.3940    19.8610    10.8440    18.5200    18.5840     2.4530 
  250.6250   -14.0710    75.0010    19.8300    10.7380    16.5620    16.6910     2.4480 
  250.7500   -13.8410    72.7810    19.8000    10.4240    15.3520    15.6220     2.4560 
  250.8750   -13.6700    73.6570    19.7870    10.1100    14.6620    15.0590     2.4590 
  251.0000   -13.5300    76.3470    19.8340    10.1970    14.2620    14.7100     2.4550 
  251.1250   -13.4230    77.3110    19.8980    10.1650    13.9260    14.3100     2.4570 
  251.2500   -13.3650    75.1280    20.0640    10.1130    13.5190    13.7990     2.4690 
  251.3750   -13.3670    70.6850    20.1320    10.0930    13.0840    13.2910     2.4780 
  251.5000   -13.4020    66.1340    20.1520    10.3630    12.6750    12.8800     2.4620 
  251.6250   -13.4120    64.1090    20.2790    10.6310    12.3480    12.6450     2.4330 
  251.7500   -13.3800    63.9100    20.4030    10.7470    12.0850    12.5140     2.4140 
  251.8750   -13.2930    64.5970    20.7330    10.7750    11.8560    12.4450     2.4150 
  252.0000   -13.2070    65.3380    21.2660    11.0210    11.6690    12.4390     2.4170 
  252.1250   -13.1730    65.0750    21.4110    12.1680    11.5400    12.5010     2.4110 
  252.2500   -13.2130    63.6850    21.3630    12.5310    11.4540    12.5880     2.4080 
  252.3750   -13.3070    64.5020    21.3920    11.4250    11.3760    12.6570     2.4210 
  252.5000   -13.4140    68.5610    21.4710     9.8870    11.3090    12.7030     2.4450 
  252.6250   -13.5020    71.3150    21.4870    10.1550    11.3060    12.7520     2.4620 
  252.7500   -13.5720    70.8700    21.6260    10.4550    11.3490    12.8300     2.4670 
  252.8750   -13.6150    69.1230    21.8770    10.5760    11.4350    12.9610     2.4610 
  253.0000   -13.6270    68.5780    22.0010    11.0080    11.5570    13.1420     2.4560 
  253.1250   -13.6180    69.4610    22.2530    12.0780    11.7060    13.3690     2.4630 
  253.2500   -13.6120    72.1210    22.3990    12.9260    11.8620    13.6010     2.4770 
  253.3750   -13.6380    75.5800    22.3850    13.8670    12.0020    13.8050     2.4850 
  253.5000   -13.7130    75.7170    22.5220    14.2400    12.1070    13.9610     2.4770 
  253.6250   -13.8300    71.1420    22.4960    13.3690    12.1610    14.0590     2.4660 
  253.7500   -13.9170    65.5870    22.4020    11.6900    12.1890    14.1180     2.4590 
  253.8750   -13.9770    64.2910    22.3210    10.7920    12.2250    14.1730     2.4520 
  254.0000   -14.0060    67.5170    22.5930    11.1430    12.2700    14.2400     2.4410 
  254.1250   -13.9920    69.2740    22.7980    12.6970    12.3050    14.2940     2.4350 
  254.2500   -13.9810    70.1090    22.8970    14.9460    12.3220    14.3200     2.4400 
  254.3750   -13.9570    72.8870    23.0620    17.0480    12.3170    14.3070     2.4550 
  254.5000   -13.9450    77.3260    23.3800    17.4960    12.2890    14.2500     2.4690 
  254.6250   -13.9600    78.0830    23.5190    17.7930    12.2390    14.1520     2.4760 
  254.7500   -14.0210    75.0980    23.6000    17.7670    12.1810    14.0450     2.4730 
  254.8750   -14.1050    71.4870    23.6610    16.9950    12.1370    13.9610     2.4560 
  255.0000   -14.1760    68.4530    23.5490    15.8050    12.1250    13.9160     2.4290 
  255.1250   -14.2100    67.9980    23.5140    15.9700    12.1600    13.9330     2.4040 
  255.2500   -14.1760    70.0560    23.5360    18.2570    12.2280    14.0070     2.3900 
  255.3750   -14.1060    72.2800    23.5640    19.6430    12.3150    14.1010     2.3960 
  255.5000   -14.0360    72.6450    23.5720    19.9370    12.4140    14.1900     2.4180 
  255.6250   -14.0170    71.2650    23.6240    21.6370    12.5250    14.2750     2.4340 
  255.7500   -14.0000    71.7350    23.8460    24.4100    12.6270    14.3380     2.4320 
  255.8750   -13.9980    72.9970    23.8980    24.6620    12.6980    14.3530     2.4220 
  256.0000   -14.0240    72.6510    23.8250    22.3450    12.7350    14.3200     2.4230 
  256.1250   -14.0560    71.5070    23.8420    22.3320    12.7240    14.2430     2.4380 
  256.2500   -14.0910    71.8530    23.8820    19.2670    12.6540    14.2620     2.4590 
  256.3750   -14.0940    73.1780    23.8340    16.2480    12.5460    14.3800     2.4780 
  256.5000   -14.0540    73.2420    23.8540    14.2610    12.4530    14.4880     2.4850 
  256.6250   -13.9510    70.8480    23.9400    14.1890    12.4180    14.6290     2.4810 
  256.7500   -13.8320    68.0640    23.8890    14.7330    12.4590    14.8030     2.4740 
  256.8750   -13.7360    66.0650    23.8230    14.5360    12.5990    15.0130     2.4700 
  257.0000   -13.6760    67.2030    23.8420    15.1790    12.8190    15.1740     2.4670 
  257.1250   -13.6550    72.2210    23.8950    16.8920    13.0950    15.2670     2.4660 
  257.2500   -13.6340    77.0530    23.8760    18.4990    13.3850    15.3010     2.4740 
  257.3750   -13.5980    77.9080    23.8620    17.5620    13.6520    15.3030     2.4890 
  257.5000   -13.5420    74.3790    23.9570    15.8410    13.8670    15.4980     2.5030 
  257.6250   -13.4670    70.7100    23.9390    15.5580    14.1060    15.7480     2.5130 
  257.7500   -13.3590    69.8620    23.9110    16.9080    14.4130    16.1250     2.5230 
  257.8750   -13.2370    69.7660    23.9540    17.9550    14.8150    16.6460     2.5290 
  258.0000   -13.1090    66.7690    23.9410    17.2820    15.3100    17.2770     2.5210 
  258.1250   -13.0050    62.1340    23.8260    16.0790    15.8670    17.9350     2.5070 
  258.2500   -12.9690    61.0310    23.9100    15.2360    16.3820    18.4470     2.5100 
  258.3750   -13.0100    63.7240    23.9730    15.0300    16.7730    18.7770     2.5370 
  258.5000   -13.1150    66.7960    24.0450    15.4040    16.9700    18.8800     2.5620 
  258.6250   -13.2250    67.4170    24.0870    16.2300    16.9360    18.7260     2.5650 
  258.7500   -13.3040    68.3100    24.0820    17.4080    16.7690    18.4330     2.5500 
  258.8750   -13.3280    69.4510    24.0990    18.6440    16.5150    18.0960     2.5320 
  259.0000   -13.2860    68.7590    24.1410    19.7410    16.2350    17.7810     2.5150 
  259.1250   -13.1990    67.8410    24.1900    19.7580    16.0010    17.5470     2.4940 
  259.2500   -13.1000    71.1360    24.3550    17.8820    15.8200    17.3840     2.4750 
  259.3750   -13.0100    75.5700    24.3850    14.3420    15.6740    17.2720     2.4640 
  259.5000   -12.9440    74.5610    24.1510    11.5090    15.5490    17.1730     2.4590 
  259.6250   -12.9260    70.6160    24.0580    12.2130    15.4520    17.0750     2.4530 
  259.7500   -12.9720    70.4880    23.8990    13.3130    15.3500    16.9490     2.4490 
  259.8750   -13.0450    71.6490    23.9980    13.9070    15.2590    16.8040     2.4520 
