~V
VERS. 2.00: Ver 2.00
~W
STRT.M 57.0000:
STOP.M 290.0000:
STEP.M 0.1250:
NULL. -999.2500:
UWI. DF3043:
~C
DEPT.M :
SP.MV :
DEN.GM/CC :
AC.US/MT :
GR.API :
CALI.CM :
RXO.OHMM :
RI. :
RML.OHMM :
~A
# ...
  247.0000   -14.9440     2.5590   241.5160    67.7480    24.2440   147.0990   123.2740   138.4240 
  247.1250   -14.7490     2.5770   219.7060    64.3790    24.2350   125.2090   124.6510   132.9950 
  247.2500   -14.5760     2.5620   206.5840    59.5020    24.2260   121.0040   106.1630   107.1130 
  247.3750   -14.4290     2.5220   207.0150    53.3480    24.2260   120.5820    69.3490    78.1880 
  247.5000   -14.2990     2.4830   207.9330    46.6380    24.2350    85.0680    39.7430    48.9240 
  247.6250   -14.1910     2.4600   204.3060    41.9000    24.2770    43.3300    22.9480    29.2170 
  247.7500   -14.1020     2.4280   211.2290    40.5050    24.4710    18.9600    13.5870    17.6330 
  247.8750   -14.0300     2.3690   240.1140    42.4080    24.9620     7.5670     8.5990    11.4050 
  248.0000   -13.9900     2.2930   288.9630    47.6550    25.6760     5.3320     6.0980     8.2360 
  248.1250   -13.9810     2.2340   337.3660    54.4180    26.1100     4.9430     5.1280     6.8590 
  248.2500   -13.9910     2.2070   366.8000    58.6860    25.7040     4.8930     4.8130     6.2370 
  248.3750   -14.0280     2.2060   371.8830    60.1090    24.4090     4.9850     4.8310     6.0050 
  248.5000   -14.0860     2.2180   373.1650    60.7910    22.9210     5.3240     4.9970     5.9380 
  248.6250   -14.1590     2.2290   370.9150    63.0050    22.2690     5.7110     5.1830     5.9230 
  248.7500   -14.2130     2.2210   365.4580    65.0950    22.3300     5.7830     5.2940     5.9160 
  248.8750   -14.2240     2.1890   362.5180    66.5450    22.4980     5.1820     5.3110     5.9100 
  249.0000   -14.1980     2.1460   365.1210    67.1080    22.4810     5.0310     5.2610     5.8770 
  249.1250   -14.1280     2.1190   370.1370    65.3350    22.5580     5.1090     5.1730     5.8000 
  249.2500   -14.0430     2.1100   372.0540    62.2810    22.9200     5.1550     5.0710     5.7000 
  249.3750   -13.9550     2.1080   371.2040    59.8310    23.4420     5.1490     4.9730     5.5870 
  249.5000   -13.8650     2.1050   371.5260    59.9940    23.8360     5.1120     4.8940     5.4640 
  249.6250   -13.7900     2.1050   375.1160    61.8110    23.7610     5.0660     4.8460     5.3420 
  249.7500   -13.7300     2.1090   378.2110    62.2790    23.3650     5.0140     4.8220     5.2280 
  249.8750   -13.6870     2.1220   377.9500    60.7940    23.0430     4.9870     4.8170     5.1290 
  250.0000   -13.6580     2.1480   375.0470    58.3890    23.1540     5.0690     4.8240     5.0470 
  250.1250   -13.6340     2.1830   371.2540    57.5730    23.8200     5.1540     4.8380     4.9830 
  250.2500   -13.6190     2.2120   368.1520    57.4330    24.7150     5.1710     4.8760     4.9040 
  250.3750   -13.6040     2.2220   367.4390    56.6520    25.5210     5.0410     4.8730     4.8660 
  250.5000   -13.5730     2.2090   370.4320    56.6880    25.9660     4.9190     4.8160     4.8680 
  250.6250   -13.5220     2.1910   375.3900    58.3350    25.9060     4.8200     4.7460     4.8470 
  250.7500   -13.4450     2.1930   378.2480    58.4720    25.5710     4.7560     4.6620     4.8010 
  250.8750   -13.3490     2.2180   379.4880    56.5580    25.1590     4.6020     4.5770     4.7340 
  251.0000   -13.2420     2.2450   381.3540    55.6210    24.7060     4.3740     4.5010     4.6560 
  251.1250   -13.1390     2.2590   384.7110    56.8640    24.3240     4.1730     4.4360     4.5800 
  251.2500   -13.0720     2.2750   387.7000    57.5000    24.2380     4.0590     4.3730     4.5150 
  251.3750   -13.0680     2.2950   388.5410    56.6190    24.3300     4.1170     4.3090     4.4600 
  251.5000   -13.1390     2.3070   387.7180    55.9540    24.2410     4.3230     4.2480     4.4200 
  251.6250   -13.2930     2.3000   385.8220    57.3010    23.9220     4.6360     4.2080     4.4110 
  251.7500   -13.4900     2.2710   384.4140    58.9160    23.7060     4.9250     4.2100     4.4520 
  251.8750   -13.7160     2.2440   384.7930    58.9220    23.4340     5.2700     4.2700     4.5680 
  252.0000   -13.9710     2.2360   384.8760    57.9450    22.7910     5.6840     4.3920     4.7770 
  252.1250   -14.2450     2.2460   378.2700    58.9320    22.1940     6.0290     4.5880     5.0950 
  252.2500   -14.5250     2.2710   363.4150    60.3470    22.2270     6.3910     4.8330     5.4710 
  252.3750   -14.8040     2.3030   344.1350    60.6370    22.7560     6.7030     5.0940     5.8490 
  252.5000   -15.0720     2.3380   327.6630    61.5140    23.2860     6.7520     5.3260     6.1650 
  252.6250   -15.3190     2.3630   320.0190    65.1050    23.4940     6.6330     5.4740     6.3440 
  252.7500   -15.5360     2.3700   320.5530    68.1740    23.5210     6.5490     5.5380     6.3960 
  252.8750   -15.7070     2.3610   325.4670    67.4650    23.4980     6.4190     5.5320     6.3500 
  253.0000   -15.8200     2.3390   329.9980    64.3400    23.4860     5.8960     5.4850     6.2540 
  253.1250   -15.8630     2.3060   331.7180    62.4810    23.5110     5.4520     5.4310     6.1550 
  253.2500   -15.8590     2.2750   333.3920    61.6940    23.5750     5.1570     5.3870     6.0840 
  253.3750   -15.8260     2.2600   339.7310    60.8710    23.6330     5.1390     5.3530     6.0530 
  253.5000   -15.7820     2.2640   351.0340    61.5460    23.6280     5.3720     5.3250     6.0610 
  253.6250   -15.7450     2.2820   359.9360    64.8070    23.5640     5.7350     5.3070     6.1020 
  253.7500   -15.7210     2.3080   361.4160    65.6220    23.5220     5.8470     5.3020     6.1640 
  253.8750   -15.6980     2.3310   356.8130    62.1300    23.5300     5.6580     5.3150     6.2470 
  254.0000   -15.6640     2.3470   350.9060    59.9390    23.5230     5.7270     5.3560     6.3560 
  254.1250   -15.6080     2.3520   346.8280    61.7950    23.3980     6.1600     5.4410     6.5000 
  254.2500   -15.5320     2.3500   341.3270    63.3160    23.0750     6.2440     5.5540     6.6640 
  254.3750   -15.4460     2.3500   330.8940    63.6620    22.6970     6.7020     5.6810     6.8250 
  254.5000   -15.3530     2.3510   318.2900    65.5420    22.6300     9.1380     5.7980     6.9520 
  254.6250   -15.2380     2.3500   316.6860    69.2820    23.0320     9.7470     5.8730     7.0050 
  254.7500   -15.1060     2.3380   330.1020    69.0690    23.4510     8.1530     5.8960     6.9900 
  254.8750   -14.9590     2.3220   349.1130    65.2680    23.5380     6.5240     5.8720     6.9270 
  255.0000   -14.8020     2.3090   359.8410    61.6870    23.3570     6.3220     5.8170     6.8440 
  255.1250   -14.6580     2.3020   353.0040    61.5480    23.3610     6.4490     5.7480     6.7790 
  255.2500   -14.5310     2.3040   341.0550    62.4690    23.6690     6.2170     5.6860     6.7510 
  255.3750   -14.4190     2.3160   336.0120    62.3140    24.1380     5.9580     5.6450     6.7640 
  255.5000   -14.3230     2.3300   339.1950    61.7160    24.4670     5.9970     5.6290     6.8110 
  255.6250   -14.2320     2.3370   339.9960    61.3820    24.3590     6.4550     5.6330     6.8740 
  255.7500   -14.1530     2.3330   333.4690    61.3870    24.0560     6.7030     5.6510     6.9330 
  255.8750   -14.0790     2.3270   328.1250    61.9920    23.8420     6.5760     5.6800     6.9800 
  256.0000   -13.9960     2.3220   332.6850    64.0510    23.7880     6.3220     5.7090     7.0130 
  256.1250   -13.9010     2.3140   344.8510    66.3820    23.7270     5.9840     5.7310     7.0250 
  256.2500   -13.7910     2.3020   352.3480    68.0450    23.6310     6.3630     5.7410     7.0040 
  256.3750   -13.6760     2.2940   351.7800    67.9630    23.5940     6.9460     5.7250     6.9370 
  256.5000   -13.5690     2.2900   349.4800    66.2610    23.5180     6.8500     5.6730     6.8180 
  256.6250   -13.4630     2.2870   353.0660    64.3460    23.3350     5.8800     5.5840     6.6600 
  256.7500   -13.3610     2.2770   359.2600    65.0570    23.3030     5.4820     5.4820     6.5120 
  256.8750   -13.2570     2.2580   362.2310    67.7970    23.5370     5.4990     5.3870     6.4130 
