~V
VERS. 2.00: Ver 2.00
~W
STRT.M 55.0000:
STOP.M 272.0000:
STEP.M 0.1250:
NULL. -999.2500:
UWI. DF3078:
~C
DEPT.M :
GR.API :
CALI.CM :
RXO.OHMM :
RI. :
RML.OHMM :
DEN.GM/CC :
SP.MV :
~A
# ...
  235.0000    70.4380    24.4700   137.0250   117.1400   124.2950     2.1740   -16.4700 
  235.1250    68.8190    24.4980   133.4390   114.7150   121.7370     2.1860   -16.7370 
  235.2500    68.8400    24.4840   115.4580   112.5900   119.5810     2.1990   -16.9640 
  235.3750    69.4020    24.4130    97.7230   112.4320   119.4210     2.2010   -17.1590 
  235.5000    68.1340    24.3050    94.2690   115.0240   121.8910     2.1950   -17.3060 
  235.6250    66.4040    24.1970   107.3400   120.2790   126.7320     2.1920   -17.4230 
  235.7500    66.9780    24.1780   117.7080   126.2510   131.9300     2.1960   -17.5160 
  235.8750    68.6300    24.2000   120.1730   131.1490   135.6210     2.2050   -17.5910 
  236.0000    67.4300    24.1880   116.4340   133.4980   136.4090     2.2160   -17.6410 
  236.1250    64.0920    24.1290   110.0660   132.2300   133.5290     2.2170   -17.6520 
  236.2500    63.1680    24.0850   104.4540   128.2090   128.0700     2.2010   -17.6320 
  236.3750    66.1760    24.0830    98.4850   121.8880   120.5580     2.1760   -17.5850 
  236.5000    71.7410    24.0470    90.8120   113.1490   112.5380     2.1640   -17.5250 
  236.6250    74.6340    23.9850    83.3750   104.9630   104.3790     2.1850   -17.4570 
  236.7500    74.3170    23.9250    80.7910    99.2150    98.0190     2.2240   -17.3910 
  236.8750    72.7460    23.9160    87.0520    96.8330    94.7890     2.2570   -17.3260 
  237.0000    71.5260    23.9260    93.2150    97.9600    95.1710     2.2660   -17.2510 
  237.1250    71.4600    23.9010    94.6030   102.3890    99.1500     2.2470   -17.1720 
  237.2500    71.3890    23.8590    97.0170   108.0770   104.7170     2.2240   -17.0770 
  237.3750    72.3080    23.8600   101.6000   112.9720   109.9620     2.2100   -16.9600 
  237.5000    73.2820    23.9140   102.4760   115.0580   112.9780     2.2070   -16.8060 
  237.6250    72.5460    23.9270   102.1610   112.7060   111.9960     2.2060   -16.6030 
  237.7500    70.7240    23.9080   104.5470   107.1480   107.7570     2.2040   -16.3750 
  237.8750    71.1320    23.8980   104.3810    99.6680   101.2720     2.2030   -16.1250 
  238.0000    74.8610    23.8970    96.8330    91.5360    93.7420     2.2010   -15.8720 
  238.1250    76.6030    23.9070    84.7870    83.9000    86.3010     2.1950   -15.6110 
  238.2500    74.7450    23.9490    76.0500    77.4700    79.7500     2.1990   -15.3420 
  238.3750    73.5680    24.0290    72.4890    72.7870    74.6870     2.2160   -15.0810 
  238.5000    76.0950    24.0790    70.9260    70.2160    71.6260     2.2360   -14.8470 
  238.6250    78.7200    24.0710    67.4320    70.0890    71.1440     2.2370   -14.6380 
  238.7500    78.2700    24.0890    63.9250    71.4680    72.4460     2.2250   -14.4480 
  238.8750    75.0180    24.2100    63.7880    73.2350    74.5170     2.2150   -14.2620 
  239.0000    71.0680    24.3020    67.0160    73.7100    75.7880     2.2110   -14.0730 
  239.1250    69.2970    24.2190    65.5110    70.5680    73.9800     2.2080   -13.8840 
  239.2500    70.5640    23.9250    55.0910    64.2340    68.9180     2.2040   -13.7040 
  239.3750    74.3390    23.5320    42.3570    56.4590    61.7120     2.2040   -13.5280 
  239.5000    77.7830    23.2640    34.7980    49.2990    54.2280     2.2080   -13.3410 
  239.6250    80.6980    23.3000    33.0400    44.4240    48.4290     2.2090   -13.1380 
  239.7500    82.5990    23.5600    34.6310    41.8090    44.8610     2.2050   -12.9140 
  239.8750    81.7690    23.8920    38.5420    41.2220    43.5490     2.2030   -12.6900 
  240.0000    79.2350    24.1300    42.3270    42.2240    44.1770     2.2080   -12.4680 
  240.1250    76.7300    24.1880    44.1320    44.2310    46.3050     2.2130   -12.2490 
  240.2500    76.3230    24.1790    45.7340    46.1100    48.7510     2.2050   -12.0380 
  240.3750    77.5010    24.1570    49.5830    46.9360    50.5000     2.1920   -11.8280 
  240.5000    79.0040    24.1290    54.1930    46.1510    50.7520     2.1910   -11.6270 
  240.6250    78.3670    24.0710    52.9100    43.7670    49.1120     2.2080   -11.4380 
  240.7500    76.3560    24.0300    46.0540    40.9030    46.5380     2.2230   -11.2610 
  240.8750    77.5090    24.0520    39.0150    38.2960    43.8580     2.2240   -11.1070 
  241.0000    81.8520    24.1090    36.5100    36.2680    41.5920     2.2190   -10.9740 
  241.1250    84.8040    24.1370    36.5170    34.7740    39.8750     2.2250   -10.8790 
  241.2500    84.1380    24.1280    36.3320    33.3980    38.3720     2.2450   -10.8150 
  241.3750    83.8360    24.0970    35.3850    31.8410    36.7640     2.2750   -10.7830 
  241.5000    87.3630    24.0900    34.0770    29.9280    34.7660     2.3070   -10.7670 
  241.6250    91.8160    24.2020    31.5860    27.7930    32.3320     2.3290   -10.7880 
  241.7500    92.8190    24.3670    29.2230    25.9470    29.9730     2.3350   -10.8430 
  241.8750    90.3290    24.4670    27.6330    24.8150    28.2000     2.3300   -10.9210 
  242.0000    86.2300    24.4820    25.9500    24.6640    27.3760     2.3230   -11.0350 
  242.1250    82.0500    24.4710    25.9750    25.7950    27.9310     2.3120   -11.1950 
  242.2500    78.6660    24.4340    29.8760    27.9450    29.7260     2.2950   -11.3920 
  242.3750    76.6240    24.3890    37.6990    30.8220    32.5310     2.2720   -11.6110 
  242.5000    75.4560    24.3380    42.6460    34.0140    35.9020     2.2500   -11.8640 
  242.6250    74.1030    24.3050    41.8760    37.2710    39.4750     2.2400   -12.1500 
  242.7500    74.0300    24.3250    42.6310    40.7050    43.2300     2.2470   -12.4560 
  242.8750    74.4550    24.3850    48.1520    44.5860    47.3890     2.2720   -12.7900 
  243.0000    73.5470    24.4180    59.3050    48.9710    52.0690     2.3110   -13.1330 
  243.1250    72.5120    24.3640    76.5310    53.0670    56.6690     2.3590   -13.4730 
  243.2500    73.7660    24.2950    89.0520    55.1960    59.5560     2.4090   -13.8010 
  243.3750    78.3710    24.2450    82.0830    54.0440    59.2160     2.4510   -14.1290 
  243.5000    84.3750    24.2430    63.7730    49.9250    55.5440     2.4690   -14.4570 
  243.6250    85.7240    24.3030    51.7740    44.6980    50.0010     2.4460   -14.7700 
  243.7500    82.6330    24.4200    44.6500    40.3480    44.8390     2.4010   -15.0760 
  243.8750    80.2320    24.5120    38.7000    37.6210    41.1390     2.3630   -15.3550 
  244.0000    83.4100    24.5320    36.6860    36.6660    39.3430     2.3460   -15.6220 
  244.1250    88.0480    24.4730    38.7360    37.4970    39.6790     2.3530   -15.8620 
  244.2500    86.3330    24.4200    40.3090    39.4870    41.5120     2.3760   -16.0700 
  244.3750    82.1530    24.3880    41.0250    42.2170    44.4200     2.4150   -16.2520 
  244.5000    81.2720    24.3710    44.1450    45.0730    47.7480     2.4580   -16.4030 
  244.6250    84.1820    24.3540    48.1480    46.9710    50.3610     2.4850   -16.5170 
  244.7500    83.9110    24.3310    47.5680    47.2120    51.3850     2.4960   -16.5860 
  244.8750    80.2950    24.2670    43.4320    45.6200    50.4410     2.5030   -16.6180 
  245.0000    78.9390    24.1490    38.8780    42.6640    47.7720     2.5110   -16.5980 
  245.1250    79.1090    24.1670    36.9140    39.2530    44.1310     2.5070   -16.5460 
  245.2500    76.2090    24.2230    36.4130    36.2860    40.6240     2.4960   -16.4640 
  245.3750    71.8510    24.2710    36.1920    34.1090    37.7960     2.4960   -16.3590 
  245.5000    70.8140    24.2830    35.1470    32.7950    35.8770     2.5100   -16.2320 
  245.6250    71.0610    24.2450    34.6420    32.4030    35.0290     2.5160   -16.0860 
  245.7500    67.9180    24.2560    38.0280    32.6840    34.9690     2.5040   -15.9360 
  245.8750    67.6870    24.3590    41.8540    33.5560    35.5640     2.4860   -15.7870 
  246.0000    74.4630    24.4650    42.2980    34.9510    36.7140     2.4750   -15.6400 
  246.1250    80.3760    24.4990    39.9010    36.8380    38.3890     2.4770   -15.4800 
