~V
VERS. 2.00: Ver 2.00
~W
STRT.M 120.0000:
STOP.M 235.0000:
STEP.M 0.1250:
NULL. -999.2500:
UWI. DF3022:
~C
DEPT.M :
SP.MV :
GR.API :
CALI.CM :
RXO.OHMM :
RI. :
RML.OHMM :
DEN.GM/CC :
~A
# ...
  131.2500   -18.6730    89.5450    24.8710     4.7590     4.3750     5.7200     2.2600 
  131.3750   -18.7530    98.5770    24.8710     4.7770     4.2590     5.5570     2.2720 
  131.5000   -18.8490   101.2670    24.8710     4.9340     4.0970     5.3140     2.2870 
  131.6250   -18.9800    93.5300    24.8690     4.8810     3.8890     4.9890     2.2990 
  131.7500   -19.1580    88.4630    24.8660     4.6180     3.6780     4.6610     2.3000 
  131.8750   -19.3920    91.9960    24.8650     4.2830     3.5340     4.4390     2.2880 
  132.0000   -19.7180    96.0190    24.8680     4.1380     3.5440     4.4470     2.2800 
  132.1250   -20.1580    90.6150    24.8700     4.5770     3.8320     4.8340     2.2990 
  132.2500   -20.6750    79.1930    24.8680     5.9020     4.3990     5.5840     2.3230 
  132.3750   -21.2430    69.2140    24.8410     8.7840     5.2150     6.6550     2.3170 
  132.5000   -21.8150    62.5210    24.7600    12.8490     6.1680     7.8900     2.2780 
  132.6250   -22.3090    58.8730    24.6170    14.1440     6.9880     8.8850     2.2370 
  132.7500   -22.6570    60.6180    24.4470    11.8890     7.4130     9.2790     2.2250 
  132.8750   -22.8120    64.8200    24.1790     8.9500     7.3380     8.9790     2.2460 
  133.0000   -22.7530    67.2250    23.8900     7.4750     6.8450     8.1780     2.2850 
  133.1250   -22.4630    69.1580    23.7120     6.8130     6.1130     7.1780     2.3190 
  133.2500   -22.0440    74.6690    23.7380     6.0070     5.3720     6.2470     2.3300 
  133.3750   -21.5500    80.3250    24.0040     5.1920     4.7340     5.5050     2.3150 
  133.5000   -21.0600    84.8230    24.4790     4.7430     4.2720     5.0330     2.2950 
  133.6250   -20.6750    91.2760    24.8640     4.7540     4.0810     4.9400     2.2980 
  133.7500   -20.4580    93.6150    24.9740     4.9730     4.1500     5.1640     2.3140 
  133.8750   -20.4520    86.2370    24.9320     5.4060     4.4660     5.6490     2.3180 
  134.0000   -20.6480    73.4600    24.8550     6.0590     4.9890     6.3140     2.3020 
  134.1250   -21.0280    67.3270    24.7730     6.9970     5.6970     7.1100     2.2780 
  134.2500   -21.4830    66.9570    24.6960     7.9510     6.5480     8.0240     2.2560 
  134.3750   -21.9390    66.8040    24.6410     8.6820     7.5630     9.1200     2.2340 
  134.5000   -22.3180    64.9560    24.6200     9.4460     8.7580    10.4540     2.2130 
  134.6250   -22.5390    61.4340    24.6200    11.6330    10.0240    11.9190     2.2140 
  134.7500   -22.6000    58.0790    24.6270    15.3680    10.9920    13.0280     2.2480 
  134.8750   -22.5010    56.7680    24.6670    17.7660    11.2210    13.1620     2.2930 
  135.0000   -22.2650    59.7970    24.7670    15.9750    10.4840    12.0210     2.3170 
  135.1250   -21.9100    66.2540    24.8790    11.6940     8.9960    10.0300     2.3010 
  135.2500   -21.5100    71.2450    24.9260     8.4050     7.4600     8.1710     2.2810 
  135.3750   -21.1040    71.1880    24.9340     6.7850     6.2480     6.8610     2.2830 
  135.5000   -20.7170    68.1910    24.9240     6.3310     5.5290     6.2110     2.3190 
  135.6250   -20.4040    67.5210    24.8930     6.5230     5.4580     6.3190     2.3830 
  135.7500   -20.1560    68.4700    24.8460     7.1420     5.9900     7.0850     2.4570 
  135.8750   -19.9770    67.3370    24.8040     8.7390     7.1810     8.5710     2.5240 
  136.0000   -19.8630    63.1920    24.7830    12.7750     9.0640    10.8460     2.5670 
  136.1250   -19.8020    58.0540    24.7800    18.7410    11.5800    13.8930     2.5720 
  136.2500   -19.7640    54.1650    24.7780    23.0240    14.1290    16.9530     2.5550 
  136.3750   -19.7370    52.0100    24.7750    23.2210    16.0320    19.0390     2.5390 
  136.5000   -19.7410    51.1500    24.7760    20.4870    16.8360    19.5320     2.5320 
  136.6250   -19.7640    49.6290    24.8260    17.4000    16.5670    18.6910     2.5300 
  136.7500   -19.8020    46.3810    24.9460    15.8910    15.9550    17.6660     2.5270 
  136.8750   -19.8400    43.1200    25.0630    15.8380    15.3970    16.9720     2.5230 
  137.0000   -19.8860    42.3770    25.1110    16.1580    15.0550    16.7130     2.5240 
  137.1250   -19.9430    42.9710    25.1070    15.9490    14.9590    16.8070     2.5260 
  137.2500   -20.0040    44.2700    25.1040    15.7670    15.0190    17.0560     2.5260 
  137.3750   -20.0710    49.9780    25.1060    16.1410    15.1830    17.3660     2.5230 
  137.5000   -20.1150    61.5600    25.1110    16.5130    15.4070    17.6660     2.5210 
  137.6250   -20.1490    67.6540    25.1380    15.9870    15.6500    17.8900     2.5180 
  137.7500   -20.1680    62.4330    25.1980    15.6740    15.8760    18.0250     2.5170 
  137.8750   -20.1760    52.8170    25.2650    16.1950    16.0590    18.0770     2.5170 
  138.0000   -20.1530    47.7660    25.3110    17.1640    16.1960    18.0910     2.5160 
  138.1250   -20.1050    49.1670    25.3160    17.5290    16.2930    18.1150     2.5120 
  138.2500   -20.0540    52.6340    25.3170    17.1840    16.3360    18.1200     2.5060 
  138.3750   -19.9960    57.2190    25.3160    16.6190    16.2740    18.0230     2.5030 
  138.5000   -19.9620    60.1350    25.3160    16.3530    16.0550    17.7420     2.5010 
  138.6250   -19.9240    60.7300    25.3160    16.3420    15.6210    17.2040     2.5020 
  138.7500   -19.8900    61.0470    25.3160    15.9950    15.0400    16.4910     2.5050 
  138.8750   -19.8670    60.1550    25.3160    15.1070    14.4190    15.7330     2.5030 
  139.0000   -19.8550    56.6880    25.3180    14.1470    13.9040    15.1070     2.4870 
  139.1250   -19.8570    52.4100    25.3170    13.4450    13.7030    14.8560     2.4700 
  139.2500   -19.8670    52.2250    25.2960    13.2260    13.8850    15.0590     2.4710 
  139.3750   -19.8710    55.4930    25.2390    13.7880    14.4720    15.7370     2.4940 
  139.5000   -19.8550    59.9560    25.1750    14.9690    15.3930    16.7990     2.5220 
  139.6250   -19.8170    62.2110    25.0830    16.3340    16.4300    17.9770     2.5390 
  139.7500   -19.7680    60.3510    24.9550    17.2760    17.1810    18.7940     2.5440 
  139.8750   -19.6840    55.5200    24.8340    17.4260    17.3100    18.8580     2.5430 
  140.0000   -19.5730    52.1550    24.7500    16.6980    16.6960    18.0520     2.5390 
  140.1250   -19.4440    53.6630    24.6750    15.0280    15.4910    16.6060     2.5290 
  140.2500   -19.2910    55.8780    24.6250    13.3430    14.1810    15.0990     2.5200 
  140.3750   -19.1390    56.1400    24.6050    11.8220    13.0520    13.8520     2.5170 
  140.5000   -18.9860    54.9550    24.6020    11.0490    12.2590    13.0350     2.5210 
  140.6250   -18.8540    53.3780    24.6030    11.2410    11.9130    12.7600     2.5200 
  140.7500   -18.7420    50.6970    24.6050    11.5070    11.9250    12.8980     2.5110 
  140.8750   -18.6640    47.7750    24.6060    11.6320    12.2420    13.3670     2.5010 
  141.0000   -18.6120    45.3460    24.6080    11.8650    12.7960    14.0720     2.4960 
  141.1250   -18.5860    42.4740    24.6060    12.6080    13.5300    14.9350     2.4970 
  141.2500   -18.5630    42.7250    24.6030    13.7710    14.3400    15.8600     2.5020 
  141.3750   -18.5400    47.6470    24.5980    14.8260    15.1510    16.7820     2.5060 
  141.5000   -18.5210    51.9230    24.5730    15.3750    15.8650    17.5980     2.5060 
  141.6250   -18.4880    50.2250    24.4780    15.8090    16.3320    18.1330     2.5100 
  141.7500   -18.4330    47.1300    24.3410    16.2960    16.5310    18.3610     2.5190 
  141.8750   -18.3660    50.2840    24.2390    16.3550    16.5010    18.3280     2.5180 
  142.0000   -18.3000    57.3600    24.2030    15.7830    16.3420    18.1600     2.4990 
  142.1250   -18.2180    57.7470    24.2030    15.1080    16.1900    18.0300     2.4740 
  142.2500   -18.1510    53.2600    24.2030    14.9050    16.1590    18.0680     2.4650 
  142.3750   -18.0790    49.4960    24.2030    15.1090    16.3080    18.3360     2.4770 
