~V
VERS. 2.00: Ver 2.00
~W
STRT.M 64.0000:
STOP.M 257.0000:
STEP.M 0.1250:
NULL. -999.2500:
UWI. DF3069:
~C
DEPT.M :
GR.API :
CALI.CM :
RXO.OHMM :
RI. :
RML.OHMM :
DEN.GM/CC :
SP.MV :
~A
# ...
  232.7500    86.1970    23.9310    42.5190    51.8340    57.5320     2.4720   -26.5660 
  232.8750    83.7510    23.8920    40.3990    50.3870    56.1250     2.4740   -26.2730 
  233.0000    80.2090    23.8150    47.5660    48.0420    53.5410     2.4760   -25.9490 
  233.1250    80.9100    23.9350    57.1020    44.7060    49.6960     2.4860   -25.4870 
  233.2500    83.4550    23.8820    60.7170    41.2100    45.6350     2.4960   -24.9920 
  233.3750    82.8950    23.8590    52.1350    38.3390    42.3880     2.4900   -24.5690 
  233.5000    77.9520    23.9430    39.4690    36.4960    40.4990     2.4550   -24.2780 
  233.6250    70.3150    23.8510    30.1660    36.0310    40.3520     2.4200   -24.1030 
  233.7500    65.2980    23.8390    31.2640    36.7030    41.5440     2.4170   -23.8600 
  233.8750    63.7640    23.8150    44.6910    38.1900    43.5230     2.4540   -23.5440 
  234.0000    64.0310    23.8820    58.1200    39.8150    45.4210     2.4980   -23.2780 
  234.1250    65.4140    23.7570    63.3480    40.4920    46.0780     2.5070   -23.2120 
  234.2500    67.1290    23.6610    59.8150    39.8230    45.1480     2.4780   -23.2750 
  234.3750    69.8170    23.8100    49.5940    37.9270    42.7710     2.4460   -23.3740 
  234.5000    73.8430    23.8410    38.9920    35.3840    39.6280     2.4490   -23.4000 
  234.6250    77.6290    23.8740    35.4160    32.9250    36.7160     2.4790   -23.3190 
  234.7500    78.4710    23.9370    31.6580    31.0350    34.6580     2.5060   -23.2870 
  234.8750    77.6850    23.8830    27.5370    29.8790    33.5940     2.5060   -23.3510 
  235.0000    79.1360    23.8390    26.5060    29.2800    33.1800     2.4690   -23.4730 
  235.1250    81.6750    23.7660    27.4640    28.7340    32.7850     2.4160   -23.5380 
  235.2500    80.5390    23.5360    29.6630    27.5780    31.6370     2.3720   -23.4550 
  235.3750    75.2290    23.3000    33.1900    25.5430    29.4580     2.3610   -23.2560 
  235.5000    68.5420    23.2410    38.5130    22.6970    26.3160     2.4040   -23.0340 
  235.6250    64.2970    23.2860    34.8260    19.4600    22.5540     2.4700   -22.9250 
  235.7500    64.2390    23.2400    25.5720    16.4100    18.8680     2.5260   -22.8660 
  235.8750    68.2730    23.0310    16.3010    13.8510    15.7390     2.5430   -22.7650 
  236.0000    72.6320    22.9840    11.5910    11.9440    13.4800     2.5130   -22.5880 
  236.1250    74.2720    23.0130    10.7330    10.7880    12.2670     2.4620   -22.3440 
  236.2500    74.0940    22.9910    10.8750    10.1470    11.7490     2.4220   -22.1770 
  236.3750    74.1940    23.0130    11.6610     9.8960    11.7080     2.4150   -22.1460 
  236.5000    74.1400    23.1340    12.8320     9.9040    11.8670     2.4370   -22.2160 
  236.6250    72.2480    23.0120    13.5860    10.0230    11.9730     2.4520   -22.2190 
  236.7500    69.0800    23.0280    14.3960    10.1100    11.9780     2.4510   -22.1130 
  236.8750    67.1390    23.0980    17.2370    10.1260    11.8340     2.4470   -21.9420 
  237.0000    68.0480    23.3650    17.7690    10.0750    11.5850     2.4530   -21.8010 
  237.1250    69.5910    23.8160    16.1930     9.9440    11.2450     2.4560   -21.7540 
  237.2500    69.2700    23.9190    14.5030     9.7790    10.9510     2.4440   -21.7070 
  237.3750    68.5590    23.9200    15.9050     9.6090    10.7570     2.4190   -21.5500 
  237.5000    68.5970    23.9000    15.7770     9.4750    10.6830     2.3980   -21.2650 
  237.6250    67.7440    23.8960    15.3010     9.3990    10.7540     2.3860   -20.9640 
  237.7500    67.1810    23.8990    14.6780     9.3620    10.8640     2.3840   -20.7550 
  237.8750    67.7110    23.8690    14.4490     9.3550    11.0050     2.3890   -20.6610 
  238.0000    67.5350    23.8870    13.5340     9.3690    11.1870     2.4000   -20.5750 
  238.1250    64.6080    23.8750    12.8000     9.3860    11.3410     2.4150   -20.3800 
  238.2500    62.9050    23.8500    12.0320     9.3770    11.4140     2.4320   -20.1300 
  238.3750    62.7200    23.8750    11.6160     9.3220    11.3930     2.4440   -19.8980 
  238.5000    60.5980    23.8830    10.8800     9.2300    11.3170     2.4440   -19.7640 
  238.6250    57.4530    23.8450     9.7580     9.1240    11.2470     2.4410   -19.7430 
  238.7500    58.2910    23.8600     8.8160     9.0350    11.1920     2.4410   -19.6970 
  238.8750    63.1130    23.8910     8.8250     8.9780    11.1740     2.4360   -19.5600 
  239.0000    66.3800    23.8970     9.1840     8.9640    11.1920     2.4150   -19.3610 
  239.1250    65.3380    23.9010     9.1600     8.9970    11.2460     2.3960   -19.2300 
  239.2500    64.7620    23.8900     9.0030     9.0550    11.3310     2.3980   -19.2210 
  239.3750    65.7710    23.8920     9.2690     9.1240    11.4270     2.4180   -19.2850 
  239.5000    67.4550    23.8880     9.6370     9.1960    11.5060     2.4290   -19.2940 
  239.6250    69.3160    23.8590     9.9920     9.2680    11.5300     2.4200   -19.1630 
  239.7500    71.5000    23.8820    10.4810     9.3410    11.5090     2.4050   -19.0050 
  239.8750    73.4440    23.8880    10.8130     9.4240    11.5440     2.4000   -18.9150 
  240.0000    71.9890    23.8560    10.6850     9.5220    11.6270     2.4160   -18.9280 
  240.1250    67.4730    23.8650    10.4990     9.6570    11.7650     2.4400   -18.9100 
  240.2500    62.7920    23.7390    10.1550     9.8280    11.9260     2.4620   -18.7760 
  240.3750    59.5750    23.6390     9.8750    10.0300    12.0840     2.4760   -18.5410 
  240.5000    60.9570    23.8100     9.9320    10.2550    12.2690     2.4770   -18.3550 
  240.6250    67.0910    23.8340    10.3140    10.5100    12.5250     2.4650   -18.3260 
  240.7500    71.4060    23.8820    10.6030    10.7940    12.7790     2.4480   -18.3240 
  240.8750    71.2640    23.8990    10.7390    11.0970    13.0210     2.4380   -18.2500 
  241.0000    69.4430    23.9340    10.7790    11.3990    13.2310     2.4430   -18.0680 
  241.1250    68.8130    23.8970    10.6900    11.6750    13.4310     2.4550   -17.9000 
  241.2500    66.6040    23.8970    10.8810    11.9000    13.6440     2.4660   -17.8390 
  241.3750    63.5440    23.9440    11.4460    12.0650    13.8470     2.4720   -17.8970 
  241.5000    62.7190    23.8740    12.0430    12.1660    13.9500     2.4800   -17.9460 
  241.6250    62.0890    23.7980    11.6900    12.1980    13.9430     2.4870   -17.8700 
  241.7500    61.3200    23.7140    11.0190    12.1930    13.9200     2.4880   -17.7240 
  241.8750    63.1100    23.7370    10.3930    12.1730    13.8940     2.4820   -17.6140 
  242.0000    66.9240    23.5880     9.9770    12.1820    13.8800     2.4840   -17.6110 
  242.1250    67.0680    23.6010     9.9950    12.2760    13.9900     2.4970   -17.6410 
  242.2500    64.6450    23.7270    11.0570    12.4760    14.1890     2.5150   -17.5620 
  242.3750    65.0560    23.9320    12.7000    12.7860    14.4930     2.5160   -17.3640 
  242.5000    69.2580    23.8680    14.1060    13.1900    14.9520     2.4890   -17.1290 
  242.6250    70.1550    23.8380    14.8360    13.6830    15.4930     2.4560   -16.9980 
  242.7500    65.5330    23.9760    15.6840    14.2070    16.0020     2.4450   -16.9490 
  242.8750    59.4240    24.0870    16.7890    14.7230    16.4890     2.4660   -16.8270 
  243.0000    55.0350    24.0870    17.9460    15.1980    16.9440     2.5000   -16.5980 
  243.1250    54.6140    23.9950    19.2110    15.6110    17.3020     2.5240   -16.4030 
  243.2500    58.1880    24.0070    19.4810    15.9630    17.5660     2.5260   -16.2840 
  243.3750    64.0870    24.0420    19.6950    16.2680    17.8030     2.5050   -16.1560 
  243.5000    68.8920    23.8790    20.5230    16.5440    18.0290     2.4680   -16.0550 
  243.6250    68.2520    23.7900    22.5040    16.8000    18.2760     2.4360   -15.9700 
  243.7500    64.0910    23.7900    22.6380    17.0590    18.5470     2.4280   -15.8450 
  243.8750    60.3720    23.7990    21.7110    17.3340    18.8100     2.4490   -15.7610 
