~V
VERS. 2.00: Ver 2.00
~W
STRT.M 125.0000:
STOP.M 269.0000:
STEP.M 0.1250:
NULL. -999.2500:
UWI. DF3004:
~C
DEPT.M :
GR.API :
RML.OHMM :
RI. :
RXO.OHMM :
CALI.CM :
DEN.GM/CC :
SP.MV :
~A
# ...
  158.7500    61.3170    18.4480    16.7590    17.7000    24.2020     2.5610   -19.4490 
  158.8750    60.4700    18.0110    16.3470    16.7700    24.1570     2.5690   -19.5590 
  159.0000    59.4150    17.6430    15.9920    16.1830    24.1030     2.5740   -19.6410 
  159.1250    61.8290    17.3860    15.7340    15.8280    24.1570     2.5750   -19.6430 
  159.2500    63.9770    17.1910    15.5380    15.5450    24.1710     2.5770   -19.7080 
  159.3750    63.7070    16.9810    15.3460    15.2880    24.1590     2.5800   -19.7460 
  159.5000    61.3540    16.6690    15.0880    14.9780    24.1600     2.5820   -19.7690 
  159.6250    59.1700    16.1870    14.6990    15.0870    24.1430     2.5770   -19.7890 
  159.7500    58.9330    15.6050    14.2160    15.0260    24.1070     2.5630   -19.8330 
  159.8750    59.0990    15.0270    13.7140    14.4900    24.1740     2.5390   -19.8500 
  160.0000    57.3630    14.5640    13.2830    13.5350    24.2730     2.5110   -19.8300 
  160.1250    55.4390    14.3280    13.0160    13.0080    24.3090     2.4870   -19.8410 
  160.2500    55.8880    14.2920    12.9090    12.9370    24.2990     2.4720   -19.8300 
  160.3750    57.4300    14.4120    12.9390    13.2980    24.2290     2.4690   -19.8200 
  160.5000    56.8870    14.6320    13.0650    13.9400    24.0490     2.4740   -19.7880 
  160.6250    54.7930    14.9210    13.2640    13.8710    23.9050     2.4850   -19.7160 
  160.7500    54.5040    15.2610    13.5190    13.9960    24.0270     2.4940   -19.6620 
  160.8750    55.8430    15.6620    13.8360    14.6670    24.2080     2.4970   -19.6040 
  161.0000    57.7360    16.1190    14.2090    15.7230    24.2850     2.4940   -19.5310 
  161.1250    60.8860    16.5860    14.6000    16.2220    24.2640     2.4880   -19.4240 
  161.2500    64.5980    16.9790    14.9350    17.0300    24.3190     2.4860   -19.3570 
  161.3750    65.9600    17.2430    15.1600    18.3550    24.3800     2.4890   -19.2720 
  161.5000    63.1050    17.3630    15.2540    19.3180    24.3710     2.4990   -19.1590 
  161.6250    58.1760    17.3780    15.2400    19.3420    24.2820     2.5090   -19.1770 
  161.7500    55.8870    17.3930    15.2070    19.0580    24.2610     2.5180   -19.1590 
  161.8750    57.8350    17.4600    15.2090    19.2300    24.2730     2.5230   -19.1180 
  162.0000    61.9310    17.5810    15.2620    17.7590    24.0020     2.5250   -19.2320 
  162.1250    65.0710    17.6970    15.3320    16.7800    23.9220     2.5200   -19.2700 
  162.2500    66.4290    17.7220    15.3480    16.7020    24.0140     2.5070   -19.3360 
  162.3750    64.3770    17.5970    15.2550    16.9250    24.1470     2.4830   -19.4790 
  162.5000    59.7850    17.3120    15.0320    16.6990    24.2670     2.4550   -19.5370 
  162.6250    56.4020    16.9000    14.6900    16.2150    24.3470     2.4330   -19.6030 
  162.7500    55.5910    16.4640    14.3140    15.8100    24.3600     2.4250   -19.6840 
  162.8750    55.0750    16.0800    13.9680    15.7090    24.3580     2.4340   -19.7510 
  163.0000    54.9630    15.8020    13.7030    15.7130    24.3620     2.4540   -19.7630 
  163.1250    57.0230    15.6790    13.5640    15.0880    24.3850     2.4770   -19.7560 
  163.2500    57.6440    15.6790    13.5300    15.0590    24.4130     2.4950   -19.7200 
  163.3750    55.9760    15.7680    13.5780    15.3210    24.4250     2.5040   -19.6440 
  163.5000    54.7070    15.8970    13.6750    15.4580    24.4190     2.5060   -19.6470 
  163.6250    55.5780    16.0100    13.7770    15.5360    24.3930     2.5050   -19.6430 
  163.7500    57.0160    16.0760    13.8490    15.6450    24.3440     2.5090   -19.6110 
  163.8750    58.5010    16.0970    13.8830    15.5290    24.2800     2.5210   -19.6290 
  164.0000    58.8000    16.0990    13.8950    14.9960    24.2070     2.5380   -19.6530 
  164.1250    56.5800    16.1210    13.9150    14.6190    24.1700     2.5550   -19.6990 
  164.2500    56.2260    16.1800    13.9630    14.8130    24.1810     2.5660   -19.7910 
  164.3750    59.1870    16.2690    14.0410    15.2710    24.2370     2.5700   -19.9000 
  164.5000    61.4750    16.3600    14.1340    15.6890    24.2870     2.5680   -19.9650 
  164.6250    60.1150    16.4150    14.2190    16.0360    24.3280     2.5610   -20.0410 
  164.7500    59.1400    16.4270    14.2860    16.1250    24.3290     2.5510   -20.1260 
  164.8750    61.6760    16.4110    14.3350    16.0530    24.2940     2.5390   -20.1710 
  165.0000    65.5400    16.3870    14.3770    15.7690    24.2460     2.5260   -20.2330 
  165.1250    66.6210    16.3730    14.4170    15.4530    24.1900     2.5180   -20.3140 
  165.2500    64.2390    16.3510    14.4510    15.1640    24.1770     2.5170   -20.3640 
  165.3750    60.1620    16.2810    14.4550    15.3540    24.1950     2.5220   -20.4060 
  165.5000    57.8300    16.1180    14.4060    15.4400    24.2270     2.5300   -20.5140 
  165.6250    59.0070    15.8270    14.2830    15.2200    24.2090     2.5320   -20.5180 
  165.7500    61.4960    15.4610    14.1180    14.8830    24.1850     2.5270   -20.5600 
  165.8750    63.1540    15.0890    13.9530    14.7530    24.1850     2.5200   -20.5920 
  166.0000    63.1900    14.7920    13.8390    14.4280    24.1950     2.5150   -20.5440 
  166.1250    62.3330    14.6710    13.8450    14.2240    24.1570     2.5160   -20.5470 
  166.2500    64.0810    14.7330    13.9830    14.1120    24.0990     2.5160   -20.4500 
  166.3750    67.4620    14.9630    14.2550    14.0000    24.0680     2.5120   -20.4120 
  166.5000    68.2880    15.3090    14.6290    13.9830    24.0900     2.5050   -20.2880 
  166.6250    63.7020    15.6610    15.0190    14.2690    24.1390     2.4990   -20.2040 
  166.7500    58.9630    15.8740    15.2870    14.6760    24.1660     2.4990   -20.0990 
  166.8750    57.7300    15.8240    15.3100    14.8370    24.1920     2.5000   -19.9800 
  167.0000    59.7780    15.4280    15.0010    14.8140    24.2110     2.4950   -19.8910 
  167.1250    65.4860    14.6530    14.3140    14.3600    24.1650     2.4780   -19.7890 
  167.2500    72.0530    13.7410    13.4530    13.2120    24.1010     2.4520   -19.8090 
  167.3750    75.3800    12.9030    12.6540    12.1610    24.0940     2.4240   -19.7880 
  167.5000    74.5210    12.4920    12.2030    11.6030    24.1110     2.4020   -19.9220 
  167.6250    71.2380    13.1750    12.5800    11.6470    24.1120     2.3900   -20.0530 
  167.7500    68.5570    15.4210    14.0880    12.9980    24.0240     2.3840   -20.1900 
  167.8750    66.8750    19.7200    17.1180    16.8570    23.8620     2.3760   -20.4420 
  168.0000    66.2640    26.5060    21.9370    24.3070    23.7750     2.3600   -20.6730 
  168.1250    66.8620    35.3630    28.6290    35.4920    23.9060     2.3330   -20.9330 
  168.2500    66.8610    44.3650    36.0200    45.6620    24.0440     2.3020   -21.1940 
  168.3750    65.6420    51.3940    42.8180    52.1330    24.1190     2.2710   -21.4190 
  168.5000    63.0980    56.1150    47.8010    57.5570    24.2110     2.2470   -21.5760 
  168.6250    62.5820    58.0680    50.2020    62.6710    24.3930     2.2420   -21.6770 
  168.7500    64.5980    58.9740    51.3080    61.8730    24.5350     2.2570   -21.7590 
  168.8750    66.9610    60.5180    52.5560    54.6430    24.5480     2.2860   -21.7040 
  169.0000    68.5570    64.0110    55.2200    49.4530    24.5180     2.3180   -21.6430 
  169.1250    70.1950    70.3850    60.3760    54.0310    24.5290     2.3320   -21.5700 
  169.2500    71.9190    78.8550    67.5630    70.1680    24.5850     2.3250   -21.3870 
  169.3750    72.9260    88.6400    76.1430    95.0520    24.6530     2.3030   -21.2630 
  169.5000    72.3310    98.9600    85.3450   114.7050    24.7090     2.2790   -21.0450 
  169.6250    72.1370   109.4480    94.6780   113.7900    24.7370     2.2610   -20.9120 
  169.7500    74.2180   120.3820   104.2850   110.7590    24.7220     2.2500   -20.7760 
  169.8750    77.0990   132.3690   114.7260   113.3340    24.6990     2.2420   -20.7090 
