~V
VERS. 2.00: Ver 2.00
~W
STRT.M 55.0000:
STOP.M 252.0000:
STEP.M 0.1250:
NULL. -999.2500:
UWI. DF3024:
~C
DEPT.M :
GR.API :
RML.OHMM :
RI. :
RXO.OHMM :
CALI.CM :
DEN.GM/CC :
SP.MV :
~A
# ...
  190.0000    75.6210     9.3210     7.3400     6.2200    23.7910     2.4530   -15.0520 
  190.1250    86.0100     9.3850     7.4430     6.5070    23.9390     2.4550   -14.7830 
  190.2500    94.4980     9.3880     7.5060     6.8560    24.0520     2.4550   -14.4230 
  190.3750    97.5760     9.2920     7.4960     6.9720    24.1410     2.4530   -14.1960 
  190.5000    95.9870     9.0820     7.3940     6.8260    24.1680     2.4480   -13.9290 
  190.6250    93.7040     8.7710     7.2040     6.6130    24.1310     2.4340   -13.5630 
  190.7500    93.1400     8.4420     6.9840     6.5650    24.0550     2.4110   -13.3120 
  190.8750    92.8720     8.1700     6.7870     6.4920    23.9750     2.3810   -13.0390 
  191.0000    91.7620     8.0220     6.6680     6.3940    23.8180     2.3530   -12.7080 
  191.1250    90.4160     8.0780     6.6910     6.3390    23.6810     2.3410   -12.4660 
  191.2500    90.1650     8.3180     6.8550     6.5620    23.8180     2.3470   -12.2050 
  191.3750    91.9750     8.7080     7.1460     6.9560    23.9130     2.3680   -11.9160 
  191.5000    96.5480     9.1770     7.5170     7.5030    23.8400     2.3930   -11.6770 
  191.6250   100.4400     9.5970     7.8750     8.1300    23.7370     2.4130   -11.4260 
  191.7500    99.7210     9.8550     8.1260     8.7340    23.8980     2.4240   -11.1550 
  191.8750    94.7840     9.8990     8.2170     9.2980    24.1060     2.4260   -10.9020 
  192.0000    88.8730     9.7530     8.1570     9.8710    24.2030     2.4180   -10.6760 
  192.1250    87.5480     9.5230     8.0080     9.7080    24.1970     2.4020   -10.4930 
  192.2500    89.6050     9.3670     7.8910     8.9590    24.1450     2.3850   -10.3520 
  192.3750    91.2400     9.4010     7.8930     8.4260    24.0570     2.3720   -10.2620 
  192.5000    88.8990     9.7020     8.0870     8.9930    24.0610     2.3680   -10.2730 
  192.6250    85.3200    10.3480     8.5600    10.3870    23.9980     2.3740   -10.3060 
  192.7500    84.5830    11.2640     9.2830    11.8060    23.9440     2.3820   -10.3400 
  192.8750    86.6080    12.3950    10.2370    12.9010    24.0390     2.3860   -10.5570 
  193.0000    89.1920    13.6820    11.3930    14.7810    24.1620     2.3800   -10.7980 
  193.1250    90.1220    15.1000    12.7430    17.9320    24.2220     2.3650   -10.9370 
  193.2500    90.3020    16.6260    14.2470    19.4540    24.2560     2.3450   -11.2190 
  193.3750    90.0360    18.2740    15.8990    19.3790    24.2840     2.3270   -11.4920 
  193.5000    87.8970    20.0230    17.6730    20.3990    24.2930     2.3130   -11.6520 
  193.6250    84.3030    21.7790    19.4840    23.4340    24.2820     2.3050   -11.9420 
  193.7500    81.3650    23.3940    21.1910    25.9520    24.2710     2.3000   -12.2170 
  193.8750    80.0610    24.7650    22.6780    27.1280    24.2450     2.2980   -12.4140 
  194.0000    78.7630    25.8720    23.8950    27.7000    24.2010     2.2980   -12.6410 
  194.1250    77.9150    26.7690    24.8520    29.0200    24.1340     2.2970   -12.8680 
  194.2500    77.5450    27.5830    25.6850    29.6590    24.1010     2.2930   -13.0930 
  194.3750    75.8570    28.3530    26.4380    29.1910    24.0740     2.2870   -13.3220 
  194.5000    75.4380    29.0690    27.1020    30.0200    24.0560     2.2810   -13.5440 
  194.6250    79.0940    29.5570    27.7260    33.2860    24.1190     2.2760   -13.7890 
  194.7500    82.9290    30.3170    28.6220    35.5000    24.2440     2.2700   -14.0480 
  194.8750    82.9100    32.1670    30.4320    34.9390    24.3260     2.2620   -14.2520 
  195.0000    78.9350    36.9930    34.1870    34.9080    24.3700     2.2520   -14.4780 
  195.1250    74.5970    47.4140    41.9290    40.6980    24.3810     2.2480   -14.7240 
  195.2500    69.8330    64.7450    54.2150    54.9200    24.3830     2.2570   -14.9180 
  195.3750    64.8240    88.6080    70.8710    80.5820    24.3850     2.2780   -15.1570 
  195.5000    61.9460   114.2840    90.0770   110.5700    24.3900     2.3030   -15.4000 
  195.6250    61.9910   136.0370   107.7040   135.6290    24.4040     2.3120   -15.5780 
  195.7500    63.2800   150.7650   119.9100   147.4520    24.4320     2.2970   -15.8240 
  195.8750    64.7400   156.2770   125.0830   147.4050    24.4570     2.2620   -16.0420 
  196.0000    66.4640   154.3040   124.3750   137.7070    24.4570     2.2210   -16.1570 
  196.1250    67.2280   149.4460   120.8930   124.7920    24.4320     2.1910   -16.4020 
  196.2500    66.2340   146.2880   118.2660   112.6690    24.4110     2.1780   -16.6020 
  196.3750    66.2360   146.2780   117.9050   105.6770    24.3730     2.1770   -16.6280 
  196.5000    69.1780   149.3300   120.0020   106.4060    24.2310     2.1830   -16.7430 
  196.6250    71.5370   154.4720   124.0210   112.6000    24.0000     2.1900   -16.8340 
  196.7500    70.0080   159.5860   128.3550   119.6490    23.7530     2.1960   -16.7910 
  196.8750    65.1490   163.1650   131.8380   122.1610    23.6540     2.1990   -16.8720 
  197.0000    60.3740   164.2340   133.6490   122.3200    23.7030     2.2020   -16.9380 
  197.1250    58.9760   162.2150   133.1880   120.4040    23.8050     2.2050   -16.8370 
  197.2500    60.2730   158.2740   131.1470   115.7940    23.6580     2.2080   -16.8280 
  197.3750    63.0110   153.4490   128.2190   111.9520    23.5560     2.2120   -16.8420 
  197.5000    66.3190   148.7290   125.1570   108.1760    23.4820     2.2150   -16.8040 
  197.6250    70.1660   145.0210   122.7240   101.8280    23.3780     2.2150   -16.7780 
  197.7500    72.7490   142.5060   121.2060    96.2190    23.3370     2.2130   -16.7330 
  197.8750    72.6870   141.1780   120.6900    95.7190    23.3440     2.2100   -16.6850 
  198.0000    69.7630   140.9170   121.1300   101.1570    23.3750     2.2090   -16.6510 
  198.1250    66.5460   141.7980   122.5890   108.5320    23.3310     2.2090   -16.6390 
  198.2500    66.0810   143.6740   124.8780   111.1520    23.3120     2.2070   -16.6510 
  198.3750    67.7460   146.4970   127.9250   110.1160    23.3730     2.2050   -16.6910 
  198.5000    68.4890   149.9260   131.4530   110.1180    23.5700     2.2030   -16.7300 
  198.6250    67.0240   152.9900   134.7120   108.9660    23.9140     2.2040   -16.8490 
  198.7500    65.4520   154.4490   136.7050   107.1930    24.0720     2.2090   -16.9780 
  198.8750    65.0500   153.2710   136.5380   105.2100    24.1420     2.2180   -17.0230 
  199.0000    65.4310   149.0200   133.7420   101.4100    24.1740     2.2290   -17.1820 
  199.1250    65.5390   142.1060   128.4280    96.8000    24.1100     2.2380   -17.3770 
  199.2500    63.8310   134.8710   122.4620    93.5520    23.9000     2.2430   -17.3900 
  199.3750    62.5890   129.3440   117.5780    94.1560    23.6910     2.2430   -17.4890 
  199.5000    65.2880   127.0900   115.2670    96.3910    23.6030     2.2380   -17.6280 
  199.6250    70.5060   129.4380   116.9360    97.0900    23.6200     2.2280   -17.5700 
  199.7500    72.1790   135.2380   121.8030   105.3440    23.6480     2.2190   -17.6370 
  199.8750    68.8190   143.2700   128.8840   123.9730    23.6830     2.2110   -17.6950 
  200.0000    63.4040   151.9960   136.8090   138.1670    23.7820     2.2070   -17.6150 
  200.1250    60.6330   159.6720   143.9580   137.1240    23.9500     2.2070   -17.6290 
  200.2500    61.5050   165.4310   149.4310   135.1980    24.0350     2.2080   -17.6610 
  200.3750    64.1340   169.0110   152.9510   133.2590    24.2020     2.2070   -17.5970 
  200.5000    65.8740   170.5490   154.6740   132.2100    24.4100     2.2030   -17.5540 
  200.6250    65.6650   170.0610   154.7350   131.0430    24.5390     2.1970   -17.5120 
  200.7500    66.1950   168.0940   153.6590   130.1930    24.5560     2.1910   -17.4410 
  200.8750    67.2500   164.8750   151.6200   128.7630    24.5560     2.1870   -17.4350 
  201.0000    66.8160   160.6690   148.7850   125.9710    24.5450     2.1860   -17.3900 
  201.1250    65.0460   155.5940   145.1940   124.4560    24.5230     2.1860   -17.3440 
