~V
VERS. 2.00: Ver 2.00
~W
STRT.M 65.0000:
STOP.M 273.0000:
STEP.M 0.1250:
NULL. -999.2500:
UWI. DF3011:
~C
DEPT.M :
DEN.GM/CC :
GR.API :
RML.OHMM :
RI. :
RXO.OHMM :
CALI.CM :
AC.US/MT :
SP.MV :
~A
# ...
   75.0000  -999.2500    63.7990     9.5660     8.3150     8.7620    27.6720  -999.2500   -18.5610 
   75.1250  -999.2500    62.8310     9.1940     8.0640     8.5620    27.8850  -999.2500   -19.4120 
   75.2500  -999.2500    61.6680     8.9440     7.8390     8.6230    27.6690  -999.2500   -20.1320 
   75.3750  -999.2500    59.8250     8.8680     7.7260     8.6960    27.7350  -999.2500   -20.6790 
   75.5000  -999.2500    60.4510     8.9450     7.7310     8.8090    28.0170  -999.2500   -21.0750 
   75.6250  -999.2500    64.5300     9.1390     7.8330     8.9790    28.1620  -999.2500   -21.3270 
   75.7500  -999.2500    66.0160     9.3880     7.9930     9.2140    28.1410  -999.2500   -21.5090 
   75.8750  -999.2500    63.1550     9.6640     8.2010     9.5260    28.0250  -999.2500   -21.6810 
   76.0000  -999.2500    60.3380     9.9390     8.4460     9.8990    27.4940  -999.2500   -21.8510 
   76.1250  -999.2500    61.4770    10.1730     8.6960    10.3110    26.3650  -999.2500   -21.9330 
   76.2500  -999.2500    62.5480    10.3400     8.9030    10.6060    25.4790  -999.2500   -21.9300 
   76.3750  -999.2500    62.0330    10.4290     9.0240    10.6970    25.0880  -999.2500   -21.8630 
   76.5000  -999.2500    62.1890    10.4380     9.0350    10.7090    25.1210  -999.2500   -21.7220 
   76.6250  -999.2500    63.8660    10.3640     8.9170    10.7780    25.4760  -999.2500   -21.5350 
   76.7500  -999.2500    64.2160    10.2160     8.7120    10.8310    25.9130  -999.2500   -21.2580 
   76.8750  -999.2500    63.4040     9.9870     8.4400    10.8370    26.1190  -999.2500   -20.8680 
   77.0000  -999.2500    64.7330     9.6680     8.1190    10.6960    25.8760  -999.2500   -20.3730 
   77.1250  -999.2500    69.6180     9.2630     7.7550    10.2110    25.3330  -999.2500   -19.7910 
   77.2500  -999.2500    74.1770     8.8460     7.3870     9.4310    24.8400  -999.2500   -19.1250 
   77.3750  -999.2500    74.2180     8.5160     7.0720     8.8430    24.5280  -999.2500   -18.3590 
   77.5000  -999.2500    70.2610     8.3930     6.9020     8.6020    24.3360  -999.2500   -17.5600 
   77.6250  -999.2500    67.8420     8.6620     7.0250     8.7520    24.1600  -999.2500   -16.7270 
   77.7500  -999.2500    69.0390     9.3060     7.4570     9.2090    23.9860  -999.2500   -15.9000 
   77.8750  -999.2500    70.1640    10.2010     8.1330     9.9760    23.8490  -999.2500   -15.1180 
   78.0000  -999.2500    67.2870    11.0660     8.8670    11.0670    23.7300  -999.2500   -14.4100 
   78.1250  -999.2500    64.1350    11.4170     9.3060    12.0020    23.6580  -999.2500   -13.8640 
   78.2500  -999.2500    65.7280    11.0570     9.2360    12.3330    23.6330  -999.2500   -13.5410 
   78.3750  -999.2500    72.2930    10.0840     8.6400    11.5510    23.6100  -999.2500   -13.4600 
   78.5000  -999.2500    81.2410     8.9040     7.7400     9.4240    23.5670  -999.2500   -13.5440 
   78.6250  -999.2500    89.9310     8.0880     6.9360     6.9730    23.5680  -999.2500   -13.8230 
   78.7500  -999.2500    95.3240     7.8220     6.4930     6.5820    23.5960  -999.2500   -14.2580 
   78.8750  -999.2500    94.3380     8.0530     6.4690     7.2600    23.5910  -999.2500   -14.8120 
   79.0000  -999.2500    86.1720     8.5920     6.7840     8.3850    23.5010  -999.2500   -15.4300 
   79.1250  -999.2500    76.2970     9.1650     7.2640     9.5520    23.4240  -999.2500   -16.0290 
   79.2500  -999.2500    72.8890     9.5400     7.6810    10.2330    23.5990  -999.2500   -16.5440 
   79.3750  -999.2500    76.1760     9.6800     7.9440    10.4770    24.0010  -999.2500   -16.9070 
   79.5000  -999.2500    79.5530     9.7350     8.1020    10.5700    24.3770  -999.2500   -17.0960 
   79.6250  -999.2500    80.5810    10.0090     8.3570    10.7070    24.6220  -999.2500   -17.0360 
   79.7500  -999.2500    82.9250    10.6560     8.8680    11.1970    24.8440  -999.2500   -16.7480 
   79.8750  -999.2500    89.9790    11.6580     9.6560    12.5000    24.8950  -999.2500   -16.2310 
   80.0000  -999.2500    98.4350    12.8450    10.6020    14.4400    24.8700  -999.2500   -15.5700 
   80.1250  -999.2500   101.7070    13.8110    11.4210    16.7630    24.7890  -999.2500   -14.8470 
   80.2500  -999.2500    97.2760    14.2100    11.8420    17.7530    24.5690  -999.2500   -14.0900 
   80.3750  -999.2500    88.4800    13.8190    11.7070    15.5160    24.2050  -999.2500   -13.3240 
   80.5000  -999.2500    82.3270    12.7160    11.0110    12.1580    23.8060  -999.2500   -12.5730 
   80.6250  -999.2500    79.7010    11.0200     9.8560    10.5490    23.5720  -999.2500   -11.9280 
   80.7500  -999.2500    78.0990     9.2400     8.5510     9.7620    23.6710  -999.2500   -11.3860 
   80.8750  -999.2500    80.8600     7.7660     7.2990     8.8220    24.0880  -999.2500   -10.9360 
   81.0000  -999.2500    91.0800     6.7000     6.2490     7.4350    24.4550  -999.2500   -10.5530 
   81.1250  -999.2500   104.7570     6.0430     5.5320     6.0920    24.5810  -999.2500   -10.2110 
   81.2500  -999.2500   112.5450     5.7280     5.1100     5.3230    24.5640  -999.2500    -9.8910 
   81.3750  -999.2500   112.1660     5.6770     4.9340     5.3010    24.5020  -999.2500    -9.6440 
   81.5000  -999.2500   106.0630     5.7660     4.9260     5.6060    24.4780  -999.2500    -9.4730 
   81.6250  -999.2500   100.9700     5.8550     4.9860     5.9420    24.5830  -999.2500    -9.2620 
   81.7500  -999.2500    99.6430     5.8580     5.0140     6.0240    24.8620  -999.2500    -9.0580 
   81.8750  -999.2500   100.6910     5.7840     4.9760     5.7250    25.2320  -999.2500    -8.9260 
   82.0000  -999.2500   102.8510     5.7020     4.8900     5.2830    25.4970  -999.2500    -8.8560 
   82.1250  -999.2500   107.7920     5.7060     4.8150     5.1350    25.5870  -999.2500    -8.8530 
   82.2500  -999.2500   112.8380     5.7980     4.7940     5.1950    25.6130  -999.2500    -8.9900 
   82.3750  -999.2500   111.6850     5.9270     4.8220     5.3680    25.6290  -999.2500    -9.2970 
   82.5000  -999.2500   103.4940     6.0180     4.8620     5.5630    25.6400  -999.2500    -9.7590 
   82.6250  -999.2500    95.0650     6.0000     4.8600     5.7020    25.6480  -999.2500   -10.4570 
   82.7500  -999.2500    92.8160     5.9090     4.8090     5.7710    25.6750  -999.2500   -11.3490 
   82.8750  -999.2500    97.4410     5.8330     4.7560     5.7880    25.6620  -999.2500   -12.4340 
   83.0000  -999.2500   103.8320     5.8970     4.7810     5.7700    25.5640  -999.2500   -13.7080 
   83.1250  -999.2500   103.0770     6.2530     5.0100     6.0470    25.3940  -999.2500   -15.1150 
   83.2500  -999.2500    95.9830     6.8830     5.4620     6.7870    25.0560  -999.2500   -16.4980 
   83.3750  -999.2500    88.0060     7.7090     6.1110     7.8890    24.5910  -999.2500   -17.7430 
   83.5000  -999.2500    81.9830     8.5760     6.8660     9.1210    24.2260  -999.2500   -18.8050 
   83.6250  -999.2500    77.8110     9.2510     7.5610     9.8520    24.0840  -999.2500   -19.6120 
   83.7500  -999.2500    73.8360     9.6380     8.0670    10.0700    23.9760  -999.2500   -20.1630 
   83.8750  -999.2500    70.4110     9.7710     8.3500     9.9950    23.8420  -999.2500   -20.3930 
   84.0000  -999.2500    68.9520     9.7850     8.4640     9.8470    23.7790  -999.2500   -20.2510 
   84.1250  -999.2500    69.3520     9.8190     8.5070     9.7310    23.8300  -999.2500   -19.7330 
   84.2500  -999.2500    69.0880     9.8670     8.5320     9.8150    23.9070  -999.2500   -18.9540 
   84.3750  -999.2500    66.0900     9.8120     8.4810    10.0940    23.9370  -999.2500   -17.9700 
   84.5000  -999.2500    64.3340     9.5150     8.2500    10.2890    23.9410  -999.2500   -16.8210 
   84.6250  -999.2500    68.1930     8.8760     7.7270    10.0200    23.9710  -999.2500   -15.5820 
   84.7500  -999.2500    76.0650     8.0630     7.0100     9.1990    24.0560  -999.2500   -14.3430 
   84.8750  -999.2500    87.8970     7.2780     6.2480     7.8860    24.1870  -999.2500   -13.1730 
