~V
VERS. 2.00: Ver 2.00
~W
STRT.M 64.0000:
STOP.M 257.0000:
STEP.M 0.1250:
NULL. -999.2500:
UWI. DF3069:
~C
DEPT.M :
GR.API :
CALI.CM :
RXO.OHMM :
RI. :
RML.OHMM :
DEN.GM/CC :
SP.MV :
~A
# ...
  120.2500    68.3680    23.3230     9.8530     8.5480    10.0350     2.2390   -27.1330 
  120.3750    68.3300    23.3320    10.3670     8.7920    10.2860     2.2320   -27.1620 
  120.5000    70.9960    23.3740    10.2840     9.0210    10.5220     2.2300   -27.2120 
  120.6250    72.5200    23.3390    10.3540     9.1950    10.6830     2.2240   -27.2760 
  120.7500    71.9280    23.3330    10.7060     9.3040    10.7630     2.2280   -27.3460 
  120.8750    67.9030    23.3570    10.7430     9.3860    10.8530     2.2570   -27.3940 
  121.0000    62.2160    23.3710    10.8230     9.5750    11.1650     2.3050   -27.4130 
  121.1250    58.8640    23.3710    11.2020    10.0830    11.9920     2.3290   -27.3780 
  121.2500    58.5570    23.3400    11.5260    10.8600    13.1330     2.3030   -27.2640 
  121.3750    59.7670    23.3280    11.5440    11.7760    14.3740     2.2440   -27.0580 
  121.5000    61.1030    23.3480    11.8030    12.6870    15.5070     2.2030   -26.7850 
  121.6250    62.4310    23.3940    15.5070    13.2140    16.0170     2.2440   -26.5060 
  121.7500    63.0850    23.6480    26.8130    13.0400    15.6100     2.3540   -26.2510 
  121.8750    64.8380    23.9150    37.7680    12.1070    14.2680     2.4720   -26.0420 
  122.0000    70.0580    24.0110    33.9260    10.6810    12.3290     2.5230   -25.8950 
  122.1250    76.2500    23.9610    18.5970     9.1290    10.2550     2.4700   -25.7820 
  122.2500    81.6780    23.8260    10.1960     7.8120     8.5480     2.3850   -25.6780 
  122.3750    85.9570    23.8480     8.4560     6.8650     7.4010     2.3280   -25.5700 
  122.5000    88.7860    23.8090     7.5970     6.2520     6.7140     2.3060   -25.4490 
  122.6250    89.2410    23.6130     7.2710     5.9680     6.4560     2.3000   -25.3390 
  122.7500    88.2460    23.6380     7.0960     5.9020     6.4310     2.3000   -25.2660 
  122.8750    87.0650    23.8470     6.7750     5.9430     6.4780     2.3160   -25.2520 
  123.0000    85.7060    24.0100     6.5190     5.9760     6.4780     2.3430   -25.2780 
  123.1250    86.9820    24.0540     6.5050     5.9490     6.3930     2.3570   -25.3410 
  123.2500    89.0450    23.9430     6.4260     5.8940     6.3020     2.3500   -25.4490 
  123.3750    88.8760    23.9130     6.5290     5.8150     6.2130     2.3380   -25.5850 
  123.5000    89.0580    23.9320     6.7370     5.7240     6.1640     2.3370   -25.7660 
  123.6250    91.7230    23.9550     6.7360     5.6340     6.1530     2.3540   -26.0090 
  123.7500    94.5120    23.9750     6.3310     5.5580     6.1520     2.3680   -26.2910 
  123.8750    94.5820    23.9340     6.0590     5.5140     6.1830     2.3650   -26.6190 
  124.0000    92.8520    23.8660     6.2900     5.5080     6.2750     2.3480   -26.9860 
  124.1250    91.6370    23.5150     6.9830     5.5520     6.4400     2.3370   -27.4190 
  124.2500    90.1280    23.7200     7.3020     5.6370     6.6550     2.3390   -27.8950 
  124.3750    87.8030    23.8180     7.2780     5.7640     6.8950     2.3390   -28.4260 
  124.5000    82.8010    23.6380     7.4300     5.9470     7.1890     2.3270   -28.9630 
  124.6250    75.8300    23.5360     8.0050     6.2530     7.6720     2.2980   -29.4230 
  124.7500    71.5480    23.3620     8.6580     6.7360     8.4230     2.2670   -29.8110 
  124.8750    71.2950    23.3650     9.4220     7.4980     9.5990     2.2450   -30.1390 
  125.0000    71.4480    23.3390    10.5190     8.6370    11.3120     2.2510   -30.4450 
  125.1250    68.7490    23.3530    12.1910    10.2530    13.5920     2.3080   -30.7240 
  125.2500    66.1540    23.4710    14.6280    12.1620    16.1370     2.4070   -30.9820 
  125.3750    64.2280    23.6610    18.8550    14.1070    18.5340     2.5250   -31.2030 
  125.5000    62.2060    23.8300    24.2670    15.6680    20.2660     2.6320   -31.3910 
  125.6250    60.3250    23.6620    30.5240    16.1930    20.6190     2.6910   -31.5750 
  125.7500    59.9240    23.6670    30.9180    15.6770    19.7160     2.6860   -31.7690 
  125.8750    59.8410    23.5890    24.6250    14.4510    17.9900     2.6050   -31.9670 
  126.0000    59.8480    23.3400    16.7350    12.9820    16.0290     2.4690   -32.1590 
  126.1250    61.6200    23.1720    13.4620    11.7020    14.4230     2.3300   -32.3640 
  126.2500    63.2340    23.0340    13.0910    10.7850    13.3720     2.2330   -32.6010 
  126.3750    64.9200    23.0680    13.7640    10.2440    12.8560     2.1830   -32.8580 
  126.5000    67.1020    23.0950    15.5570    10.0280    12.7620     2.1640   -33.1110 
  126.6250    67.1540    23.0220    15.2280    10.0650    12.8800     2.1620   -33.3270 
  126.7500    64.9690    22.9980    13.5870    10.2000    13.0110     2.1700   -33.4710 
  126.8750    62.3380    23.0150    12.3720    10.3260    13.0300     2.1850   -33.5550 
  127.0000    62.2180    23.1250    12.1470    10.3900    12.9080     2.1980   -33.6050 
  127.1250    64.3740    23.1560    12.5930    10.3900    12.7250     2.1960   -33.6310 
  127.2500    66.6660    23.0550    12.6470    10.3660    12.5350     2.1810   -33.6290 
  127.3750    66.7630    22.9960    12.3230    10.3450    12.3740     2.1670   -33.6000 
  127.5000    65.1560    22.9780    12.0960    10.3650    12.2840     2.1630   -33.5440 
  127.6250    65.4190    22.9200    12.0820    10.4540    12.3160     2.1720   -33.4720 
  127.7500    66.6560    22.8060    12.0100    10.6120    12.4290     2.1830   -33.3700 
  127.8750    68.3740    22.7380    11.9520    10.7900    12.5560     2.1890   -33.2040 
  128.0000    69.3170    22.8660    11.9760    10.9220    12.6200     2.1880   -32.9640 
  128.1250    67.3510    22.8540    12.1810    10.9110    12.5230     2.1880   -32.6580 
  128.2500    63.5220    22.9030    12.3190    10.6950    12.2000     2.1910   -32.3090 
  128.3750    63.5120    22.7860    12.3380    10.2350    11.6210     2.1930   -31.9590 
  128.5000    70.4090    22.7450    11.9700     9.5420    10.7790     2.1960   -31.6350 
  128.6250    77.5320    22.8950    10.7210     8.6820     9.7790     2.2170   -31.3370 
  128.7500    79.0560    22.9680     9.2460     7.7970     8.7610     2.2530   -31.0830 
  128.8750    78.1920    23.0130     8.3690     6.9790     7.8360     2.2890   -30.8550 
  129.0000    80.8480    23.0450     8.0140     6.3120     7.0900     2.3080   -30.6650 
  129.1250    89.1190    23.2130     7.3920     5.8550     6.5900     2.3110   -30.5120 
  129.2500    96.9260    23.2620     6.7300     5.6050     6.3630     2.3180   -30.4180 
  129.3750   101.9480    23.2820     6.3370     5.5620     6.4070     2.3310   -30.4100 
  129.5000   100.6400    23.2500     6.3260     5.7280     6.7090     2.3410   -30.5180 
  129.6250    91.7340    22.9630     6.9680     6.1120     7.2630     2.3300   -30.8050 
  129.7500    82.7950    22.7790     7.7600     6.6380     7.9310     2.3000   -31.2010 
  129.8750    78.9860    22.6940     8.6580     7.2560     8.6530     2.2670   -31.6800 
  130.0000    78.9220    22.6520     9.3830     7.9040     9.3810     2.2460   -32.1900 
  130.1250    77.9730    22.5910     9.4600     8.5060    10.0310     2.2340   -32.6560 
  130.2500    76.5560    22.4900     9.9150     9.0200    10.5580     2.2190   -33.0280 
  130.3750    74.9590    22.5400    10.8290     9.4220    10.9780     2.1990   -33.2950 
  130.5000    70.9730    22.5060    11.5060     9.7120    11.3180     2.1840   -33.4580 
  130.6250    67.5680    22.4640    11.6460     9.8980    11.5880     2.1820   -33.5100 
  130.7500    67.5680    22.5180    11.4830    10.0160    11.8640     2.1850   -33.5010 
  130.8750    68.4210    22.4980    11.4570    10.1210    12.1640     2.1860   -33.4330 
  131.0000    65.0020    22.5450    11.6390    10.2600    12.5160     2.1830   -33.3370 
  131.1250    59.9310    22.4710    11.6890    10.4510    12.9190     2.1760   -33.2130 
  131.2500    61.4500    22.4120    11.4170    10.6270    13.2600     2.1690   -33.0710 
  131.3750    67.9020    22.5020    11.0040    10.7210    13.4400     2.1690   -32.8610 
