~V
VERS. 2.00: Ver 2.00
~W
STRT.M 60.0000:
STOP.M 277.0000:
STEP.M 0.1250:
NULL. -999.2500:
UWI. DF3048:
~C
DEPT.M :
SP.MV :
GR.API :
RML.OHMM :
RI. :
RXO.OHMM :
CALI.CM :
DEN.GM/CC :
~A
# ...
  172.5000   -22.5520    72.6260   125.8400   114.7680   123.2450    24.2380     2.2160 
  172.6250   -22.6090    74.6360   131.5610   120.0080   124.1790    24.2790     2.2100 
  172.7500   -22.6380    75.4290   139.8570   127.1860   126.4150    24.4260     2.2050 
  172.8750   -22.6580    73.1380   150.5660   136.1870   132.8720    24.5410     2.1980 
  173.0000   -22.6930    69.8430   162.3250   145.9700   143.5800    24.3520     2.1890 
  173.1250   -22.7050    69.0450   171.4680   153.7060   156.3140    23.7750     2.1800 
  173.2500   -22.7260    69.9290   173.9510   156.2030   158.2880    23.6960     2.1710 
  173.3750   -22.7160    71.4280   166.4210   150.6530   151.4860    23.8710     2.1650 
  173.5000   -22.6680    72.4890   148.0620   136.0390   138.6300    23.9660     2.1620 
  173.6250   -22.5910    71.1930   122.1870   114.2070   122.2910    23.9360     2.1710 
  173.7500   -22.5280    66.6470    97.9000    92.4000   107.7740    23.9170     2.1910 
  173.8750   -22.4980    62.7970    81.2400    76.1490    87.6630    23.9440     2.2170 
  174.0000   -22.4550    63.6790    75.2970    69.0520    60.6930    24.0230     2.2390 
  174.1250   -22.4980    67.9010    82.3610    74.2310    54.2570    24.1690     2.2400 
  174.2500   -22.5340    68.9620    98.2970    88.5280    68.1960    24.2190     2.2200 
  174.3750   -22.5940    65.3270   118.3560   107.8270    99.4120    24.2850     2.1880 
  174.5000   -22.6990    60.4800   135.6990   125.7220   134.9010    24.4540     2.1580 
  174.6250   -22.7950    57.8890   141.0170   133.2060   137.7560    24.6610     2.1440 
  174.7500   -22.9090    58.7490   133.8800   128.8250   125.9990    24.7040     2.1440 
  174.8750   -23.0150    61.8990   120.2530   117.0240   113.0220    24.6080     2.1520 
  175.0000   -23.1690    67.1520   109.4220   106.0570    94.4720    24.5570     2.1580 
  175.1250   -23.2920    72.5630   109.3060   104.1490    72.7660    24.4990     2.1560 
  175.2500   -23.4860    74.6680   118.5650   111.2620    64.5370    24.5140     2.1470 
  175.3750   -23.7030    72.2570   133.5520   124.3590    69.4020    24.3650     2.1390 
  175.5000   -23.9070    65.9340   148.5110   138.1380    79.7550    24.2280     2.1400 
  175.6250   -24.1360    62.4680   155.2050   144.9880    91.5780    23.8720     2.1530 
  175.7500   -24.3650    63.9600   151.0050   142.0730    90.4960    23.1590     2.1730 
  175.8750   -24.5850    68.4110   138.4270   131.0500    79.8370    22.8010     2.1960 
  176.0000   -24.7370    72.4560   124.1610   117.4030    68.0480    22.9240     2.2160 
  176.1250   -24.8730    73.2220   115.9120   108.1290    58.8730    22.9350     2.2280 
  176.2500   -24.9720    71.8020   115.5730   105.7680    55.2450    22.7080     2.2300 
  176.3750   -25.0760    70.0350   122.8750   110.4220    56.0190    22.4760     2.2240 
  176.5000   -25.2070    68.1860   136.3830   120.8580    63.9230    22.3750     2.2110 
  176.6250   -25.3620    66.0070   154.0860   135.2830    70.2750    22.3450     2.1970 
  176.7500   -25.5220    63.9740   172.2470   150.3750    69.1160    22.3200     2.1860 
  176.8750   -25.6960    63.2280   188.4360   164.0860    64.5360    22.3210     2.1790 
  177.0000   -25.8910    64.0990   201.3680   175.3470    61.1300    22.4080     2.1750 
  177.1250   -26.0680    64.1450   211.0270   184.0770    58.4290    22.5310     2.1720 
  177.2500   -26.2110    63.6070   219.6240   191.8990    57.4450    22.5850     2.1670 
  177.3750   -26.3140    64.5480   228.7460   199.9890    59.4000    22.6000     2.1590 
  177.5000   -26.3790    67.5230   239.1230   208.9420    61.7860    22.7150     2.1500 
  177.6250   -26.4070    69.9230   249.6300   218.0210    65.1040    22.8010     2.1430 
  177.7500   -26.4130    68.9840   256.8540   224.7160    71.2520    22.8990     2.1390 
  177.8750   -26.4330    67.9980   256.7430   225.8790    80.3330    23.0190     2.1440 
  178.0000   -26.3980    68.7780   246.3010   218.9680    91.6180    23.1500     2.1560 
  178.1250   -26.3700    68.4660   224.6140   202.6450   101.8780    23.3610     2.1770 
  178.2500   -26.3090    66.8690   198.3460   181.6650   107.7520    23.7020     2.2020 
  178.3750   -26.2620    68.7270   173.1880   160.4710   105.3380    24.0940     2.2230 
  178.5000   -26.2020    72.7560   153.3180   142.8560    95.7280    24.4240     2.2350 
  178.6250   -26.1500    71.1990   141.9020   132.1140    96.2500    24.5580     2.2340 
  178.7500   -26.0890    66.5530   137.7680   127.8000   102.2060    24.5880     2.2230 
  178.8750   -25.9870    64.8160   140.1860   129.4810   104.7650    24.6100     2.2070 
  179.0000   -25.8850    65.3060   148.0950   136.2820   102.9330    24.6600     2.1950 
  179.1250   -25.7460    64.4270   160.5240   147.3290   106.0510    24.7270     2.1920 
  179.2500   -25.6130    63.6450   174.9270   160.2240   116.8300    24.7200     2.1970 
  179.3750   -25.4710    63.8420   189.7130   173.4670   131.2540    24.6710     2.2050 
  179.5000   -25.3480    62.4770   203.6810   185.9250   141.6650    24.6650     2.2100 
  179.6250   -25.2330    60.0470   215.8960   196.6660   157.5770    24.6840     2.2050 
  179.7500   -25.1490    60.0440   226.4170   205.6820   160.7280    24.6410     2.1960 
  179.8750   -25.0930    62.6630   235.0080   212.7260   152.8610    24.4940     2.1880 
  180.0000   -25.0790    66.6740   240.9250   217.1700   149.1630    24.1460     2.1900 
  180.1250   -25.1270    69.0820   242.1720   217.3460   148.9390    23.6060     2.2070 
  180.2500   -25.2110    69.1790   238.4940   213.1720   145.3010    23.2320     2.2330 
  180.3750   -25.2810    69.0100   230.2120   204.9800   141.5480    23.2650     2.2610 
  180.5000   -25.3170    70.6350   218.8250   194.0810   134.5510    23.5760     2.2840 
  180.6250   -25.3040    75.4430   206.8210   182.6250   126.1300    24.0800     2.2920 
  180.7500   -25.2440    79.3670   196.6680   172.7890   124.5130    24.2720     2.2860 
  180.8750   -25.1940    79.4290   189.6000   165.6940   127.6020    24.2990     2.2700 
  181.0000   -25.1340    77.3600   186.0140   161.7270   128.1340    24.2520     2.2510 
  181.1250   -25.0320    76.4050   186.0560   161.0900   124.2790    24.2960     2.2370 
  181.2500   -24.9020    75.3660   188.3210   162.6110   122.0210    24.4960     2.2300 
  181.3750   -24.7910    71.2070   191.8590   165.5360   124.6550    24.6590     2.2300 
  181.5000   -24.6830    66.7560   195.8570   169.1900   130.0580    24.7050     2.2330 
  181.6250   -24.6250    66.5710   199.8980   173.1750   135.0450    24.6830     2.2350 
  181.7500   -24.5640    68.8390   204.2130   177.4780   139.6750    24.6840     2.2360 
  181.8750   -24.4480    70.5640   209.5080   182.5440   147.8740    24.6840     2.2350 
  182.0000   -24.3100    69.4280   216.6920   189.0300   160.9120    24.6840     2.2330 
  182.1250   -24.1560    65.6850   226.8930   197.8160   175.9840    24.6840     2.2290 
  182.2500   -24.0600    62.4660   239.1810   208.2490   187.4360    24.6840     2.2230 
  182.3750   -23.9910    62.5210   251.3720   218.7020   195.2070    24.6840     2.2170 
  182.5000   -24.0230    64.9050   259.6180   226.2200   200.6200    24.6840     2.2120 
  182.6250   -24.1130    65.7430   257.1660   225.4160   206.1400    24.6840     2.2070 
  182.7500   -24.2520    64.7870   242.3190   214.5550   207.8550    24.6840     2.2020 
  182.8750   -24.4640    63.8230   216.8770   194.4180   202.4840    24.6880     2.1980 
  183.0000   -24.6830    63.1010   187.2440   169.4460   187.8170    24.6760     2.1950 
  183.1250   -24.8890    62.2270   163.0460   147.2050   157.9730    24.5450     2.1950 
  183.2500   -25.0060    63.7570   149.0150   132.8180   108.0430    24.2930     2.1970 
  183.3750   -25.0500    68.7780   146.1560   128.0960    62.2000    24.1590     2.1990 
  183.5000   -24.9820    72.9650   153.3000   132.5610    50.4750    24.2780     2.1970 
  183.6250   -24.8460    71.4430   168.8860   145.0530    71.1450    24.4900     2.1920 
