~V
VERS. 2.00: Ver 2.00
~W
STRT.M 125.0000:
STOP.M 255.0000:
STEP.M 0.1250:
NULL. -999.2500:
UWI. DF3006:
~C
DEPT.M :
GR.API :
RML.OHMM :
RI. :
RXO.OHMM :
CALI.CM :
DEN.GM/CC :
SP.MV :
~A
# ...
  136.2500    92.5890     6.6540     6.3840     5.8350    23.5720     2.3130   -25.1790 
  136.3750    97.7340     6.7030     6.4990     6.3150    23.5020     2.3090   -25.3970 
  136.5000   101.9210     6.7680     6.6210     6.5260    23.5420     2.3050   -25.5300 
  136.6250   100.8720     6.8870     6.7790     6.6970    23.5760     2.2980   -25.7010 
  136.7500    98.3610     7.0900     6.9990     6.9950    23.5720     2.2920   -25.8560 
  136.8750    97.3190     7.3880     7.2920     7.2870    23.5470     2.2870   -25.8380 
  137.0000    96.1080     7.7410     7.6240     7.3720    23.5380     2.2890   -25.7860 
  137.1250    93.2500     8.0250     7.8820     7.4700    23.5020     2.2980   -25.6470 
  137.2500    91.1350     8.1040     7.9450     7.7100    23.4330     2.3100   -25.2250 
  137.3750    91.0900     7.8960     7.7360     8.0790    23.4080     2.3180   -24.7470 
  137.5000    93.1660     7.4100     7.2620     7.8790    23.5140     2.3180   -24.2480 
  137.6250    98.3770     6.7560     6.6190     6.9110    23.8180     2.3090   -23.5410 
  137.7500   103.8780     6.1360     5.9940     5.9270    24.1220     2.2990   -22.9240 
  137.8750   106.6140     5.6830     5.5010     5.3340    24.2780     2.2950   -22.4150 
  138.0000   105.6300     5.4480     5.2050     5.0230    24.3230     2.3010   -21.8490 
  138.1250   105.0150     5.4460     5.1590     4.9630    24.2950     2.3210   -21.4920 
  138.2500   106.4960     5.5450     5.3030     5.0270    24.2870     2.3440   -21.4010 
  138.3750   106.3730     5.6970     5.5920     5.2500    24.2460     2.3580   -21.4280 
  138.5000   105.5080     5.8820     5.9730     5.7230    24.2370     2.3570   -21.6230 
  138.6250   107.1330     6.2650     6.3960     6.3520    24.1670     2.3400   -21.9160 
  138.7500   108.5960     6.7580     6.8100     6.8230    24.1020     2.3240   -22.1940 
  138.8750   106.5750     7.3530     7.1890     7.0770    23.9980     2.3160   -22.4900 
  139.0000   101.0020     7.9880     7.5060     7.3360    23.9440     2.3190   -22.7710 
  139.1250    95.9140     8.3140     7.7020     7.8440    24.0540     2.3210   -23.0200 
  139.2500    92.0040     8.4920     7.7630     8.5210    24.2520     2.3110   -23.2320 
  139.3750    89.6260     8.5000     7.7010     9.4440    24.3820     2.2890   -23.3610 
  139.5000    89.8390     8.3990     7.5800     9.8050    24.4220     2.2630   -23.4420 
  139.6250    92.0640     8.2850     7.5190     8.7710    24.3920     2.2460   -23.5720 
  139.7500    93.0020     8.2570     7.5990     7.7820    24.3740     2.2400   -23.6960 
  139.8750    90.9230     8.3550     7.8200     7.5310    24.3280     2.2440   -23.8510 
  140.0000    87.7290     8.5800     8.1010     7.9860    24.1920     2.2500   -24.0280 
  140.1250    87.7720     8.8070     8.2890     8.4760    24.0020     2.2520   -23.9460 
  140.2500    90.4700     8.9110     8.2860     8.6480    23.8660     2.2490   -23.7810 
  140.3750    94.1100     8.8640     8.1020     8.3420    23.8550     2.2450   -23.6160 
  140.5000    96.2900     8.7120     7.8590     7.9860    23.9430     2.2460   -23.2470 
  140.6250    98.2070     8.5410     7.7710     7.7570    24.0930     2.2590   -22.8300 
  140.7500    99.3600     8.3950     7.9190     7.8910    24.2150     2.2910   -22.4440 
  140.8750    95.6720     8.3930     8.2780     8.3740    24.2970     2.3410   -21.9120 
  141.0000    86.6880     8.6380     8.7570     9.4910    24.3140     2.4010   -21.4340 
  141.1250    80.1290     9.2150     9.2550    12.0540    24.2770     2.4570   -21.1750 
  141.2500    81.2280     9.8770     9.7310    14.9410    24.2660     2.4950   -20.9280 
  141.3750    83.2310    10.4710    10.2240    14.7400    24.2750     2.5140   -20.8040 
  141.5000    78.5570    10.9230    10.7910    13.3260    24.2680     2.5200   -20.7930 
  141.6250    68.9540    11.2560    11.4310    14.6340    24.2150     2.5240   -20.7310 
  141.7500    61.3140    11.6780    12.0180    16.2000    24.1700     2.5290   -20.6770 
  141.8750    57.3530    12.2270    12.4310    15.6590    24.1810     2.5310   -20.6380 
  142.0000    54.7070    12.7490    12.6230    15.0090    24.2200     2.5260   -20.5490 
  142.1250    56.0110    13.2830    12.7040    15.4260    24.2380     2.5140   -20.4580 
  142.2500    62.5730    14.1030    12.9550    15.4860    24.2500     2.5030   -20.3300 
  142.3750    67.9700    15.2850    13.6070    14.7160    24.2770     2.5010   -20.1280 
  142.5000    64.7710    17.0590    14.7660    15.8970    24.2950     2.5140   -19.9630 
  142.6250    56.2680    19.2020    16.3920    20.0220    24.2900     2.5420   -19.8110 
  142.7500    52.2470    21.4760    18.1290    23.9990    24.2650     2.5710   -19.6340 
  142.8750    52.2940    23.0560    19.6740    25.4740    24.2250     2.5880   -19.4800 
  143.0000    52.5940    24.0770    20.8180    23.7160    24.1880     2.5890   -19.3290 
  143.1250    52.2210    24.6310    21.5150    24.1530    24.1720     2.5760   -19.2370 
  143.2500    52.6430    25.1460    22.0700    23.8620    24.2020     2.5650   -19.1880 
  143.3750    53.7340    25.8700    22.7060    23.9270    24.2650     2.5620   -19.0570 
  143.5000    55.0700    26.8360    23.5060    25.6470    24.3220     2.5700   -18.9560 
  143.6250    55.3060    27.8420    24.3660    28.2730    24.4430     2.5850   -18.9870 
  143.7500    52.9930    28.5820    25.0540    30.7690    24.6390     2.6010   -18.9170 
  143.8750    50.0380    28.8530    25.3880    30.9450    24.7070     2.6130   -18.8600 
  144.0000    49.0960    28.5990    25.2870    29.5790    24.7300     2.6200   -18.9200 
  144.1250    52.8900    27.9090    24.7720    27.0950    24.7330     2.6210   -18.8400 
  144.2500    59.8360    27.1130    24.1020    25.3670    24.7330     2.6200   -18.7820 
  144.3750    65.9890    26.4060    23.4430    24.1530    24.7330     2.6150   -18.8250 
  144.5000    67.8820    25.8670    22.8840    23.2150    24.7330     2.6070   -18.7430 
  144.6250    64.7190    25.4550    22.4270    23.0200    24.7280     2.5930   -18.6600 
  144.7500    62.6080    25.0180    21.9820    24.3600    24.7000     2.5750   -18.6750 
  144.8750    63.9940    24.4850    21.5000    24.3280    24.6690     2.5550   -18.6500 
  145.0000    65.7830    23.8950    21.0090    23.4030    24.6560     2.5400   -18.6020 
  145.1250    64.6030    23.4450    20.6510    22.1890    24.6080     2.5340   -18.5930 
  145.2500    61.3150    23.3240    20.5570    21.9080    24.5950     2.5380   -18.6110 
  145.3750    58.9100    23.6380    20.8120    21.8380    24.5550     2.5480   -18.6430 
  145.5000    59.5150    24.3610    21.4130    22.6060    24.5370     2.5580   -18.7060 
  145.6250    64.2150    25.3150    22.2530    24.2560    24.5230     2.5630   -18.7230 
  145.7500    68.9820    26.1490    23.0570    25.5580    24.4650     2.5630   -18.7300 
  145.8750    68.4240    26.6170    23.6080    25.8430    24.4020     2.5610   -18.7790 
  146.0000    63.1520    26.5920    23.7640    27.1560    24.3440     2.5580   -18.8460 
  146.1250    58.5150    26.0520    23.4500    27.8760    24.3360     2.5550   -18.9260 
  146.2500    57.8460    25.2580    22.8630    26.9380    24.3330     2.5500   -18.9900 
  146.3750    60.9720    24.3720    22.1430    24.2370    24.3330     2.5470   -19.0950 
  146.5000    64.4860    23.4520    21.3660    22.0020    24.3330     2.5480   -19.2250 
  146.6250    64.9780    22.4340    20.5060    20.2860    24.3330     2.5560   -19.3030 
  146.7500    63.9410    21.2790    19.5330    19.1940    24.3330     2.5650   -19.4660 
  146.8750    63.7950    20.0240    18.4720    17.9870    24.3330     2.5700   -19.6660 
  147.0000    64.5520    18.7980    17.4200    16.9650    24.3330     2.5670   -19.7250 
  147.1250    65.6350    17.8310    16.5690    15.7650    24.3330     2.5530   -19.8240 
  147.2500    67.4510    17.2250    16.0200    14.5930    24.3320     2.5350   -19.9240 
  147.3750    68.8380    16.9900    15.8050    13.8060    24.3250     2.5210   -19.8950 
