~V
VERS. 2.00: Ver 2.00
~W
STRT.M 60.0000:
STOP.M 273.0000:
STEP.M 0.1250:
NULL. -999.2500:
UWI. DF3001:
~C
DEPT.M :
DEN.GM/CC :
SP.MV :
AC.US/MT :
GR.API :
RML.OHMM :
RI. :
RXO.OHMM :
CALI.CM :
~A
# ...
  100.0000  -999.2500   -21.6750  -999.2500    87.9930     6.2840     5.1950     6.2740    23.6660 
  100.1250  -999.2500   -22.2770  -999.2500    90.1850     6.5970     5.4460     6.6920    23.4820 
  100.2500  -999.2500   -22.8460  -999.2500    89.9800     6.8690     5.6920     7.2720    23.2390 
  100.3750  -999.2500   -23.3420  -999.2500    88.2430     7.0850     5.9160     7.8420    23.0660 
  100.5000  -999.2500   -23.7740  -999.2500    86.6310     7.2700     6.1230     8.1710    22.9340 
  100.6250  -999.2500   -24.1640  -999.2500    85.7850     7.4760     6.3420     8.5410    22.8360 
  100.7500  -999.2500   -24.5300  -999.2500    82.2970     7.7310     6.5940     9.1190    22.6740 
  100.8750  -999.2500   -24.8180  -999.2500    75.7310     8.0280     6.8750     9.9220    22.3280 
  101.0000  -999.2500   -25.0790  -999.2500    69.6980     8.3250     7.1610    10.5040    21.9110 
  101.1250  -999.2500   -25.4220  -999.2500    67.1890     8.5520     7.3940    10.2140    21.6300 
  101.2500  -999.2500   -25.7840  -999.2500    69.0730     8.6760     7.5430     9.7750    21.4450 
  101.3750  -999.2500   -26.1270  -999.2500    72.4930     8.7010     7.5980     9.2840    21.3290 
  101.5000  -999.2500   -26.4400  -999.2500    75.3270     8.6660     7.5770     8.7940    21.3070 
  101.6250  -999.2500   -26.7160  -999.2500    76.5820     8.6400     7.5260     8.3630    21.5090 
  101.7500  -999.2500   -26.8940  -999.2500    76.9040     8.6470     7.4920     7.9210    21.9580 
  101.8750  -999.2500   -27.0170  -999.2500    77.7730     8.7200     7.4780     7.9330    22.4390 
  102.0000  -999.2500   -27.1100  -999.2500    77.4970     8.8450     7.4770     8.7990    22.6570 
  102.1250  -999.2500   -27.1850  -999.2500    72.9900     9.0130     7.5230     9.2270    22.6310 
  102.2500  -999.2500   -27.3240  -999.2500    68.4790     9.2310     7.6610     9.4470    22.5880 
  102.3750  -999.2500   -27.4990  -999.2500    69.4750     9.5050     7.9340     9.6330    22.6340 
  102.5000  -999.2500   -27.6770  -999.2500    74.4780     9.7520     8.3440    10.1060    22.7750 
  102.6250  -999.2500   -27.8910  -999.2500    73.6240     9.9120     8.8110    10.7460    23.0000 
  102.7500  -999.2500   -28.1100  -999.2500    67.3740     9.9710     9.1620    11.1840    23.1340 
  102.8750  -999.2500   -28.2610  -999.2500    63.7710     9.8680     9.2780    11.2830    23.1800 
  103.0000  -999.2500   -28.3420  -999.2500    66.9180     9.5960     9.1410    11.2180    23.1890 
  103.1250  -999.2500   -28.3980  -999.2500    69.6180     9.2890     8.8230    11.1790    23.1900 
  103.2500  -999.2500   -28.3450  -999.2500    66.1030     9.0410     8.4920    11.2240    23.1890 
  103.3750  -999.2500   -28.1950  -999.2500    59.9780     8.8730     8.2310    11.3570    23.1900 
  103.5000  -999.2500   -28.0180  -999.2500    58.0960     8.7620     8.0480    11.4370    23.1910 
  103.6250  -999.2500   -27.7750  -999.2500    60.8080     8.6590     7.9010    11.2590    23.1920 
  103.7500  -999.2500   -27.4770  -999.2500    62.3600     8.5460     7.7510    11.0250    23.1920 
  103.8750  -999.2500   -27.1380  -999.2500    64.0180     8.4510     7.6120    10.8660    23.1920 
  104.0000  -999.2500   -26.7660  -999.2500    67.1060     8.3970     7.5050    10.7520    23.1920 
  104.1250  -999.2500   -26.3460  -999.2500    69.0590     8.3700     7.4420    10.6940    23.1920 
  104.2500  -999.2500   -25.8840  -999.2500    69.5820     8.3310     7.4040    10.6440    23.1920 
  104.3750  -999.2500   -25.3110  -999.2500    70.8900     8.2670     7.3750    10.5270    23.1990 
  104.5000  -999.2500   -24.6780  -999.2500    72.5540     8.1880     7.3480    10.3190    23.2470 
  104.6250  -999.2500   -23.9850  -999.2500    71.2920     8.1200     7.3170    10.0940    23.3870 
  104.7500  -999.2500   -23.2100  -999.2500    69.5480     8.0630     7.2710    10.0450    23.5550 
  104.8750  -999.2500   -22.4120  -999.2500    70.5450     7.9790     7.1820    10.0550    23.6460 
  105.0000  -999.2500   -21.6190  -999.2500    74.3130     7.8050     7.0100     9.8290    23.6690 
  105.1250  -999.2500   -20.7950  -999.2500    78.8040     7.4660     6.6980     9.1640    23.6720 
  105.2500  -999.2500   -19.9310  -999.2500    83.0130     6.9870     6.2700     8.2770    23.7140 
  105.3750  -999.2500   -19.1590  -999.2500    87.7750     6.4280     5.7700     7.3710    23.8750 
  105.5000  -999.2500   -18.5670  -999.2500    94.8010     5.8760     5.2640     6.4750    24.2090 
  105.6250  -999.2500   -18.1400  -999.2500   102.6240     5.4530     4.8500     5.8190    24.4660 
  105.7500  -999.2500   -17.8800  -999.2500   107.5340     5.2180     4.5860     5.4770    24.5510 
  105.8750  -999.2500   -17.7900  -999.2500   106.3620     5.2120     4.5160     5.4210    24.4900 
  106.0000  -999.2500   -17.8710  -999.2500   101.0550     5.4590     4.6680     5.5980    24.2820 
  106.1250  -999.2500   -18.1010  -999.2500    95.7130     5.9880     5.0780     6.0320    23.8680 
  106.2500  -999.2500   -18.4070  -999.2500    92.7670     6.6840     5.6580     6.7800    23.6030 
  106.3750  -999.2500   -18.7320  -999.2500    89.9210     7.4120     6.3070     7.5010    23.5150 
  106.5000  -999.2500   -18.9690  -999.2500    84.6970     7.9850     6.8780     7.9670    23.5080 
  106.6250  -999.2500   -19.0290  -999.2500    82.4030     8.1350     7.1500     8.2360    23.5090 
  106.7500  -999.2500   -18.8890  -999.2500    86.1700     7.8270     7.0540     8.2500    23.5100 
  106.8750  -999.2500   -18.5650  -999.2500    90.9950     7.1390     6.6060     7.8590    23.5290 
  107.0000  -999.2500   -18.0950  -999.2500    92.0990     6.2660     5.9230     7.1330    23.6520 
  107.1250  -999.2500   -17.5490  -999.2500    94.2400     5.4700     5.1920     6.1890    23.9760 
  107.2500  -999.2500   -17.0180  -999.2500   100.0370     4.9090     4.5840     5.2930    24.3380 
  107.3750  -999.2500   -16.5410  -999.2500   105.3730     4.6360     4.1820     4.7580    24.5380 
  107.5000  -999.2500   -16.1410  -999.2500   108.5170     4.6400     4.0070     4.6570    24.5730 
  107.6250  -999.2500   -15.8240  -999.2500   110.8840     4.8930     4.0660     4.6100    24.4800 
  107.7500  -999.2500   -15.6130  -999.2500   109.9210     5.2600     4.2630     4.8320    24.3650 
  107.8750  -999.2500   -15.5310  -999.2500   105.3330     5.6290     4.5220     5.1590    24.3930 
  108.0000  -999.2500   -15.5240  -999.2500   100.8240     5.8950     4.7620     5.3590    24.4750 
  108.1250  -999.2500   -15.4860  -999.2500   101.5630     5.9570     4.8980     5.4420    24.5040 
  108.2500  -999.2500   -15.4020  -999.2500   105.5400     5.8490     4.9170     5.5200    24.5000 
  108.3750  -999.2500   -15.3090  -999.2500   110.0300     5.6370     4.8430     5.5190    24.5170 
  108.5000  -999.2500   -15.1700  -999.2500   114.5820     5.4230     4.7300     5.3340    24.5480 
  108.6250  -999.2500   -15.0440  -999.2500   117.2650     5.3350     4.6570     4.9250    24.5450 
  108.7500  -999.2500   -15.0110  -999.2500   114.4910     5.4030     4.6700     4.7580    24.4570 
  108.8750  -999.2500   -15.0130  -999.2500   107.0810     5.6050     4.7740     4.9260    24.2330 
  109.0000  -999.2500   -14.9860  -999.2500   102.5070     5.8680     4.9350     5.3150    23.9280 
  109.1250  -999.2500   -14.9290  -999.2500   105.5110     6.0720     5.0790     5.6510    23.7580 
  109.2500  -999.2500   -14.8850  -999.2500   107.7990     6.1300     5.1360     5.8010    23.7780 
  109.3750  -999.2500   -14.8360  -999.2500   106.9080     6.0100     5.0710     5.6870    23.9350 
  109.5000  -999.2500   -14.7720  -999.2500   106.1800     5.7460     4.8930     5.3000    24.1010 
  109.6250  -999.2500   -14.7780  -999.2500   105.9090     5.4150     4.6460     5.0270    24.1690 
  109.7500  -999.2500   -14.8450  -999.2500   105.3420     5.1180     4.4150     5.0050    24.1850 
  109.8750  -999.2500   -14.9480  -999.2500   105.9780     4.9400     4.2680     5.1040    24.1910 
