~V
VERS. 2.00: Ver 2.00
~W
STRT.M 60.0000:
STOP.M 282.0000:
STEP.M 0.1250:
NULL. -999.2500:
UWI. DF3058:
~C
DEPT.M :
GR.API :
RML.OHMM :
RI. :
RXO.OHMM :
CALI.CM :
DEN.GM/CC :
SP.MV :
~A
# ...
  183.7500    69.7530   104.5360   100.3710    84.6930    24.1730     2.2690   -18.3140 
  183.8750    69.9630    97.3550    94.0240    65.7000    24.3600     2.2680   -18.2280 
  184.0000    69.0090    88.7260    85.9380    51.1540    24.4930     2.2660   -18.1460 
  184.1250    66.9870    80.7280    77.9810    49.8850    24.5950     2.2670   -18.0420 
  184.2500    66.4180    74.6590    71.5820    53.7170    24.6740     2.2720   -17.9230 
  184.3750    67.2980    71.0100    67.3370    53.9210    24.6460     2.2800   -17.8220 
  184.5000    68.1530    69.8750    65.4090    52.9940    24.6060     2.2860   -17.7250 
  184.6250    70.1660    71.6590    66.1840    54.3230    24.5950     2.2880   -17.6300 
  184.7500    72.2740    76.0210    69.3330    58.3800    24.5810     2.2860   -17.5600 
  184.8750    71.1160    83.0560    74.9490    64.0720    24.5760     2.2840   -17.5030 
  185.0000    67.2910    92.6770    82.9840    72.3790    24.5770     2.2820   -17.4620 
  185.1250    66.5910   104.6410    93.2740    82.1040    24.5850     2.2800   -17.4420 
  185.2500    67.6970   117.4860   104.5060    92.7290    24.5890     2.2750   -17.4320 
  185.3750    66.4480   129.8770   115.4720   102.9470    24.5790     2.2700   -17.4030 
  185.5000    63.6950   140.4320   124.9020   110.3000    24.5640     2.2630   -17.3400 
  185.6250    62.8550   147.4480   131.2280   115.4800    24.5570     2.2560   -17.2560 
  185.7500    62.5630   150.8540   134.3300   118.2770    24.5570     2.2510   -17.1750 
  185.8750    60.0770   150.5610   134.1280   118.5770    24.5590     2.2470   -17.0990 
  186.0000    57.9890   146.6270   130.7040   116.8570    24.6010     2.2460   -17.0290 
  186.1250    60.1950   138.8040   123.8500   114.1260    24.7070     2.2470   -16.9810 
  186.2500    62.8400   128.5220   114.7650   109.2820    24.7780     2.2510   -16.9740 
  186.3750    63.3370   117.1330   104.5470   101.4860    24.6520     2.2560   -16.9980 
  186.5000    62.4540   106.2250    94.5380    89.1740    24.5170     2.2640   -17.0590 
  186.6250    62.6040    97.7150    86.4160    77.3140    24.4680     2.2720   -17.1870 
  186.7500    63.3800    92.4060    80.9960    72.1990    24.4730     2.2780   -17.3640 
  186.8750    64.5530    91.1740    79.1430    73.1450    24.5130     2.2810   -17.5920 
  187.0000    65.1210    95.1930    81.9980    76.5860    24.5770     2.2790   -17.8650 
  187.1250    63.8230   107.5760    92.4390    82.5430    24.5810     2.2740   -18.1950 
  187.2500    62.1570   128.6250   110.8420    99.1810    24.4360     2.2660   -18.5120 
  187.3750    61.5810   157.4260   136.5760   129.3490    24.3400     2.2570   -18.7790 
  187.5000    60.8790   189.4570   165.8120   172.4040    24.3420     2.2480   -19.0250 
  187.6250    57.6750   213.9940   189.2890   215.9880    24.3540     2.2420   -19.1910 
  187.7500    55.2200   221.6510   198.5770   236.8770    24.2850     2.2360   -19.2570 
  187.8750    56.3640   208.6160   189.8900   226.0280    24.1990     2.2300   -19.2440 
  188.0000    60.6430   180.0670   166.7110   195.1850    24.1630     2.2220   -19.1530 
  188.1250    65.1180   148.5590   138.6200   152.3680    24.1360     2.2120   -18.9700 
  188.2500    66.8820   124.0060   115.3050   110.9560    24.0640     2.2060   -18.7620 
  188.3750    65.4990   109.2950   100.1230    82.4630    23.9360     2.2060   -18.5590 
  188.5000    62.3360   104.2960    93.6770    69.7740    23.7570     2.2140   -18.3290 
  188.6250    61.2680   110.0530    96.6530    70.8670    23.4070     2.2250   -18.0980 
  188.7500    61.4220   121.8600   105.8600    81.8550    23.2720     2.2300   -17.8680 
  188.8750    60.3240   134.2570   117.9200   101.5070    23.4390     2.2270   -17.6240 
  189.0000    57.8810   141.5270   127.7570   125.8140    23.8120     2.2190   -17.3580 
  189.1250    56.7580   136.8480   127.9750   140.4690    24.1420     2.2120   -17.0790 
  189.2500    57.9490   120.8700   117.4370   136.1670    24.2680     2.2140   -16.7750 
  189.3750    60.0490    98.9710    99.4950   114.8270    24.2510     2.2260   -16.4670 
  189.5000    62.1630    78.7720    80.6790    84.0320    24.1350     2.2430   -16.1620 
  189.6250    62.9070    65.8650    67.1140    54.6810    23.9910     2.2590   -15.8900 
  189.7500    62.4830    58.4370    58.6640    40.3220    23.9540     2.2660   -15.6620 
  189.8750    62.4380    53.7680    53.2400    39.8700    23.9440     2.2660   -15.4600 
  190.0000    63.9750    49.3600    48.4870    46.3430    23.9910     2.2630   -15.2890 
  190.1250    68.6000    43.6940    42.8280    49.9270    24.2190     2.2640   -15.1580 
  190.2500    74.4660    37.3650    36.6190    41.7700    24.4710     2.2720   -15.0630 
  190.3750    78.9790    31.6860    30.9700    27.6240    24.6010     2.2880   -15.0050 
  190.5000    79.4600    28.0770    27.0390    20.6540    24.6240     2.3050   -15.0150 
  190.6250    76.9940    28.6370    26.4830    23.1720    24.6260     2.3160   -15.0700 
  190.7500    76.2330    34.0680    30.3630    30.3040    24.6460     2.3170   -15.1460 
  190.8750    75.5200    45.9090    40.5430    42.6190    24.6080     2.3050   -15.2630 
  191.0000    72.1710    64.7870    58.6140    59.7200    24.4520     2.2840   -15.4360 
  191.1250    66.6810    91.5430    85.4070    79.2550    24.2030     2.2610   -15.6300 
  191.2500    62.9570   120.6520   115.6050    92.9260    23.9310     2.2410   -15.8420 
  191.3750    61.1890   146.7360   142.9440    95.6660    23.5790     2.2260   -16.0670 
  191.5000    59.2330   165.8970   161.3380    92.1150    23.2690     2.2180   -16.2840 
  191.6250    56.9500   172.6400   166.5340    88.2630    23.0460     2.2130   -16.4790 
  191.7500    55.1960   171.6250   163.7700    83.9720    22.9560     2.2100   -16.6500 
  191.8750    53.9880   168.1030   157.9790    77.6910    22.9010     2.2090   -16.7850 
  192.0000    53.0710   165.7250   152.7160    69.3060    22.8740     2.2080   -16.8820 
  192.1250    52.8010   166.3400   150.0290    60.7360    22.8620     2.2090   -16.9720 
  192.2500    54.0200   169.5570   149.9760    54.6870    22.8610     2.2100   -17.0530 
  192.3750    55.8000   174.8610   152.4070    53.3980    22.8610     2.2110   -17.1290 
  192.5000    57.0720   181.3170   156.7360    56.4660    22.8560     2.2110   -17.1810 
  192.6250    58.1250   187.2490   161.7990    62.7500    22.8540     2.2100   -17.2090 
  192.7500    58.6220   190.7960   165.7800    69.8110    22.8500     2.2080   -17.2450 
  192.8750    58.2660   190.3590   167.1220    74.9370    22.8340     2.2060   -17.2590 
  193.0000    57.7280   184.8440   164.5800    76.7580    22.7920     2.2050   -17.2550 
  193.1250    58.6850   173.2050   156.7780    78.5790    22.7510     2.2040   -17.2090 
  193.2500    60.4310   157.4690   144.9440    78.5140    22.7160     2.2050   -17.1200 
  193.3750    62.6950   139.7350   130.5520    75.3750    22.7030     2.2070   -17.0180 
  193.5000    64.2120   122.5100   115.6850    69.9320    22.7010     2.2110   -16.9250 
  193.6250    64.6050   108.6370   102.9630    62.1180    22.7010     2.2160   -16.8430 
  193.7500    65.7930    98.9500    93.6450    55.4240    22.6990     2.2180   -16.7820 
  193.8750    69.0270    93.7050    88.2700    51.6360    22.6890     2.2190   -16.7660 
  194.0000    71.7560    92.5660    86.7400    50.6740    22.6650     2.2160   -16.7720 
  194.1250    68.6030    95.1040    88.8440    51.2710    22.6420     2.2130   -16.8140 
  194.2500    62.9140    99.3840    92.8550    50.7530    22.6240     2.2110   -16.9040 
  194.3750    59.0740   103.9820    97.4650    49.3940    22.6090     2.2120   -16.9940 
  194.5000    59.3910   107.7130   101.4880    47.7410    22.5850     2.2170   -17.0650 
  194.6250    62.4190   110.0580   104.2120    46.9510    22.5990     2.2240   -17.1400 
  194.7500    64.8840   112.1940   106.4680    48.9000    22.7210     2.2280   -17.2300 
  194.8750    66.2680   115.5640   109.4770    56.5430    23.0180     2.2280   -17.3020 
