~V
VERS. 2.00: Ver 2.00
~W
STRT.M 110.0000:
STOP.M 242.0000:
STEP.M 0.1250:
NULL. -999.2500:
UWI. DF306:
~C
DEPT.M :
DEN.GM/CC :
AC.US/MT :
GR.API :
CALI.CM :
RXO.OHMM :
RI. :
RML.OHMM :
SP.MV :
~A
  110.0000     2.1530   406.0840    67.1880    25.3950    10.6700     6.8530     7.9150   -30.2240 
  110.1250     2.1440   375.5670    67.2720    25.5040     9.8220     6.6100     7.5800   -30.7400 
  110.2500     2.1490   341.7310    66.8130    25.6000     9.4370     6.6150     7.7330   -31.0400 
  110.3750     2.1640   313.1850    68.3880    25.6170     9.8250     6.8870     8.3450   -31.1730 
  110.5000     2.1970   296.4980    71.5230    25.5340    11.1250     7.3840     9.2940   -31.1940 
  110.6250     2.2500   295.0540    70.8860    25.3570    12.9070     7.9740    10.2840   -31.1580 
  110.7500     2.2920   302.6740    66.5970    25.1630    13.6740     8.4040    10.8720   -31.1170 
  110.8750     2.2970   314.9060    63.0360    25.0650    12.8050     8.4810    10.7770   -31.0490 
  111.0000     2.2560   328.7500    62.6530    25.0880    11.2630     8.1720    10.0510   -30.9640 
  111.1250     2.1980   342.2620    63.6230    25.1410    10.3470     7.6160     9.0580   -30.8420 
  111.2500     2.1640   353.7820    63.6430    25.1540     9.7090     7.0660     8.2260   -30.6490 
  111.3750     2.1640   361.7000    62.8270    25.1370     8.9650     6.6490     7.7130   -30.3900 
  111.5000     2.1850   364.8090    62.5620    25.1220     8.4360     6.4110     7.5240   -30.0820 
  111.6250     2.2050   362.4460    64.8670    25.1170     8.5970     6.3500     7.5880   -29.7360 
  111.7500     2.2100   357.6800    67.9720    25.0990     9.0810     6.3800     7.7370   -29.3930 
  111.8750     2.2040   353.7400    68.9430    25.0600     9.4630     6.4450     7.8870   -29.1010 
  112.0000     2.1920   353.3040    67.0960    25.0130     9.5240     6.5060     7.9900   -28.8660 
  112.1250     2.1770   357.8100    63.7530    24.9840     9.3960     6.5350     8.0140   -28.7110 
  112.2500     2.1640   364.8700    62.3320    24.9740     9.3620     6.5340     7.9870   -28.6030 
  112.3750     2.1560   371.7960    63.9470    24.9840     9.4120     6.5150     7.9350   -28.5090 
  112.5000     2.1580   376.0240    67.4100    25.0140     9.3990     6.4900     7.8870   -28.3980 
  112.6250     2.1690   375.7200    69.0630    25.0420     9.2920     6.4760     7.8690   -28.2580 
  112.7500     2.1830   372.6050    70.1510    24.9830     9.2010     6.4810     7.8870   -28.0760 
  112.8750     2.1950   368.7580    73.6640    24.7880     9.1980     6.5090     7.9440   -27.8550 
  113.0000     2.2030   366.0860    76.4060    24.5410     9.3910     6.5590     8.0380   -27.5960 
  113.1250     2.2010   365.7920    74.5890    24.4360     9.8750     6.6330     8.1790   -27.3260 
  113.2500     2.1890   366.6510    72.4010    24.4720    10.3290     6.7300     8.3650   -27.0910 
  113.3750     2.1790   367.0360    72.6350    24.5320    10.4140     6.8460     8.5850   -26.9370 
  113.5000     2.1870   366.2690    73.2720    24.5870    10.1830     6.9650     8.8050   -26.8720 
  113.6250     2.2120   366.7000    72.6090    24.6820    10.1560     7.0490     8.9440   -26.8850 
  113.7500     2.2300   372.1950    71.4890    24.5770    10.3570     7.0680     8.9370   -26.9250 
  113.8750     2.2290   384.5090    69.5120    24.0560    10.2370     7.0080     8.7620   -26.9380 
  114.0000     2.2150   401.1010    67.4350    23.3660     9.4810     6.8970     8.4880   -26.8970 
  114.1250     2.1960   414.6080    68.0630    23.1940     8.6260     6.8200     8.3170   -26.7590 
  114.2500     2.1810   420.4150    68.9920    23.6220     8.3650     6.8710     8.4390   -26.5240 
  114.3750     2.1800   420.1180    67.0310    24.2500     8.6970     7.1160     8.9600   -26.1820 
  114.5000     2.2020   419.8630    64.3710    24.7030     9.2820     7.5610     9.8520   -25.7700 
  114.6250     2.2470   426.9410    61.9330    24.8670     9.9930     8.1060    10.8680   -25.3440 
  114.7500     2.2960   440.3470    60.3630    24.8490    10.6940     8.5060    11.5140   -24.9630 
  114.8750     2.3280   454.7150    63.5250    24.7180    10.8170     8.5540    11.4240   -24.6890 
  115.0000     2.3320   463.5030    70.9650    24.5440     9.8450     8.1930    10.5700   -24.5480 
  115.1250     2.3040   460.9610    75.1150    24.4720     8.2230     7.5470     9.3130   -24.5710 
  115.2500     2.2680   449.5260    72.5980    24.5140     7.1650     6.9140     8.2100   -24.7310 
  115.3750     2.2380   432.7080    67.8760    24.5560     7.0850     6.4680     7.5410   -24.9830 
  115.5000     2.2230   414.1290    64.9240    24.5360     7.7110     6.3280     7.4570   -25.2580 
  115.6250     2.2280   396.4470    63.4220    24.4710     8.5390     6.6550     8.1750   -25.4700 
  115.7500     2.2470   380.6690    62.1790    24.3800     9.4660     7.4370     9.6260   -25.5940 
  115.8750     2.2780   367.6060    60.7270    24.2860    11.5180     8.6410    11.7080   -25.5980 
  116.0000     2.3100   358.6410    61.5450    24.2770    16.5210    10.0550    14.0010   -25.4810 
  116.1250     2.3330   356.9110    65.2170    24.3980    22.9530    11.0820    15.3600   -25.2380 
  116.2500     2.3450   362.7710    69.1390    24.5170    23.9140    11.2100    15.0070   -24.8990 
  116.3750     2.3440   375.7620    71.7780    24.5500    18.2150    10.4080    13.1590   -24.4700 
  116.5000     2.3270   393.9210    72.6210    24.5360    11.2440     9.1120    10.8020   -23.9990 
  116.6250     2.2940   414.3080    74.4750    24.5180     8.0700     7.8750     8.9280   -23.5310 
  116.7500     2.2640   432.8980    78.1500    24.4840     7.4030     6.9550     7.7630   -23.0870 
  116.8750     2.2500   446.3260    80.9170    24.4370     7.5220     6.3750     7.2030   -22.6790 
  117.0000     2.2520   451.9340    82.8910    24.4060     7.3770     6.0680     7.0300   -22.3440 
  117.1250     2.2600   447.8980    85.7180    24.4320     7.1440     5.9500     7.0130   -22.1270 
  117.2500     2.2590   438.6500    88.0310    24.4990     7.3640     5.8970     6.9680   -22.0220 
  117.3750     2.2490   429.0810    85.7610    24.5630     7.6690     5.8700     6.8860   -22.0690 
  117.5000     2.2400   423.9980    80.6800    24.5840     7.5090     5.8850     6.8610   -22.2530 
  117.6250     2.2420   427.1800    77.0140    24.5860     7.0960     6.0120     7.0600   -22.5490 
  117.7500     2.2460   435.8400    73.3120    24.6330     7.0120     6.2690     7.4970   -22.8480 
  117.8750     2.2380   445.8700    69.6300    24.7600     7.2960     6.6220     8.0890   -23.0630 
  118.0000     2.2160   453.1230    69.9360    24.9770     7.8230     6.9670     8.6330   -23.0980 
  118.1250     2.2000   454.8400    76.9110    25.2410     8.2300     7.0940     8.7560   -22.8700 
  118.2500     2.2110   453.1790    84.5810    25.3860     7.9660     6.9040     8.3180   -22.4580 
  118.3750     2.2480   450.7370    88.9570    25.3500     6.9740     6.4220     7.4190   -21.9120 
  118.5000     2.2960   449.6550    90.4570    25.2600     5.8050     5.7890     6.3510   -21.2980 
  118.6250     2.3290   451.1650    92.1410    25.2210     5.0820     5.1880     5.4550   -20.6820 
  118.7500     2.3410   454.4150    93.6360    25.1820     4.7200     4.7280     4.8620   -20.1570 
  118.8750     2.3370   458.5110    93.0720    25.1850     4.4750     4.4520     4.5950   -19.8120 
  119.0000     2.3260   462.5590    91.3010    25.3330     4.2900     4.3680     4.6380   -19.7050 
  119.1250     2.3040   465.5120    89.6020    25.5190     4.4740     4.5070     5.0200   -19.8760 
  119.2500     2.2710   467.0910    88.2180    25.4950     5.1460     4.8260     5.6660   -20.1870 
  119.3750     2.2330   467.8430    86.1530    25.2710     6.0870     5.2840     6.4920   -20.5250 
  119.5000     2.2030   469.2810    83.0600    25.0230     6.9980     5.7880     7.3050   -20.7780 
  119.6250     2.1970   473.6770    80.7890    24.8430     7.8560     6.1530     7.7580   -20.8550 
  119.7500     2.2130   480.7060    81.6640    24.7150     8.5580     6.2620     7.7110   -20.7600 
  119.8750     2.2440   487.7370    85.8600    24.6840     8.5000     6.0990     7.2270   -20.5080 
