~V
VERS. 2.00: Ver 2.00
~W
STRT.M 64.0000:
STOP.M 262.0000:
STEP.M 0.1250:
NULL. -999.2500:
UWI. DF3019:
~C
DEPT.M :
GR.API :
RML.OHMM :
RI. :
RXO.OHMM :
CALI.CM :
DEN.GM/CC :
SP.MV :
~A
   64.0000    50.5310     0.4990     0.3720     1.3270    25.4370  -999.2500    40.4380 
   64.1250    51.3320     0.2570     0.2160     1.4040    25.3840  -999.2500    37.7020 
   64.2500    52.0040     0.1840     0.1600     2.1070    25.1820  -999.2500    33.4220 
   64.3750    55.5070     0.2580     0.2080     2.7270    24.7180  -999.2500    27.9200 
   64.5000    62.3790     0.4990     0.3960     3.7420    24.0860  -999.2500    21.6700 
   64.6250    70.3540     0.9680     0.8200     5.2510    23.6330  -999.2500    15.0670 
   64.7500    75.4180     1.6190     1.4840     7.2740    23.3350  -999.2500     8.5230 
   64.8750    76.8980     2.3810     2.3580     8.5450    23.1870  -999.2500     2.2570 
   65.0000    76.8710     3.1450     3.3460     8.8030    23.1470  -999.2500    -3.4710 
   65.1250    77.5660     3.7920     4.2860     8.7490    23.1790  -999.2500    -8.2650 
   65.2500    79.4030     4.3080     5.0750     8.7820    23.2370  -999.2500   -12.0060 
   65.3750    81.4750     4.7150     5.6820     8.9230    23.2810  -999.2500   -14.6900 
   65.5000    84.2420     5.0350     6.1090     8.9730    23.3010  -999.2500   -16.5440 
   65.6250    86.8440     5.2500     6.3330     8.7340    23.3210  -999.2500   -17.7970 
   65.7500    89.5870     5.3740     6.4130     8.2460    23.3590  -999.2500   -18.8210 
   65.8750    92.8510     5.4290     6.4020     7.7470    23.3970  -999.2500   -19.7260 
   66.0000    94.8430     5.4550     6.3630     7.2560    23.4180  -999.2500   -20.5670 
   66.1250    94.9440     5.5000     6.3560     7.2270    23.4350  -999.2500   -21.3510 
   66.2500    94.7440     5.5880     6.4050     7.3670    23.4790  -999.2500   -22.1660 
   66.3750    94.3810     5.7230     6.5120     7.5310    23.5950  -999.2500   -23.0080 
   66.5000    91.3180     5.8950     6.6700     7.6610    23.8020  -999.2500   -23.9170 
   66.6250    86.8290     6.0930     6.8700     7.8460    24.0430  -999.2500   -24.7540 
   66.7500    83.6110     6.2890     7.0820     8.0070    24.1850  -999.2500   -25.5070 
   66.8750    81.3640     6.4500     7.2700     8.1710    24.2200  -999.2500   -26.1330 
   67.0000    79.7130     6.5300     7.3850     8.2900    24.1000  -999.2500   -26.5240 
   67.1250    77.3240     6.4620     7.3510     8.3150    23.9450  -999.2500   -26.8030 
   67.2500    74.4030     6.2520     7.1630     8.2560    23.8840  -999.2500   -26.8500 
   67.3750    74.6890     5.9330     6.8450     8.0930    23.8770  -999.2500   -26.6590 
   67.5000    81.1820     5.5760     6.4630     7.6590    23.8620  -999.2500   -26.3530 
   67.6250    91.8630     5.2940     6.1280     7.2050    23.8010  -999.2500   -26.0980 
   67.7500    97.7280     5.1550     5.9240     6.9560    23.7070  -999.2500   -25.7610 
   67.8750    97.0210     5.1900     5.8940     7.0330    23.6400  -999.2500   -25.4550 
   68.0000    92.1540     5.3780     6.0270     7.0870    23.6450  -999.2500   -25.3150 
   68.1250    88.1100     5.6560     6.2670     7.3720    23.6940  -999.2500   -25.0770 
   68.2500    87.4640     5.9090     6.4880     7.3520    23.6870  -999.2500   -24.9280 
   68.3750    88.6540     6.0650     6.6030     7.2380    23.6390  -999.2500   -24.9700 
   68.5000    91.5900     6.0900     6.5710     6.9870    23.6190  -999.2500   -24.9550 
   68.6250    94.2360     5.9920     6.4020     6.6440    23.6970  -999.2500   -24.9930 
   68.7500    94.1450     5.8550     6.1980     6.4890    23.7910  -999.2500   -25.1660 
   68.8750    93.4620     5.7440     6.0410     6.4820    23.8700  -999.2500   -25.3840 
   69.0000    94.4070     5.7220     6.0020     6.6630    23.8930  -999.2500   -25.7180 
   69.1250    95.4870     5.8760     6.1710     7.0210    23.9050  -999.2500   -26.1740 
   69.2500    94.7190     6.2000     6.5280     7.4540    23.9650  -999.2500   -26.7160 
   69.3750    93.4490     6.6420     7.0160     7.9690    24.0610  -999.2500   -27.3770 
   69.5000    91.2130     7.0890     7.5200     8.7790    24.1250  -999.2500   -28.1470 
   69.6250    87.1430     7.3660     7.8560    10.3520    24.0820  -999.2500   -28.9540 
   69.7500    85.3390     7.3970     7.9330    12.8830    23.9720  -999.2500   -29.8070 
   69.8750    86.0120     7.1980     7.7500    14.3040    23.8380  -999.2500   -30.5600 
   70.0000    84.8860     6.8830     7.4080    11.1350    23.7580  -999.2500   -31.1810 
   70.1250    81.6920     6.6130     7.0700     9.1480    23.7350  -999.2500   -31.6760 
   70.2500    80.9860     6.4640     6.8430     8.4650    23.7160  -999.2500   -32.0260 
   70.3750    80.8870     6.4220     6.7340     8.3830    23.6670  -999.2500   -32.1650 
   70.5000    78.2190     6.4170     6.6930     8.3090    23.6100  -999.2500   -32.0530 
   70.6250    75.5970     6.3590     6.6310     8.1050    23.5780  -999.2500   -31.6950 
   70.7500    78.5200     6.2290     6.5010     7.7360    23.5420  -999.2500   -31.1320 
   70.8750    83.7930     6.0620     6.3180     7.2000    23.4850  -999.2500   -30.4360 
   71.0000    86.8300     5.9240     6.1330     6.5750    23.4350  -999.2500   -29.6730 
   71.1250    90.2000     5.8890     6.0110     6.1210    23.4160  -999.2500   -29.0660 
   71.2500    95.7910     5.9680     5.9630     5.9910    23.3990  -999.2500   -28.5100 
   71.3750    99.2910     6.1490     5.9800     6.2650    23.3680  -999.2500   -28.0190 
   71.5000    97.3350     6.3910     6.0340     6.7720    23.3700  -999.2500   -27.8540 
   71.6250    92.5790     6.6290     6.0970     7.2100    23.4780  -999.2500   -27.8450 
   71.7500    87.7730     6.8090     6.1550     7.3840    23.7300  -999.2500   -27.8690 
   71.8750    83.4810     6.9180     6.2190     7.4030    24.0680  -999.2500   -28.0910 
   72.0000    81.3070     7.0030     6.3250     7.4750    24.4430  -999.2500   -28.2510 
   72.1250    82.1570     7.1850     6.5480     7.7890    24.7360  -999.2500   -28.2340 
   72.2500    82.1280     7.5470     6.9120     8.0060    24.8330  -999.2500   -28.1780 
   72.3750    78.9820     8.0810     7.3950     8.1880    24.6410  -999.2500   -27.9380 
   72.5000    74.9830     8.6630     7.9020     8.5150    24.5150  -999.2500   -27.4390 
   72.6250    72.9930     9.0300     8.2310     8.8660    24.5250  -999.2500   -26.6950 
   72.7500    76.1870     9.0080     8.2490     9.3300    24.5270  -999.2500   -25.8160 
   72.8750    87.3070     8.5610     7.9140     9.4270    24.4620  -999.2500   -24.8630 
   73.0000   104.3810     7.8200     7.3140     8.4430    24.6140  -999.2500   -23.9050 
   73.1250   117.6010     7.0520     6.6370     6.3730    24.8400  -999.2500   -23.0870 
   73.2500   121.2590     6.4810     6.0770     5.4610    24.9520  -999.2500   -22.3520 
   73.3750   119.8160     6.1600     5.7020     5.2510    24.9930  -999.2500   -21.7310 
   73.5000   118.2670     6.0320     5.4960     5.3340    24.9990  -999.2500   -21.3050 
   73.6250   115.6310     5.9700     5.3880     5.3220    24.9450  -999.2500   -21.1570 
   73.7500   112.4290     5.8410     5.2670     5.2780    24.7960  -999.2500   -21.1340 
   73.8750   111.2440     5.6090     5.0930     5.2920    24.7000  -999.2500   -21.2170 
   74.0000   113.1100     5.3470     4.8980     5.3620    24.6810  -999.2500   -21.4700 
   74.1250   115.5380     5.2920     4.8480     5.4720    24.7110  -999.2500   -21.6900 
   74.2500   116.2090     5.6830     5.1340     5.7420    24.8050  -999.2500   -22.0190 
   74.3750   115.0820     6.6950     5.9190     6.5000    24.7910  -999.2500   -22.5180 
   74.5000   110.6680     8.3360     7.2590     8.1780    24.6270  -999.2500   -22.9530 
   74.6250    99.4240    10.3480     9.0220    11.4330    24.4900  -999.2500   -23.4580 
   74.7500    86.3160    12.0850    10.6790    15.3290    24.4460  -999.2500   -24.1650 
   74.8750    75.6830    12.9890    11.7130    16.9210    24.4830  -999.2500   -24.8210 
   75.0000    69.5400    12.7750    11.7730    15.8370    24.5340  -999.2500   -25.4800 
   75.1250    69.7200    11.5770    10.8560    12.1090    24.4900  -999.2500   -26.1820 
