~V
VERS. 2.00: Ver 2.00
~W
STRT.M 125.0000:
STOP.M 273.0000:
STEP.M 0.1250:
NULL. -999.2500:
UWI. DF3072:
~C
DEPT.M :
DEN.GM/CC :
GR.API :
CALI.CM :
RXO.OHMM :
RI. :
RML.OHMM :
SP.MV :
~A
# ...
  170.0000     2.2580    70.7680    26.0670   178.4990   162.0870   181.3470   -29.7480 
  170.1250     2.2430    72.3770    26.0660   182.0980   151.8420   167.9570   -29.7560 
  170.2500     2.2390    70.9130    26.0690   180.5810   140.0560   153.7660   -29.7480 
  170.3750     2.2460    69.4760    26.0870   159.9280   129.3850   142.0530   -29.7310 
  170.5000     2.2570    71.5840    26.1070   123.6570   122.6520   135.5490   -29.6970 
  170.6250     2.2620    73.7780    26.1030    99.0590   123.4710   137.4240   -29.6490 
  170.7500     2.2580    71.5340    26.0820   105.5900   132.1880   147.4940   -29.5690 
  170.8750     2.2480    67.9450    26.0660   147.8700   148.6660   165.6480   -29.4730 
  171.0000     2.2380    66.8060    26.0640   206.4130   170.9150   189.9530   -29.3680 
  171.1250     2.2350    65.9910    26.0790   237.0500   192.9070   213.0800   -29.2510 
  171.2500     2.2380    63.2260    26.1040   237.0170   205.4260   223.3020   -29.1310 
  171.3750     2.2470    62.2410    26.1220   227.2840   202.5270   214.2650   -29.0080 
  171.5000     2.2590    66.1020    26.1140   216.4000   185.3710   190.4150   -28.8940 
  171.6250     2.2680    70.5170    26.0440   206.0820   160.8400   162.3720   -28.7980 
  171.7500     2.2700    71.7260    25.9190   194.5090   137.3920   138.0310   -28.7250 
  171.8750     2.2700    71.6740    25.7660   173.8000   118.2740   119.3410   -28.6400 
  172.0000     2.2770    72.4900    25.6070   143.4660   104.2840   106.1160   -28.5350 
  172.1250     2.2880    73.0930    25.4490   116.3090    95.3200    97.7890   -28.4150 
  172.2500     2.2910    72.1820    25.2840    99.7220    89.5080    92.4140   -28.2540 
  172.3750     2.2870    72.0580    25.1060    90.2940    86.1230    89.2460   -28.0960 
  172.5000     2.2850    74.8120    24.9390    83.3790    84.6700    87.8600   -27.9380 
  172.6250     2.2910    75.6970    24.9450    79.4980    85.1970    88.4310   -27.7440 
  172.7500     2.2950    71.4330    25.1530    81.2490    87.3690    90.6880   -27.5530 
  172.8750     2.2960    66.2240    25.3980    89.2050    90.8780    94.2620   -27.3690 
  173.0000     2.2990    65.5050    25.5130   100.6380    94.8730    98.1870   -27.1860 
  173.1250     2.3030    69.4560    25.4930   109.7890    97.7720   100.8000   -27.0260 
  173.2500     2.2990    72.9940    25.4580   112.3980    98.7200   101.4640   -26.8910 
  173.3750     2.2870    75.7100    25.4130   108.4400    98.0300   100.7660   -26.7670 
  173.5000     2.2750    79.0370    25.3560   101.8120    97.0750   100.2840   -26.6570 
  173.6250     2.2750    79.3820    25.3390    98.0300    97.9900   102.2140   -26.5430 
  173.7500     2.2790    74.7400    25.4010   101.3560   101.4810   106.9570   -26.3960 
  173.8750     2.2750    68.6370    25.5210   117.2600   106.7500   113.3620   -26.2330 
  174.0000     2.2550    67.2510    25.6110   146.7630   111.1640   118.2660   -26.0370 
  174.1250     2.2230    70.4690    25.5260   170.0380   110.1570   116.3680   -25.8090 
  174.2500     2.2040    73.0760    25.2930   165.6670   103.1750   107.6770   -25.5850 
  174.3750     2.2130    74.8080    25.0280   136.8000    92.5760    95.6190   -25.3540 
  174.5000     2.2500    76.5710    24.8220   103.3680    82.1470    84.7020   -25.1370 
  174.6250     2.2870    76.8630    24.6930    83.6590    75.7090    78.7930   -24.9730 
  174.7500     2.2950    74.7030    24.5950    79.6280    73.8850    77.9440   -24.8550 
  174.8750     2.2750    71.4150    24.5100    87.9890    76.3120    81.5560   -24.7940 
  175.0000     2.2530    68.9800    24.4180   101.6830    81.9280    88.4350   -24.8030 
  175.1250     2.2560    68.4860    24.3100   112.3730    89.1680    96.8110   -24.8600 
  175.2500     2.2720    69.6860    24.2320   117.1530    95.6840   104.1230   -24.9360 
  175.3750     2.2850    71.1930    24.2050   117.4930   100.0480   108.8360   -25.0240 
  175.5000     2.2880    71.8180    24.2090   116.4240   101.8380   110.6080   -25.1020 
  175.6250     2.2840    71.6050    24.2410   115.8420   101.3320   109.9160   -25.1660 
  175.7500     2.2770    70.7240    24.3550   114.4270    99.7970   108.2110   -25.2240 
  175.8750     2.2710    69.3430    24.6210   111.3830    97.9470   106.2760   -25.2620 
  176.0000     2.2720    68.6480    25.0690   107.9620    96.3430   104.7200   -25.2940 
  176.1250     2.2830    70.6820    25.6050   106.2710    95.5480   104.1380   -25.3290 
  176.2500     2.2980    74.7730    26.0160   107.0060    95.5570   104.3880   -25.3780 
  176.3750     2.3100    76.8840    26.2020   110.0530    95.9540   104.8430   -25.4430 
  176.5000     2.3140    74.9740    26.2130   113.6640    95.8550   104.3880   -25.5290 
  176.6250     2.3080    72.7290    26.1500   114.0690    93.9070   101.4960   -25.6370 
  176.7500     2.3010    72.7120    26.0820   109.3100    89.9390    96.3070   -25.7470 
  176.8750     2.2980    72.6930    26.0270    99.0530    84.4700    89.7170   -25.8410 
  177.0000     2.2980    73.0520    25.9860    85.8210    78.6110    83.1470   -25.9140 
  177.1250     2.2940    76.6330    25.9350    76.1880    73.8680    78.3020   -25.9500 
  177.2500     2.2860    80.4710    25.8760    73.4300    70.9630    75.7450   -25.9240 
  177.3750     2.2820    81.2020    25.8340    75.6010    70.1420    75.6110   -25.8670 
  177.5000     2.2880    79.6280    25.8290    79.1130    71.2950    77.6740   -25.7640 
  177.6250     2.3040    77.6790    25.8650    83.2940    74.2330    81.6440   -25.6230 
  177.7500     2.3120    74.8570    25.9170    89.5240    78.0860    86.5490   -25.5060 
  177.8750     2.3040    71.6610    25.9590    97.1630    82.3970    91.9350   -25.4140 
  178.0000     2.2870    69.5730    25.9670   103.8560    87.0080    97.7270   -25.3630 
  178.1250     2.2790    70.1900    25.9600   107.4510    92.2830   104.4720   -25.4020 
  178.2500     2.2810    71.3590    25.9660   109.0680    98.7270   112.7840   -25.5120 
  178.3750     2.2910    71.3000    25.9750   112.2950   106.9730   123.4080   -25.6860 
  178.5000     2.3000    70.7580    25.9640   123.4210   117.4570   136.8420   -25.9310 
  178.6250     2.3020    72.3460    25.9450   148.4750   130.1760   153.1040   -26.2070 
  178.7500     2.2920    74.9970    25.9370   176.8450   143.1640   169.7860   -26.4770 
  178.8750     2.2760    73.9050    25.9310   195.3040   153.8900   183.6210   -26.7310 
  179.0000     2.2550    69.1570    25.9230   200.2730   159.7320   191.1050   -26.9430 
  179.1250     2.2400    66.7570    25.9260   197.4670   158.5130   189.4720   -27.0890 
  179.2500     2.2390    67.1490    25.9250   189.4280   152.8130   182.3480   -27.1820 
  179.3750     2.2520    67.4960    25.8980   173.4770   145.3270   173.3020   -27.2110 
  179.5000     2.2690    66.7710    25.8590   153.3690   138.4750   165.2410   -27.1780 
  179.6250     2.2740    68.1410    25.8620   141.6080   134.1680   160.2260   -27.0930 
  179.7500     2.2680    70.7770    25.9070   142.7260   132.2100   157.7490   -26.9620 
  179.8750     2.2580    73.3650    25.9390   150.4070   131.6190   156.4450   -26.8310 
  180.0000     2.2530    74.0390    25.9250   155.0900   130.6880   154.1440   -26.6950 
  180.1250     2.2590    71.3840    25.9100   153.4140   126.7690   147.5910   -26.5390 
  180.2500     2.2730    68.0970    25.9260   149.0380   118.7750   135.9490   -26.4050 
  180.3750     2.2940    67.5340    25.9120   138.7290   106.8360   120.0070   -26.2670 
  180.5000     2.3160    69.7260    25.8190   119.9320    92.3880   101.9980   -26.1230 
  180.6250     2.3270    72.1220    25.7060    84.8140    77.7540    84.9200   -25.9840 
  180.7500     2.3280    72.5740    25.6640    68.7380    65.0480    70.7690   -25.8300 
  180.8750     2.3300    73.3260    25.6540    56.4830    55.4000    60.5120   -25.6250 
  181.0000     2.3390    76.6790    25.5880    49.5130    49.2380    54.4170   -25.3800 
  181.1250     2.3490    78.5750    25.5130    49.4100    47.0170    52.9450   -25.0900 
