~V
VERS. 2.00: Ver 2.00
~W
STRT.M 66.0000:
STOP.M 262.0000:
STEP.M 0.1250:
NULL. -999.2500:
UWI. DF3009:
~C
DEPT.M :
GR.API :
RML.OHMM :
RI. :
RXO.OHMM :
CALI.CM :
DEN.GM/CC :
SP.MV :
~A
# ...
  212.2500    66.8740   109.6980    95.9180    97.4430    24.3850     2.2260   -28.4210 
  212.3750    67.4090   112.5340    98.2160   101.5550    24.4110     2.2160   -28.4070 
  212.5000    68.7130   115.1540   100.4690   105.0860    24.4680     2.2040   -28.4120 
  212.6250    69.9180   116.5680   101.8850   112.5510    24.5920     2.1950   -28.5520 
  212.7500    68.8520   116.4750   102.1430   121.3720    24.5910     2.1890   -28.6740 
  212.8750    66.6870   114.9510   101.2320   119.4510    24.5580     2.1860   -28.7460 
  213.0000    65.7100   112.4670    99.4600   108.5200    24.4050     2.1850   -28.9730 
  213.1250    65.8860   109.6860    97.3050   101.1570    24.3330     2.1830   -29.0500 
  213.2500    65.3540   107.1780    95.2650   100.2320    24.2320     2.1840   -29.1630 
  213.3750    63.1730   105.0760    93.4970    96.2070    24.0620     2.1900   -29.3210 
  213.5000    61.8370   103.2120    91.9140    88.5850    24.0600     2.2030   -29.4490 
  213.6250    64.3210   101.2140    90.2460    86.9220    24.1680     2.2230   -29.5960 
  213.7500    67.7590    98.8790    88.3130    88.0080    24.4710     2.2420   -29.6230 
  213.8750    70.6370    96.2270    86.1090    87.3750    24.6360     2.2530   -29.7420 
  214.0000    71.4720    93.4570    83.7740    84.0340    24.6590     2.2530   -29.7550 
  214.1250    68.6690    91.0750    81.6780    79.2120    24.6430     2.2470   -29.8840 
  214.2500    63.8010    89.7490    80.3400    78.4260    24.5610     2.2430   -30.0630 
  214.3750    62.4770    90.3920    80.4520    81.1750    24.5920     2.2470   -30.1590 
  214.5000    66.9350    94.0570    82.8150    84.8370    24.5550     2.2560   -30.3590 
  214.6250    69.4030   102.3340    88.6240    85.1030    24.4730     2.2670   -30.4500 
  214.7500    66.1690   114.5280    97.3830    88.0640    24.4970     2.2730   -30.6490 
  214.8750    60.3030   129.2350   108.0950    98.0190    24.5460     2.2720   -30.8700 
  215.0000    57.0200   143.7940   118.8600   120.2300    24.6650     2.2650   -31.0300 
  215.1250    57.9500   153.8190   126.5730   150.2040    24.6100     2.2540   -31.1370 
  215.2500    60.1460   157.2760   129.7050   162.4340    24.5790     2.2450   -31.2500 
  215.3750    60.8530   154.2300   128.1440   151.3090    24.6140     2.2430   -31.3170 
  215.5000    58.1290   147.0470   123.3530   124.0210    24.5390     2.2460   -31.3480 
  215.6250    55.7090   139.2810   117.7230   108.5030    24.4310     2.2510   -31.3930 
  215.7500    56.8800   133.2970   113.2160    96.4040    24.2540     2.2520   -31.3900 
  215.8750    60.4480   129.2790   110.2290    94.0300    24.3570     2.2460   -31.3280 
  216.0000    63.2860   126.3630   108.2900   100.7040    24.4120     2.2380   -31.3480 
  216.1250    65.2700   123.2660   106.4730   114.4210    24.5010     2.2320   -31.4030 
  216.2500    68.6960   119.2570   104.0530   121.4900    24.5590     2.2300   -31.3510 
  216.3750    71.2950   114.3500   100.8960   118.1410    24.5310     2.2290   -31.3950 
  216.5000    70.3120   109.0150    97.2520   112.3190    24.5580     2.2280   -31.3480 
  216.6250    67.7160   104.0200    93.6390   104.3720    24.5130     2.2260   -31.4070 
  216.7500    66.5230    99.8690    90.5130    96.4990    24.4810     2.2240   -31.4090 
  216.8750    66.0230    96.7070    88.0460    90.3210    24.4890     2.2240   -31.4240 
  217.0000    64.4360    94.3780    86.1540    87.9140    24.4780     2.2260   -31.4760 
  217.1250    64.4590    92.5780    84.6180    86.0100    24.5720     2.2340   -31.4310 
  217.2500    67.3110    91.1720    83.1750    83.8620    24.6160     2.2470   -31.4970 
  217.3750    68.8060    90.3130    81.8380    82.6510    24.7880     2.2590   -31.4760 
  217.5000    67.4680    90.0950    80.8450    82.2650    25.0190     2.2660   -31.5310 
  217.6250    67.0530    91.1590    80.8230    81.8680    24.9760     2.2620   -31.5280 
  217.7500    68.3820    92.9050    82.1180    83.0020    24.8010     2.2600   -31.5460 
  217.8750    67.5290    95.3480    84.9130    84.9510    24.5510     2.2770   -31.6420 
  218.0000    63.0490    98.5070    89.0500    95.0530    24.4310     2.3250   -31.6410 
  218.1250    60.1440   102.3550    94.0990   121.5680    24.4670     2.3970   -31.6620 
  218.2500    61.2470   109.7620    99.2590   149.7890    24.3610     2.4580   -31.7050 
  218.3750    63.9500   116.8330   104.1550   151.6830    24.2490     2.4780   -31.7660 
  218.5000    65.3350   123.6120   108.7580   139.1050    24.0220     2.4500   -31.8240 
  218.6250    65.5300   130.5430   113.3270   137.6730    23.9720     2.3920   -31.7920 
  218.7500    64.9660   137.7870   118.0040   135.8340    24.1110     2.3350   -31.7440 
  218.8750    63.1650   144.7500   122.4360   135.0200    24.2330     2.2920   -31.6050 
  219.0000    60.8420   149.9940   125.7290   135.0690    24.3600     2.2630   -31.3960 
  219.1250    60.6290   150.5940   125.9930   136.1160    24.3200     2.2440   -31.2730 
  219.2500    62.5060   145.4230   122.4170   138.8540    24.3040     2.2340   -31.0880 
  219.3750    62.1900   134.5610   114.8710   129.2230    24.2060     2.2310   -30.9310 
  219.5000    59.1700   120.0910   104.4770   120.2010    24.0470     2.2320   -30.7800 
  219.6250    58.3700   105.7750    93.5210   117.8140    24.1070     2.2520   -30.7110 
  219.7500    60.6930    94.6000    84.3610   104.3210    24.0770     2.2750   -30.7490 
  219.8750    64.3810    87.6450    78.1480    85.1280    24.1510     2.3000   -30.7600 
  220.0000    66.1710    84.8860    75.1830    75.8870    24.1210     2.3190   -30.9810 
  220.1250    64.7610    86.1850    75.5510    77.5790    24.0150     2.3230   -31.0910 
  220.2500    64.1590    89.9840    78.0070    79.9620    23.9980     2.3060   -31.1770 
  220.3750    65.6900    95.2970    81.7230    79.5850    23.8830     2.2790   -31.2710 
  220.5000    66.9710   101.0660    85.8170    81.5120    23.7830     2.2570   -31.3050 
  220.6250    64.5930   106.0610    89.3030    88.5690    23.8770     2.2520   -31.3510 
  220.7500    62.9170   109.6510    91.6930    98.2810    24.0170     2.2660   -31.2770 
  220.8750    65.7430   111.7000    92.8760   104.7860    24.1090     2.2820   -31.3050 
  221.0000    68.9980   112.5600    93.0980   103.0350    24.1130     2.2880   -31.2130 
  221.1250    69.1050   113.0780    92.9500    98.7090    24.1720     2.2840   -31.0650 
  221.2500    68.9450   114.2580    93.2260    98.8780    24.1430     2.2870   -30.9840 
  221.3750    69.7450   116.4020    94.2650   101.6490    24.1030     2.3060   -30.8490 
  221.5000    70.9580   118.9640    95.8590    98.0910    24.0560     2.3390   -30.6580 
  221.6250    71.6090   120.2770    97.0990    91.3870    23.9030     2.3740   -30.4750 
  221.7500    71.7770   119.0330    97.0450    90.2100    23.8780     2.3920   -30.2580 
  221.8750    71.4510   114.9160    95.2790    92.8950    23.7670     2.3900   -29.9680 
  222.0000    70.7280   109.0310    92.1430    91.1080    23.8500     2.3750   -29.6510 
  222.1250    70.3410   103.9660    88.7940    87.6760    24.0370     2.3550   -29.3850 
  222.2500    70.5750   101.5030    86.3510    84.5730    24.1110     2.3450   -29.0340 
  222.3750    70.9230   101.1720    84.6690    83.0990    24.0040     2.3540   -28.6510 
  222.5000    69.4600   100.1460    82.1470    81.5760    23.6990     2.3880   -28.2960 
  222.6250    65.6750    92.9190    75.3430    71.4980    23.7360     2.4420   -27.8380 
  222.7500    66.6900    77.7590    63.1970    60.2990    23.8360     2.4970   -27.4990 
  222.8750    72.1490    56.9080    47.1810    54.3500    23.8550     2.5260   -27.1060 
  223.0000    76.1170    36.2390    31.1800    48.5700    23.8540     2.5150   -26.8430 
  223.1250    75.9650    21.7940    19.6490    30.2560    23.7120     2.4750   -26.6650 
  223.2500    77.3930    13.3800    12.6370    14.2930    23.7520     2.4300   -26.5470 
  223.3750    80.8650     9.4440     8.9800     7.2030    23.8400     2.4040   -26.6400 
