~V
VERS. 2.00: Ver 2.00
~W
STRT.M 60.0000:
STOP.M 280.0000:
STEP.M 0.1250:
NULL. -999.2500:
UWI. DF3041:
~C
DEPT.M :
SP.MV :
GR.API :
RML.OHMM :
RI. :
RXO.OHMM :
CALI.CM :
DEN.GM/CC :
~A
# ...
  116.2500   -22.8180    73.4080     9.6480     8.2720    10.9520    23.4040     2.2360 
  116.3750   -22.8530    68.9050     9.6230     8.3320    11.5130    23.1120     2.2040 
  116.5000   -22.8090    69.7630     9.5150     8.2920    11.7630    23.0710     2.1650 
  116.6250   -22.6330    70.3820     9.3630     8.1760    11.5490    23.0950     2.1330 
  116.7500   -22.2630    67.0480     9.2330     8.0600    11.2030    23.1990     2.1160 
  116.8750   -21.6630    64.8880     9.1630     7.9960    10.7150    23.2910     2.1150 
  117.0000   -20.8430    66.6280     9.1600     8.0010    10.4080    23.3250     2.1300 
  117.1250   -19.8030    70.3050     9.1730     8.0410    10.4510    23.4880     2.1590 
  117.2500   -18.6000    74.1600     9.0990     8.0230    10.4570    23.6710     2.2000 
  117.3750   -17.2610    79.4680     8.8570     7.8620    10.1450    23.6210     2.2500 
  117.5000   -15.8140    86.1170     8.4120     7.5080     9.7090    23.5630     2.2990 
  117.6250   -14.3860    93.1050     7.8070     6.9620     9.1840    23.5600     2.3300 
  117.7500   -13.0340   101.9250     7.2090     6.3660     8.4380    23.7500     2.3380 
  117.8750   -11.8650   111.5990     6.7620     5.8590     7.1330    23.9540     2.3260 
  118.0000   -10.9190   116.6620     6.5620     5.5540     5.8760    23.7380     2.3050 
  118.1250   -10.2770   114.2960     6.6500     5.5360     5.5450    23.5930     2.2880 
  118.2500    -9.7960   110.4970     6.8760     5.7000     5.8370    23.4960     2.2800 
  118.3750    -9.4800   108.0330     7.0950     5.9260     6.2990    23.4740     2.2770 
  118.5000    -9.3020   104.8240     7.1810     6.0830     6.7650    23.4520     2.2790 
  118.6250    -9.1860   102.0770     7.0750     6.0710     7.1240    23.4390     2.2850 
  118.7500    -9.1280   104.4500     6.9120     5.9650     7.1090    23.4640     2.2960 
  118.8750    -9.0700   110.7600     6.8380     5.8800     6.4570    23.5270     2.3120 
  119.0000    -8.9840   114.1250     6.9350     5.9010     5.9720    23.6020     2.3330 
  119.1250    -8.8260   110.5950     7.1600     6.0350     6.3480    23.6240     2.3590 
  119.2500    -8.6940   105.4200     7.3270     6.1580     7.4850    23.6110     2.3820 
  119.3750    -8.5720   102.8460     7.3010     6.1640     8.9680    23.6080     2.3990 
  119.5000    -8.5020   105.1390     7.0520     6.0050     9.7810    23.6200     2.4060 
  119.6250    -8.5490   108.8450     6.7060     5.7360     7.9580    23.6300     2.4040 
  119.7500    -8.6490   109.8850     6.4940     5.5170     6.1160    23.6480     2.4040 
  119.8750    -8.7800   107.4690     6.5220     5.4510     5.7220    23.7030     2.4080 
  120.0000    -8.9420   104.6080     6.7700     5.5640     6.4110    23.8000     2.4120 
  120.1250    -9.0900   106.0390     7.1130     5.8210     7.3380    24.1410     2.4010 
  120.2500    -9.2470   107.3800     7.3940     6.1110     8.0370    24.5520     2.3730 
  120.3750    -9.4130   106.1420     7.5690     6.3730     8.1700    24.7220     2.3350 
  120.5000    -9.5820   104.3520     7.6830     6.5980     7.4670    24.6740     2.3030 
  120.6250    -9.7170   105.0870     7.8230     6.8090     7.3030    24.4830     2.2960 
  120.7500    -9.8330   107.8340     8.0050     7.0040     7.6200    23.8660     2.3120 
  120.8750    -9.9260   108.2060     8.1730     7.1440     8.1470    23.5780     2.3370 
  121.0000    -9.9910   104.4130     8.2440     7.1700     9.3580    23.5730     2.3550 
  121.1250   -10.0650   100.7760     8.1340     7.0250    10.4630    23.6580     2.3490 
  121.2500   -10.0830   100.1860     7.8960     6.7700     9.5600    23.8450     2.3280 
  121.3750   -10.0920   101.5460     7.6090     6.4860     7.9290    24.1590     2.3040 
  121.5000   -10.0830   101.8410     7.3480     6.2490     7.2510    24.3710     2.2890 
  121.6250   -10.0600   100.6980     7.1690     6.1000     7.0990    24.1820     2.2870 
  121.7500   -10.0010   101.2660     7.0680     6.0080     6.7280    23.7540     2.2930 
  121.8750    -9.9230   103.1700     7.0380     5.9490     6.4250    23.5540     2.3010 
  122.0000    -9.8390   106.4560     7.0670     5.9110     6.3250    23.5360     2.3110 
  122.1250    -9.7350   107.4100     7.1420     5.9090     6.2880    23.6160     2.3200 
  122.2500    -9.6860   105.1750     7.2200     5.9500     6.3480    23.7800     2.3270 
  122.3750    -9.6240   103.1840     7.2680     6.0230     6.4970    24.1110     2.3290 
  122.5000    -9.5520   102.2640     7.2730     6.1040     6.7350    24.5110     2.3270 
  122.6250    -9.4740   101.0330     7.2650     6.1740     6.8400    24.4900     2.3210 
  122.7500    -9.4150   100.8540     7.2940     6.2410     6.4060    23.9660     2.3120 
  122.8750    -9.3640   103.1060     7.3830     6.3210     6.1030    23.6960     2.3020 
  123.0000    -9.3320   105.5120     7.5160     6.4150     6.1390    23.6660     2.2920 
  123.1250    -9.3050   102.8910     7.6240     6.4850     6.5510    23.6400     2.2870 
  123.2500    -9.2500   100.1000     7.6350     6.4730     6.9590    23.5070     2.2880 
  123.3750    -9.1810   101.2470     7.5070     6.3360     6.9410    23.3010     2.2980 
  123.5000    -9.1190   104.1410     7.2470     6.0700     6.6500    23.3190     2.3140 
  123.6250    -9.0770   105.3420     6.9080     5.7250     6.2110    23.7860     2.3310 
  123.7500    -9.0790   106.7320     6.5860     5.3970     5.8830    24.3750     2.3410 
  123.8750    -9.1400   111.4250     6.3420     5.1520     5.5780    24.6150     2.3430 
  124.0000    -9.2530   116.7610     6.2200     5.0290     5.4400    24.6850     2.3390 
  124.1250    -9.4960   115.4130     6.2710     5.0710     5.6080    24.6130     2.3360 
  124.2500    -9.8080   110.2990     6.4830     5.2580     5.8770    24.3550     2.3360 
  124.3750   -10.2040   106.9240     6.8480     5.5820     6.0170    23.9010     2.3380 
  124.5000   -10.6380   104.9990     7.3280     6.0160     6.3620    23.6690     2.3360 
  124.6250   -11.0080    99.5750     7.8360     6.4980     7.0080    23.4800     2.3230 
  124.7500   -11.2950    91.7790     8.2390     6.9200     7.7160    23.1990     2.3000 
  124.8750   -11.4440    87.5070     8.4210     7.1860     8.3380    23.0180     2.2730 
  125.0000   -11.4320    88.5650     8.3100     7.2270     8.8360    23.2430     2.2480 
  125.1250   -11.1970    92.0520     7.8770     6.9900     9.1240    23.5290     2.2370 
  125.2500   -10.8890    95.5950     7.2950     6.5740     8.2910    23.8330     2.2420 
  125.3750   -10.5070    99.3000     6.7270     6.0820     7.1710    24.1960     2.2600 
  125.5000   -10.1140   103.0940     6.3130     5.6300     6.4290    24.3710     2.2850 
  125.6250    -9.8140   106.1790     6.1860     5.3590     5.8350    24.0280     2.3040 
  125.7500    -9.6010   107.4010     6.3150     5.3150     5.5940    23.8120     2.3140 
  125.8750    -9.4970   106.5390     6.6440     5.5050     5.6840    23.7950     2.3140 
  126.0000    -9.4790   104.5230     7.0690     5.8690     6.1420    23.9110     2.3090 
  126.1250    -9.5380   101.8730     7.4210     6.2740     6.6810    24.2860     2.3040 
  126.2500    -9.5640    98.1950     7.5710     6.5500     7.2020    24.9010     2.3030 
  126.3750    -9.5860    95.7120     7.4690     6.5990     7.3750    25.4640     2.3080 
  126.5000    -9.6010    97.9900     7.1650     6.4080     7.0860    25.5750     2.3210 
  126.6250    -9.6130   103.9410     6.8000     6.0560     6.4920    25.0270     2.3380 
  126.7500    -9.6440   108.1890     6.5330     5.7120     5.9620    24.2370     2.3520 
  126.8750    -9.7020   110.3360     6.4200     5.4720     5.6620    23.7890     2.3580 
  127.0000    -9.7960   110.0030     6.4470     5.3770     5.6710    23.6430     2.3540 
  127.1250    -9.9900   104.2510     6.5460     5.4290     6.1090    23.5570     2.3410 
  127.2500   -10.3090    96.8240     6.6230     5.5550     6.5570    23.5050     2.3270 
  127.3750   -10.7510    92.8150     6.6750     5.7090     6.7450    23.4940     2.3160 
