~V
VERS. 2.00: Ver 2.00
~W
STRT.M 60.0000:
STOP.M 280.0000:
STEP.M 0.1250:
NULL. -999.2500:
UWI. DF3041:
~C
DEPT.M :
SP.MV :
GR.API :
RML.OHMM :
RI. :
RXO.OHMM :
CALI.CM :
DEN.GM/CC :
~A
# ...
  161.2500    -7.7330    95.0460    11.6280     9.3010     7.8720    24.8680     2.1340 
  161.3750    -7.8980    96.4780    12.1640     9.5530     8.6610    24.7330     2.1410 
  161.5000    -8.0930    95.7510    12.9930    10.2100     9.4980    24.4830     2.1910 
  161.6250    -8.3040    94.2320    14.0080    11.1320    10.6360    23.9910     2.2660 
  161.7500    -8.5360    93.2850    15.2420    12.2320    12.4480    23.2670     2.3340 
  161.8750    -8.7630    92.2520    16.9480    13.6490    14.9160    23.0740     2.3760 
  162.0000    -8.9900    91.3490    19.5540    15.7210    17.5010    23.2280     2.3890 
  162.1250    -9.1900    90.8020    23.9360    19.2190    20.5560    23.7300     2.3790 
  162.2500    -9.4390    88.9680    30.3240    24.4190    26.5170    24.1440     2.3580 
  162.3750    -9.7150    85.1730    38.6560    31.3280    36.3020    24.0780     2.3320 
  162.5000    -9.9850    80.6540    48.1340    39.3120    51.2070    23.8790     2.3080 
  162.6250   -10.2450    77.5240    56.7960    46.7640    72.9070    23.8230     2.2920 
  162.7500   -10.4670    75.9890    62.6170    51.9840    85.6440    23.8440     2.2850 
  162.8750   -10.6670    75.4840    64.4640    54.0180    82.7970    23.8310     2.2850 
  163.0000   -10.8400    74.9120    62.5520    52.9350    75.8350    23.8090     2.2890 
  163.1250   -10.9820    73.9800    58.0710    49.4800    67.9490    23.7740     2.2940 
  163.2500   -11.1210    75.2400    53.0990    45.3270    59.8570    23.7290     2.3000 
  163.3750   -11.2370    78.2680    48.6640    41.4080    53.9610    23.7050     2.3060 
  163.5000   -11.3530    81.4220    45.3850    38.3470    50.1370    23.6920     2.3110 
  163.6250   -11.5260    83.9640    43.8620    36.7320    44.3460    23.6760     2.3150 
  163.7500   -11.7220    85.3920    43.8110    36.4040    38.5570    23.6490     2.3170 
  163.8750   -11.9490    84.3970    44.8110    37.0770    37.2430    23.5990     2.3170 
  164.0000   -12.2010    82.0340    46.1820    38.2240    41.4570    23.5520     2.3150 
  164.1250   -12.5140    81.7660    47.1290    39.1890    44.2700    23.5140     2.3140 
  164.2500   -12.8170    83.4760    47.4860    39.7150    43.1850    23.4710     2.3170 
  164.3750   -13.1530    85.4490    47.7680    40.1170    39.6870    23.4320     2.3220 
  164.5000   -13.5250    86.5810    49.0700    41.2350    35.5120    23.4290     2.3290 
  164.6250   -13.8930    86.6700    53.3730    44.7540    36.8410    23.4990     2.3350 
  164.7500   -14.2850    85.8950    61.5780    51.5760    47.0630    23.6220     2.3350 
  164.8750   -14.6870    83.7520    74.3180    62.3060    64.2870    23.7490     2.3290 
  165.0000   -15.0940    80.6190    91.4680    76.8200    87.5440    23.8430     2.3170 
  165.1250   -15.4650    78.1910   111.9820    94.1680   116.8780    23.8780     2.3020 
  165.2500   -15.8540    76.9480   132.4060   111.4820   142.7380    23.8930     2.2850 
  165.3750   -16.2340    74.8490   149.4600   126.1850   148.8580    23.8970     2.2700 
  165.5000   -16.5890    71.5280   160.2950   136.0390   151.5890    23.8930     2.2560 
  165.6250   -16.9220    71.1660   162.0480   138.6080   158.1190    23.8600     2.2460 
  165.7500   -17.2000    72.7960   156.7330   135.1820   166.0150    23.7940     2.2420 
  165.8750   -17.4220    73.2250   146.9760   127.5420   166.0340    23.7330     2.2450 
  166.0000   -17.5900    71.4820   136.3560   118.4320   153.7920    23.7060     2.2530 
  166.1250   -17.7430    70.0050   128.9640   111.3210   126.7280    23.6990     2.2610 
  166.2500   -17.8740    70.3730   126.3980   108.0840   100.9920    23.6830     2.2650 
  166.3750   -17.9920    70.8060   128.8430   109.2060    95.1590    23.6590     2.2640 
  166.5000   -18.0910    69.8690   135.2680   113.9590   110.4630    23.6470     2.2590 
  166.6250   -18.2050    68.0960   143.7710   120.8060   128.4560    23.6560     2.2550 
  166.7500   -18.2800    67.2750   151.5960   127.3690   130.1800    23.6790     2.2560 
  166.8750   -18.3640    67.8260   157.2440   132.3730   120.0740    23.7020     2.2630 
  167.0000   -18.5000    69.9810   160.5620   135.6260   119.3350    23.7160     2.2770 
  167.1250   -18.6100    73.4700   163.0590   138.2880   126.3150    23.7240     2.2940 
  167.2500   -18.7160    74.2680   167.2000   142.3270   127.7940    23.7500     2.3110 
  167.3750   -18.8090    72.2990   174.4390   148.9490   124.9850    23.8050     2.3190 
  167.5000   -18.9030    71.5100   185.0150   158.3600   122.0720    23.9000     2.3160 
  167.6250   -18.9470    73.3090   197.6180   169.4910   122.8050    24.0090     2.2990 
  167.7500   -18.9730    73.3390   208.6790   179.4410   124.7920    24.3350     2.2800 
  167.8750   -19.0080    69.9360   214.6820   185.3800   121.4300    24.4770     2.2630 
  168.0000   -19.0060    65.7450   212.8280   184.9890   110.6550    23.9970     2.2540 
  168.1250   -18.9880    63.6430   201.1320   176.3640    98.2500    23.6380     2.2530 
  168.2500   -18.9760    63.2860   183.5660   162.3860    89.3760    23.1010     2.2540 
  168.3750   -18.9270    63.7870   163.9390   145.9910    83.0850    22.5850     2.2540 
  168.5000   -18.8660    64.9680   145.7560   130.1690    79.7060    22.4180     2.2550 
  168.6250   -18.8110    67.9990   132.2330   117.8850    76.5510    22.6820     2.2550 
  168.7500   -18.8380    69.9750   123.9330   110.0350    73.9860    23.2100     2.2550 
  168.8750   -18.8800    69.6970   121.2020   107.1750    72.7570    23.8600     2.2560 
  169.0000   -18.9210    70.7350   124.0510   109.5060    72.7180    24.2600     2.2560 
  169.1250   -18.9790    74.3150   132.9790   117.6940    76.3180    24.8310     2.2540 
  169.2500   -19.0250    75.9240   145.9130   129.9860    84.6140    25.6000     2.2490 
  169.3750   -19.1070    74.5910   160.4800   144.4420    93.7070    25.7820     2.2440 
  169.5000   -19.1830    71.9540   172.9550   157.9070    96.5060    25.3790     2.2390 
  169.6250   -19.2730    71.6520   177.0750   164.8920    94.2560    24.7350     2.2350 
  169.7500   -19.2720    73.5020   170.2980   162.4650    95.6380    24.2960     2.2330 
  169.8750   -19.2520    75.2700   152.8400   149.8200   101.9160    24.3320     2.2340 
  170.0000   -19.1960    74.7850   128.8420   129.4860   106.1940    24.6070     2.2400 
  170.1250   -19.1790    72.7460   105.3330   106.9290   100.6210    24.6770     2.2570 
  170.2500   -19.1740    73.5060    87.3030    87.9410    84.1200    24.3250     2.2810 
  170.3750   -19.2110    76.0610    76.2790    75.1070    64.5390    23.8900     2.3050 
  170.5000   -19.3180    76.2090    72.3180    69.2090    51.7700    23.7950     2.3220 
  170.6250   -19.5010    73.5910    76.3250    71.3660    52.0490    23.9730     2.3240 
  170.7500   -19.6650    70.2430    87.1750    80.2980    61.4560    24.0630     2.3140 
  170.8750   -19.8620    68.6810   104.7650    95.6830    79.3170    24.0850     2.2950 
  171.0000   -20.0990    67.4410   128.2830   116.5190    99.1340    24.0950     2.2730 
  171.1250   -20.3150    64.3630   155.8650   140.8760   116.2550    24.1000     2.2560 
  171.2500   -20.5410    62.2630   183.0400   164.7170   140.0200    24.0870     2.2500 
  171.3750   -20.7170    61.7690   206.0840   184.8000   172.2580    24.0410     2.2590 
  171.5000   -20.8500    61.7370   222.3660   198.8190   198.1320    23.9670     2.2840 
  171.6250   -20.9000    60.8660   230.2600   205.1400   192.4570    23.9240     2.3230 
  171.7500   -20.9990    59.4100   232.6630   206.2000   187.2270    24.0500     2.3640 
  171.8750   -21.0570    58.7110   231.6410   203.9050   178.6960    24.2030     2.3960 
  172.0000   -21.1060    59.0910   228.8160   199.9780   158.3760    23.8150     2.4110 
  172.1250   -21.1490    61.9370   224.6970   195.3380   148.5900    23.1170     2.3990 
  172.2500   -21.1880    64.7390   219.1950   190.1070   143.2750    22.9110     2.3670 
  172.3750   -21.2140    64.8910   211.9940   184.0010   134.4030    23.0970     2.3280 
