~V
VERS. 2.00: Ver 2.00
~W
STRT.M 100.0000:
STOP.M 258.0000:
STEP.M 0.1250:
NULL. -999.2500:
UWI. DF3025:
~C
DEPT.M :
AC.US/MT :
DEN.GM/CC :
GR.API :
CALI.CM :
RXO.OHMM :
RI. :
RML.OHMM :
SP.MV :
~A
  100.0000   426.9710     2.1820    67.9400    23.4850     9.5580     7.4280     9.6840   -30.2090 
  100.1250   422.6990     2.1760    66.3890    23.5410    10.7600     7.7440    10.1410   -30.1710 
  100.2500   425.3160     2.1720    65.8550    23.5810    11.1110     8.0690    10.5200   -30.1600 
  100.3750   432.5080     2.1710    64.6030    23.5640    10.9240     8.2930    10.6990   -30.1590 
  100.5000   437.8480     2.1750    63.0150    23.4960    10.3550     8.3530    10.6530   -30.1330 
  100.6250   434.4750     2.1790    64.3960    23.4100     9.8640     8.2540    10.4560   -30.0460 
  100.7500   425.9620     2.1760    67.0190    23.3300    10.0320     8.1190    10.2700   -29.8890 
  100.8750   419.2490     2.1680    67.1440    23.2690    10.7460     8.0290    10.1780   -29.6820 
  101.0000   418.4630     2.1650    64.6520    23.2450    11.5320     8.0280    10.2080   -29.4640 
  101.1250   422.4450     2.1690    63.2750    23.2770    11.2620     8.1330    10.3720   -29.2440 
  101.2500   426.9440     2.1720    62.8410    23.3470    11.0490     8.2850    10.5760   -28.9810 
  101.3750   431.8840     2.1700    62.2260    23.4170    10.7860     8.3900    10.6670   -28.6400 
  101.5000   438.5100     2.1670    61.3310    23.4660    10.6220     8.3240    10.4760   -28.2270 
  101.6250   446.9660     2.1740    61.4470    23.4990    10.5320     7.9730     9.8960   -27.7480 
  101.7500   454.8860     2.1950    63.3620    23.4950    10.2100     7.4600     9.1630   -27.2250 
  101.8750   458.0120     2.2190    67.7860    23.4350     9.3520     6.9610     8.5510   -26.6580 
  102.0000   451.2320     2.2350    72.5680    23.3430     8.3000     6.6500     8.2680   -26.0110 
  102.1250   431.9630     2.2370    73.3780    23.2330     8.6940     6.6710     8.4240   -25.2480 
  102.2500   410.3340     2.2420    72.8020    23.1360     9.6430     6.9170     8.7830   -24.4370 
  102.3750   397.2000     2.2590    74.1300    23.1230     9.8850     7.2030     9.0580   -23.6400 
  102.5000   398.7510     2.2850    77.1120    23.2970     8.8680     7.2910     8.9650   -22.9020 
  102.6250   413.1620     2.2990    79.4660    23.7440     8.0900     6.9680     8.3380   -22.2720 
  102.7500   429.2290     2.2920    83.0260    24.2990     6.9440     6.3770     7.4820   -21.7420 
  102.8750   440.7800     2.2730    88.3930    24.7590     5.8290     5.7270     6.6820   -21.2980 
  103.0000   446.6180     2.2580    91.7420    24.9770     5.5080     5.1920     6.1090   -20.9140 
  103.1250   448.6380     2.2610    93.0420    24.9670     5.4030     4.8830     5.8320   -20.5850 
  103.2500   450.0280     2.2760    96.4840    24.8930     5.3810     4.7600     5.7430   -20.3290 
  103.3750   451.2930     2.2870   101.7160    24.8100     5.4430     4.7840     5.7750   -20.1840 
  103.5000   451.1910     2.2870   105.1320    24.7510     5.4720     4.8940     5.8720   -20.1690 
  103.6250   448.4320     2.2820   104.6580    24.7140     5.2480     5.0190     5.9690   -20.2760 
  103.7500   445.3030     2.2790   101.1060    24.6480     5.4610     5.0970     6.0150   -20.4160 
  103.8750   444.5750     2.2810    95.7680    24.5350     5.6850     5.1010     5.9870   -20.5610 
  104.0000   447.5070     2.2840    92.3890    24.4100     5.6820     5.0370     5.8950   -20.7420 
  104.1250   450.2620     2.2860    94.8910    24.3410     5.2970     4.9390     5.7860   -20.9750 
  104.2500   447.8610     2.2920    99.2840    24.3480     5.0030     4.8630     5.7120   -21.2320 
  104.3750   441.2170     2.3030   102.3910    24.3690     5.0060     4.8380     5.7000   -21.4890 
  104.5000   435.4440     2.3140   103.8780    24.3210     5.5810     4.8670     5.7410   -21.7410 
  104.6250   435.1190     2.3130   102.8350    24.2050     6.1100     4.9270     5.7970   -22.0330 
  104.7500   437.6010     2.2990   100.7360    24.1440     5.9270     4.9720     5.8320   -22.3790 
  104.8750   440.3510     2.2820    99.4510    24.1740     5.4750     4.9870     5.8470   -22.7540 
  105.0000   442.9710     2.2700    98.4160    24.2330     5.3870     4.9870     5.8690   -23.1350 
  105.1250   444.5630     2.2600    96.4000    24.2520     5.1250     5.0340     5.9810   -23.5150 
  105.2500   444.3870     2.2450    94.1510    24.1750     5.2970     5.1950     6.2480   -23.9260 
  105.3750   441.9070     2.2250    91.4630    23.9380     6.0760     5.5020     6.6890   -24.3940 
  105.5000   436.9760     2.2060    87.3220    23.5810     6.8420     5.9240     7.2330   -24.8930 
  105.6250   430.6120     2.1980    84.0080    23.2880     7.3860     6.3160     7.6550   -25.3730 
  105.7500   427.4550     2.2090    83.2670    23.1680     8.5490     6.4680     7.7200   -25.8060 
  105.8750   432.3180     2.2350    83.3550    23.1920     9.5760     6.2580     7.3420   -26.1980 
  106.0000   445.4480     2.2640    83.9090    23.2880     8.8290     5.7690     6.7140   -26.5590 
  106.1250   457.2010     2.2830    88.5190    23.4070     6.7280     5.3150     6.3080   -26.8930 
  106.2500   450.5730     2.3070    95.0410    23.5560     5.7190     5.1900     6.4510   -27.1990 
  106.3750   414.5500     2.3460    99.4700    23.7410     5.6420     5.5660     7.3060   -27.4490 
  106.5000   355.0190     2.3960    99.8470    23.8880     6.5260     6.5550     8.9230   -27.6410 
  106.6250   305.6710     2.4280    94.1050    23.8720    10.2300     8.2450    11.2300   -27.8650 
  106.7500   297.9830     2.4270    82.9970    23.7420    14.6880    10.1640    13.4660   -28.2110 
  106.8750   332.0890     2.3890    71.3740    23.5970    15.7570    11.5820    14.6460   -28.7110 
  107.0000   381.6750     2.3260    66.4480    23.4880    13.5190    11.8940    14.2320   -29.3510 
  107.1250   412.9450     2.2660    68.0530    23.4390    12.2560    11.1360    12.7330   -30.0720 
  107.2500   422.4200     2.2280    70.5160    23.4600    11.3000    10.1490    11.3250   -30.7840 
  107.3750   421.6230     2.2090    73.7330    23.5530    11.0590     9.3510    10.4100   -31.4470 
  107.5000   420.9350     2.1930    77.6530    23.6680    11.2590     8.8640     9.9710   -32.0410 
  107.6250   424.7650     2.1790    79.4250    23.7320    11.5310     8.6210     9.8100   -32.5380 
  107.7500   430.9930     2.1680    77.6490    23.7470    11.6210     8.4000     9.6420   -32.9270 
  107.8750   438.1020     2.1620    73.5860    23.7410    11.0330     8.0930     9.3590   -33.1950 
  108.0000   448.0290     2.1560    69.8820    23.7650     9.9380     7.7010     8.9900   -33.3410 
  108.1250   454.7810     2.1500    70.5090    23.8540     9.4510     7.3290     8.6640   -33.3620 
  108.2500   450.9190     2.1500    73.8320    23.9630     9.0850     7.0810     8.4910   -33.3030 
  108.3750   439.3060     2.1590    75.4450    24.0360     9.0910     7.0050     8.5160   -33.1890 
  108.5000   430.3650     2.1730    75.1880    24.0370     9.6310     7.0970     8.7160   -33.0490 
  108.6250   431.2650     2.1830    75.6500    23.9170    10.4310     7.3250     9.0410   -32.9300 
  108.7500   435.3410     2.1870    75.2320    23.7110    10.7190     7.6020     9.3940   -32.8470 
  108.8750   435.0510     2.1950    73.5880    23.5230    10.8200     7.8760     9.7140   -32.7920 
  109.0000   416.8030     2.2150    71.8770    23.4900    11.0290     8.0910     9.9410   -32.7500 
  109.1250   373.0450     2.2460    71.2730    23.6370    12.3890     8.1710     9.9910   -32.6860 
  109.2500   341.8080     2.2680    71.3240    23.7550    16.5100     8.1000     9.8590   -32.5930 
  109.3750   355.4080     2.2670    71.6690    23.7090    18.1050     7.8800     9.5620   -32.4960 
  109.5000   401.8870     2.2410    72.6470    23.5270    14.7520     7.5510     9.1730   -32.3940 
  109.6250   433.9900     2.2030    74.4310    23.3740     9.6800     7.2110     8.8380   -32.2600 
  109.7500   440.1270     2.1790    76.9180    23.3180     9.4310     6.9650     8.6550   -32.0880 
  109.8750   437.8130     2.1760    78.3520    23.3150     9.8360     6.8620     8.6550   -31.8990 
