~V
VERS. 2.00: Ver 2.00
~W
STRT.M 60.0000:
STOP.M 251.0000:
STEP.M 0.1250:
NULL. -999.2500:
UWI. DF3020:
~C
DEPT.M :
GR.API :
RML.OHMM :
RI. :
RXO.OHMM :
CALI.CM :
DEN.GM/CC :
SP.MV :
~A
# ...
  228.7500    74.3460    60.0140    53.2430    61.3490    23.9760     2.4130   -23.0470 
  228.8750    75.8840    57.5890    51.3650    65.1800    23.8460     2.4640   -22.5700 
  229.0000    76.5810    52.8460    47.6070    69.5700    23.6840     2.4910   -22.1290 
  229.1250    75.7760    46.3680    42.2710    64.7400    23.5870     2.4810   -21.6850 
  229.2500    76.2590    39.9880    36.7840    55.1090    23.5070     2.4470   -21.2650 
  229.3750    78.9390    34.8260    32.1290    41.7490    23.4720     2.4050   -20.8680 
  229.5000    79.8960    31.3040    28.7890    30.3540    23.5410     2.3660   -20.4750 
  229.6250    75.4900    29.4200    26.8950    26.1820    23.5370     2.3370   -20.1210 
  229.7500    69.8300    28.3820    25.8240    25.2040    23.5330     2.3180   -19.8130 
  229.8750    67.0170    27.6850    25.1540    25.4140    23.5330     2.3050   -19.5550 
  230.0000    66.8310    26.9690    24.5530    25.1740    23.5330     2.2950   -19.3090 
  230.1250    70.3880    26.0760    23.8320    23.9200    23.5330     2.2830   -19.1210 
  230.2500    74.5890    25.1400    23.0460    22.6610    23.5330     2.2750   -18.9730 
  230.3750    75.5890    24.3400    22.3280    21.7940    23.5330     2.2720   -18.8670 
  230.5000    72.9080    23.8200    21.8070    20.9560    23.5330     2.2770   -18.7660 
  230.6250    68.9880    23.7090    21.6060    20.7460    23.5320     2.2880   -18.6800 
  230.7500    67.6740    23.9380    21.6840    20.9150    23.5250     2.2980   -18.6320 
  230.8750    68.3790    24.4590    22.0060    21.4820    23.4800     2.3030   -18.5740 
  231.0000    69.9400    25.2140    22.5270    22.1300    23.4140     2.3020   -18.5580 
  231.1250    70.2160    26.1710    23.2260    23.4910    23.3920     2.2980   -18.4990 
  231.2500    69.6750    27.2500    24.0370    25.4180    23.3320     2.2940   -18.4210 
  231.3750    69.5520    28.4240    24.9320    26.7950    23.2680     2.2920   -18.3160 
  231.5000    69.7040    29.6830    25.8930    27.8230    23.2110     2.2890   -18.1740 
  231.6250    68.9450    31.0280    26.9060    29.3690    23.2030     2.2830   -18.0200 
  231.7500    67.1530    32.3950    27.9210    30.5640    23.2000     2.2730   -17.8560 
  231.8750    66.8920    33.6720    28.8630    31.8200    23.2030     2.2630   -17.7340 
  232.0000    68.8640    34.6840    29.6200    33.1150    23.2140     2.2570   -17.5700 
  232.1250    71.2770    35.1170    29.9820    34.5580    23.2850     2.2600   -17.4090 
  232.2500    72.2570    34.8770    29.8800    35.6530    23.3610     2.2700   -17.2190 
  232.3750    71.2850    33.9470    29.2920    34.8770    23.4170     2.2790   -17.0230 
  232.5000    69.1440    32.4680    28.3050    32.3870    23.5330     2.2850   -16.8370 
  232.6250    67.2060    30.7290    27.1080    30.3440    23.6540     2.2840   -16.5840 
  232.7500    66.3150    29.1460    26.0070    28.5740    23.7320     2.2800   -16.2940 
  232.8750    65.7110    27.9930    25.2140    26.8400    23.8030     2.2760   -15.9770 
  233.0000    65.4500    27.4120    24.8520    25.8900    23.8770     2.2710   -15.6770 
  233.1250    67.2220    27.4340    24.9600    25.4630    23.9850     2.2660   -15.4060 
  233.2500    69.1810    27.6930    25.2520    25.1870    24.0300     2.2580   -15.1490 
  233.3750    69.3540    27.7760    25.3820    25.3100    24.0620     2.2480   -14.8980 
  233.5000    68.9810    27.2050    24.9270    25.8110    24.0600     2.2390   -14.6400 
  233.6250    70.6960    25.3920    23.3500    24.3000    24.0170     2.2420   -14.3820 
  233.7500    72.0730    22.5180    20.7930    21.8360    23.9070     2.2640   -14.1760 
  233.8750    73.8870    19.0270    17.6500    19.5840    23.8290     2.3100   -13.9560 
  234.0000    80.1180    15.6030    14.5290    17.6500    23.8000     2.3720   -13.7490 
  234.1250    89.9800    13.0580    12.1280    14.9220    23.7770     2.4270   -13.5470 
  234.2500    95.7920    11.6440    10.6510    12.0780    23.7340     2.4500   -13.3920 
  234.3750    95.4440    11.4500    10.1740    10.5300    23.6970     2.4330   -13.2960 
  234.5000    92.4400    12.4360    10.7060    10.7330    23.6870     2.3860   -13.2670 
  234.6250    87.8170    14.5870    12.3460    13.1420    23.6870     2.3300   -13.3260 
  234.7500    80.6670    17.4000    14.7430    16.6160    23.6870     2.2830   -13.3790 
  234.8750    72.8890    20.4540    17.5670    20.5130    23.6870     2.2510   -13.4600 
  235.0000    67.6510    23.3080    20.3950    24.8340    23.6880     2.2320   -13.5410 
  235.1250    66.5840    25.5560    22.7540    27.6880    23.6910     2.2250   -13.6040 
  235.2500    66.9080    27.2920    24.5880    28.8830    23.6950     2.2250   -13.6720 
  235.3750    66.9460    28.7450    26.0350    29.0620    23.6970     2.2290   -13.7140 
  235.5000    66.0710    30.1320    27.2820    30.2020    23.6970     2.2330   -13.7610 
  235.6250    63.5640    31.4340    28.3420    33.4500    23.6900     2.2370   -13.7660 
  235.7500    61.2220    32.3390    29.0230    35.2210    23.6700     2.2390   -13.7790 
  235.8750    62.0180    32.4040    28.9880    34.9490    23.6670     2.2440   -13.7790 
  236.0000    65.4380    31.2860    27.9620    33.2920    23.6670     2.2550   -13.7730 
  236.1250    68.7060    28.8530    25.8210    31.6030    23.6670     2.2700   -13.7500 
  236.2500    70.9180    25.8530    23.1620    30.0770    23.6680     2.2850   -13.6820 
  236.3750    74.5030    22.9680    20.5390    27.3430    23.6780     2.2930   -13.5950 
  236.5000    79.8810    20.7480    18.4170    22.3190    23.7330     2.2970   -13.4800 
  236.6250    83.4050    19.5800    17.1550    18.4950    23.7990     2.3060   -13.4300 
  236.7500    83.5480    19.1660    16.5610    17.5840    23.8650     2.3240   -13.4190 
  236.8750    81.2690    19.1970    16.4210    18.3320    23.9260     2.3460   -13.4500 
  237.0000    79.0220    19.3730    16.4990    19.5840    23.9440     2.3620   -13.4980 
  237.1250    77.6440    19.5290    16.6420    22.1090    24.0020     2.3620   -13.5690 
  237.2500    77.5430    19.7720    16.8610    22.8490    24.0750     2.3530   -13.6660 
  237.3750    79.1070    20.3780    17.3330    19.7410    24.1850     2.3430   -13.8050 
  237.5000    80.7350    21.6120    18.2710    18.2840    24.3020     2.3400   -13.9560 
  237.6250    82.0220    23.6950    19.9050    19.6920    24.2720     2.3420   -14.1200 
  237.7500    84.0130    26.3500    22.0660    23.0600    24.1230     2.3410   -14.2190 
  237.8750    85.4850    29.2850    24.5360    28.8060    23.9190     2.3350   -14.3090 
  238.0000    86.6140    32.1700    27.0230    32.8920    23.7290     2.3240   -14.3830 
  238.1250    87.7760    34.6200    29.1610    32.8020    23.5430     2.3100   -14.4510 
  238.2500    88.5070    36.4620    30.7560    33.4080    23.4790     2.2980   -14.4960 
  238.3750    86.1130    37.4940    31.6200    34.6390    23.4650     2.2950   -14.4690 
  238.5000    84.1610    37.3580    31.5310    36.1220    23.4530     2.3020   -14.4690 
  238.6250    86.5810    35.5040    30.1170    37.4930    23.3870     2.3160   -14.3640 
  238.7500    87.5800    32.1560    27.6630    35.3130    23.3670     2.3250   -14.2580 
  238.8750    84.3570    27.8590    24.5780    30.0620    23.3840     2.3220   -14.1160 
  239.0000    81.1300    23.2630    21.4160    24.3250    23.3840     2.3090   -13.9440 
  239.1250    82.3000    19.3720    18.7430    19.2320    23.3840     2.2990   -13.7350 
  239.2500    84.5260    16.9320    16.6750    15.7310    23.3840     2.3080   -13.5380 
  239.3750    85.6250    15.6150    15.1470    14.4470    23.3840     2.3400   -13.3320 
  239.5000    86.4720    14.6240    13.9990    13.9640    23.3840     2.3870   -13.1140 
  239.6250    86.2460    13.7850    13.0960    13.2500    23.3840     2.4320   -12.8870 
  239.7500    84.8570    12.9980    12.3130    12.3590    23.3840     2.4600   -12.6960 
  239.8750    83.3280    12.2950    11.6400    12.0850    23.3840     2.4690   -12.5230 
