~V
VERS. 2.00: Ver 2.00
~W
STRT.M 63.0000:
STOP.M 257.0000:
STEP.M 0.1250:
NULL. -999.2500:
UWI. DF3070:
~C
DEPT.M :
DEN.GM/CC :
GR.API :
RML.OHMM :
RI. :
RXO.OHMM :
CALI.CM :
SP.MV :
~A
# ...
   74.2500  -999.2500   115.5880     6.0610     4.8660     5.2350    24.1050   -22.3720 
   74.3750  -999.2500   114.2880     6.0360     4.8310     5.3030    24.0380   -22.7510 
   74.5000  -999.2500   114.7690     6.4140     5.0560     5.5220    24.0480   -23.3090 
   74.6250  -999.2500   115.7240     7.3960     5.7100     6.2550    23.9210   -23.9820 
   74.7500  -999.2500   115.7110     8.8080     6.7260     7.8330    23.4340   -24.8080 
   74.8750  -999.2500   111.5300    10.3760     7.9550    10.4060    22.7210   -25.8070 
   75.0000  -999.2500   100.9240    11.7130     9.1310    13.8940    22.1400   -26.9160 
   75.1250  -999.2500    87.6800    12.3140     9.8540    16.3640    21.9630   -28.1070 
   75.2500  -999.2500    78.5050    12.1920    10.0240    15.2890    22.1030   -29.2570 
   75.3750  -999.2500    75.0130    11.6140     9.7580    12.7400    22.4230   -30.3120 
   75.5000  -999.2500    76.1700    10.9810     9.3280    11.0760    22.7050   -31.2070 
   75.6250  -999.2500    79.9280    10.6510     9.0240    10.5820    22.8640   -31.9580 
   75.7500  -999.2500    81.9040    10.6330     8.9300    10.6010    23.0090   -32.4920 
   75.8750  -999.2500    80.8000    10.8130     9.0050    10.8030    23.0640   -32.8200 
   76.0000  -999.2500    78.2370    11.0400     9.1490    11.2540    22.9650   -32.9590 
   76.1250  -999.2500    77.1650    11.1720     9.2510    11.9990    22.8380   -32.8720 
   76.2500  -999.2500    79.0200    11.1810     9.2630    12.3130    22.8140   -32.6480 
   76.3750  -999.2500    83.1470    11.0930     9.1830    11.6740    22.8310   -32.3270 
   76.5000  -999.2500    86.1390    10.9530     9.0300    10.5430    22.8390   -31.9210 
   76.6250  -999.2500    86.6030    10.7810     8.8040     9.7430    22.9070   -31.5060 
   76.7500  -999.2500    85.4110    10.5610     8.5100     9.3030    23.0340   -30.9660 
   76.8750  -999.2500    84.9530    10.2630     8.1430     9.0150    23.2600   -30.4310 
   77.0000  -999.2500    87.1020     9.8900     7.7250     8.7950    23.5600   -29.8280 
   77.1250  -999.2500    92.2890     9.4990     7.3200     8.3380    23.7230   -29.3590 
   77.2500  -999.2500    99.4940     9.2030     7.0100     7.6710    23.9110   -29.0160 
   77.3750  -999.2500   103.8240     9.1030     6.8640     7.2270    24.3540   -28.8700 
   77.5000  -999.2500   101.7750     9.2500     6.9160     7.3380    24.6870   -28.9430 
   77.6250  -999.2500    96.0900     9.6560     7.1850     8.0470    24.2190   -29.1880 
   77.7500  -999.2500    91.1630    10.1760     7.5750     8.9560    23.4100   -29.6690 
   77.8750  -999.2500    86.9810    10.6880     8.0070     9.8250    22.9770   -30.1960 
   78.0000  -999.2500    80.6290    11.0930     8.4050    10.5020    22.9850   -30.8530 
   78.1250  -999.2500    74.3950    11.3320     8.7040    10.8710    22.9580   -31.4190 
   78.2500  -999.2500    71.6780    11.4760     8.9130    10.9940    22.8460   -31.9060 
   78.3750  -999.2500    70.5290    11.5880     9.0570    10.9400    22.7570   -32.1960 
   78.5000  -999.2500    68.8470    11.7050     9.1570    10.8390    22.7530   -32.3060 
   78.6250  -999.2500    67.0490    11.7980     9.2040    10.7650    22.8720   -32.1610 
   78.7500  -999.2500    66.4890    11.7990     9.1760    10.6380    22.9820   -31.7600 
   78.8750  -999.2500    67.3130    11.6500     9.0440    10.4290    22.9570   -31.2440 
   79.0000  -999.2500    69.6370    11.3410     8.7980    10.0350    22.8080   -30.4560 
   79.1250  -999.2500    73.5990    10.9070     8.4560     9.3630    22.7700   -29.5780 
   79.2500  -999.2500    79.5620    10.4510     8.0870     8.7610    22.8380   -28.5030 
   79.3750  -999.2500    86.4490    10.0250     7.7280     8.4260    22.8360   -27.3650 
   79.5000  -999.2500    94.1940     9.6470     7.3940     8.3130    22.7400   -26.1960 
   79.6250  -999.2500    99.9440     9.3240     7.0950     8.3230    23.1280   -25.0500 
   79.7500  -999.2500   100.4120     9.0550     6.8420     8.1690    24.1050   -24.1180 
   79.8750  -999.2500    98.4430     8.8720     6.6590     7.5830    24.8830   -23.2630 
   80.0000  -999.2500    98.7590     8.8080     6.5690     6.7840    24.8430   -22.6130 
   80.1250  -999.2500    99.8930     8.8850     6.5840     6.4820    24.2680   -22.2430 
   80.2500  -999.2500    97.7810     9.0160     6.6460     6.6820    23.9520   -22.0460 
   80.3750  -999.2500    93.4700     9.1010     6.6920     7.0440    23.9280   -22.0090 
   80.5000  -999.2500    92.2200     9.0400     6.6590     7.2440    23.9430   -21.9970 
   80.6250  -999.2500    94.2780     8.7570     6.4950     7.1210    24.0510   -21.9850 
   80.7500  -999.2500    96.6420     8.3500     6.2460     6.8300    24.2330   -21.9600 
   80.8750  -999.2500    98.4680     7.9550     5.9810     6.5000    24.4630   -21.9040 
   81.0000  -999.2500   100.6760     7.7120     5.7870     6.1930    24.6700   -21.9120 
   81.1250  -999.2500   104.6980     7.7650     5.7620     5.9770    24.7790   -21.8760 
   81.2500  -999.2500   107.8060     8.0730     5.9070     6.0050    24.8190   -21.9150 
   81.3750  -999.2500   105.0930     8.5520     6.1880     6.2950    24.8310   -22.0310 
   81.5000  -999.2500    97.7630     9.0560     6.5230     6.7290    24.7800   -22.2110 
   81.6250  -999.2500    90.3890     9.3780     6.7760     7.2050    24.6270   -22.5260 
   81.7500  -999.2500    85.9870     9.4290     6.8620     7.5540    24.4680   -22.6840 
   81.8750  -999.2500    88.2270     9.2170     6.7590     7.5790    24.3940   -22.8640 
   82.0000  -999.2500    96.8580     8.8430     6.5110     7.1710    24.4110   -22.9250 
   82.1250  -999.2500   104.6450     8.4550     6.2030     6.5780    24.4220   -22.8910 
   82.2500  -999.2500   103.7560     8.1610     5.9290     6.2390    24.3610   -22.8880 
   82.3750  -999.2500    95.6720     8.0080     5.7390     6.3240    24.2650   -22.8350 
   82.5000  -999.2500    89.4860     8.0360     5.6810     6.7110    24.2100   -22.8820 
   82.6250  -999.2500    91.0690     8.3310     5.8280     7.0490    24.2240   -22.9370 
   82.7500  -999.2500    95.3380     8.8580     6.1650     7.2740    24.2210   -23.2210 
   82.8750  -999.2500    94.6710     9.5430     6.6440     7.6940    24.4470   -23.7150 
   83.0000  -999.2500    87.8770    10.2390     7.1710     8.8110    24.8620   -24.3470 
   83.1250  -999.2500    83.9890    10.7210     7.5880    10.7560    24.7140   -25.1560 
   83.2500  -999.2500    85.6480    10.8990     7.8070    12.0560    23.8740   -25.9400 
   83.3750  -999.2500    87.6890    10.8100     7.8200    11.4370    23.0090   -26.6280 
   83.5000  -999.2500    86.7350    10.5980     7.7050    10.0050    22.6920   -27.2340 
   83.6250  -999.2500    84.2650    10.4540     7.5880     9.4640    22.8160   -27.7590 
   83.7500  -999.2500    81.2740    10.4670     7.5640     9.4860    22.9780   -28.1680 
   83.8750  -999.2500    78.6910    10.6320     7.6520     9.6180    23.0470   -28.3800 
   84.0000  -999.2500    77.7700    10.8850     7.8200     9.8170    22.8940   -28.4300 
   84.1250  -999.2500    77.9880    11.1250     8.0000    10.0490    22.6540   -28.2940 
   84.2500  -999.2500    77.7960    11.2680     8.1210    10.2110    22.5530   -27.9780 
   84.3750  -999.2500    78.6670    11.2570     8.1370    10.2540    22.5640   -27.6630 
   84.5000  -999.2500    81.7110    11.0540     8.0240    10.2010    22.6170   -27.1480 
   84.6250  -999.2500    83.1600    10.6380     7.7620    10.0720    22.8220   -26.4950 
   84.7500  -999.2500    85.9700    10.1180     7.4120     9.8160    23.0950   -25.7290 
   84.8750  -999.2500    94.0620     9.6060     7.0380     9.2290    23.4710   -24.8080 
   85.0000  -999.2500   104.1670     9.2020     6.7030     8.2000    24.0660   -23.9200 
   85.1250  -999.2500   108.2160     8.9880     6.4660     7.1840    24.6000   -22.9510 
   85.2500  -999.2500   105.6670     8.9160     6.3190     6.7050    24.6880   -22.1160 
   85.3750  -999.2500   101.9680     8.9170     6.2380     6.7190    24.4010   -21.3130 
