~V
VERS. 2.00: Ver 2.00
~W
STRT.M 64.0000:
STOP.M 264.0000:
STEP.M 0.1250:
NULL. -999.2500:
UWI. DF3031:
~C
DEPT.M :
DEN.GM/CC :
AC.US/MT :
GR.API :
CALI.CM :
RXO.OHMM :
RI. :
RML.OHMM :
SP.MV :
~A
# ...
  124.0000     2.2890   385.4830    83.9800    25.6170     6.4170     5.3840     6.5740   -17.3630 
  124.1250     2.3020   369.6760    83.4920    25.5640     6.7080     5.7450     7.2300   -17.5130 
  124.2500     2.3460   352.2450    81.4540    25.4270     7.4040     6.2190     8.0330   -17.7640 
  124.3750     2.3930   336.5500    76.3860    25.2860     8.5630     6.7340     8.8460   -18.1000 
  124.5000     2.4060   326.5110    70.7940    25.1610     9.7030     7.1850     9.4900   -18.4830 
  124.6250     2.3700   326.5600    69.7850    25.0470     9.8560     7.4270     9.7520   -18.8870 
  124.7500     2.3220   334.9830    72.6000    24.9650     9.2240     7.4660     9.6980   -19.2850 
  124.8750     2.2890   348.4810    75.8930    24.9230     8.5330     7.3710     9.4820   -19.6440 
  125.0000     2.2740   362.2110    77.0790    24.9110     8.1760     7.2450     9.2780   -19.9540 
  125.1250     2.2630   370.1980    77.1830    24.9270     8.0860     7.1840     9.2180   -20.2150 
  125.2500     2.2490   370.3610    77.1240    24.9520     8.1270     7.2110     9.2910   -20.4230 
  125.3750     2.2380   362.7670    76.3680    24.9610     8.2940     7.3250     9.4710   -20.5810 
  125.5000     2.2330   349.5380    76.2540    24.9320     8.5200     7.5300     9.7710   -20.6940 
  125.6250     2.2280   334.4680    76.4740    24.8480     8.7730     7.8750    10.2920   -20.7400 
  125.7500     2.2180   322.2170    75.9290    24.7720     9.4280     8.3570    11.0200   -20.7430 
  125.8750     2.2060   315.6950    74.1490    24.8190    11.3900     8.9250    11.8470   -20.7210 
  126.0000     2.2070   316.0130    71.4370    25.0320    14.9110     9.4530    12.5320   -20.6720 
  126.1250     2.2320   322.6480    69.4330    25.2020    16.7010     9.6970    12.6690   -20.5830 
  126.2500     2.2610   331.4010    69.9660    25.0860    14.6760     9.5660    12.1910   -20.4760 
  126.3750     2.2730   339.2610    72.3970    24.7440    10.9610     9.1130    11.2700   -20.3360 
  126.5000     2.2660   344.4020    73.6090    24.4250     8.6390     8.5200    10.2510   -20.1740 
  126.6250     2.2650   346.2720    73.3520    24.3050     8.1860     8.0170     9.5140   -20.0020 
  126.7500     2.2820   346.4810    73.6000    24.3380     8.2640     7.7170     9.1680   -19.8240 
  126.8750     2.3120   346.0140    73.9460    24.5230     8.4380     7.6470     9.2040   -19.6660 
  127.0000     2.3370   345.2730    72.4730    24.8420     8.6550     7.7860     9.5560   -19.5260 
  127.1250     2.3430   344.1340    69.5010    25.1620     8.8740     8.1060    10.1520   -19.4350 
  127.2500     2.3330   342.7210    67.9890    25.3510     9.1100     8.5000    10.8220   -19.3940 
  127.3750     2.3160   341.5710    68.4340    25.4040     9.4670     8.8700    11.4010   -19.3980 
  127.5000     2.2990   341.4630    69.5230    25.3790     9.8780     9.0940    11.6890   -19.4530 
  127.6250     2.2740   343.0050    68.9540    25.2750     9.9090     9.0220    11.4660   -19.5390 
  127.7500     2.2360   344.9460    66.8740    25.1020     9.4780     8.7240    10.8890   -19.6070 
  127.8750     2.1970   344.9730    65.8510    24.9150     8.9400     8.3610    10.2720   -19.6110 
  128.0000     2.1890   340.1080    67.0920    24.8070     8.6240     8.1670    10.0300   -19.5150 
  128.1250     2.2450   326.5690    69.5700    24.8350     8.6530     8.4800    10.7310   -19.2580 
  128.2500     2.3450   305.5810    71.2540    24.9340     9.2990     9.4530    12.5420   -18.8620 
  128.3750     2.4600   279.8850    71.3300    25.0900    11.3120    11.2180    15.5250   -18.3480 
  128.5000     2.5580   253.9580    70.9600    25.3000    15.3610    13.7430    19.4030   -17.7440 
  128.6250     2.6230   233.9690    70.1520    25.4970    20.8950    16.5440    23.1000   -17.0890 
  128.7500     2.6730   222.6720    69.0040    25.6050    25.2230    18.5370    25.0750   -16.4410 
  128.8750     2.7120   220.8330    66.5650    25.6240    26.5470    18.9610    24.5640   -15.8360 
  129.0000     2.7260   227.2090    63.6080    25.6080    24.5200    17.8790    22.1150   -15.3350 
  129.1250     2.6890   239.6200    63.0860    25.5970    19.9210    16.0030    19.0690   -14.9750 
  129.2500     2.6210   253.7990    64.0850    25.6030    15.2180    14.1770    16.4800   -14.7390 
  129.3750     2.5500   267.4690    63.0710    25.6380    12.0180    12.6480    14.5360   -14.6240 
  129.5000     2.4930   279.5550    60.5380    25.6820    10.5900    11.4040    13.0760   -14.5740 
  129.6250     2.4510   290.1640    62.3170    25.6110    10.1180    10.3290    11.8240   -14.5700 
  129.7500     2.4170   300.7030    68.2590    25.3900     9.5750     9.2790    10.5290   -14.5870 
  129.8750     2.3910   312.1630    75.2500    25.1230     8.7820     8.2320     9.1660   -14.6070 
  130.0000     2.3710   324.9480    80.7210    24.9470     7.7930     7.2380     7.8440   -14.6330 
  130.1250     2.3520   338.8120    82.6910    24.9410     6.7430     6.4140     6.7750   -14.6910 
  130.2500     2.3310   352.6540    83.0120    25.0580     5.9350     5.8120     6.0490   -14.8030 
  130.3750     2.3150   365.4740    84.3610    25.2600     5.5500     5.4620     5.7010   -14.9910 
  130.5000     2.3100   376.2780    87.2950    25.4590     5.5250     5.3720     5.7220   -15.2840 
  130.6250     2.3180   383.5860    87.2910    25.5200     5.8520     5.5700     6.1280   -15.6900 
  130.7500     2.3180   387.2890    82.4920    25.3800     6.5600     5.9760     6.7960   -16.1640 
  130.8750     2.2950   387.3500    75.0520    25.0520     7.5190     6.5340     7.6300   -16.6660 
  131.0000     2.2560   384.1300    67.8160    24.6790     8.3790     7.1570     8.4970   -17.1250 
  131.1250     2.2370   377.7870    64.2910    24.4910     8.9310     7.7240     9.2230   -17.4710 
  131.2500     2.2590   369.3450    64.6990    24.5090     9.3330     8.1410     9.7150   -17.6960 
  131.3750     2.3130   359.4470    66.2100    24.6550     9.4590     8.3580     9.9270   -17.8090 
  131.5000     2.3810   349.2140    67.0920    24.8890     9.1740     8.3620     9.8650   -17.8390 
  131.6250     2.4270   340.9160    67.2670    25.2010     8.8520     8.1750     9.5840   -17.8530 
  131.7500     2.4300   336.3390    67.4100    25.3980     8.8780     7.9320     9.2660   -17.9290 
  131.8750     2.3940   336.3790    67.6610    25.2430     8.9330     7.7390     9.0600   -18.0900 
  132.0000     2.3440   340.5580    68.1750    24.7180     8.7190     7.6810     9.0880   -18.3620 
  132.1250     2.3100   347.2770    69.7780    24.1470     8.7910     7.8260     9.4360   -18.7770 
  132.2500     2.2870   353.9270    70.7230    23.7910     9.6570     8.1000     9.9610   -19.2810 
  132.3750     2.2580   359.2580    70.7820    23.5830    10.6980     8.3980    10.4700   -19.8320 
  132.5000     2.2180   362.9630    72.1380    23.4180    10.8480     8.5960    10.7540   -20.3720 
  132.6250     2.1870   365.2710    74.5470    23.3590     9.9150     8.5730    10.6470   -20.8210 
  132.7500     2.1810   366.9290    75.5650    23.4130     9.0310     8.3820    10.2950   -21.1420 
  132.8750     2.1910   368.1440    74.7320    23.4930     8.6180     8.1210     9.8910   -21.3510 
  133.0000     2.2000   368.8520    74.2310    23.5440     8.4740     7.8960     9.6060   -21.4620 
  133.1250     2.1950   368.7430    74.3970    23.5540     8.3560     7.7870     9.5300   -21.4790 
  133.2500     2.1810   367.8730    73.1060    23.5310     8.2820     7.7640     9.5710   -21.4290 
  133.3750     2.1720   366.3810    72.6390    23.3350     8.2930     7.7850     9.6430   -21.3200 
  133.5000     2.1770   364.4670    74.6480    22.8090     8.3180     7.8190     9.7120   -21.1580 
  133.6250     2.1950   362.0830    76.6840    22.0840     8.2640     7.8830     9.8300   -20.9350 
  133.7500     2.2210   358.9720    76.1640    21.6130     8.2050     8.0140    10.0780   -20.6660 
  133.8750     2.2560   354.7700    75.9420    21.5690     8.2990     8.2420    10.5140   -20.3590 
