~V
VERS. 2.00: Ver 2.00
~W
STRT.M 125.0000:
STOP.M 276.0000:
STEP.M 0.1250:
NULL. -999.2500:
UWI. DF3039:
~C
DEPT.M :
SP.MV :
GR.API :
CALI.CM :
RXO.OHMM :
RI. :
RML.OHMM :
DEN.GM/CC :
~A
# ...
  237.5000   -22.9910    64.1110    23.8060   148.5560   107.1570   110.7610     2.2610 
  237.6250   -22.9630    62.8220    23.8840   127.7170   105.4980   108.9010     2.2740 
  237.7500   -22.9150    64.8350    23.8450   103.0140   104.5960   107.9090     2.2880 
  237.8750   -22.8660    69.2340    23.8030    94.7330   104.6540   107.8970     2.2940 
  238.0000   -22.8200    72.0140    23.8780   107.6890   105.8050   108.8470     2.2920 
  238.1250   -22.7960    69.3470    23.8320   118.5360   107.3540   110.0200     2.2890 
  238.2500   -22.7380    65.5400    23.7950   124.8260   108.5070   110.6030     2.2910 
  238.3750   -22.6020    63.4150    23.8220   132.0160   108.5520   109.8470     2.2940 
  238.5000   -22.3930    63.7510    24.0630   139.6290   106.8070   107.1770     2.2880 
  238.6250   -22.1450    65.3530    24.1370   130.0500   102.8470   102.6390     2.2760 
  238.7500   -21.9300    67.5920    24.1550   109.9150    97.9790    97.5350     2.2680 
  238.8750   -21.7830    70.5790    24.1170   101.5570    92.7180    92.3800     2.2660 
  239.0000   -21.7040    71.5870    24.2090   103.6130    87.5130    87.5580     2.2620 
  239.1250   -21.6550    69.0890    24.1850   100.8150    83.0030    83.5630     2.2580 
  239.2500   -21.5910    66.1720    24.1060    89.9810    79.1670    80.2540     2.2570 
  239.3750   -21.5180    66.0440    24.0990    79.3160    75.8950    77.4320     2.2550 
  239.5000   -21.4290    67.9720    24.1690    79.1480    73.0350    74.9480     2.2480 
  239.6250   -21.3130    68.2120    24.0920    83.8640    71.0130    73.1890     2.2480 
  239.7500   -21.1880    67.2860    23.9820    80.9190    69.8430    72.4420     2.2650 
  239.8750   -21.0590    65.7980    23.8320    80.1130    69.9700    73.0640     2.2970 
  240.0000   -20.9470    62.1880    23.7900    81.2420    71.7550    75.5720     2.3230 
  240.1250   -20.9000    59.4240    23.8290    71.4130    76.1200    80.9810     2.3260 
  240.2500   -20.9230    60.5980    23.8970    60.1410    83.0500    88.9980     2.3060 
  240.3750   -20.9640    64.2930    24.1600    71.0350    92.3760    99.3170     2.2780 
  240.5000   -20.9840    66.1910    24.3830   103.6700   102.9580   110.5430     2.2550 
  240.6250   -20.9730    65.2170    24.4620   136.9970   111.4340   119.1280     2.2340 
  240.7500   -20.9470    64.7010    24.4570   147.4430   115.7040   122.8620     2.2140 
  240.8750   -20.9170    64.7260    24.3850   144.0880   114.9810   121.0280     2.2000 
  241.0000   -20.8860    65.3750    24.1970   137.1060   109.3030   113.9970     2.2040 
  241.1250   -20.8540    67.4540    24.2100   131.3040    99.9780   103.6820     2.2200 
  241.2500   -20.8220    71.2850    24.2500   117.0570    90.5930    94.2130     2.2390 
  241.3750   -20.8090    74.9700    24.2100    91.6640    83.3040    87.7060     2.2600 
  241.5000   -20.8190    75.2910    24.1440    69.5500    79.0110    84.5370     2.2780 
  241.6250   -20.8240    73.7000    24.0620    69.3050    78.4260    85.0240     2.3040 
  241.7500   -20.7980    74.7070    23.8810    78.6060    80.4500    87.8590     2.3410 
  241.8750   -20.6940    76.6440    23.8700    83.0610    84.3720    92.3870     2.3720 
  242.0000   -20.5330    74.8790    23.8400    84.8560    89.7180    98.0350     2.3620 
  242.1250   -20.3630    70.6960    23.8410    93.9750    95.9690   103.9360     2.3190 
  242.2500   -20.2400    69.2890    23.8900   116.9040   102.2250   109.3700     2.2750 
  242.3750   -20.1710    69.4340    23.8410   129.8640   108.0400   113.7700     2.2500 
  242.5000   -20.1360    67.9450    23.8470   121.3770   111.9730   115.8640     2.2320 
  242.6250   -20.1570    66.6160    23.8970   117.8790   111.3620   113.2550     2.2090 
  242.7500   -20.1570    67.6030    23.8880   126.2460   105.0700   105.1670     2.1930 
  242.8750   -20.1390    70.4890    23.8540   139.5460    93.5530    92.4600     2.2050 
  243.0000   -20.1060    72.3270    23.9080   151.3150    78.7870    77.2160     2.2470 
  243.1250   -20.0290    71.8040    23.9080   143.2730    64.0570    62.5300     2.2810 
  243.2500   -19.9040    73.6100    23.6230   108.6600    51.8650    50.4550     2.2890 
  243.3750   -19.7700    78.4780    23.0590    61.9470    42.8710    41.7540     2.2800 
  243.5000   -19.6790    83.0120    22.4850    30.7470    37.2880    36.6620     2.2810 
  243.6250   -19.6300    82.7620    21.6140    24.3200    35.2970    35.2620     2.2970 
  243.7500   -19.6540    81.1260    20.8450    23.2300    35.6770    36.3010     2.3180 
  243.8750   -19.7290    80.1430    20.0470    22.4920    37.9340    39.1160     2.3310 
  244.0000   -19.8130    78.2640    19.4560    21.5090    41.5710    43.0820     2.3290 
  244.1250   -19.8590    76.6460    19.1090    20.0780    46.2850    47.8230     2.3210 
  244.2500   -19.8650    76.0040    18.9950    19.7430    51.0350    52.4200     2.3150 
  244.3750   -19.8300    74.6380    19.1590    21.6500    55.3130    56.4460     2.3160 
  244.5000   -19.7520    72.6660    19.4830    27.5650    58.8690    59.7110     2.3120 
  244.6250   -19.6680    68.5760    20.2110    36.9530    61.2420    61.9340     2.2940 
  244.7500   -19.5870    64.3260    21.4360    46.8020    62.5750    63.3430     2.2680 
  244.8750   -19.5250    62.3030    22.1280    54.5650    63.1890    64.2920     2.2460 
  245.0000   -19.5020    62.5500    22.2650    57.0820    63.5320    65.1380     2.2360 
  245.1250   -19.5440    62.6320    22.2960    56.2810    63.8250    66.1120     2.2300 
  245.2500   -19.6050    61.9540    22.3610    55.4270    64.2850    67.4060     2.2200 
  245.3750   -19.6440    64.4350    22.4120    53.4350    65.0960    69.0730     2.2060 
  245.5000   -19.6180    68.2620    22.2890    49.4620    66.0310    70.7060     2.2000 
  245.6250   -19.5000    67.9260    22.2930    48.9920    66.7460    71.8530     2.2130 
  245.7500   -19.3370    66.6550    22.2760    52.3350    67.2330    72.5510     2.2400 
  245.8750   -19.1830    68.0520    22.2630    54.0720    67.6550    73.0680     2.2660 
  246.0000   -19.0560    70.6880    22.2840    53.4320    68.3230    73.8490     2.2690 
  246.1250   -18.9540    69.5400    22.4220    51.9220    70.0670    75.8940     2.2540 
  246.2500   -18.8800    67.2290    22.3690    50.6190    73.6460    79.9130     2.2380 
  246.3750   -18.8410    67.7840    22.2970    50.2710    79.6040    86.2820     2.2320 
  246.5000   -18.8430    69.9740    22.3010    51.5950    87.1940    94.2150     2.2320 
  246.6250   -18.8320    69.4600    22.4230    56.7180    94.7430   101.8460     2.2240 
  246.7500   -18.7910    67.6780    22.3640    63.2500    99.7490   106.4760     2.2150 
  246.8750   -18.6810    66.6340    22.2950    67.8800   100.7220   106.3860     2.2190 
  247.0000   -18.5260    67.3750    22.2690    68.5330    97.2630   101.3060     2.2470 
  247.1250   -18.3690    69.7920    22.0290    61.3920    89.9400    92.4220     2.2920 
  247.2500   -18.2330    72.4930    21.4440    49.0840    81.2080    82.7590     2.3420 
  247.3750   -18.1340    73.3520    20.8080    35.6470    72.9450    74.3600     2.3910 
  247.5000   -18.0740    73.9190    20.2110    25.4220    66.7180    68.3710     2.4320 
  247.6250   -18.0510    75.7190    20.0900    22.5690    63.2000    65.0410     2.4640 
  247.7500   -18.0250    76.1910    20.0610    23.9830    61.3630    63.3310     2.4840 
  247.8750   -17.9900    76.5510    20.0640    25.2680    60.7540    62.8730     2.4860 
  248.0000   -17.9220    79.9000    19.9980    24.6310    61.0450    63.3260     2.4670 
  248.1250   -17.7830    83.1330    19.7350    23.1830    62.2250    64.6000     2.4420 
  248.2500   -17.6020    81.2860    19.5510    22.1660    64.0940    66.4660     2.4250 
  248.3750   -17.4020    77.4940    19.5680    22.3690    66.7070    68.9440     2.4250 
  248.5000   -17.1960    76.7120    19.8500    26.1890    69.9050    71.8740     2.4430 
  248.6250   -17.0370    77.8400    20.1230    30.4990    73.0530    74.6280     2.4700 
