~V
VERS. 2.00: Ver 2.00
~W
STRT.M 125.0000:
STOP.M 256.0000:
STEP.M 0.1250:
NULL. -999.2500:
UWI. DF3030:
~C
DEPT.M :
GR.API :
RML.OHMM :
RI. :
RXO.OHMM :
CALI.CM :
DEN.GM/CC :
SP.MV :
~A
# ...
  215.0000    73.8840    59.4540    56.5280    47.8460    25.0100     2.2180   -27.5080 
  215.1250    70.6970    59.6550    56.3110    47.3280    25.0220     2.2110   -27.4890 
  215.2500    70.8010    60.7650    56.9870    51.4690    25.0560     2.2020   -27.5570 
  215.3750    72.8580    62.5600    58.3860    57.2460    25.1040     2.1930   -27.5850 
  215.5000    72.9580    64.7540    60.2440    59.0540    25.1550     2.1880   -27.6730 
  215.6250    71.3030    67.1070    62.3120    59.9960    25.1570     2.1870   -27.7800 
  215.7500    71.0330    69.4850    64.4030    60.7670    25.1260     2.1860   -27.8110 
  215.8750    70.8660    71.8990    66.4930    60.2430    25.0810     2.1830   -27.8180 
  216.0000    69.1700    74.3540    68.5750    58.2610    25.0340     2.1770   -27.8200 
  216.1250    67.2360    76.7390    70.5370    57.3980    25.0160     2.1740   -27.8900 
  216.2500    68.9750    78.8640    72.2140    59.6040    25.0100     2.1780   -27.8930 
  216.3750    72.5330    80.5660    73.4560    62.9570    25.0100     2.1860   -27.9240 
  216.5000    73.6160    81.8080    74.2260    66.4940    25.0100     2.1950   -28.0460 
  216.6250    70.0250    82.7670    74.6610    67.5920    25.0220     2.1960   -28.0520 
  216.7500    66.4720    83.9380    75.2040    66.9700    25.0450     2.1910   -28.2070 
  216.8750    65.3740    85.7990    76.2780    65.5100    25.0570     2.1840   -28.3350 
  217.0000    66.2500    88.7150    78.2170    65.6480    25.0340     2.1800   -28.5460 
  217.1250    68.1540    92.9570    81.2920    68.7860    25.0160     2.1860   -28.8210 
  217.2500    71.2790    98.0080    85.1170    74.2020    25.0100     2.2000   -29.1050 
  217.3750    73.6090   103.3190    89.2710    80.3770    25.0100     2.2170   -29.4570 
  217.5000    72.5640   108.2900    93.2770    85.8060    25.0100     2.2310   -29.7300 
  217.6250    68.3180   112.3580    96.6860    89.2230    25.0090     2.2370   -30.1500 
  217.7500    65.5440   115.6680    99.5640    92.0600    24.9960     2.2350   -30.4870 
  217.8750    65.4400   118.5950   102.1850    94.7760    24.9670     2.2280   -30.8750 
  218.0000    66.5850   121.6230   104.9200    95.6700    24.9420     2.2210   -31.1770 
  218.1250    67.1130   125.1260   108.0750    96.0230    24.9330     2.2140   -31.3140 
  218.2500    66.2850   128.8190   111.4230    99.4120    24.9210     2.2070   -31.4850 
  218.3750    65.0430   132.0380   114.4320   104.7090    24.8800     2.1990   -31.5690 
  218.5000    64.3320   133.8790   116.3680   111.0140    24.7910     2.1940   -31.6160 
  218.6250    64.0600   133.0270   116.1410   118.8710    24.7430     2.1970   -31.6530 
  218.7500    66.2470   129.4740   113.6800   119.5470    24.7100     2.2110   -31.6410 
  218.8750    71.5090   123.5710   109.2060   112.8810    24.6780     2.2330   -31.5320 
  219.0000    75.8560   116.1710   103.3640   108.4590    24.6620     2.2580   -31.4270 
  219.1250    73.7340   108.3360    96.9840   104.3410    24.6660     2.2750   -31.3080 
  219.2500    69.7010   100.9700    90.8720    96.5170    24.6510     2.2800   -31.0730 
  219.3750    69.4650    94.4880    85.3390    87.0850    24.6410     2.2760   -30.6910 
  219.5000    71.0880    88.8660    80.4030    81.5180    24.6390     2.2670   -30.2920 
  219.6250    69.3050    83.7990    75.8630    79.1980    24.6400     2.2610   -29.6290 
  219.7500    66.6730    78.6170    71.3070    75.4830    24.6600     2.2580   -28.8330 
  219.8750    66.5630    72.9480    66.5090    70.2640    24.7170     2.2610   -27.9170 
  220.0000    68.3800    66.5070    61.4580    66.4910    24.7790     2.2670   -26.8070 
  220.1250    68.1350    60.1150    56.5300    62.8430    24.7820     2.2810   -25.7540 
  220.2500    67.2940    55.0080    52.3450    56.1470    24.7370     2.3070   -24.6310 
  220.3750    69.4050    52.3770    49.4910    48.1070    24.6730     2.3510   -23.6860 
  220.5000    72.8520    51.7200    48.4040    43.3230    24.5900     2.4100   -22.8330 
  220.6250    71.1080    53.5590    49.6220    44.4650    24.4820     2.4700   -22.2010 
  220.7500    65.4600    57.3450    52.7220    49.0900    24.2810     2.5080   -21.8930 
  220.8750    62.2340    62.6410    57.3570    55.7780    24.0140     2.5090   -21.8090 
  221.0000    64.8490    68.7900    62.9400    61.2860    23.7420     2.4810   -22.0820 
  221.1250    70.4100    74.7620    68.5170    66.5890    23.4440     2.4450   -22.4460 
  221.2500    74.2680    79.4080    72.9600    72.7490    22.8510     2.4290   -23.0440 
  221.3750    77.3270    81.7860    75.3600    80.8360    21.9980     2.4400   -23.7560 
  221.5000    81.0040    81.3750    75.1860    93.9550    21.5900     2.4720   -24.4570 
  221.6250    83.6400    78.1590    72.3000    94.9840    22.3570     2.5070   -25.2200 
  221.7500    84.0130    73.9060    68.2240    89.3040    23.4040     2.5280   -25.8420 
  221.8750    82.2000    70.1680    64.3310    76.0320    23.9040     2.5290   -26.3640 
  222.0000    80.1960    68.1190    61.7560    61.3370    23.9620     2.5130   -26.7880 
  222.1250    78.9640    68.3580    61.2460    55.1940    23.8830     2.4850   -27.0690 
  222.2500    77.7030    69.7550    62.0160    57.7260    23.8860     2.4550   -27.2060 
  222.3750    76.3710    71.0840    63.1120    65.1940    24.0050     2.4320   -27.2020 
  222.5000    76.1920    71.2450    63.5790    75.2170    24.2710     2.4210   -27.1000 
  222.6250    77.2820    69.6500    62.7960    79.5100    24.5030     2.4240   -26.8840 
  222.7500    77.4760    67.5350    61.5770    73.5270    24.6220     2.4270   -26.6050 
  222.8750    76.4890    66.8490    61.4640    63.4400    24.6190     2.4200   -26.3440 
  223.0000    73.8550    69.9740    64.5000    58.7580    24.5290     2.4010   -25.9150 
  223.1250    71.4880    79.5370    73.1000    61.4140    24.4150     2.3790   -25.5650 
  223.2500    71.9570    93.4440    85.7350    68.9100    24.4460     2.3740   -25.1430 
  223.3750    73.7950   107.4610    98.7560    83.4420    24.5830     2.3960   -24.6860 
  223.5000    73.3410   115.0690   106.2930   105.6730    24.6440     2.4470   -24.2800 
  223.6250    69.4720   107.0890   100.0510   128.4550    24.6190     2.5140   -23.7880 
  223.7500    67.6870    85.5680    81.1790   136.9460    24.5550     2.5750   -23.3920 
  223.8750    70.8690    58.6570    56.3910   119.3710    24.4190     2.6140   -22.9860 
  224.0000    78.0160    35.8470    34.6360    84.7450    24.2130     2.6220   -22.8030 
  224.1250    85.9510    22.5720    21.5150    38.7290    23.9940     2.5990   -22.6870 
  224.2500    91.7080    14.4010    14.4620    16.7670    23.9510     2.5610   -22.7420 
  224.3750    96.6130    11.3170    11.1610     9.7490    23.9700     2.5180   -23.0070 
  224.5000    99.5830    10.3620     9.9540     8.7590    23.9320     2.4790   -23.3340 
  224.6250    97.8090    10.5860    10.0110     8.9920    23.7700     2.4490   -23.8860 
  224.7500    96.7690    11.1860    10.6020     9.0670    23.7450     2.4260   -24.4810 
  224.8750   101.5140    11.8080    11.3740     9.1910    23.9250     2.4070   -25.0900 
  225.0000   108.3320    12.2410    12.0480     9.4490    24.3570     2.3930   -25.6840 
  225.1250   111.3240    12.3790    12.4180     9.8270    24.8620     2.3850   -26.2390 
  225.2500   114.3260    12.3050    12.5070    10.1530    25.1210     2.3850   -26.7240 
  225.3750   118.8960    12.0690    12.3480    10.3450    25.2210     2.3920   -27.0810 
  225.5000   120.9420    11.7120    11.9790    10.4400    25.2770     2.4030   -27.3380 
  225.6250   121.1310    11.2500    11.4370    10.3410    25.3620     2.4150   -27.4960 
  225.7500   122.7460    10.8100    10.8520    10.0850    25.4670     2.4240   -27.5850 
  225.8750   122.9140    10.6450    10.3810     9.8680    25.5630     2.4260   -27.7790 
  226.0000   119.5400    10.9320    10.2310     9.7020    25.5900     2.4210   -27.9420 
  226.1250   116.1790    12.3180    10.7690     9.8560    25.4860     2.4080   -28.1690 
