~V
VERS. 2.00: Ver 2.00
~W
STRT.M 60.0000:
STOP.M 275.0000:
STEP.M 0.1250:
NULL. -999.2500:
UWI. DF3003:
~C
DEPT.M :
DEN.GM/CC :
SP.MV :
AC.US/MT :
GR.API :
RML.OHMM :
RI. :
RXO.OHMM :
CALI.CM :
~A
# ...
  170.0000     2.2440   -23.9120   402.6830    63.6050    95.9960    91.8690    57.2060    24.6120 
  170.1250     2.2420   -23.5770   409.1930    66.7550    96.5900    90.3690    47.3090    24.6910 
  170.2500     2.2310   -23.2350   412.7690    66.0100   104.9460    96.8560    58.9070    24.8110 
  170.3750     2.2170   -22.7520   411.4190    61.9710   118.3970   108.6730    82.0790    24.9600 
  170.5000     2.2060   -22.2340   407.2380    57.7040   132.7370   121.8310   106.1110    25.0640 
  170.6250     2.2020   -21.6940   404.0520    57.1940   141.4440   130.5480   117.4180    25.0970 
  170.7500     2.2030   -21.2460   401.5450    59.1870   141.2710   131.7860   102.7330    25.0970 
  170.8750     2.2040   -20.9250   398.0720    60.5950   132.6200   125.4090    81.6960    25.0810 
  171.0000     2.2060   -20.6720   394.7540    61.5890   119.4460   114.1630    69.7880    25.0500 
  171.1250     2.2130   -20.5380   392.5100    64.3510   107.2130   102.4950    67.2200    24.9700 
  171.2500     2.2230   -20.3190   390.9870    68.8830    99.1180    93.9880    66.3870    24.8420 
  171.3750     2.2340   -20.2550   389.9790    72.4650    96.3270    90.2300    64.7730    24.7200 
  171.5000     2.2410   -20.2940   389.7720    73.7480    98.8740    91.5970    65.0390    24.6630 
  171.6250     2.2360   -20.3340   390.8130    70.7470   105.7030    97.4540    74.9410    24.6560 
  171.7500     2.2230   -20.3680   392.1620    63.1900   112.7000   104.0740    98.0520    24.6550 
  171.8750     2.2060   -20.3830   392.5520    55.1620   115.8630   107.8120   124.3280    24.6500 
  172.0000     2.1950   -20.3680   390.7620    52.1800   111.9350   105.6060   137.4700    24.6400 
  172.1250     2.1990   -20.2610   386.2810    55.1200    99.6700    95.7320   119.4210    24.6130 
  172.2500     2.2200   -20.2740   380.6270    61.2490    84.1480    82.1590    87.5250    24.5630 
  172.3750     2.2540   -20.2400   375.1970    68.3240    69.8050    68.7460    63.9730    24.5000 
  172.5000     2.2900   -20.2220   371.6730    73.1290    59.1570    58.2520    51.5500    24.4500 
  172.6250     2.3110   -20.2980   372.5120    72.8430    53.2990    52.1920    43.3250    24.4330 
  172.7500     2.3140   -20.3720   377.6300    71.0150    51.6950    49.4790    38.8470    24.4290 
  172.8750     2.3020   -20.4910   385.2120    69.2620    52.6580    49.4810    39.1210    24.4290 
  173.0000     2.2840   -20.5890   392.2000    67.2630    55.7300    51.6710    42.2960    24.4280 
  173.1250     2.2710   -20.6010   396.2150    68.2420    60.0320    55.7840    46.8920    24.4270 
  173.2500     2.2640   -20.5920   398.0920    70.4700    64.8890    60.8610    52.6860    24.4270 
  173.3750     2.2600   -20.6470   399.0520    70.3070    69.2720    66.0960    59.2190    24.4260 
  173.5000     2.2560   -20.7290   400.1770    69.3380    72.4640    70.6380    63.5510    24.4160 
  173.6250     2.2520   -20.6350   401.4230    71.9430    75.8390    73.6160    63.0180    24.3820 
  173.7500     2.2480   -20.5040   400.6620    75.3510    77.8190    75.2260    57.5700    24.3180 
  173.8750     2.2450   -20.2860   397.2610    75.7690    78.9640    75.9750    48.7980    24.2100 
  174.0000     2.2420   -20.0770   393.2740    73.7650    80.0560    76.5780    42.4270    24.0640 
  174.1250     2.2370   -19.9970   391.7420    71.5140    81.8220    77.7340    45.9240    24.1280 
  174.2500     2.2290   -19.8360   392.0080    69.9660    84.2420    79.5190    55.0370    24.3070 
  174.3750     2.2210   -19.6380   392.5360    69.1540    86.9730    81.7020    63.8710    24.4790 
  174.5000     2.2130   -19.3330   393.4750    69.3580    89.5270    83.9050    69.5520    24.5460 
  174.6250     2.2100   -19.0030   395.5450    70.1670    91.2080    85.5870    72.2640    24.6100 
  174.7500     2.2120   -18.7410   398.1410    69.6390    91.5820    86.3260    72.3180    24.7220 
  174.8750     2.2170   -18.5010   400.0300    66.8940    90.1170    85.6020    70.4400    24.7930 
  175.0000     2.2220   -18.3080   400.6210    65.0110    86.3220    82.8580    68.0140    24.8430 
  175.1250     2.2280   -18.0680   400.3270    67.4720    79.6690    77.3630    65.1090    24.9440 
  175.2500     2.2350   -17.8530   399.6260    70.2390    71.3180    69.9280    61.2090    25.0260 
  175.3750     2.2470   -17.6790   398.9360    71.3230    62.6680    61.6990    54.7400    25.1270 
  175.5000     2.2640   -17.5880   399.2270    72.1210    55.2530    54.1340    45.6450    25.1550 
  175.6250     2.2820   -17.6920   400.6480    74.5640    50.5080    48.8110    38.0690    25.1470 
  175.7500     2.2950   -17.7920   401.8280    75.8690    48.1990    45.8530    34.9830    25.1240 
  175.8750     2.2970   -17.9210   401.7410    75.4460    48.0790    45.0560    37.0450    25.0660 
  176.0000     2.2890   -18.0030   399.6180    74.9950    49.5800    45.9570    41.4130    25.0470 
  176.1250     2.2750   -18.0290   397.1680    75.4140    52.7610    48.2180    43.4840    25.0650 
  176.2500     2.2630   -18.1320   396.4450    75.2990    56.9360    51.3650    42.6350    25.1150 
  176.3750     2.2530   -18.2610   396.7480    73.9610    62.3490    55.4680    43.2090    25.2230 
  176.5000     2.2440   -18.3210   395.9100    72.1920    69.1270    60.7470    47.8340    25.3570 
  176.6250     2.2370   -18.2650   393.4940    71.1490    75.7130    67.4410    55.9990    25.4570 
  176.7500     2.2320   -18.1440   391.7890    70.5870    82.6360    74.7560    66.7120    25.4790 
  176.8750     2.2290   -17.9460   390.9790    70.5580    88.6320    81.5350    76.8120    25.3830 
  177.0000     2.2290   -17.7480   390.8670    70.2340    92.2580    86.3670    81.0290    25.2390 
  177.1250     2.2310   -17.5390   391.1790    68.3170    91.9540    87.5730    76.1760    25.1140 
  177.2500     2.2340   -17.2500   391.2150    67.1830    88.4370    85.5180    68.3940    24.9320 
  177.3750     2.2380   -16.8710   391.0420    68.8530    82.5200    80.8130    59.6690    24.8330 
  177.5000     2.2440   -16.5700   391.2220    71.7400    74.9060    74.1540    52.2360    24.7260 
  177.6250     2.2490   -16.2990   391.9970    71.8840    65.8160    65.7980    48.4530    24.6380 
  177.7500     2.2540   -16.1430   392.7820    69.6050    56.0460    56.5160    46.6750    24.6030 
  177.8750     2.2600   -16.0880   393.2250    67.7480    46.6080    47.1890    45.2200    24.5630 
  178.0000     2.2690   -16.1130   392.9010    68.8020    38.7330    39.0110    41.7800    24.4740 
  178.1250     2.2810   -16.2690   390.9500    73.2680    33.9830    33.6020    31.6370    24.4220 
  178.2500     2.2930   -16.4580   387.8880    78.3270    32.6170    31.4200    23.8650    24.4170 
  178.3750     2.2990   -16.7940   385.0930    81.8340    35.1610    33.0630    25.0340    24.4630 
  178.5000     2.2950   -17.2000   384.0880    83.3570    42.1980    39.1390    32.1400    24.5270 
  178.6250     2.2790   -17.7000   385.4890    81.7730    54.9010    50.8010    46.7830    24.5800 
  178.7500     2.2570   -18.2650   387.8340    78.3790    71.8330    66.6020    63.3280    24.6090 
  178.8750     2.2370   -18.8390   389.8190    75.2040    91.1710    84.7510    79.6550    24.5960 
  179.0000     2.2240   -19.3910   390.6490    71.8020   110.2260   102.7240    90.6080    24.5630 
  179.1250     2.2220   -19.9380   390.3940    68.8010   125.8460   117.7150    96.6320    24.5150 
  179.2500     2.2270   -20.5240   389.9050    67.2350   137.8730   129.4810   105.6830    24.4470 
  179.3750     2.2340   -21.1230   389.6950    65.8620   147.3020   138.6760   118.7650    24.3680 
  179.5000     2.2400   -21.7170   389.9910    61.9120   154.9020   145.9020   132.4720    24.2950 
  179.6250     2.2430   -22.2770   390.9340    58.0730   159.6620   150.5380   145.9630    24.2220 
  179.7500     2.2430   -22.7920   392.4580    59.0210   160.9580   152.2310   151.5780    24.1410 
  179.8750     2.2410   -23.3100   394.6950    61.0550   158.5510   150.8180   143.6280    24.0800 
