~V
VERS. 2.00: Ver 2.00
~W
STRT.M 64.0000:
STOP.M 259.0000:
STEP.M 0.1250:
NULL. -999.2500:
UWI. DF3067:
~C
DEPT.M :
DEN.GM/CC :
GR.API :
CALI.CM :
RXO.OHMM :
RI. :
RML.OHMM :
SP.MV :
~A
# ...
  109.0000  -999.2500    86.7070    23.0820     6.8050     6.0520     7.5140  -999.2500 
  109.1250  -999.2500    95.9220    23.3520     5.3970     5.3450     6.7060  -999.2500 
  109.2500  -999.2500    97.5980    23.5080     5.1110     4.9170     6.3090  -999.2500 
  109.3750  -999.2500    95.5160    23.4730     5.2940     4.7700     6.2560  -999.2500 
  109.5000  -999.2500    94.5220    23.3490     5.7070     4.8460     6.4200  -999.2500 
  109.6250  -999.2500    94.0760    23.2560     6.0400     5.0410     6.6220  -999.2500 
  109.7500  -999.2500    93.0350    23.2270     6.2540     5.1860     6.6940  -999.2500 
  109.8750  -999.2500    93.0390    23.3280     6.0580     5.1950     6.5900  -999.2500 
  110.0000  -999.2500    94.7440    23.5620     5.7620     5.0720     6.3560  -999.2500 
  110.1250  -999.2500    98.5530    23.7550     5.2740     4.8700     6.0770  -999.2500 
  110.2500  -999.2500   105.7580    23.8270     4.9350     4.6570     5.8200  -999.2500 
  110.3750  -999.2500   111.6210    23.8260     5.0570     4.4560     5.5980  -999.2500 
  110.5000  -999.2500   110.4960    23.7980     5.1750     4.2710     5.4020  -999.2500 
  110.6250  -999.2500   104.2860    23.7510     4.9530     4.1050     5.2320  -999.2500 
  110.7500  -999.2500    99.5800    23.7140     4.5460     3.9610     5.0950  -999.2500 
  110.8750  -999.2500    97.2630    23.7030     4.4180     3.8610     5.0220  -999.2500 
  111.0000  -999.2500    95.8070    23.6970     4.5190     3.8410     5.0580  -999.2500 
  111.1250  -999.2500    93.7750    23.5930     5.0500     3.9630     5.2860  -999.2500 
  111.2500  -999.2500    92.1890    23.3690     5.4280     4.2400     5.7140  -999.2500 
  111.3750  -999.2500    90.3150    23.0540     5.4740     4.6810     6.3310  -999.2500 
  111.5000  -999.2500    85.6120    22.6620     6.0370     5.2530     7.0600  -999.2500 
  111.6250  -999.2500    77.9400    22.2480     7.0910     5.8400     7.7110  -999.2500 
  111.7500  -999.2500    71.7810    21.9610     7.6690     6.2720     8.0860  -999.2500 
  111.8750  -999.2500    69.8280    21.8650     7.5770     6.4520     8.0990  -999.2500 
  112.0000  -999.2500    70.9210    21.8320     6.9820     6.3970     7.8360  -999.2500 
  112.1250  -999.2500    74.8480    21.7200     6.2870     6.2250     7.5220  -999.2500 
  112.2500  -999.2500    78.9570    21.5700     5.8250     6.1160     7.3750  -999.2500 
  112.3750  -999.2500    79.3630    21.3880     6.1230     6.1630     7.4720  -999.2500 
  112.5000  -999.2500    77.2330    21.1710     6.8620     6.3840     7.7950  -999.2500 
  112.6250  -999.2500    76.0930    20.9610     7.6210     6.7590     8.2710  -999.2500 
  112.7500  -999.2500    76.2550    20.7820     8.1480     7.2000     8.7850  -999.2500 
  112.8750  -999.2500    76.2620    20.6260     8.5670     7.6530     9.2980  -999.2500 
  113.0000  -999.2500    76.1830    20.5330     8.7950     8.0890     9.8040  -999.2500 
  113.1250  -999.2500    75.8620    20.6250     8.8370     8.4350    10.2080  -999.2500 
  113.2500  -999.2500    74.5070    20.9160     8.8450     8.5450    10.2900  -999.2500 
  113.3750  -999.2500    73.1830    21.4150     8.7470     8.2230     9.7890  -999.2500 
  113.5000  -999.2500    73.2730    22.0370     8.6170     7.3890     8.6440  -999.2500 
  113.6250  -999.2500    76.1750    22.6220     7.9700     6.2130     7.1780  -999.2500 
  113.7500  -999.2500    81.8280    23.1250     6.2300     5.1290     5.9780  -999.2500 
  113.8750  -999.2500    88.3140    23.5790     4.6220     4.3960     5.3660  -999.2500 
  114.0000  -999.2500    92.5370    23.9020     4.1880     4.1490     5.4730  -999.2500 
  114.1250     2.3920    92.1690    23.9350     5.3960     4.5620     6.4720  -999.2500 
  114.2500     2.3920    88.1970    23.8440     8.6460     5.6180     8.2350  -999.2500 
  114.3750     2.4260    81.1240    23.8150    14.8990     7.3140    10.6320  -999.2500 
  114.5000     2.4720    72.1160    23.7750    20.9430     9.4090    13.1930  -999.2500 
  114.6250     2.4970    66.0170    23.4430    17.9510    11.1610    14.8150  -999.2500 
  114.7500     2.5090    66.1190    22.9250    12.7450    12.0040    15.0540  -999.2500 
  114.8750     2.5040    69.0200    22.5140    10.4560    11.9790    14.3110  -999.2500 
  115.0000     2.4670    70.9700    22.3100    10.3970    11.4850    13.2860  -999.2500 
  115.1250     2.3890    72.8270    22.1820    10.4450    10.8850    12.4430  -999.2500 
  115.2500     2.3050    74.0910    22.0190    10.1630    10.3530    11.8310  -999.2500 
  115.3750     2.2470    73.8640    21.7990     9.7030     9.9090    11.4010  -999.2500 
  115.5000     2.2220    72.7190    21.4660     9.3810     9.5550    11.1170  -999.2500 
  115.6250     2.2250    74.4150    21.0880     9.1050     9.3260    10.9870  -999.2500 
  115.7500     2.2340    77.6390    20.9850     8.8530     9.1900    10.9270  -999.2500 
  115.8750     2.2450    78.6340    21.3500     8.8180     9.0650    10.7990  -999.2500 
  116.0000     2.2580    78.0040    22.0390     9.0240     8.8340    10.4480  -999.2500 
  116.1250     2.2760    77.0140    22.6530     8.8020     8.3670     9.7550  -999.2500 
  116.2500     2.2930    76.4280    23.0120     8.0800     7.7130     8.8750  -999.2500 
  116.3750     2.2990    77.4230    23.2820     7.1710     6.9790     7.9930  -999.2500 
  116.5000     2.2940    81.7490    23.6210     6.1650     6.2950     7.2680  -999.2500 
  116.6250     2.2950    88.1120    23.9440     5.5670     5.7920     6.8290  -999.2500 
  116.7500     2.3080    89.5860    24.1320     5.4300     5.4840     6.6340  -999.2500 
  116.8750     2.3200    86.2340    24.2160     5.7840     5.3640     6.6300  -999.2500 
  117.0000     2.3120    82.8850    24.2810     6.0720     5.3900     6.7430  -999.2500 
  117.1250     2.2870    84.1340    24.3230     6.3070     5.4910     6.8660  -999.2500 
  117.2500     2.2700    87.4800    24.2840     6.5470     5.5710     6.9110  -999.2500 
  117.3750     2.2730    90.0800    24.1510     6.5260     5.5880     6.8510  -999.2500 
  117.5000     2.2870    92.5290    23.9580     6.2510     5.5460     6.7230  -999.2500 
  117.6250     2.2920    94.4210    23.7840     6.0940     5.4850     6.6090  -999.2500 
  117.7500     2.2810    95.2090    23.6760     5.8710     5.4440     6.5560  -999.2500 
  117.8750     2.2600    93.5350    23.6190     5.9380     5.4230     6.5530  -999.2500 
  118.0000     2.2370    88.1840    23.5500     6.3470     5.3960     6.5450  -999.2500 
  118.1250     2.2260    82.4690    23.3980     6.7920     5.3130     6.4650  -999.2500 
  118.2500     2.2370    82.2800    23.2540     6.4690     5.1770     6.3160  -999.2500 
  118.3750     2.2640    88.5660    23.2430     5.6740     5.0250     6.1520  -999.2500 
  118.5000     2.2900    94.3470    23.3420     5.1040     4.9110     6.0360  -999.2500 
  118.6250     2.3010    92.1470    23.3470     5.1980     4.8830     6.0160  -999.2500 
  118.7500     2.3000    86.6440    23.1950     5.5800     4.9250     6.0610  -999.2500 
  118.8750     2.2870    83.1060    23.0000     5.9170     5.0100     6.1220  -999.2500 
  119.0000     2.2740    82.8920    22.8870     6.0460     5.0910     6.1460  -999.2500 
  119.1250     2.2790    84.8630    22.8710     5.8270     5.1130     6.0850  -999.2500 
  119.2500     2.3000    86.3480    22.8760     5.3970     5.0620     5.9570  -999.2500 
  119.3750     2.3210    86.5940    22.9010     5.5330     4.9480     5.7890  -999.2500 
  119.5000     2.3290    86.7290    23.0280     6.4440     4.7920     5.6110  -999.2500 
  119.6250     2.3290    88.5320    23.3120     6.2540     4.6180     5.4460  -999.2500 
  119.7500     2.3270    90.6480    23.6050     5.4970     4.4610     5.3090  -999.2500 
  119.8750     2.3260    92.4810    23.7840     5.0870     4.3480     5.2090  -999.2500 
  120.0000     2.3280    94.6070    23.8610     5.0300     4.2870     5.1470   -26.6660 
  120.1250     2.3290    96.5180    23.8990     5.0420     4.2850     5.1350   -26.6660 
