~V
VERS. 2.00: Ver 2.00
~W
STRT.M 130.0000:
STOP.M 280.0000:
STEP.M 0.1250:
NULL. -999.2500:
UWI. DF3042:
~C
DEPT.M :
DEN.GM/CC :
GR.API :
RML.OHMM :
RI. :
RXO.OHMM :
CALI.CM :
SP.MV :
~A
# ...
  265.0000     2.4640    67.3710     9.1190     7.9690    11.7110    24.1740   -12.3110 
  265.1250     2.4710    68.0850     9.1960     7.9580    10.2180    24.1530   -12.3430 
  265.2500     2.4760    67.4100     9.2000     7.9240     9.3480    24.1440   -12.3410 
  265.3750     2.4750    66.4260     9.1160     7.8490     8.7630    24.1410   -12.3440 
  265.5000     2.4680    66.2500     8.9900     7.7530     8.6380    24.1410   -12.3410 
  265.6250     2.4590    65.4620     8.9170     7.6960     8.7120    24.1410   -12.3320 
  265.7500     2.4510    62.9730     8.9520     7.7160     8.5080    24.1410   -12.3200 
  265.8750     2.4460    60.5110     9.1000     7.8200     8.4350    24.1430   -12.2940 
  266.0000     2.4440    60.6390     9.3230     7.9870     8.4640    24.1470   -12.2860 
  266.1250     2.4430    63.1830     9.5550     8.1760     8.4720    24.1570   -12.2570 
  266.2500     2.4410    65.1450     9.7400     8.3430     8.2840    24.1640   -12.2500 
  266.3750     2.4380    65.2160     9.8480     8.4600     7.9950    24.1730   -12.2380 
  266.5000     2.4340    64.3760     9.8720     8.5110     7.8620    24.1750   -12.2250 
  266.6250     2.4300    64.0040     9.8060     8.4840     7.9130    24.1810   -12.2300 
  266.7500     2.4280    64.3400     9.6900     8.3990     8.1140    24.1740   -12.2310 
  266.8750     2.4290    65.2100     9.5490     8.2760     8.5590    24.1670   -12.2560 
  267.0000     2.4330    65.8730     9.4070     8.1350     8.9420    24.1720   -12.2500 
  267.1250     2.4370    65.9780     9.2940     8.0090     9.0050    24.1910   -12.2890 
  267.2500     2.4400    65.1750     9.2210     7.9190     8.9210    24.2040   -12.2830 
  267.3750     2.4420    64.4830     9.1930     7.8790     8.7110    24.2090   -12.2910 
  267.5000     2.4410    64.6270     9.2050     7.8900     8.6250    24.2100   -12.2990 
  267.6250     2.4390    65.2180     9.2460     7.9420     8.7110    24.2100   -12.3410 
  267.7500     2.4380    65.3910     9.2920     8.0090     8.9800    24.2100   -12.3720 
  267.8750     2.4390    64.0100     9.3270     8.0690     9.2160    24.2100   -12.4020 
  268.0000     2.4420    62.1490     9.3390     8.1080     9.0570    24.2100   -12.4690 
  268.1250     2.4460    61.9650     9.3120     8.1080     8.7510    24.2100   -12.5010 
  268.2500     2.4500    64.0800     9.2510     8.0720     8.6100    24.2100   -12.5610 
  268.3750     2.4500    66.7740     9.1570     8.0030     8.6230    24.2100   -12.6070 
  268.5000     2.4470    67.5150     9.0390     7.9050     8.5880    24.2100   -12.6650 
  268.6250     2.4410    66.9140     8.9150     7.7870     8.5160    24.2100   -12.6890 
  268.7500     2.4330    66.8710     8.8100     7.6700     8.3980    24.2140   -12.7410 
  268.8750     2.4290    67.7500     8.7470     7.5730     8.2360    24.2530   -12.7880 
  269.0000     2.4290    68.4440     8.7350     7.5090     8.0080    24.3100   -12.8110 
  269.1250     2.4330    67.9930     8.7740     7.4900     7.8090    24.3250   -12.8590 
  269.2500     2.4360    65.7060     8.8330     7.4980     7.6980    24.2020   -12.8880 
  269.3750     2.4350    63.0300     8.8880     7.5190     7.6230    24.1340   -12.9260 
  269.5000     2.4300    62.5730     8.9220     7.5380     7.5090    24.1220   -12.9700 
  269.6250     2.4210    62.5730     8.9220     7.5400     7.4020    24.1200   -12.9870 
  269.7500     2.4150    62.5730     8.8990     7.5280     7.3260    24.1170   -13.0100 
  269.8750     2.4150    62.5730     8.8610     7.5050     7.3020    24.1130   -13.0280 
  270.0000     2.4200    62.5730     8.8180     7.4770     7.3200    24.1130   -13.0610 
  270.1250     2.4260    62.5730     8.7810     7.4530     7.3400    24.1160   -13.0550 
  270.2500     2.4290    62.5730     8.7590     7.4360     7.3160    24.1200   -13.0950 
  270.3750     2.4260    62.5730     8.7580     7.4290     7.2190    24.1220   -13.1260 
  270.5000     2.4180    62.5730     8.7770     7.4320     7.0740    24.1220   -13.1590 
  270.6250     2.4090    62.5730     8.8050     7.4420     7.0430    24.1220   -13.2130 
  270.7500     2.4040    62.5730     8.8250     7.4520     7.1540    24.1220   -13.2600 
  270.8750     2.4050    62.5730     8.8290     7.4560     7.3080    24.1220   -13.3210 
  271.0000     2.4100    62.5730     8.8170     7.4520     7.3590    24.1230   -13.3420 
  271.1250     2.4180    62.5730     8.8020     7.4430     7.3100    24.1260   -13.3830 
  271.2500     2.4270    62.5730     8.8000     7.4360     7.2760    24.1300   -13.3910 
  271.3750     2.4350    62.5730     8.8200     7.4370     7.3020    24.1320   -13.3990 
  271.5000     2.4440    62.5730     8.8670     7.4500     7.3480    24.1400   -13.3970 
  271.6250     2.4520    62.5730     8.9320     7.4740     7.3370    24.1520   -13.3900 
  271.7500     2.4590    62.5730     8.9980     7.5030     7.2190    24.1530   -13.3610 
  271.8750     2.4630    62.5730     9.0510     7.5280     7.0140    24.1320   -13.3320 
  272.0000     2.4640    62.5730     9.0810     7.5440     6.8410    24.0770   -13.3910 
  272.1250     2.4620    62.5730     9.0800     7.5410     6.7960    23.9540   -13.4570 
  272.2500     2.4600    62.5730     9.0640     7.5260     6.8300    23.7920   -13.5380 
  272.3750     2.4600    62.5730     9.0480     7.5070     6.9230    23.6620   -13.6140 
  272.5000     2.4620    62.5730     9.0450     7.4970     7.0610    23.6000   -13.6960 
  272.6250     2.4660    62.5730     9.0720     7.5090     7.2570    23.5810   -13.7310 
  272.7500     2.4700    62.5730     9.1190     7.5440     7.5070    23.5640   -13.7020 
  272.8750     2.4740    62.5730     9.1770     7.6010     7.7500    23.5300   -13.6370 
  273.0000     2.4770    62.5730     9.2340     7.6680     7.9920    23.5050   -13.5620 
  273.1250     2.4780    62.5730     9.2740     7.7350     8.1210    23.4970   -13.4660 
  273.2500     2.4770    62.5730     9.2850     7.7890     8.1500    23.4970   -13.3210 
  273.3750     2.4740    62.5730     9.2580     7.8250     8.2060    23.4970   -13.2030 
  273.5000     2.4700    62.5730     9.1910     7.8430     8.4250    23.4970   -13.1530 
  273.6250     2.4660    62.5730     9.0980     7.8400     8.6790    23.4970   -13.1900 
  273.7500     2.4610    62.5730     9.0220     7.8190     8.8460    23.4970   -13.2450 
  273.8750     2.4540    62.5730     8.9890     7.7830     8.9110    23.4970   -13.2900 
  274.0000     2.4470    62.5730     9.0070     7.7380     8.9780    23.4970   -13.3480 
  274.1250     2.4400    62.5730     9.0620     7.6970     8.8950    23.4970   -13.4580 
  274.2500     2.4350    62.5730     9.1190     7.6680     8.6360    23.4970   -13.5590 
  274.3750     2.4340    62.5730     9.1570     7.6530     8.2470    23.4970   -13.5730 
  274.5000     2.4360    62.5730     9.1750     7.6500     7.9500    23.4970   -13.4890 
  274.6250     2.4370    62.5730     9.1810     7.6500     7.8140    23.4970   -13.4510 
  274.7500     2.4350    62.5730     9.1850     7.6500     7.6380    23.4970   -13.5190 
  274.8750     2.4280    62.5730     9.1890     7.6480     7.5090    23.4970   -13.6020 
  275.0000     2.4200    62.5730     9.1920     7.6440     7.5100    23.4970   -13.6110 
  275.1250     2.4140    62.5730     9.1930     7.6400     7.4800    23.4970   -13.5280 
  275.2500     2.4120    62.5730     9.1950     7.6360     7.3370    23.4970   -13.4920 
  275.3750     2.4140    62.5730     9.1970     7.6350     7.1730    23.4970   -13.5740 
  275.5000     2.4180    62.5730     9.1980     7.6340     7.0910    23.4970   -13.7020 
  275.6250     2.4220    62.5730     9.1980     7.6340     7.0670    23.4970   -13.6990 
  275.7500     2.4250    62.5730     9.1980     7.6340     7.0450    23.4970   -13.6230 
  275.8750     2.4290    62.5730     9.1980     7.6340     7.0550    23.4970   -13.6060 
  276.0000     2.4340    62.5730     9.1980     7.6340     7.1100    23.4970   -13.5860 
  276.1250     2.4380    62.5730     9.1980     7.6340     7.1980    23.4740   -13.6380 
