~V
VERS. 2.00: Ver 2.00
~W
STRT.M 64.0000:
STOP.M 257.0000:
STEP.M 0.1250:
NULL. -999.2500:
UWI. DF3069:
~C
DEPT.M :
GR.API :
CALI.CM :
RXO.OHMM :
RI. :
RML.OHMM :
DEN.GM/CC :
SP.MV :
~A
# ...
  131.5000    73.8140    22.5210    10.9390    10.6530    13.3410     2.1820   -32.5680 
  131.6250    76.8010    22.5130    12.1660    10.3010    12.8090     2.2150   -32.1840 
  131.7500    81.3120    22.3840    13.5030     9.6920    11.9450     2.2680   -31.7720 
  131.8750    88.1180    22.1930    12.7100     8.9290    10.8900     2.3320   -31.4150 
  132.0000    94.6680    22.1570    10.3210     8.1150     9.7900     2.3820   -31.1100 
  132.1250    96.0100    22.1360     8.6540     7.4000     8.8810     2.3900   -30.8930 
  132.2500    93.7010    22.1350     8.1880     6.8740     8.2790     2.3760   -30.7470 
  132.3750    91.9220    22.1170     7.7200     6.5540     7.9650     2.3640   -30.6650 
  132.5000    91.8620    22.2630     7.5000     6.4200     7.9050     2.3650   -30.6280 
  132.6250    92.7900    22.3750     7.6210     6.4630     8.0500     2.3640   -30.6330 
  132.7500    93.6470    22.3500     7.8630     6.5900     8.2620     2.3490   -30.6530 
  132.8750    93.4460    22.1590     8.0500     6.7060     8.4330     2.3240   -30.6590 
  133.0000    90.8330    22.0880     8.0670     6.7600     8.4940     2.3010   -30.6530 
  133.1250    88.2780    22.2170     7.9270     6.7170     8.3890     2.2920   -30.6480 
  133.2500    87.9440    22.2680     7.8700     6.5850     8.1620     2.2910   -30.6590 
  133.3750    87.5050    22.3600     7.9600     6.4020     7.8990     2.2890   -30.6830 
  133.5000    86.5500    22.4530     8.1070     6.2200     7.6690     2.2850   -30.7320 
  133.6250    88.8800    22.8030     7.7340     6.1110     7.5540     2.2860   -30.7460 
  133.7500    92.9910    23.1140     7.3850     6.1170     7.6080     2.2910   -30.7170 
  133.8750    94.9010    23.2030     7.1720     6.2330     7.8200     2.2890   -30.6690 
  134.0000    94.0620    23.2510     7.2910     6.4200     8.1270     2.2690   -30.6040 
  134.1250    92.3620    23.0580     7.9050     6.6190     8.4240     2.2300   -30.5150 
  134.2500    89.1320    23.1060     8.7370     6.7470     8.5980     2.1900   -30.4020 
  134.3750    85.4240    23.1590     9.0090     6.7490     8.5680     2.1730   -30.2710 
  134.5000    84.5320    23.0510     8.8380     6.6180     8.3590     2.1930   -30.1160 
  134.6250    87.1870    23.1410     8.1060     6.3950     8.0260     2.2440   -29.9740 
  134.7500    91.1920    23.5210     7.3770     6.1670     7.6950     2.2870   -29.8350 
  134.8750    94.9550    23.7690     6.9770     5.9950     7.4630     2.3020   -29.6640 
  135.0000    97.1650    23.8630     6.9470     5.9250     7.4130     2.2890   -29.4690 
  135.1250    96.8950    23.6520     6.9930     5.9670     7.5230     2.2650   -29.2620 
  135.2500    94.7640    23.6290     7.1020     6.0580     7.6860     2.2460   -29.0510 
  135.3750    92.3710    23.4900     7.3370     6.1410     7.8250     2.2390   -28.8770 
  135.5000    89.2130    23.4350     7.4870     6.1620     7.8530     2.2420   -28.7740 
  135.6250    86.3600    23.6990     7.3620     6.0600     7.6840     2.2560   -28.7370 
  135.7500    86.0170    23.8960     7.1790     5.8540     7.3850     2.2750   -28.7490 
  135.8750    89.9420    23.9730     6.9230     5.5740     7.0030     2.3000   -28.7840 
  136.0000    98.2500    23.9560     6.4680     5.2560     6.5820     2.3260   -28.8230 
  136.1250   104.8500    23.9390     6.0610     4.9610     6.2150     2.3500   -28.8390 
  136.2500   107.1010    23.9370     5.8220     4.7440     5.9800     2.3660   -28.8290 
  136.3750   107.7520    23.9460     5.6680     4.6300     5.8770     2.3760   -28.8040 
  136.5000   108.2870    24.0000     5.6910     4.6190     5.9000     2.3830   -28.7740 
  136.6250   105.6400    24.0260     5.7930     4.7460     6.0850     2.3990   -28.7810 
  136.7500   100.5790    24.0860     5.9570     4.9670     6.3670     2.4210   -28.8440 
  136.8750    98.4580    24.1300     6.3680     5.2410     6.6880     2.4340   -28.9800 
  137.0000   102.1410    24.1040     6.8810     5.5050     6.9800     2.4250   -29.1520 
  137.1250   105.4800    24.0640     7.1360     5.6870     7.1630     2.4020   -29.3390 
  137.2500   102.7290    24.1040     7.1470     5.7640     7.2040     2.3800   -29.5390 
  137.3750    95.4170    24.2610     7.0570     5.7230     7.1230     2.3610   -29.7120 
  137.5000    88.9440    24.2660     6.9430     5.5780     6.9100     2.3400   -29.8590 
  137.6250    87.1650    24.2580     6.8140     5.3650     6.6140     2.3270   -29.9710 
  137.7500    87.3530    24.2410     6.6800     5.1880     6.3880     2.3280   -30.0610 
  137.8750    87.6300    24.2570     6.7450     5.1520     6.3970     2.3350   -30.1320 
  138.0000    87.5720    24.3000     7.0160     5.3470     6.7920     2.3350   -30.2320 
  138.1250    87.0160    24.2630     7.2590     5.8540     7.6580     2.3320   -30.3730 
  138.2500    85.6420    24.2500     7.5150     6.6050     8.8110     2.3460   -30.5460 
  138.3750    82.6540    24.2670     8.7730     7.4930    10.0370     2.3840   -30.7460 
  138.5000    77.7570    24.2010    12.7780     8.3460    11.0860     2.4450   -30.9270 
  138.6250    73.7580    24.1710    20.2180     8.8650    11.5870     2.5070   -31.0570 
  138.7500    74.8760    24.0860    22.7380     8.8950    11.4010     2.5350   -31.1500 
  138.8750    79.1620    24.0810    18.8380     8.4820    10.6530     2.5120   -31.2380 
  139.0000    82.3690    24.0580    13.3910     7.8090     9.6090     2.4470   -31.3230 
  139.1250    83.2180    24.0040     9.1090     7.1190     8.6170     2.3730   -31.4270 
  139.2500    83.9690    23.9680     8.0270     6.5890     7.9240     2.3180   -31.5430 
  139.3750    86.0520    23.9960     7.9240     6.2690     7.5750     2.2850   -31.6360 
  139.5000    89.1820    24.0280     7.9250     6.1560     7.5220     2.2730   -31.7140 
  139.6250    91.6700    23.9730     7.7540     6.2100     7.6630     2.2800   -31.7490 
  139.7500    91.4500    23.9270     7.6610     6.3510     7.8710     2.2910   -31.7260 
  139.8750    88.7010    23.9330     7.6370     6.5040     8.0570     2.2990   -31.6570 
  140.0000    85.7080    23.9560     7.6900     6.6210     8.1840     2.3000   -31.5610 
  140.1250    82.9080    23.9770     7.9330     6.6590     8.1730     2.2900   -31.4640 
  140.2500    81.7650    23.9250     8.1870     6.5870     8.0070     2.2730   -31.3880 
  140.3750    83.9780    23.7390     8.4830     6.4500     7.7530     2.2570   -31.3620 
  140.5000    87.2010    23.7860     8.3520     6.3100     7.4880     2.2540   -31.3660 
  140.6250    88.1580    23.8680     7.7510     6.2450     7.3520     2.2790   -31.4030 
  140.7500    86.6660    23.8940     7.4100     6.3430     7.5030     2.3210   -31.4610 
  140.8750    83.4760    23.8620     7.4150     6.7020     8.0460     2.3680   -31.5050 
  141.0000    80.6690    23.9270     7.7540     7.3280     8.9160     2.4050   -31.5430 
  141.1250    77.2760    23.9410    10.0940     8.1830     9.9900     2.4130   -31.5840 
  141.2500    71.9400    23.7380    12.0530     9.0960    11.0220     2.3910   -31.5950 
  141.3750    66.7890    23.5660    12.7420     9.8190    11.6940     2.3580   -31.5870 
  141.5000    66.6610    23.5600    13.0610    10.0710    11.7400     2.3390   -31.5860 
  141.6250    72.4620    23.6210    13.5050     9.7820    11.1610     2.3450   -31.6060 
  141.7500    77.8270    23.5980    11.9410     9.1990    10.2610     2.3530   -31.6410 
  141.8750    82.1320    23.5440     9.4630     8.4850     9.2680     2.3470   -31.6390 
  142.0000    85.9900    23.5460     8.1430     7.8110     8.4330     2.3330   -31.5740 
  142.1250    86.9740    23.6150     7.7330     7.3640     7.9580     2.3310   -31.4300 
  142.2500    85.6300    23.5680     7.8350     7.1100     7.7440     2.3480   -31.2690 
  142.3750    83.9660    23.4980     9.2650     7.0010     7.6890     2.3710   -31.1210 
  142.5000    85.3220    23.2760     9.9270     6.9790     7.6990     2.3820   -31.0190 
  142.6250    87.7160    23.2480     9.3800     6.9480     7.6160     2.3770   -30.9830 
