~V
VERS. 2.00: Ver 2.00
~W
STRT.M 60.0000:
STOP.M 273.0000:
STEP.M 0.1250:
NULL. -999.2500:
UWI. DF3001:
~C
DEPT.M :
DEN.GM/CC :
SP.MV :
AC.US/MT :
GR.API :
RML.OHMM :
RI. :
RXO.OHMM :
CALI.CM :
~A
# ...
  250.0000     2.4760    -6.4670   241.4790    62.9520    21.4960    19.9070    23.5190    24.5530 
  250.1250     2.4840    -6.3290   241.4610    64.3580    21.0330    19.6940    24.0670    24.5610 
  250.2500     2.4900    -6.1800   244.0450    66.1950    20.4620    19.2830    24.9000    24.5720 
  250.3750     2.4910    -6.0350   248.5230    67.3180    19.9810    18.8610    25.8050    24.5850 
  250.5000     2.4880    -5.9350   250.4840    67.8130    19.6770    18.5470    25.4990    24.5920 
  250.6250     2.4820    -5.9020   249.2660    69.5070    19.5620    18.4010    23.5300    24.5940 
  250.7500     2.4770    -5.8800   248.3640    71.9490    19.5590    18.3810    21.2960    24.5940 
  250.8750     2.4740    -5.9000   248.5680    71.9930    19.6390    18.4650    20.6040    24.5940 
  251.0000     2.4740    -5.9770   247.3880    69.0880    19.7990    18.6460    20.8600    24.5940 
  251.1250     2.4750    -6.0920   245.1140    67.5260    20.0550    18.9300    21.2980    24.5940 
  251.2500     2.4750    -6.1780   243.3030    68.8170    20.3660    19.2740    21.7930    24.5920 
  251.3750     2.4760    -6.2560   241.7690    70.6930    20.6800    19.6300    21.9060    24.5790 
  251.5000     2.4790    -6.3250   239.6480    70.2740    20.9370    19.9420    21.5010    24.5450 
  251.6250     2.4810    -6.3440   237.9730    67.6120    21.0660    20.1380    21.8500    24.5020 
  251.7500     2.4820    -6.4160   237.4290    66.4120    21.0750    20.2120    22.5130    24.4840 
  251.8750     2.4800    -6.4510   237.9830    68.8250    20.9910    20.1800    23.2140    24.4800 
  252.0000     2.4740    -6.3850   238.9920    72.9910    20.8570    20.0780    23.6350    24.4800 
  252.1250     2.4680    -6.3330   239.5100    73.8390    20.7270    19.9620    23.8420    24.4820 
  252.2500     2.4610    -6.2990   239.2170    71.0270    20.6400    19.8820    24.0040    24.4870 
  252.3750     2.4570    -6.2610   238.6040    67.7880    20.6100    19.8580    24.3010    24.4990 
  252.5000     2.4540    -6.2680   237.4510    66.4750    20.6280    19.8850    24.8930    24.5140 
  252.6250     2.4550    -6.2150   234.9340    66.0090    20.6610    19.9350    25.4970    24.5240 
  252.7500     2.4610    -6.1000   231.2150    66.1920    20.6700    19.9610    26.3170    24.5270 
  252.8750     2.4710    -6.0450   227.5430    67.8650    20.6310    19.9350    27.1120    24.5280 
  253.0000     2.4830    -5.9990   224.2850    70.1310    20.5330    19.8420    27.5820    24.5280 
  253.1250     2.4940    -5.9200   221.3230    71.3450    20.3700    19.6710    27.7420    24.5280 
  253.2500     2.5010    -5.8800   219.6200    71.8250    20.1610    19.4480    27.0690    24.5280 
  253.3750     2.5030    -5.7940   220.8620    72.7810    19.9230    19.1920    25.2330    24.5280 
  253.5000     2.5050    -5.6750   224.9680    72.6440    19.6840    18.9340    23.4900    24.5260 
  253.6250     2.5060    -5.6320   231.1260    71.4420    19.4970    18.7230    23.1360    24.5230 
  253.7500     2.5030    -5.5160   237.8900    71.4860    19.3950    18.5900    24.1910    24.5220 
  253.8750     2.4940    -5.3540   243.6690    73.0690    19.3890    18.5480    25.2400    24.5250 
  254.0000     2.4770    -5.2530   247.7160    74.6330    19.4530    18.5830    25.8130    24.5280 
  254.1250     2.4570    -5.1370   249.3610    73.7920    19.5170    18.6380    25.6090    24.5280 
  254.2500     2.4390    -5.0240   248.5360    70.9420    19.5030    18.6400    25.0360    24.5280 
  254.3750     2.4260    -4.9610   246.6030    68.4200    19.3720    18.5440    24.4340    24.5280 
  254.5000     2.4200    -4.8620   245.9520    68.6040    19.1340    18.3440    23.2410    24.5270 
  254.6250     2.4190    -4.7930   247.4100    71.8190    18.8430    18.0810    22.1530    24.5250 
  254.7500     2.4240    -4.8220   250.3680    75.1910    18.5840    17.8330    21.5110    24.5250 
  254.8750     2.4310    -4.8830   253.3630    77.5310    18.4010    17.6480    22.1750    24.5260 
  255.0000     2.4350    -4.9650   255.1590    77.9080    18.3080    17.5450    23.1760    24.5280 
  255.1250     2.4330    -5.0810   255.1540    75.1810    18.3080    17.5380    22.9170    24.5270 
  255.2500     2.4250    -5.1480   253.4400    71.3490    18.3840    17.6110    21.6140    24.5260 
  255.3750     2.4160    -5.2560   251.8360    70.4150    18.5420    17.7720    20.8360    24.5230 
  255.5000     2.4120    -5.4470   253.2750    72.7600    18.7860    18.0220    21.1070    24.5240 
  255.6250     2.4190    -5.5590   257.7970    75.2150    19.0670    18.3230    22.1260    24.5230 
  255.7500     2.4360    -5.6750   263.2280    74.7800    19.2560    18.5520    21.9900    24.5250 
  255.8750     2.4540    -5.7860   267.9970    73.4160    19.2330    18.5880    20.9950    24.5240 
  256.0000     2.4670    -5.8310   268.0960    73.9510    18.9350    18.3580    19.9780    24.5260 
  256.1250     2.4710    -5.9080   261.3110    76.0030    18.3870    17.8550    18.7680    24.5270 
  256.2500     2.4650    -5.9890   255.0400    76.7110    17.7890    17.2530    17.9680    24.5280 
  256.3750     2.4560    -6.0010   261.4440    74.3450    17.3040    16.7090    16.9950    24.5280 
  256.5000     2.4510    -6.0070   273.4600    71.3820    17.0380    16.3440    15.6740    24.5270 
  256.6250     2.4510    -6.0510   277.2670    71.2210    17.0420    16.2450    14.8030    24.5250 
  256.7500     2.4580    -6.1160   268.8170    72.5300    17.2140    16.3430    14.6530    24.5250 
  256.8750     2.4670    -6.2090   256.1620    72.8870    17.4710    16.5710    14.7460    24.5260 
  257.0000     2.4750    -6.2870   246.6010    70.6930    17.7360    16.8510    15.2120    24.5280 
  257.1250     2.4810    -6.3240   240.8830    68.9690    17.9490    17.1100    16.3740    24.5260 
  257.2500     2.4770    -6.4240   237.7400    70.5830    18.0990    17.3120    16.9730    24.5230 
  257.3750     2.4600    -6.5110   237.6730    73.9250    18.1920    17.4500    16.8100    24.5220 
  257.5000     2.4330    -6.5240   241.2700    76.8140    18.2510    17.5350    16.0180    24.5240 
  257.6250     2.4020    -6.5550   247.3340    77.7930    18.3170    17.5910    14.8230    24.5230 
  257.7500     2.3840    -6.4840   253.2690    78.0710    18.4160    17.6490    13.7030    24.5210 
  257.8750     2.3840    -6.3090   255.6570    78.3210    18.5380    17.7120    13.0430    24.5220 
  258.0000     2.4010    -6.1580   252.9400    78.5240    18.6400    17.7590    13.1280    24.5230 
  258.1250     2.4250    -5.9640   245.6490    77.4820    18.6430    17.7310    14.2120    24.5250 
  258.2500     2.4430    -5.7300   237.4530    74.8450    18.5320    17.6130    15.5830    24.5240 
  258.3750     2.4500    -5.5700   235.6900    72.1660    18.3360    17.4230    16.7350    24.5230 
  258.5000     2.4480    -5.4310   241.0720    71.7980    18.1260    17.2180    17.1710    24.5230 
  258.6250     2.4450    -5.2820   247.6900    72.4840    18.0200    17.1070    16.8820    24.5260 
  258.7500     2.4470    -5.2500   248.4880    70.8410    18.0870    17.1650    16.5060    24.5270 
  258.8750     2.4580    -5.3000   241.2250    66.5670    18.3660    17.4390    16.7140    24.5280 
  259.0000     2.4720    -5.3570   232.4450    62.5300    18.8560    17.9420    17.7520    24.5280 
  259.1250     2.4860    -5.5200   226.1940    61.5340    19.5450    18.6710    19.3880    24.5280 
  259.2500     2.4920    -5.6860   223.4690    63.0220    20.3380    19.5290    20.9460    24.5280 
  259.3750     2.4870    -5.8060   223.5220    65.0240    21.1540    20.4260    22.3620    24.5310 
  259.5000     2.4730    -5.9850   223.8310    66.7900    21.8740    21.2380    24.1520    24.5390 
  259.6250     2.4530    -6.1540   223.1770    70.2850    22.2670    21.7340    27.1240    24.5480 
  259.7500     2.4380    -6.2500   222.2960    75.9790    22.1880    21.7630    30.8420    24.5520 
  259.8750     2.4330    -6.3730   224.0370    81.2300    21.5480    21.2250    34.6750    24.5550 
