~V
VERS. 2.00: Ver 2.00
~W
STRT.M 55.0000:
STOP.M 272.0000:
STEP.M 0.1250:
NULL. -999.2500:
UWI. DF3078:
~C
DEPT.M :
GR.API :
CALI.CM :
RXO.OHMM :
RI. :
RML.OHMM :
DEN.GM/CC :
SP.MV :
~A
# ...
   77.5000    72.6690    23.6640     7.7420     6.5410     8.7040  -999.2500   -13.2980 
   77.6250    71.7360    23.8310     7.6840     6.5090     8.7590  -999.2500   -13.4250 
   77.7500    69.8550    23.9770     7.9560     6.5750     8.9260  -999.2500   -13.6270 
   77.8750    66.6010    24.0180     8.3930     6.7240     9.1790  -999.2500   -13.8850 
   78.0000    66.8140    23.9840     8.7820     6.9230     9.4700  -999.2500   -14.1760 
   78.1250    72.0740    23.9640     9.1000     7.1260     9.7290  -999.2500   -14.4680 
   78.2500    75.1760    23.9400     9.4450     7.2900     9.9040  -999.2500   -14.7310 
   78.3750    74.4510    24.0080     9.7530     7.3880     9.9730  -999.2500   -14.9500 
   78.5000    73.5000    24.1490     9.8960     7.4100     9.9360  -999.2500   -15.0910 
   78.6250    74.5500    24.2840     9.7660     7.3470     9.8020  -999.2500   -15.1660 
   78.7500    73.5440    24.3670     9.4880     7.2330     9.6210  -999.2500   -15.1860 
   78.8750    71.4300    24.3890     9.2570     7.0960     9.4390  -999.2500   -15.1600 
   79.0000    72.1900    24.3600     9.1670     6.9760     9.3060  -999.2500   -15.0910 
   79.1250    75.1110    24.3180     9.1860     6.9150     9.2770  -999.2500   -14.9850 
   79.2500    75.5050    24.2900     9.2230     6.9200     9.3480  -999.2500   -14.8630 
   79.3750    73.3630    24.2530     9.3530     6.9790     9.4780  -999.2500   -14.7090 
   79.5000    71.5110    24.2780     9.5870     7.0530     9.5880  -999.2500   -14.5120 
   79.6250    71.4310    24.3350     9.7630     7.0650     9.5610  -999.2500   -14.2270 
   79.7500    73.4460    24.3830     9.7080     6.9790     9.3850  -999.2500   -13.8710 
   79.8750    78.3320    24.3670     9.3980     6.8110     9.1140  -999.2500   -13.4430 
   80.0000    84.1850    24.3240     8.8230     6.6170     8.8510  -999.2500   -12.9930 
   80.1250    84.7520    24.2510     8.2890     6.4980     8.7440  -999.2500   -12.5740 
   80.2500    79.5060    24.1400     8.2080     6.5070     8.8310  -999.2500   -12.1540 
   80.3750    73.7590    23.9880     8.4810     6.6480     9.0720  -999.2500   -11.7390 
   80.5000    72.5240    23.8980     8.7580     6.8600     9.3580  -999.2500   -11.3160 
   80.6250    74.5590    23.8630     8.8380     7.0290     9.5180  -999.2500   -10.8980 
   80.7500    75.8750    23.8110     8.6890     7.0640     9.4760  -999.2500   -10.4950 
   80.8750    77.6300    23.7760     8.3230     6.9480     9.2530  -999.2500   -10.1340 
   81.0000    79.8540    23.8290     7.8620     6.7320     8.9590  -999.2500    -9.7840 
   81.1250    79.1310    23.9070     7.6200     6.5240     8.7520  -999.2500    -9.3970 
   81.2500    75.6610    23.8970     7.7220     6.4030     8.6860  -999.2500    -8.9850 
   81.3750    75.1150    23.7950     7.9810     6.3780     8.7310  -999.2500    -8.5600 
   81.5000    80.2660    23.6590     8.1930     6.4190     8.8050  -999.2500    -8.1250 
   81.6250    85.0800    23.5800     8.3230     6.4700     8.8060  -999.2500    -7.6910 
   81.7500    85.3150    23.6080     8.2070     6.4850     8.7100  -999.2500    -7.2130 
   81.8750    85.1930    23.6990     7.6160     6.4630     8.5610  -999.2500    -6.6810 
   82.0000    88.2760    23.7520     6.8390     6.4360     8.4390  -999.2500    -6.0880 
   82.1250    90.5100    23.7390     6.7430     6.4540     8.4310  -999.2500    -5.4670 
   82.2500    88.5610    23.6410     7.3580     6.5260     8.5250  -999.2500    -4.8310 
   82.3750    87.0890    23.6220     8.1150     6.6300     8.6620  -999.2500    -4.2040 
   82.5000    88.7340    23.7710     8.1560     6.7220     8.7450  -999.2500    -3.6050 
   82.6250    90.9890    24.1020     7.5410     6.7200     8.6400  -999.2500    -3.0770 
   82.7500    93.6060    24.3060     7.1060     6.5890     8.3240  -999.2500    -2.6720 
   82.8750    96.7030    24.3680     7.0250     6.3130     7.8230  -999.2500    -2.3710 
   83.0000   100.8440    24.3810     6.6500     5.9080     7.1980  -999.2500    -2.1900 
   83.1250   106.3550    24.3980     6.0200     5.4160     6.5360  -999.2500    -2.1400 
   83.2500   110.5650    24.4070     5.4640     4.9250     5.9350  -999.2500    -2.2050 
   83.3750   112.6080    24.4010     5.1460     4.4990     5.4640  -999.2500    -2.3990 
   83.5000   113.3570    24.3580     4.9220     4.1880     5.1800  -999.2500    -2.7140 
   83.6250   115.3840    24.2300     4.8020     4.0560     5.1650  -999.2500    -3.1750 
   83.7500   113.7800    24.0850     4.8970     4.1010     5.4020  -999.2500    -3.7360 
   83.8750   105.7190    23.9250     5.2080     4.3310     5.8860  -999.2500    -4.3980 
   84.0000    96.5270    23.7760     5.7800     4.7390     6.5780  -999.2500    -5.1480 
   84.1250    90.3870    23.6790     6.6320     5.3070     7.3870  -999.2500    -5.9140 
   84.2500    86.1210    23.5880     7.5250     5.9170     8.1280  -999.2500    -6.6730 
   84.3750    84.2410    23.5330     8.2350     6.4550     8.6520  -999.2500    -7.3410 
   84.5000    84.9350    23.5300     8.5880     6.8150     8.8650  -999.2500    -7.9060 
   84.6250    87.2210    23.5590     8.5230     6.9150     8.7440  -999.2500    -8.3100 
   84.7500    88.9480    23.6200     8.3520     6.8430     8.4770  -999.2500    -8.5430 
   84.8750    90.1490    23.6890     8.1590     6.6930     8.2180  -999.2500    -8.6120 
   85.0000    89.5520    23.7190     7.9260     6.5590     8.0900  -999.2500    -8.5030 
   85.1250    88.0940    23.7120     7.7760     6.5380     8.1990  -999.2500    -8.2720 
   85.2500    90.9900    23.6750     7.9170     6.6440     8.4900  -999.2500    -7.9330 
   85.3750    96.0020    23.5910     8.1860     6.8420     8.8610  -999.2500    -7.5170 
   85.5000    97.3470    23.3940     8.3310     7.0410     9.1480  -999.2500    -7.0390 
   85.6250    95.5860    23.0160     8.3320     7.0670     9.1020  -999.2500    -6.4890 
   85.7500    96.5500    22.7700     8.0280     6.8220     8.6500  -999.2500    -5.8900 
   85.8750   102.1170    22.6620     7.2380     6.2910     7.8400  -999.2500    -5.2720 
   86.0000   110.4750    22.6430     6.2300     5.5700     6.8530  -999.2500    -4.6730 
   86.1250   117.8980    22.6710     5.5310     4.8450     5.9900  -999.2500    -4.1300 
   86.2500   118.7650    22.7260     5.1710     4.2970     5.4810  -999.2500    -3.6870 
   86.3750   113.2380    22.7450     5.0740     4.0370     5.4610  -999.2500    -3.4100 
   86.5000   108.1390    22.7580     5.4010     4.1240     5.9810  -999.2500    -3.3250 
   86.6250   106.7370    22.8390     6.6060     4.6240     7.0470  -999.2500    -3.5040 
   86.7500   103.7600    22.8570     8.4190     5.3960     8.3440  -999.2500    -3.9280 
   86.8750    97.5760    22.6900     9.6460     6.2490     9.5060  -999.2500    -4.5670 
   87.0000    91.0960    22.5210     9.3640     6.9080    10.1520  -999.2500    -5.3800 
   87.1250    86.3160    22.4210     8.3530     7.1080    10.0530  -999.2500    -6.3000 
   87.2500    83.6440    22.3580     7.7230     6.9970     9.6140  -999.2500    -7.2860 
   87.3750    82.8280    22.3180     7.5190     6.7930     9.2080  -999.2500    -8.2870 
   87.5000    81.0600    22.2800     7.3970     6.6800     9.0610  -999.2500    -9.2660 
   87.6250    77.5290    22.2170     7.4060     6.7570     9.2320  -999.2500   -10.1760 
   87.7500    74.9980    22.1160     7.7000     6.9560     9.5450  -999.2500   -10.9680 
   87.8750    75.7910    22.0000     8.1660     7.1980     9.8730  -999.2500   -11.6400 
   88.0000    78.0900    21.8880     8.6640     7.4160    10.1300  -999.2500   -12.2060 
   88.1250    79.3390    21.8550     9.1750     7.5580    10.2800  -999.2500   -12.6380 
   88.2500    78.1710    21.8910     9.6240     7.6310    10.3560  -999.2500   -12.9660 
   88.3750    76.8610    21.9910     9.8060     7.6440    10.3810  -999.2500   -13.2070 
   88.5000    79.1460    22.1160     9.6210     7.6120    10.3690  -999.2500   -13.3590 
   88.6250    82.6850    22.2760     9.3540     7.5450    10.3160  -999.2500   -13.4090 
