~V
VERS. 2.00: Ver 2.00
~W
STRT.M 60.0000:
STOP.M 275.0000:
STEP.M 0.1250:
NULL. -999.2500:
UWI. DF3003:
~C
DEPT.M :
DEN.GM/CC :
SP.MV :
AC.US/MT :
GR.API :
RML.OHMM :
RI. :
RXO.OHMM :
CALI.CM :
~A
# ...
  140.0000     2.2960    -6.1200   413.0720   107.2110     4.6010     4.1260     4.2920    24.9280 
  140.1250     2.3080    -6.1930   414.7610   118.4110     4.5830     4.0850     4.1790    24.7470 
  140.2500     2.3130    -6.2300   414.7970   122.5320     4.6010     4.0670     4.1330    24.6730 
  140.3750     2.3100    -6.1700   413.4380   120.3160     4.6830     4.0850     4.2010    24.6060 
  140.5000     2.2990    -6.1200   411.9470   116.2970     4.8310     4.1490     4.3140    24.5680 
  140.6250     2.2830    -6.1060   410.7860   112.4280     5.0970     4.2780     4.4670    24.5450 
  140.7500     2.2680    -6.1320   408.9180   107.9110     5.4680     4.4720     4.6790    24.5170 
  140.8750     2.2550    -6.1810   405.9160   103.7940     5.8410     4.7270     4.9200    24.4630 
  141.0000     2.2440    -6.1940   402.4950    98.6770     6.1980     5.0240     5.1690    24.3680 
  141.1250     2.2330    -6.1720   399.9910    91.0410     6.5290     5.3110     5.3530    24.2210 
  141.2500     2.2250    -6.1510   398.9280    86.1110     6.7340     5.5130     5.6380    24.0600 
  141.3750     2.2220    -6.1800   399.6910    88.4640     6.7320     5.5640     5.8420    23.9610 
  141.5000     2.2250    -6.2430   403.1850    95.4580     6.4860     5.4240     5.7680    23.9490 
  141.6250     2.2340    -6.2460   411.4910   100.3530     6.0120     5.0840     5.4120    24.0150 
  141.7500     2.2420    -6.1550   424.0840   103.3980     5.4620     4.6490     4.9870    24.1440 
  141.8750     2.2500    -6.0220   439.0930   107.5670     4.9580     4.2090     4.4430    24.3480 
  142.0000     2.2590    -5.8950   451.7050   113.4440     4.5970     3.8510     3.8690    24.6000 
  142.1250     2.2730    -5.7540   454.7430   118.3880     4.4820     3.6680     3.6020    24.6650 
  142.2500     2.2930    -5.6580   448.0320   119.7050     4.6020     3.6690     3.5540    24.6190 
  142.3750     2.3160    -5.6030   434.3840   117.0280     4.9360     3.8510     3.7250    24.5490 
  142.5000     2.3330    -5.5240   417.6230   111.1850     5.4210     4.1740     4.1430    24.5160 
  142.6250     2.3350    -5.4890   402.8120   104.7360     5.9260     4.5630     4.8330    24.4960 
  142.7500     2.3220    -5.6030   394.7810    98.2160     6.3040     4.9020     5.4890    24.4650 
  142.8750     2.2970    -5.7540   394.4350    93.5280     6.4510     5.1230     5.9250    24.4270 
  143.0000     2.2660    -5.9330   398.0890    92.3990     6.3930     5.2190     6.0360    24.3830 
  143.1250     2.2350    -6.1560   400.2060    94.5700     6.3160     5.2750     5.7220    24.3720 
  143.2500     2.2090    -6.3120   398.3140    94.1240     6.5110     5.4650     5.8080    24.3760 
  143.3750     2.1940    -6.4440   391.1700    87.8050     7.2110     5.9510     6.4550    24.3930 
  143.5000     2.2030    -6.6110   375.8230    78.4020     8.6240     6.8520     7.8250    24.4980 
  143.6250     2.2480    -6.6670   348.7000    72.1120    10.7590     8.2740    10.0780    24.5440 
  143.7500     2.3210    -6.6080   313.7280    71.4640    13.1890    10.0310    12.8350    24.6090 
  143.8750     2.4050    -6.5030   276.4740    72.5280    15.4220    11.9120    15.8500    24.7500 
  144.0000     2.4770    -6.3550   245.2850    69.8640    17.3670    13.6730    18.3520    24.8600 
  144.1250     2.5180    -6.2620   232.8220    61.9930    18.7230    15.0690    19.6020    24.8490 
  144.2500     2.5340    -6.2450   236.3740    54.4490    19.6530    16.1390    20.0450    24.7910 
  144.3750     2.5390    -6.1870   243.3030    51.4520    20.3590    16.9820    20.5590    24.6470 
  144.5000     2.5410    -6.0620   241.3060    50.9980    20.9690    17.6910    22.1310    24.5230 
  144.6250     2.5470    -6.0580   230.9940    49.5870    21.4490    18.2650    22.2770    24.4940 
  144.7500     2.5530    -6.0750   224.1810    48.7330    21.7410    18.6860    21.7250    24.4770 
  144.8750     2.5590    -6.1240   225.6450    49.4280    21.8380    18.9460    20.5830    24.4520 
  145.0000     2.5640    -6.1790   232.4320    49.2970    21.8320    19.0950    19.2150    24.3810 
  145.1250     2.5630    -6.1760   238.0500    46.5460    21.8900    19.2420    18.3860    24.3660 
  145.2500     2.5600    -6.1150   240.0200    45.0940    22.0840    19.4640    18.0050    24.3490 
  145.3750     2.5540    -6.0630   239.4340    46.2680    22.3590    19.7440    18.1350    24.3120 
  145.5000     2.5490    -6.0690   238.7900    46.7770    22.5820    20.0020    18.4690    24.2410 
  145.6250     2.5460    -6.0330   239.2770    45.6370    22.5980    20.1170    19.2080    24.0610 
  145.7500     2.5430    -6.0330   241.3850    46.4380    22.4130    20.0720    19.7180    23.8400 
  145.8750     2.5340    -6.0150   244.3910    49.1650    22.1270    19.9230    19.5700    23.6250 
  146.0000     2.5210    -6.0940   246.8330    51.6130    21.9010    19.7870    19.1450    23.4310 
  146.1250     2.5070    -6.1980   247.0810    51.9430    21.9180    19.8230    18.6000    23.3670 
  146.2500     2.4990    -6.3390   245.4540    50.2180    22.1860    20.0780    18.1600    23.4120 
  146.3750     2.5010    -6.4970   242.7180    47.0600    22.6590    20.5510    18.5960    23.5580 
  146.5000     2.5110    -6.6200   239.6870    45.0800    23.2510    21.1890    19.7390    23.6910 
  146.6250     2.5230    -6.8470   237.3560    46.1730    23.8650    21.9180    20.7410    23.7380 
  146.7500     2.5310    -7.0810   235.9080    48.7350    24.4290    22.6330    20.7780    23.8010 
  146.8750     2.5330    -7.3230   234.9820    49.6840    24.8880    23.2590    20.4280    23.8620 
  147.0000     2.5320    -7.5230   234.2370    50.4680    25.1570    23.7070    20.5530    23.9040 
  147.1250     2.5320    -7.6500   233.7360    54.7320    25.0440    23.8020    21.1750    24.0160 
  147.2500     2.5370    -7.7770   233.2530    58.0410    24.4950    23.4890    21.4820    24.0370 
  147.3750     2.5440    -7.9130   232.7760    57.4980    23.5140    22.7480    21.2490    24.1180 
  147.5000     2.5500    -8.0610   233.0520    56.7330    22.2250    21.6600    20.5190    24.2170 
  147.6250     2.5480    -8.0750   235.1670    60.9030    20.8840    20.4140    19.0750    24.3040 
  147.7500     2.5360    -7.9660   239.3580    64.1200    19.7880    19.3000    17.7800    24.3200 
  147.8750     2.5160    -7.7990   245.7030    61.4840    19.1240    18.5200    17.4340    24.2520 
  148.0000     2.4920    -7.5420   252.4930    56.8790    18.9800    18.1980    17.8230    24.2060 
  148.1250     2.4710    -7.3750   255.2750    55.2630    19.3960    18.4240    18.1080    24.1640 
  148.2500     2.4590    -7.1980   252.5760    56.3530    20.1100    19.0000    18.0680    24.1100 
  148.3750     2.4570    -7.0210   245.9030    59.7280    20.8650    19.7200    18.4990    24.1030 
  148.5000     2.4610    -6.8650   237.7910    63.5750    21.3860    20.3400    19.5260    24.1090 
  148.6250     2.4680    -6.7010   234.5210    63.5060    21.3820    20.5750    20.1700    24.1280 
  148.7500     2.4740    -6.6890   238.8490    61.2940    20.9210    20.4010    19.5260    24.1660 
  148.8750     2.4780    -6.7590   247.2590    60.1620    20.1930    19.9160    18.2300    24.2500 
  149.0000     2.4820    -6.9330   253.7280    60.8200    19.4860    19.3330    17.3860    24.3470 
  149.1250     2.4870    -7.0840   255.5710    61.3660    19.1220    18.9380    16.8830    24.3640 
  149.2500     2.4950    -7.2020   255.9130    61.2620    19.1240    18.8300    16.5590    24.3710 
  149.3750     2.5040    -7.3380   254.9240    61.5660    19.3270    18.9230    16.4470    24.3800 
  149.5000     2.5140    -7.4640   252.1750    62.1680    19.4360    18.9850    16.8370    24.4000 
  149.6250     2.5200    -7.6950   249.7640    61.4760    19.0550    18.6680    17.4960    24.4490 
  149.7500     2.5170    -7.8550   251.4000    59.0240    18.1450    17.8890    18.1750    24.5210 
  149.8750     2.5060    -7.9880   258.7040    57.1150    16.8820    16.7500    17.6920    24.5590 
