~V
VERS. 2.00: Ver 2.00
~W
STRT.M 60.0000:
STOP.M 258.0000:
STEP.M 0.1250:
NULL. -999.2500:
UWI. DF3032:
~C
DEPT.M :
GR.API :
RML.OHMM :
RI. :
RXO.OHMM :
CALI.CM :
DEN.GM/CC :
SP.MV :
~A
# ...
   82.5000    75.2910    10.5890     9.0450     9.9330    23.2940  -999.2500   -25.6770 
   82.6250    75.5080    10.5890     9.0070    10.4340    23.3980  -999.2500   -25.9250 
   82.7500    75.6090    10.5360     8.9420    10.5760    23.4200  -999.2500   -26.1720 
   82.8750    74.2050    10.4990     8.8890    10.3320    23.4180  -999.2500   -26.3730 
   83.0000    73.7750    10.5940     8.9270    10.0430    23.4340  -999.2500   -26.6050 
   83.1250    73.9030    10.9880     9.1840    10.1450    23.4700  -999.2500   -27.0390 
   83.2500    71.7520    11.6700     9.6700    10.4400    23.5210  -999.2500   -27.5080 
   83.3750    68.9370    12.5320    10.3280    10.8930    23.5520  -999.2500   -27.9510 
   83.5000    68.1410    13.3550    11.0090    11.4480    23.5860  -999.2500   -28.4360 
   83.6250    68.6120    13.8020    11.4520    12.6490    23.6100  -999.2500   -28.9410 
   83.7500    68.3350    13.7590    11.5270    13.9180    23.5610  -999.2500   -29.4220 
   83.8750    67.2560    13.2760    11.2310    13.1990    23.4470  -999.2500   -29.9120 
   84.0000    65.7210    12.5610    10.7020    11.2170    23.5740  -999.2500   -30.3650 
   84.1250    64.3720    11.9180    10.1640    10.2260    24.0910  -999.2500   -30.6240 
   84.2500    65.2990    11.5330     9.7930    10.0420    24.5570  -999.2500   -30.8500 
   84.3750    68.3480    11.4320     9.6350    10.1280    24.5360  -999.2500   -31.1130 
   84.5000    70.4880    11.5310     9.6570    10.3500    24.2060  -999.2500   -31.2380 
   84.6250    69.2380    11.6940     9.7780    10.5400    23.6720  -999.2500   -31.2190 
   84.7500    68.8360    11.7990     9.8880    10.6230    23.1580  -999.2500   -31.2770 
   84.8750    69.6030    11.8100     9.9400    10.6670    22.8640  -999.2500   -31.3310 
   85.0000    69.0460    11.7420     9.9210    10.5330    22.7820  -999.2500   -31.2190 
   85.1250    68.2430    11.6300     9.8440    10.3880    22.7670  -999.2500   -31.0970 
   85.2500    69.7140    11.5060     9.7360    10.4100    22.7740  -999.2500   -31.0910 
   85.3750    70.3780    11.3720     9.6080    10.6010    22.7840  -999.2500   -30.9800 
   85.5000    66.9570    11.2180     9.4590    10.6020    22.7840  -999.2500   -30.7800 
   85.6250    62.3410    11.0470     9.2970    10.3560    22.7140  -999.2500   -30.6590 
   85.7500    61.3530    10.8930     9.1510    10.0910    22.5730  -999.2500   -30.5630 
   85.8750    63.4920    10.8010     9.0550     9.5880    22.5040  -999.2500   -30.4170 
   86.0000    67.2260    10.8090     9.0400     8.9180    22.5990  -999.2500   -30.2610 
   86.1250    71.1740    10.9400     9.1330     8.7260    22.6000  -999.2500   -30.0570 
   86.2500    72.4960    11.1390     9.2980     9.4770    22.4420  -999.2500   -29.7820 
   86.3750    71.4210    11.3480     9.4960    10.4350    22.0540  -999.2500   -29.6130 
   86.5000    70.6630    11.5090     9.6770    10.8430    21.7680  -999.2500   -29.5170 
   86.6250    72.8390    11.5610     9.7790    10.8510    21.6800  -999.2500   -29.3210 
   86.7500    75.2970    11.5090     9.7930    10.8670    21.6680  -999.2500   -29.0920 
   86.8750    74.7940    11.3790     9.7250    10.8350    21.6010  -999.2500   -28.9320 
   87.0000    72.3540    11.2190     9.6090    10.6420    21.5150  -999.2500   -28.8090 
   87.1250    73.2290    11.0940     9.4920    10.1760    21.5500  -999.2500   -28.6730 
   87.2500    76.6020    11.0480     9.4180     9.8730    21.7700  -999.2500   -28.5740 
   87.3750    77.1590    11.0930     9.4020     9.9040    22.1170  -999.2500   -28.4330 
   87.5000    73.9800    11.2110     9.4400     9.8180    22.3420  -999.2500   -28.2350 
   87.6250    73.4520    11.3540     9.5100     9.5680    22.4210  -999.2500   -28.1080 
   87.7500    76.5960    11.4590     9.5740     9.3140    22.4560  -999.2500   -28.0520 
   87.8750    77.7950    11.5010     9.6110     9.0570    22.5170  -999.2500   -27.9450 
   88.0000    73.3160    11.4920     9.6170     8.9650    22.6180  -999.2500   -27.7830 
   88.1250    67.1590    11.4790     9.6030     9.5640    22.6870  -999.2500   -27.7450 
   88.2500    64.1850    11.5100     9.5890    10.1200    22.7200  -999.2500   -27.7430 
   88.3750    63.1760    11.5940     9.5860    10.3330    22.7690  -999.2500   -27.6730 
   88.5000    63.5290    11.7070     9.5920    10.3880    22.7750  -999.2500   -27.6490 
   88.6250    67.2860    11.8040     9.5970    10.4410    22.6030  -999.2500   -27.7920 
   88.7500    71.0060    11.8560     9.5900    10.4380    22.2670  -999.2500   -27.9390 
   88.8750    71.2120    11.8630     9.5670    10.3200    22.1790  -999.2500   -28.0440 
   89.0000    69.2260    11.8420     9.5330    10.2070    22.3690  -999.2500   -28.1860 
   89.1250    70.2980    11.8170     9.4990    10.3030    22.7930  -999.2500   -28.3580 
   89.2500    72.5090    11.8030     9.4700    10.4710    22.8680  -999.2500   -28.5090 
   89.3750    73.2010    11.8000     9.4460    10.6970    22.6140  -999.2500   -28.6330 
   89.5000    72.2650    11.7990     9.4210    10.9590    22.2680  -999.2500   -28.6560 
   89.6250    70.0710    11.7800     9.3810    11.0900    22.1170  -999.2500   -28.4210 
   89.7500    67.1200    11.7330     9.3180    11.0830    22.0740  -999.2500   -28.1100 
   89.8750    64.9320    11.6530     9.2280    10.8890    22.0710  -999.2500   -27.8120 
   90.0000    65.8750    11.5540     9.1220    10.5950    22.1480  -999.2500   -27.4540 
   90.1250    69.1930    11.4750     9.0320    10.4570    22.3500  -999.2500   -27.0000 
   90.2500    71.6830    11.4760     9.0030    10.4960    22.5730  -999.2500   -26.5990 
   90.3750    73.6440    11.6150     9.0820    10.4760    22.6140  -999.2500   -26.2800 
   90.5000    75.1220    11.9210     9.2970    10.4580    22.5730  -999.2500   -26.0560 
   90.6250    74.9080    12.3840     9.6530    10.4860    22.6220  -999.2500   -26.0880 
   90.7500    73.6590    12.8710    10.0540    10.6700    22.8200  -999.2500   -26.2020 
   90.8750    73.1170    13.2490    10.4030    10.9930    23.0520  -999.2500   -26.3080 
   91.0000    73.7310    13.4070    10.6070    11.4030    23.1320  -999.2500   -26.5440 
   91.1250    73.1900    13.2700    10.5830    11.4900    23.1410  -999.2500   -26.9420 
   91.2500    71.7230    12.9590    10.3940    11.5670    23.3670  -999.2500   -27.1880 
   91.3750    71.0700    12.5960    10.1180    11.5960    23.5150  -999.2500   -27.3560 
   91.5000    71.6600    12.2740     9.8250    11.5690    23.5630  -999.2500   -27.6060 
   91.6250    72.8020    12.0080     9.5470    11.4400    23.5400  -999.2500   -27.6820 
   91.7500    73.5730    11.7020     9.2540    11.2430    23.4790  -999.2500   -27.4990 
   91.8750    74.5500    11.2730     8.9060    11.0390    23.4520  -999.2500   -27.2570 
   92.0000    75.7320    10.7120     8.4980    10.7700    23.5230  -999.2500   -26.9960 
   92.1250    78.1690    10.1390     8.0990    10.2900    23.7180  -999.2500   -26.5200 
   92.2500    82.0230     9.7680     7.8330     9.5130    23.8300  -999.2500   -25.9430 
   92.3750    85.9610     9.7620     7.8150     8.7340    23.7030  -999.2500   -25.3660 
   92.5000    86.2560    10.1710     8.1030     8.7120    23.4250  -999.2500   -24.7440 
   92.6250    81.3100    10.8860     8.6720     9.9500    23.3800  -999.2500   -24.0360 
   92.7500    75.1620    11.5530     9.2820    11.0650    23.6190  -999.2500   -23.2360 
   92.8750    72.1040    11.8850     9.7000    12.2680    23.9010  -999.2500   -22.3400 
   93.0000    74.2420    11.7060     9.7390    13.8020    23.9590  -999.2500   -21.4050 
   93.1250    81.0970    10.9940     9.2970    13.9110    23.7850  -999.2500   -20.4830 
   93.2500    87.9510    10.0920     8.6200    10.7520    23.8020  -999.2500   -19.5890 
   93.3750    92.8010     9.2730     7.9340     7.9080    24.0930  -999.2500   -18.7730 
   93.5000    96.1280     8.7040     7.4000     6.9120    24.5200  -999.2500   -18.0050 
   93.6250    98.3830     8.4590     7.1120     6.9000    24.7310  -999.2500   -17.2870 
