~V
VERS. 2.00: Ver 2.00
~W
STRT.M 125.0000:
STOP.M 273.0000:
STEP.M 0.1250:
NULL. -999.2500:
UWI. DF3072:
~C
DEPT.M :
DEN.GM/CC :
GR.API :
CALI.CM :
RXO.OHMM :
RI. :
RML.OHMM :
SP.MV :
~A
# ...
  215.0000     2.1900    68.0220    25.5810   164.0160   182.0600   213.5820   -27.7580 
  215.1250     2.1800    69.1810    25.5490   163.0390   182.7160   213.7490   -27.9600 
  215.2500     2.1780    69.0450    25.4740   165.2010   182.6170   213.2260   -28.1170 
  215.3750     2.1790    71.4450    25.4050   168.6990   182.2100   212.2460   -28.2130 
  215.5000     2.1770    75.3830    25.4040   170.1150   181.6050   210.7400   -28.2450 
  215.6250     2.1760    75.0740    25.5120   167.1960   181.0000   208.9650   -28.2230 
  215.7500     2.1850    69.6000    25.6330   161.3120   180.7650   207.5770   -28.1550 
  215.8750     2.2010    64.5400    25.6590   155.3570   181.1440   206.9960   -28.0340 
  216.0000     2.2140    63.7660    25.5740   153.4690   182.1310   207.2140   -27.8780 
  216.1250     2.2170    64.2980    25.4690   158.0720   183.4190   207.6530   -27.6780 
  216.2500     2.2130    64.3350    25.4290   163.3240   184.3120   207.2920   -27.4440 
  216.3750     2.2050    65.0330    25.4360   164.3840   184.1290   205.3070   -27.2170 
  216.5000     2.1890    67.0080    25.4450   160.7400   182.2850   201.1330   -26.9900 
  216.6250     2.1690    66.3870    25.4310   150.8740   177.5730   193.4700   -26.7270 
  216.7500     2.1610    63.5700    25.3740   135.4630   169.2540   181.6390   -26.4620 
  216.8750     2.1800    60.3700    25.3020   120.7450   156.6900   165.3440   -26.1880 
  217.0000     2.2200    60.2740    25.2960   113.4980   140.6530   146.1350   -25.9050 
  217.1250     2.2540    64.3040    25.3290   107.0980   123.7730   127.6090   -25.6550 
  217.2500     2.2590    68.8490    25.2320    93.2060   109.3620   112.8730   -25.4100 
  217.3750     2.2370    70.9880    24.9890    78.4580    99.4080   103.4620   -25.1800 
  217.5000     2.2100    69.9580    24.7660    74.7160    94.9080    99.9430   -24.9910 
  217.6250     2.1980    67.6000    24.7630    86.4060    96.9980   103.2220   -24.8380 
  217.7500     2.1970    64.4410    24.9300   104.3200   104.2740   111.7930   -24.7290 
  217.8750     2.1970    62.1220    25.1760   123.2600   115.7050   124.6150   -24.6710 
  218.0000     2.1940    62.4330    25.4110   141.7520   129.4520   139.7610   -24.6410 
  218.1250     2.1910    64.2050    25.4940   155.4910   142.3990   153.7490   -24.6360 
  218.2500     2.1880    64.7320    25.4210   159.8880   151.8390   163.5280   -24.6540 
  218.3750     2.1860    64.1510    25.3270   155.9840   156.3720   167.5210   -24.6500 
  218.5000     2.1840    63.9870    25.3660   149.2620   155.4700   165.2010   -24.6160 
  218.6250     2.1990    63.4240    25.5190   143.2550   148.1240   155.5890   -24.5690 
  218.7500     2.2160    63.6300    25.5750   136.0040   135.9520   140.8800   -24.4600 
  218.8750     2.2230    65.1350    25.5010   123.3970   120.7870   123.5370   -24.3120 
  219.0000     2.2120    66.2720    25.4390   104.2770   105.2540   106.6480   -24.1540 
  219.1250     2.1880    64.6460    25.5030    84.9980    92.5300    93.5570   -23.9720 
  219.2500     2.1690    61.4840    25.6040    73.3850    83.8480    85.0620   -23.8230 
  219.3750     2.1620    60.0650    25.6640    71.9510    79.5660    81.2640   -23.7230 
  219.5000     2.1680    61.7150    25.6830    79.2580    79.3820    81.6830   -23.6590 
  219.6250     2.1830    65.6750    25.6080    90.3960    82.8380    85.6780   -23.6540 
  219.7500     2.2030    67.7340    25.4190    98.6270    87.8710    91.0510   -23.7080 
  219.8750     2.2200    65.6470    25.2390   102.8760    92.8290    96.0930   -23.8070 
  220.0000     2.2260    63.7760    25.2450   104.9840    96.3020    99.4490   -23.9450 
  220.1250     2.2190    65.2060    25.4370   105.2840    97.4790   100.5300   -24.1200 
  220.2500     2.2120    66.2620    25.6210   104.4630    97.4930   100.6990   -24.3170 
  220.3750     2.2140    64.7780    25.7660   105.3660    97.5960   101.2760   -24.5190 
  220.5000     2.2240    63.4490    25.8970   110.4350    98.8810   103.2900   -24.7310 
  220.6250     2.2380    65.2170    25.9700   118.7860   102.3250   107.6470   -24.9540 
  220.7500     2.2530    67.3970    25.9770   126.5740   107.5630   113.9670   -25.1730 
  220.8750     2.2660    67.9670    25.9750   132.5740   113.8970   121.6540   -25.3880 
  221.0000     2.2680    67.7110    25.9930   136.8060   120.2490   129.6880   -25.5890 
  221.1250     2.2510    68.4330    25.9660   136.9310   125.2640   136.6070   -25.7650 
  221.2500     2.2240    69.7500    25.8790   130.1150   128.5530   141.6500   -25.9120 
  221.3750     2.2040    69.3780    25.7800   115.4650   130.1750   144.6320   -26.0550 
  221.5000     2.2010    66.5570    25.6770    96.7030   130.3830   145.7290   -26.2080 
  221.6250     2.2150    64.6230    25.4760    83.3400   129.1210   144.8290   -26.3660 
  221.7500     2.2280    65.2090    25.1470    81.4780   126.6870   142.3760   -26.5820 
  221.8750     2.2320    65.5120    24.7700    89.8820   123.4170   138.8450   -26.8460 
  222.0000     2.2280    65.3230    24.5150   100.7990   119.9210   135.0240   -27.1430 
  222.1250     2.2260    64.0330    24.6190   107.8230   117.0190   131.9620   -27.4950 
  222.2500     2.2290    62.3850    25.0490   114.9260   115.1830   130.2780   -27.8200 
  222.3750     2.2330    62.8890    25.6120   125.2180   114.6650   130.2960   -28.0720 
  222.5000     2.2340    65.4740    26.0710   134.2500   115.4340   131.9220   -28.2190 
  222.6250     2.2360    67.9490    26.2910   135.8260   117.2950   134.7880   -28.1790 
  222.7500     2.2340    67.2780    26.3760   135.2000   119.7410   138.2150   -27.9680 
  222.8750     2.2230    65.3410    26.3910   138.3470   122.6950   142.1340   -27.6120 
  223.0000     2.2050    63.6100    26.3580   144.1940   126.2290   146.7510   -27.1220 
  223.1250     2.1940    62.0900    26.2780   147.5110   130.4340   152.3450   -26.5140 
  223.2500     2.1910    63.8750    26.2140   150.0640   134.8900   158.4240   -25.8580 
  223.3750     2.1880    67.5640    26.2030   155.8070   138.9740   164.1680   -25.2030 
  223.5000     2.1820    69.3560    26.2120   161.3670   141.9240   168.5870   -24.6030 
  223.6250     2.1830    67.6800    26.1710   157.5080   142.8890   170.5890   -24.1360 
  223.7500     2.1990    64.9410    26.1100   147.5260   142.1800   170.5010   -23.7360 
  223.8750     2.2200    64.4150    26.0870   138.7100   140.3370   168.9750   -23.3800 
  224.0000     2.2230    65.6770    26.1010   132.8980   138.0940   166.8960   -23.0740 
  224.1250     2.2030    66.1470    26.0290   127.8910   135.4810   164.1580   -22.7680 
  224.2500     2.1900    65.4860    25.7600   124.6950   131.3670   159.1990   -22.4830 
  224.3750     2.2100    65.1400    25.3410   124.3740   124.5510   150.5250   -22.2070 
  224.5000     2.2690    67.1380    24.9450   120.1500   115.0950   138.5460   -21.9080 
  224.6250     2.3560    69.2770    24.6910   103.2960   104.9130   126.1070   -21.5890 
  224.7500     2.4420    69.3560    24.5500    85.2320    96.6970   116.3530   -21.2810 
  224.8750     2.5080    67.3720    24.5660    80.5800    91.8930   110.5790   -20.9790 
  225.0000     2.5440    64.1090    24.8290    93.4790    90.6750   108.6050   -20.6740 
  225.1250     2.5530    62.2230    25.2430   113.0250    92.1850   109.2310   -20.3700 
  225.2500     2.5580    61.8710    25.5470   120.7140    94.0270   109.9260   -20.0340 
  225.3750     2.5740    62.3440    25.6410   114.8350    94.6830   109.3610   -19.6590 
  225.5000     2.6030    63.0060    25.5570   106.1020    93.5490   107.3080   -19.2230 
  225.6250     2.6320    63.5890    25.4290    99.1000    90.1800   103.0220   -18.6800 
  225.7500     2.6510    64.5020    25.3600    89.2020    83.4360    93.9240   -18.0210 
  225.8750     2.6650    66.9260    25.3220    78.8660    70.9770    77.1850   -17.2520 
  226.0000     2.6830    70.1200    25.2310    71.8730    52.9810    54.9530   -16.4000 
  226.1250     2.6980    70.3380    25.0770    56.7220    34.8220    34.9340   -15.4910 
