~V
VERS. 2.00: Ver 2.00
~W
STRT.M 125.0000:
STOP.M 255.0000:
STEP.M 0.1250:
NULL. -999.2500:
UWI. DF3006:
~C
DEPT.M :
GR.API :
RML.OHMM :
RI. :
RXO.OHMM :
CALI.CM :
DEN.GM/CC :
SP.MV :
~A
  125.0000    87.7860     6.9240     7.0260     6.4280    24.0150     2.2580   -27.8920 
  125.1250    90.5380     6.7250     6.6960     6.0390    24.1050     2.2880   -27.1500 
  125.2500    90.5850     6.7150     6.5750     5.9510    24.2120     2.3090   -26.6950 
  125.3750    89.5490     6.8160     6.6000     6.0570    24.3010     2.3220   -26.4700 
  125.5000    89.1740     6.9490     6.6980     6.2320    24.3500     2.3290   -26.4570 
  125.6250    88.7200     7.0380     6.7840     6.2770    24.3770     2.3330   -26.6340 
  125.7500    87.4810     7.0420     6.7980     6.3430    24.3810     2.3340   -26.9090 
  125.8750    89.6760     6.9450     6.7160     6.4090    24.3710     2.3340   -27.2800 
  126.0000    97.4380     6.7610     6.5410     6.4590    24.3560     2.3340   -27.6960 
  126.1250   104.3640     6.5290     6.3090     6.3890    24.3490     2.3360   -28.1680 
  126.2500   103.7640     6.3230     6.0940     6.2010    24.3440     2.3390   -28.7680 
  126.3750    99.9690     6.2140     5.9590     6.0570    24.3300     2.3370   -29.4590 
  126.5000    97.2070     6.2760     5.9720     6.1900    24.2840     2.3260   -30.2540 
  126.6250    93.4550     6.6340     6.2520     6.7330    24.1980     2.3050   -31.2380 
  126.7500    87.5240     7.2940     6.8230     7.4570    24.0970     2.2840   -32.2590 
  126.8750    82.5480     8.2300     7.6930     8.2850    24.0280     2.2710   -33.3670 
  127.0000    81.6440     9.3280     8.7840     9.2790    23.9960     2.2750   -34.5750 
  127.1250    82.4590    10.3630     9.9130    10.1130    23.9760     2.2940   -35.6400 
  127.2500    80.7870    11.1250    10.8400    11.0750    23.9560     2.3120   -36.6840 
  127.3750    76.3500    11.5040    11.4130    12.0410    23.9480     2.3170   -37.6770 
  127.5000    73.4110    11.5150    11.5960    12.3490    23.9480     2.3050   -38.4260 
  127.6250    75.2100    11.2670    11.4570    12.1660    23.9570     2.2810   -39.0660 
  127.7500    78.1940    10.9710    11.2070    12.1390    23.9730     2.2590   -39.6500 
  127.8750    79.6980    10.7260    10.9600    12.2630    23.9900     2.2430   -39.9600 
  128.0000    78.2380    10.5670    10.7700    12.3640    23.9970     2.2340   -40.1540 
  128.1250    73.3980    10.4940    10.6550    12.3120    23.9970     2.2280   -40.2740 
  128.2500    70.1940    10.4730    10.5920    12.2210    23.9970     2.2200   -40.1540 
  128.3750    70.4590    10.5030    10.5740    12.1330    23.9970     2.2110   -39.9640 
  128.5000    70.5830    10.5860    10.6050    12.0810    23.9970     2.2030   -39.6960 
  128.6250    67.0980    10.7120    10.6720    12.0440    23.9970     2.1980   -39.2230 
  128.7500    63.3740    10.8020    10.7050    11.9320    23.9970     2.1940   -38.6190 
  128.8750    61.6740    10.7440    10.6030    11.6820    23.9970     2.1920   -37.9000 
  129.0000    63.2170    10.4220    10.2620    11.3550    23.9970     2.1890   -37.0900 
  129.1250    66.7400     9.7350     9.5830    11.0150    23.9990     2.1880   -36.1940 
  129.2500    71.3010     8.8460     8.7080    10.5510    24.0110     2.1950   -35.2530 
  129.3750    77.5320     7.9740     7.8250     9.7180    24.0100     2.2140   -34.3430 
  129.5000    84.0150     7.3650     7.1460     8.4630    23.9500     2.2420   -33.5740 
  129.6250    86.8720     7.2710     6.8930     7.1840    23.7540     2.2710   -33.0310 
  129.7500    86.1290     7.6220     7.0410     6.9430    23.6230     2.2870   -32.6460 
  129.8750    83.3170     8.2690     7.5060     7.9270    23.5290     2.2840   -32.3120 
  130.0000    78.2680     8.9670     8.1160     9.4850    23.4840     2.2630   -31.8770 
  130.1250    73.1410     9.3820     8.5940    10.2330    23.4580     2.2350   -31.4530 
  130.2500    71.3010     9.3730     8.7440     9.8640    23.4250     2.2150   -30.9950 
  130.3750    73.6660     8.9590     8.5120     9.0130    23.4260     2.2130   -30.3270 
  130.5000    79.4920     8.3140     8.0040     8.2810    23.5320     2.2340   -29.6310 
  130.6250    87.0080     7.7120     7.4330     7.6310    23.7200     2.2730   -28.9130 
  130.7500    91.0100     7.3360     6.9960     7.1120    23.6830     2.3130   -28.0570 
  130.8750    90.8990     7.2280     6.7650     6.8530    23.5150     2.3370   -27.3380 
  131.0000    90.8570     7.3330     6.7280     6.7840    23.4050     2.3380   -26.8720 
  131.1250    93.2330     7.5220     6.8200     6.9680    23.3960     2.3160   -26.4060 
  131.2500    95.7990     7.6380     6.9070     7.3470    23.4920     2.2910   -26.0910 
  131.3750    97.7690     7.6130     6.9130     7.6740    23.7040     2.2740   -25.9330 
  131.5000    99.6570     7.4650     6.8210     7.7380    23.8520     2.2690   -25.6950 
  131.6250   101.9480     7.2890     6.6720     7.3440    23.8180     2.2790   -25.4810 
  131.7500   105.4540     7.1820     6.5430     6.9130    23.6570     2.2960   -25.3130 
  131.8750   107.9660     7.1610     6.4570     6.5420    23.6110     2.3140   -25.0770 
  132.0000   105.4650     7.1610     6.3870     6.4950    23.7920     2.3290   -24.8160 
  132.1250   100.2320     7.0430     6.2500     6.6420    23.8580     2.3400   -24.6160 
  132.2500    98.8020     6.7470     6.0000     6.4710    23.7760     2.3490   -24.4740 
  132.3750   100.7570     6.3270     5.6590     6.3470    23.7150     2.3530   -24.4460 
  132.5000   101.0220     5.9700     5.3460     6.3900    23.6940     2.3510   -24.4800 
  132.6250    99.4390     6.0420     5.3320     6.4340    23.6540     2.3450   -24.5010 
  132.7500    99.0450     6.7010     5.7790     6.6290    23.6090     2.3440   -24.5200 
  132.8750    96.6680     7.9110     6.7290     7.8230    23.6220     2.3570   -24.5700 
  133.0000    88.5660     9.3900     8.0380    10.6530    23.7820     2.3900   -24.6690 
  133.1250    78.6950    10.5660     9.3000    15.3600    23.7840     2.4370   -24.7620 
  133.2500    76.1740    10.9850    10.0300    21.6330    23.7690     2.4760   -24.8190 
  133.3750    80.6690    10.5090     9.9610    25.4060    23.7570     2.4910   -24.8570 
  133.5000    86.1390     9.3920     9.1800    20.0470    23.7780     2.4780   -24.8710 
  133.6250    89.3150     8.1940     8.1130    10.5110    23.7720     2.4430   -24.7990 
  133.7500    94.9950     7.3580     7.2300     7.6900    23.7690     2.4040   -24.8460 
  133.8750   101.8170     6.9680     6.6750     7.0470    23.7750     2.3730   -24.9620 
  134.0000   101.6320     6.9220     6.4370     6.8290    23.7750     2.3500   -24.9320 
  134.1250    94.5380     7.0530     6.4520     6.6190    23.7390     2.3370   -24.9790 
  134.2500    93.8310     7.1800     6.5720     6.5300    23.6790     2.3310   -25.0750 
  134.3750   101.0310     7.2480     6.7200     6.4900    23.6220     2.3280   -25.0570 
  134.5000   106.9750     7.2590     6.8500     6.4140    23.5740     2.3260   -25.1390 
  134.6250   103.5000     7.2210     6.9190     6.2590    23.5160     2.3220   -25.2730 
  134.7500    97.2920     7.1300     6.9080     6.2810    23.4870     2.3160   -25.2340 
  134.8750    96.7970     6.9650     6.7990     6.3500    23.5290     2.3120   -25.1670 
  135.0000   101.2270     6.7290     6.5980     6.2810    23.6980     2.3130   -25.1150 
  135.1250   102.5300     6.4640     6.3380     6.1530    23.7300     2.3230   -25.0140 
  135.2500    99.2030     6.2520     6.0920     5.7550    23.6300     2.3360   -24.9070 
  135.3750    95.5490     6.1480     5.9090     5.5770    23.5540     2.3490   -24.8050 
  135.5000    94.8470     6.1600     5.8190     5.5080    23.6060     2.3560   -24.7180 
  135.6250    99.4480     6.2630     5.8320     5.5160    23.6830     2.3530   -24.6520 
  135.7500   107.2240     6.3850     5.9090     5.7060    23.7710     2.3440   -24.6200 
  135.8750   111.3610     6.4890     6.0210     5.9410    23.8270     2.3340   -24.6800 
  136.0000   104.9880     6.5620     6.1440     5.7760    23.7470     2.3240   -24.8280 
  136.1250    94.7260     6.6100     6.2670     5.5770    23.6770     2.3180   -24.9830 
