~V
VERS. 2.00: Ver 2.00
~W
STRT.M 67.0000:
STOP.M 264.0000:
STEP.M 0.1250:
NULL. -999.2500:
UWI. DF3014:
~C
DEPT.M :
GR.API :
CALI.CM :
RXO.OHMM :
RI. :
RML.OHMM :
DEN.GM/CC :
SP.MV :
~A
# ...
   78.2500    64.7330    24.5100     9.9650     7.9630    10.0780  -999.2500   -38.8570 
   78.3750    65.8470    24.3790     9.9040     8.1020    10.3330  -999.2500   -38.8160 
   78.5000    67.4950    24.3560     9.5290     8.2720    10.5920  -999.2500   -38.7960 
   78.6250    65.3630    24.3780     9.1960     8.4510    10.8370  -999.2500   -38.8050 
   78.7500    61.7690    24.5860     9.2830     8.6140    11.0450  -999.2500   -38.8170 
   78.8750    58.8560    24.6150     9.6340     8.7390    11.1890  -999.2500   -38.8160 
   79.0000    58.2530    24.4910     9.8540     8.8140    11.2650  -999.2500   -38.7720 
   79.1250    60.3620    24.2720    10.0490     8.8200    11.2470  -999.2500   -38.6330 
   79.2500    61.6080    24.1160    10.1480     8.7640    11.1600  -999.2500   -38.4540 
   79.3750    60.5480    24.0310    10.2660     8.6530    11.0230  -999.2500   -38.2490 
   79.5000    58.5400    23.9960    10.2540     8.5090    10.8550  -999.2500   -38.0090 
   79.6250    59.2000    24.0170    10.0660     8.3740    10.7110  -999.2500   -37.7830 
   79.7500    61.7890    23.9610     9.7650     8.2570    10.6040  -999.2500   -37.5910 
   79.8750    64.3420    23.9830     9.6560     8.1690    10.5430  -999.2500   -37.4630 
   80.0000    65.4230    24.1450     9.7740     8.1240    10.5090  -999.2500   -37.3870 
   80.1250    64.0020    24.3840     9.9520     8.1360    10.5190  -999.2500   -37.3320 
   80.2500    61.8620    24.3660    10.1430     8.1780    10.5680  -999.2500   -37.2620 
   80.3750    60.0820    24.3140    10.2940     8.2500    10.6500  -999.2500   -37.1550 
   80.5000    58.8250    24.5140    10.2600     8.3460    10.7590  -999.2500   -36.9900 
   80.6250    58.9330    24.5430    10.0770     8.4550    10.8660  -999.2500   -36.7660 
   80.7500    59.5590    24.5420    10.1390     8.5650    10.9730  -999.2500   -36.5210 
   80.8750    59.2930    24.5650    10.5030     8.6720    11.0930  -999.2500   -36.2660 
   81.0000    58.5930    24.5980    10.8910     8.7610    11.1990  -999.2500   -36.0270 
   81.1250    57.7700    24.7450    11.0070     8.8130    11.2470  -999.2500   -35.8070 
   81.2500    57.7580    24.7560    11.2120     8.8120    11.2210  -999.2500   -35.5900 
   81.3750    58.6620    24.6420    11.3720     8.7530    11.1300  -999.2500   -35.3780 
   81.5000    59.1780    24.5920    11.2850     8.6690    11.0130  -999.2500   -35.1670 
   81.6250    59.1900    24.7150    11.2310     8.6000    10.9310  -999.2500   -34.9030 
   81.7500    59.1870    24.5720    11.0440     8.5670    10.9040  -999.2500   -34.5410 
   81.8750    61.8970    24.5270    10.5490     8.5670    10.9400  -999.2500   -34.0200 
   82.0000    67.5340    24.3090     9.6080     8.6050    11.0430  -999.2500   -33.3790 
   82.1250    70.8860    24.2550     8.6810     8.6460    11.1380  -999.2500   -32.6910 
   82.2500    69.5770    24.0720     8.8230     8.6510    11.1750  -999.2500   -32.0100 
   82.3750    66.4130    23.9110    10.1380     8.6000    11.1360  -999.2500   -31.3740 
   82.5000    65.2450    23.6670    11.1450     8.4810    11.0120  -999.2500   -30.7990 
   82.6250    67.1540    23.5760    11.3620     8.3290    10.8330  -999.2500   -30.3370 
   82.7500    68.2190    23.5400    10.9030     8.1970    10.6650  -999.2500   -29.9940 
   82.8750    68.6410    23.7700    10.2310     8.1110    10.5540  -999.2500   -29.7740 
   83.0000    68.1600    23.6580     9.5550     8.0940    10.5210  -999.2500   -29.6150 
   83.1250    67.6140    23.2900     9.5020     8.1640    10.6160  -999.2500   -29.4390 
   83.2500    68.4000    23.0760     9.8260     8.2960    10.7620  -999.2500   -29.2130 
   83.3750    69.2890    23.0870    10.0130     8.4450    10.9020  -999.2500   -28.9410 
   83.5000    68.9490    23.3890     9.9580     8.5970    11.0530  -999.2500   -28.6150 
   83.6250    67.4570    23.9590     9.7820     8.7240    11.1860  -999.2500   -28.2140 
   83.7500    67.5630    24.3650     9.8370     8.7950    11.2390  -999.2500   -27.7550 
   83.8750    70.1210    24.5650    10.0000     8.7670    11.1590  -999.2500   -27.2730 
   84.0000    72.7410    24.7420     9.9320     8.6080    10.9090  -999.2500   -26.7850 
   84.1250    75.2010    24.8090     9.4700     8.2620    10.4270  -999.2500   -26.3380 
   84.2500    79.4340    24.7300     9.2620     7.7740     9.7690  -999.2500   -25.8880 
   84.3750    85.7530    24.6360     8.7820     7.2000     9.0080  -999.2500   -25.3970 
   84.5000    91.2780    24.8390     7.3710     6.6060     8.2410  -999.2500   -24.8880 
   84.6250    94.2960    24.8450     5.6940     6.0890     7.6050  -999.2500   -24.3910 
   84.7500    95.8370    24.7600     4.8200     5.7020     7.1960  -999.2500   -23.9240 
   84.8750    96.1720    24.5930     4.4760     5.4660     7.0040  -999.2500   -23.4900 
   85.0000    95.0970    24.3280     4.3430     5.3680     6.9920  -999.2500   -23.1250 
   85.1250    95.1280    24.3520     4.4200     5.4130     7.1450  -999.2500   -22.8700 
   85.2500    96.2840    24.4470     4.6410     5.5620     7.4080  -999.2500   -22.7470 
   85.3750    94.4680    24.4970     5.0150     5.7830     7.7280  -999.2500   -22.7930 
   85.5000    90.5520    24.5090     5.3840     6.0350     8.0380  -999.2500   -23.0030 
   85.6250    89.1240    24.4400     5.5640     6.2710     8.2820  -999.2500   -23.3230 
   85.7500    91.4080    24.2820     5.5820     6.4460     8.4380  -999.2500   -23.6860 
   85.8750    94.8350    24.2660     5.7370     6.5310     8.4690  -999.2500   -24.0770 
   86.0000    97.3180    24.4440     6.4070     6.5280     8.3860  -999.2500   -24.4430 
   86.1250    96.4440    24.2480     7.2390     6.4710     8.2420  -999.2500   -24.7340 
   86.2500    91.8290    24.2170     6.9240     6.4060     8.1220  -999.2500   -24.9950 
   86.3750    88.3220    24.2180     5.9850     6.3900     8.1220  -999.2500   -25.2370 
   86.5000    88.1140    24.2920     5.4110     6.4840     8.3500  -999.2500   -25.4680 
   86.6250    86.3850    24.5000     5.5860     6.7180     8.7910  -999.2500   -25.7150 
   86.7500    81.3880    24.5250     6.8060     6.9920     9.2500  -999.2500   -25.9740 
   86.8750    75.3430    24.4980     8.3990     7.1880     9.5560  -999.2500   -26.2190 
   87.0000    69.6980    24.5140     9.2070     7.1970     9.5580  -999.2500   -26.4250 
   87.1250    67.9340    24.4870     9.0200     6.9950     9.2150  -999.2500   -26.5500 
   87.2500    73.8000    24.5000     8.7790     6.7230     8.7710  -999.2500   -26.5470 
   87.3750    84.4230    24.4890     8.0190     6.5100     8.4560  -999.2500   -26.3890 
   87.5000    92.3330    24.3120     6.5590     6.4570     8.4650  -999.2500   -26.0900 
   87.6250    91.5300    24.4250     5.4550     6.7060     8.9950  -999.2500   -25.7240 
   87.7500    87.0360    24.4680     5.9000     7.2220     9.8830  -999.2500   -25.3730 
   87.8750    81.5440    24.4480     9.6310     7.9000    10.8860  -999.2500   -25.0860 
   88.0000    75.6920    23.9970    14.0010     8.5550    11.7180  -999.2500   -24.9060 
   88.1250    72.7530    23.7300    14.4630     8.9030    12.0050  -999.2500   -24.9030 
   88.2500    74.1730    23.7080    11.3840     8.8810    11.7040  -999.2500   -25.0470 
   88.3750    79.1600    23.7750     9.3330     8.5640    10.9880  -999.2500   -25.2770 
   88.5000    84.3720    23.4110     8.4620     8.1160    10.1370  -999.2500   -25.5350 
   88.6250    85.6370    23.3360     8.0410     7.7490     9.5080  -999.2500   -25.7360 
   88.7500    84.1120    23.2890     7.5590     7.5640     9.2570  -999.2500   -25.8550 
   88.8750    81.9280    23.1150     7.0180     7.5870     9.3310  -999.2500   -25.8820 
   89.0000    79.0600    22.9950     6.5330     7.7360     9.5450  -999.2500   -25.8400 
   89.1250    74.4960    22.8120     7.0750     7.8820     9.6810  -999.2500   -25.6980 
   89.2500    73.4570    22.9150     7.9560     7.9090     9.6170  -999.2500   -25.4980 
   89.3750    79.1450    23.1840     8.4010     7.7620     9.3110  -999.2500   -25.2850 
