~V
VERS. 2.00: Ver 2.00
~W
STRT.M 105.0000:
STOP.M 279.0000:
STEP.M 0.1250:
NULL. -999.2500:
UWI. DF3027:
~C
DEPT.M :
DEN.GM/CC :
AC.US/MT :
GR.API :
CALI.CM :
RXO.OHMM :
RI. :
RML.OHMM :
SP.MV :
~A
# ...
  265.0000     2.5960   209.6360    82.5440    24.6360    22.9400    28.5320    31.4290    -9.4980 
  265.1250     2.6020   209.6070    82.5440    24.5560    22.5720    28.5240    31.3100    -9.5210 
  265.2500     2.5970   209.2290    82.5440    24.4630    23.0790    28.4210    31.0820    -9.5730 
  265.3750     2.5720   208.8900    82.5440    24.3990    24.1070    28.2240    30.7440    -9.6400 
  265.5000     2.5390   209.4760    82.5440    24.3580    24.7150    27.9370    30.3010    -9.7210 
  265.6250     2.5140   211.5530    82.5440    24.3010    24.3270    27.5660    29.7780    -9.7690 
  265.7500     2.5060   214.8610    82.5440    24.2760    23.7540    27.1650    29.2550    -9.7870 
  265.8750     2.5110   218.1390    82.5440    24.3530    23.4430    26.7890    28.8020    -9.7900 
  266.0000     2.5200   220.0820    82.5440    24.5040    23.1090    26.4920    28.4740    -9.7720 
  266.1250     2.5330   220.3000    82.5440    24.6070    22.6080    26.3580    28.3470    -9.7270 
  266.2500     2.5550   219.2660    82.5440    24.6340    22.5600    26.3970    28.4030    -9.6620 
  266.3750     2.5790   218.0750    82.5440    24.6120    22.7910    26.5980    28.6140    -9.5860 
  266.5000     2.5950   217.6540    82.5440    24.5400    22.1950    26.9110    28.9240    -9.5090 
  266.6250     2.5980   218.1370    82.5440    24.4710    20.9630    27.2600    29.2510    -9.4470 
  266.7500     2.5950   219.0740    82.5440    24.5000    21.6480    27.5470    29.4990    -9.4010 
  266.8750     2.6030   219.6220    82.5440    24.5920    25.0600    27.7080    29.6020    -9.3730 
  267.0000     2.6160   219.3090    82.5440    24.6430    28.4210    27.7160    29.5380    -9.3730 
  267.1250     2.6190   218.1490    82.5440    24.6350    28.3000    27.5790    29.3280    -9.3820 
  267.2500     2.6080   216.5220    82.5440    24.6520    26.7020    27.3840    29.0820    -9.3920 
  267.3750     2.5990   214.9990    82.5440    24.6710    26.0900    27.1960    28.8810    -9.4030 
  267.5000     2.6030   213.9000    82.5440    24.6190    26.4460    27.0620    28.7730    -9.4100 
  267.6250     2.6090   213.1400    82.5440    24.5440    26.7840    27.0190    28.7820    -9.4060 
  267.7500     2.6010   212.3640    82.5440    24.5390    26.8940    27.0420    28.8660    -9.4040 
  267.8750     2.5800   211.1120    82.5440    24.5920    26.5190    27.1090    28.9910    -9.3970 
  268.0000     2.5640   209.3890    82.5440    24.6580    25.6370    27.1990    29.1280    -9.3950 
  268.1250     2.5670   207.3990    82.5440    24.7740    25.1880    27.3000    29.2570    -9.4050 
  268.2500     2.5820   205.4000    82.5440    24.9060    25.4100    27.4060    29.3690    -9.4210 
  268.3750     2.5920   203.6480    82.5440    24.9420    25.5470    27.5190    29.4660    -9.4340 
  268.5000     2.5910   202.2370    82.5440    24.8740    25.3950    27.6420    29.5590    -9.4460 
  268.6250     2.5840   201.2120    82.5440    24.7690    25.9500    27.7670    29.6390    -9.4550 
  268.7500     2.5810   200.6140    82.5440    24.6340    27.2550    27.8740    29.6880    -9.4350 
  268.8750     2.5840   200.7010    82.5440    24.4730    28.3450    27.9400    29.6810    -9.4080 
  269.0000     2.5880   201.6000    82.5440    24.3540    28.5340    27.9440    29.6000    -9.3700 
  269.1250     2.5910   203.3970    82.5440    24.3170    28.1060    27.8570    29.4230    -9.3200 
  269.2500     2.5940   205.9000    82.5440    24.3010    27.6160    27.6920    29.1770    -9.2740 
  269.3750     2.5980   208.4780    82.5440    24.3260    27.1020    27.4770    28.9020    -9.2290 
  269.5000     2.5930   210.3620    82.5440    24.4080    26.7960    27.2570    28.6430    -9.1830 
  269.6250     2.5680   211.2890    82.5440    24.4910    27.5050    27.0870    28.4520    -9.1350 
  269.7500     2.5330   211.6210    82.5440    24.4900    28.9660    26.9860    28.3370    -9.1020 
  269.8750     2.5170   212.1690    82.5440    24.3900    29.9570    26.9430    28.2820    -9.0690 
  270.0000     2.5300   213.2820    82.5440    24.3030    29.5280    26.9320    28.2600    -9.0480 
  270.1250     2.5560   214.6530    82.5440    24.3800    27.9410    26.9310    28.2480    -9.0430 
  270.2500     2.5780   215.6720    82.5440    24.5270    26.3690    26.9320    28.2410    -9.0420 
  270.3750     2.5920   215.7720    82.5440    24.5710    25.1950    26.9330    28.2360    -9.0520 
  270.5000     2.6060   215.2110    82.5440    24.4820    24.4040    26.9330    28.2340    -9.0690 
  270.6250     2.6130   214.4260    82.5440    24.4370    23.8950    26.9330    28.2340    -9.0740 
  270.7500     2.6030   213.8370    82.5440    24.5270    23.6190    26.9330    28.2340    -9.0600 
  270.8750     2.5710   213.7960    82.5440    24.6670    23.6970    26.9330    28.2340    -9.0550 
  271.0000     2.5390   214.3560    82.5440    24.7290    24.6820    26.9330    28.2340    -9.0480 
  271.1250     2.5250   215.5520    82.5440    24.6740    27.0460    26.9330    28.2340    -9.0250 
  271.2500     2.5330   217.2390    82.5440    24.6040    28.7150    26.9330    28.2340    -9.0000 
  271.3750     2.5490   218.8070    82.5440    24.5770    27.6320    26.9330    28.2340    -8.9590 
  271.5000     2.5540   219.3820    82.5440    24.6040    24.5830    26.9330    28.2340    -8.8900 
  271.6250     2.5510   218.4380    82.5440    24.6730    23.0280    26.9330    28.2340    -8.8160 
  271.7500     2.5530   216.2010    82.5440    24.7470    23.6700    26.9330    28.2340    -8.7600 
  271.8750     2.5680   213.8960    82.5440    24.7890    24.8810    26.9330    28.2340    -8.7020 
  272.0000     2.5810   212.9160    82.5440    24.7590    25.5940    26.9330    28.2340    -8.6380 
  272.1250     2.5830   213.6430    82.5440    24.6310    26.3370    26.9330    28.2340    -8.5920 
  272.2500     2.5770   215.2690    82.5440    24.4690    27.1360    26.9330    28.2340    -8.5460 
  272.3750     2.5770   215.8290    82.5440    24.3520    26.9780    26.9330    28.2340    -8.5170 
  272.5000     2.5850   214.2370    82.5440    24.2980    25.5310    26.9330    28.2340    -8.5100 
  272.6250     2.5890   210.8550    82.5440    24.2780    23.9320    26.9330    28.2340    -8.5240 
  272.7500     2.5780   207.0610    82.5440    24.2850    23.1430    26.9330    28.2340    -8.5330 
  272.8750     2.5570   204.4860    82.5440    24.3470    23.0830    26.9330    28.2340    -8.5370 
  273.0000     2.5410   203.3490    82.5440    24.4530    23.6400    26.9330    28.2340    -8.5530 
  273.1250     2.5400   203.2130    82.5440    24.5430    25.0440    26.9330    28.2340    -8.5800 
  273.2500     2.5500   203.4840    82.5440    24.5950    26.7560    26.9330    28.2340    -8.6190 
  273.3750     2.5580   203.6650    82.5440    24.6390    27.6760    26.9330    28.2340    -8.6480 
  273.5000     2.5650   203.4520    82.5440    24.6480    27.7720    26.9330    28.2340    -8.6670 
  273.6250     2.5960   202.6760    82.5440    24.6410    26.1360    26.9330    28.2340    -8.6880 
  273.7500     2.6220   201.5070    82.5440    24.4880    25.4290    26.9330    28.2340    -8.7290 
  273.8750     2.4770   200.7050    82.5440    24.3140    25.1410    26.9330    28.2340    -8.7870 
  274.0000     2.1420   197.4370    82.5440    24.1710    24.5570    26.9330    28.2340    -8.8430 
  274.1250     1.7820   217.0750    82.5440    24.0510    23.2540    26.9330    28.2340    -8.8700 
  274.2500     1.5860   287.1480    82.5440    23.8160    20.7040    26.9330    28.2340    -8.8810 
  274.3750     1.5860   384.6650    82.5440    23.0390    17.1870    26.9330    28.2340    -8.8890 
  274.5000     1.6270   445.7040    82.5440    21.5460    13.8360    26.9330    28.2340    -8.8860 
  274.6250     1.6550   458.6550    82.5440    19.8790    11.8690    26.9330    28.2340    -8.8780 
  274.7500     1.6660   454.1210    82.5440    19.0150    11.4440    26.9330    28.2340    -8.8480 
  274.8750     1.6630  -999.2500    82.5440    18.8690    11.4540    26.9330    28.2340    -8.8070 
