~V
VERS. 2.00: Ver 2.00
~W
STRT.M 125.0000:
STOP.M 265.0000:
STEP.M 0.1250:
NULL. -999.2500:
UWI. DF3008:
~C
DEPT.M :
DEN.GM/CC :
GR.API :
CALI.CM :
RXO.OHMM :
RI. :
RML.OHMM :
SP.MV :
~A
# ...
  192.5000     2.3690    62.1880    24.9300    30.7840    29.3210    30.2300   -26.6300 
  192.6250     2.3690    58.3370    25.1470    34.7370    31.7000    32.2360   -26.2740 
  192.7500     2.3600    53.3800    25.3290    36.4790    33.1040    33.5060   -25.8920 
  192.8750     2.3510    53.0710    25.3980    36.0200    33.2120    33.8670   -25.4930 
  193.0000     2.3450    58.4030    25.4060    32.8050    32.6120    33.4460   -25.0870 
  193.1250     2.3400    62.9060    25.4060    29.0840    32.0200    33.0170   -24.7200 
  193.2500     2.3300    64.8480    25.4060    29.1620    31.8890    33.1520   -24.3920 
  193.3750     2.3160    66.8260    25.3870    32.9690    32.2260    33.8770   -24.1050 
  193.5000     2.3040    70.3170    25.3200    37.7370    32.7830    34.8860   -23.8610 
  193.6250     2.3000    70.7970    25.1730    40.2880    33.2170    35.7090   -23.6580 
  193.7500     2.2980    66.8400    25.0580    41.2680    33.4320    36.1710   -23.4710 
  193.8750     2.3010    62.0220    25.0040    40.9330    33.6370    36.5000   -23.2830 
  194.0000     2.3200    59.6410    24.9920    39.4340    34.1750    37.1780   -23.0740 
  194.1250     2.3740    57.2860    24.9900    38.0410    35.2420    38.6090   -22.8130 
  194.2500     2.4560    52.9730    24.9780    38.5320    36.1860    40.1810   -22.5010 
  194.3750     2.5400    50.0560    24.9320    40.3370    35.8260    40.5210   -22.1420 
  194.5000     2.5980    54.5490    24.8430    40.4270    33.0260    38.0320   -21.7570 
  194.6250     2.6060    62.0360    24.7070    33.0220    27.6380    32.0770   -21.3980 
  194.7500     2.5770    68.6130    24.5900    22.5570    21.7490    25.1650   -21.0920 
  194.8750     2.5290    74.3600    24.5330    14.5350    16.7160    19.1520   -20.8630 
  195.0000     2.4770    79.7770    24.5960    10.6800    13.0240    14.7910   -20.7260 
  195.1250     2.4360    82.3030    24.7330     9.5060    10.7200    12.2210   -20.6690 
  195.2500     2.4100    83.6900    24.8800     9.2660     9.2760    10.7570   -20.6800 
  195.3750     2.4010    86.0740    24.9710     9.5690     8.4610    10.0590   -20.7550 
  195.5000     2.4110    85.5850    24.9550     9.7650     8.1380     9.9000   -20.8780 
  195.6250     2.4430    80.7430    24.9780     9.6000     8.3150    10.2620   -21.0170 
  195.7500     2.4800    74.7510    25.0720     9.8580     8.9270    11.1150   -21.1530 
  195.8750     2.5180    71.4690    25.1330    11.3510     9.9900    12.5420   -21.2520 
  196.0000     2.5550    72.1250    25.0770    14.6370    11.4600    14.5340   -21.3050 
  196.1250     2.5840    74.2770    24.9950    18.3180    13.1020    16.7980   -21.3280 
  196.2500     2.5900    75.6080    24.9490    20.4510    14.3740    18.5810   -21.3110 
  196.3750     2.5750    75.3140    24.9360    20.8670    14.8150    19.2150   -21.2580 
  196.5000     2.5500    75.8740    24.9350    19.6250    14.2930    18.5070   -21.1770 
  196.6250     2.5250    78.7600    24.9350    16.6510    13.0480    16.8550   -21.0630 
  196.7500     2.4990    82.8720    24.9350    13.8570    11.6490    15.0990   -20.9030 
  196.8750     2.4750    87.6250    24.9410    12.3300    10.3320    13.5360   -20.6970 
  197.0000     2.4600    89.6000    24.9580    11.4570     9.1860    12.2050   -20.4450 
  197.1250     2.4590    88.2760    24.9920    10.6140     8.3010    11.1590   -20.1260 
  197.2500     2.4690    86.6060    25.0060     9.7810     7.7090    10.4620   -19.7650 
  197.3750     2.4890    87.0050    25.0050     9.1280     7.4710    10.2410   -19.3530 
  197.5000     2.5200    87.5640    24.9910     8.8580     7.6220    10.5830   -18.9080 
  197.6250     2.5490    85.1680    24.9690     9.7750     8.2000    11.5610   -18.4750 
  197.7500     2.5620    81.7420    24.9300    12.0150     9.0390    12.9010   -18.0540 
  197.8750     2.5610    80.9480    24.8780    14.3880     9.9630    14.2980   -17.6510 
  198.0000     2.5580    82.7150    24.8540    15.0440    10.7440    15.3830   -17.2550 
  198.1250     2.5690    85.5370    24.9200    13.6530    11.0530    15.6780   -16.8510 
  198.2500     2.5860    87.4760    24.9520    12.4310    10.8030    15.1260   -16.4500 
  198.3750     2.5920    85.4150    24.8980    12.4160    10.0200    13.8150   -16.0620 
  198.5000     2.5730    76.2920    24.7500    12.6270     8.8530    12.0010   -15.6750 
  198.6250     2.5370    65.8540    24.5230    11.1860     7.5310    10.0410   -15.2550 
  198.7500     2.5030    57.7490    24.3830     8.3400     6.3200     8.3230   -14.8390 
  198.8750     2.4830    53.2970    24.3230     5.9560     5.3670     7.0710   -14.4460 
  199.0000     2.4730    50.9130    24.2720     5.0310     4.7380     6.3670   -14.0950 
  199.1250     2.4650    50.4390    24.1740     5.0500     4.4800     6.2240   -13.8340 
  199.2500     2.4530    52.1500    24.1350     5.1930     4.4790     6.3980   -13.6530 
  199.3750     2.4470    53.9010    24.1830     5.2870     4.6490     6.7080   -13.5490 
  199.5000     2.4590    55.4050    24.2770     5.3900     4.8830     6.9870   -13.5280 
  199.6250     2.4860    58.1590    24.3220     5.5580     5.0900     7.1270   -13.5820 
  199.7500     2.5080    63.3720    24.3350     5.6890     5.2430     7.1690   -13.6830 
  199.8750     2.5110    70.8770    24.3340     5.7020     5.3510     7.1730   -13.8020 
  200.0000     2.4990    76.6380    24.3330     5.6410     5.4320     7.1840   -13.9300 
  200.1250     2.4820    76.9840    24.3370     5.6170     5.4830     7.2310   -14.0600 
  200.2500     2.4670    72.2810    24.3690     5.6980     5.4670     7.2710   -14.1960 
  200.3750     2.4530    69.2340    24.4500     5.7620     5.3140     7.1910   -14.3400 
  200.5000     2.4380    73.1180    24.5450     5.5490     4.9660     6.8570   -14.4790 
  200.6250     2.4280    77.0860    24.6550     4.9460     4.4120     6.1710   -14.6230 
  200.7500     2.4240    78.1370    24.7180     4.4140     3.7990     5.3140   -14.7630 
  200.8750     2.4220    80.0530    24.7540     4.0070     3.2520     4.5090   -14.9120 
  201.0000     2.4190    85.4090    24.7960     3.5850     2.8680     3.9660   -15.0770 
  201.1250     2.4200    88.3110    24.8680     3.5010     2.7360     3.8970   -15.2430 
  201.2500     2.4260    87.3130    24.8990     4.1190     2.8350     4.2650   -15.3970 
  201.3750     2.4330    85.7950    24.9070     5.2160     3.1530     5.0060   -15.5420 
  201.5000     2.4380    86.1420    24.9070     6.2980     3.6540     5.9870   -15.6870 
  201.6250     2.4370    85.4020    24.9180     7.0000     4.2510     6.9700   -15.8360 
  201.7500     2.4300    81.9700    24.9440     7.2040     4.7970     7.7190   -16.0100 
  201.8750     2.4170    78.2920    24.9710     7.1730     5.2200     8.1640   -16.2020 
  202.0000     2.4070    78.5360    24.9830     7.3410     5.5540     8.4190   -16.4130 
  202.1250     2.4050    79.5110    24.9860     8.0200     5.9220     8.7360   -16.6630 
  202.2500     2.4050    78.6610    24.9900     8.7660     6.4390     9.3240   -16.9470 
  202.3750     2.3940    76.3460    24.9910     9.6890     7.1690    10.2890   -17.2530 
  202.5000     2.3750    75.1830    24.9930    11.3260     8.1270    11.6550   -17.5720 
  202.6250     2.3610    77.0030    25.0100    14.1630     9.2850    13.3610   -17.8800 
  202.7500     2.3580    80.2400    25.0440    17.0090    10.4840    15.1010   -18.1570 
  202.8750     2.3620    81.5030    25.0740    18.4030    11.5550    16.5720   -18.4120 
  203.0000     2.3650    78.8560    25.0860    18.3270    12.3440    17.5280   -18.6580 
  203.1250     2.3650    78.4920    25.0890    17.6680    12.7320    17.8220   -18.8890 
  203.2500     2.3720    82.8180    25.1060    17.8830    12.8550    17.7250   -19.0970 
  203.3750     2.3850    87.5210    25.1390    17.1300    12.8760    17.5170   -19.2860 
  203.5000     2.3940    85.9860    25.1630    15.3410    12.9910    17.5090   -19.4690 
  203.6250     2.3840    80.0520    25.1690    14.7360    13.4690    18.0840   -19.6630 
