~V
VERS. 2.00: Ver 2.00
~W
STRT.M 70.0000:
STOP.M 278.0000:
STEP.M 0.1250:
NULL. -999.2500:
UWI. DF3060:
~C
DEPT.M :
SP.MV :
GR.API :
RML.OHMM :
RI. :
RXO.OHMM :
CALI.CM :
DEN.GM/CC :
~A
# ...
  137.5000   -22.9630    68.5800     8.8380     7.1810     8.0740    23.0030     2.2090 
  137.6250   -23.0930    70.3340     8.7280     7.1070     7.6770    23.0020     2.2170 
  137.7500   -23.1800    69.4420     8.6680     7.0870     7.5220    22.9310     2.2240 
  137.8750   -23.2350    66.0680     8.6770     7.1290     7.5720    22.8250     2.2280 
  138.0000   -23.2440    63.5020     8.7650     7.2320     7.7410    22.6980     2.2270 
  138.1250   -23.2260    64.6990     8.9330     7.3990     7.9610    22.5960     2.2240 
  138.2500   -23.1580    66.5300     9.1460     7.6050     8.1870    22.5530     2.2190 
  138.3750   -23.0680    66.9400     9.3730     7.8260     8.3400    22.5320     2.2150 
  138.5000   -22.9690    66.7420     9.5780     8.0310     8.2750    22.5100     2.2120 
  138.6250   -22.8780    66.4980     9.6840     8.1490     7.9290    22.4980     2.2100 
  138.7500   -22.7620    67.4580     9.6200     8.1150     7.4160    22.4950     2.2110 
  138.8750   -22.5860    70.0330     9.3140     7.8600     6.9390    22.5020     2.2180 
  139.0000   -22.3590    72.9760     8.7400     7.3510     6.5910    22.5270     2.2310 
  139.1250   -22.0510    73.9580     7.9180     6.5920     6.2050    22.5910     2.2510 
  139.2500   -21.7390    74.9950     7.0250     5.7410     5.6690    22.7270     2.2710 
  139.3750   -21.4510    78.5340     6.2090     4.9330     5.2890    22.9490     2.2870 
  139.5000   -21.2240    83.8200     5.6000     4.2900     5.6040    23.1710     2.2960 
  139.6250   -21.0940    87.0630     5.3450     3.9510     6.9380    23.2530     2.2990 
  139.7500   -21.0740    86.4080     5.4390     3.9300     8.6670    23.2500     2.2990 
  139.8750   -21.2010    83.4930     5.8670     4.2380     9.8520    23.2090     2.2930 
  140.0000   -21.4800    80.0790     6.5620     4.8490    10.0270    23.1510     2.2790 
  140.1250   -21.9350    76.1880     7.4130     5.7050    10.3230    23.0610     2.2560 
  140.2500   -22.4810    70.9590     8.2360     6.6240    10.7080    22.9570     2.2320 
  140.3750   -23.0640    65.8200     8.8970     7.4540    10.7260    22.8750     2.2130 
  140.5000   -23.6040    64.5580     9.3120     8.0670    10.1290    22.7890     2.2010 
  140.6250   -24.0650    67.3320     9.4050     8.3360     9.0250    22.6590     2.1970 
  140.7500   -24.4580    69.5730     9.2380     8.3020     7.7740    22.5220     2.2000 
  140.8750   -24.7700    69.2790     8.8410     8.0000     6.8870    22.4420     2.2070 
  141.0000   -24.9590    67.5940     8.2470     7.4830     6.5070    22.4180     2.2220 
  141.1250   -25.0320    67.4480     7.4960     6.8080     6.2970    22.4180     2.2420 
  141.2500   -25.0290    70.5550     6.7110     6.0900     5.8870    22.4210     2.2640 
  141.3750   -25.0210    76.5980     6.0040     5.4230     5.1480    22.4290     2.2790 
  141.5000   -25.0870    82.5560     5.4770     4.8930     4.4390    22.4470     2.2810 
  141.6250   -25.2500    84.7090     5.2240     4.5890     4.2700    22.4910     2.2690 
  141.7500   -25.4650    84.8990     5.1950     4.4880     4.2630    22.5610     2.2540 
  141.8750   -25.7130    85.2590     5.3470     4.5670     4.2210    22.6220     2.2470 
  142.0000   -25.9780    85.0610     5.6190     4.7750     4.1320    22.6140     2.2560 
  142.1250   -26.2240    83.7560     5.9230     5.0300     4.2220    22.5180     2.2770 
  142.2500   -26.4660    82.5470     6.1380     5.2100     4.3420    22.3920     2.2990 
  142.3750   -26.6720    81.8020     6.1500     5.2110     4.4000    22.3230     2.3110 
  142.5000   -26.7960    81.3870     5.8730     4.9540     4.4070    22.3290     2.3110 
  142.6250   -26.8110    82.0790     5.2560     4.3980     4.1220    22.3910     2.3090 
  142.7500   -26.7530    85.8000     4.4680     3.6990     3.7680    22.4730     2.3150 
  142.8750   -26.6630    91.0680     3.6990     3.0170     3.3280    22.5320     2.3320 
  143.0000   -26.5950    94.4980     3.1620     2.5220     2.9610    22.5550     2.3560 
  143.1250   -26.6010    94.3650     3.1440     2.4310     3.2390    22.5580     2.3800 
  143.2500   -26.6710    92.3030     3.7010     2.7960     4.4650    22.5560     2.3970 
  143.3750   -26.7870    89.4560     4.8340     3.6510     6.6740    22.5470     2.4020 
  143.5000   -26.9790    85.8150     6.4110     4.9480     9.7110    22.5240     2.3920 
  143.6250   -27.2610    82.1140     8.1400     6.5210    12.5360    22.4600     2.3660 
  143.7500   -27.6230    79.9650     9.6140     8.0120    13.6350    22.3450     2.3340 
  143.8750   -28.0400    79.1400    10.5820     9.1480    12.2200    22.1930     2.3050 
  144.0000   -28.4680    79.3460    10.9900     9.7950    10.0310    22.0590     2.2830 
  144.1250   -28.9030    79.2590    10.9490     9.9590     8.9530    22.0620     2.2660 
  144.2500   -29.3110    77.4080    10.7690     9.9090     8.7090    22.1530     2.2500 
  144.3750   -29.7090    74.4250    10.5930     9.7910     8.7570    22.2420     2.2310 
  144.5000   -30.0680    71.6330    10.4810     9.6880     8.8100    22.2760     2.2120 
  144.6250   -30.3540    69.3580    10.4830     9.6610     8.7670    22.2760     2.2020 
  144.7500   -30.5710    66.9570    10.6130     9.7430     8.8690    22.2750     2.2080 
  144.8750   -30.7100    66.1910    10.8780     9.9490     9.1760    22.2760     2.2330 
  145.0000   -30.8060    67.5870    11.2280    10.2440     9.6520    22.2760     2.2690 
  145.1250   -30.8440    68.2040    11.5390    10.5280    10.2110    22.2730     2.2980 
  145.2500   -30.8300    67.4620    11.6890    10.6810    10.5200    22.2710     2.3080 
  145.3750   -30.7660    66.9510    11.6180    10.6400    10.4300    22.2710     2.3000 
  145.5000   -30.6720    66.4400    11.3570    10.4130     9.9680    22.2700     2.2790 
  145.6250   -30.5800    65.4550    11.0240    10.0870     9.1560    22.2690     2.2570 
  145.7500   -30.4980    65.7300    10.7760     9.8000     8.5420    22.2680     2.2350 
  145.8750   -30.4250    67.5000    10.6900     9.6280     8.4530    22.2680     2.2130 
  146.0000   -30.3670    68.6340    10.7770     9.5960     8.6110    22.2680     2.1880 
  146.1250   -30.3190    68.0310    10.9970     9.6960     8.7870    22.2680     2.1650 
  146.2500   -30.3060    67.1500    11.2390     9.8510     8.9220    22.2690     2.1460 
  146.3750   -30.3190    65.5080    11.4290    10.0080     9.1410    22.2730     2.1350 
  146.5000   -30.3600    63.3870    11.5210    10.1240     9.4470    22.2860     2.1320 
  146.6250   -30.3890    62.8230    11.4940    10.1610     9.8280    22.3200     2.1370 
  146.7500   -30.4460    63.0650    11.4200    10.1450    10.3740    22.3920     2.1450 
  146.8750   -30.5250    62.3360    11.3730    10.1220    11.1650    22.5120     2.1530 
  147.0000   -30.5920    60.7240    11.4250    10.1530    12.3270    22.6410     2.1590 
  147.1250   -30.6700    61.4980    11.6390    10.3010    15.0880    22.7350     2.1610 
  147.2500   -30.7510    63.3430    11.9700    10.5480    20.3390    22.7670     2.1640 
  147.3750   -30.8230    63.2820    12.3600    10.8530    27.6750    22.7740     2.1660 
  147.5000   -30.8670    61.3630    12.7410    11.1600    35.8640    22.7740     2.1710 
  147.6250   -30.9140    60.4310    13.0160    11.3940    41.7650    22.7740     2.1760 
  147.7500   -30.9310    60.3500    13.1200    11.5070    40.2410    22.7740     2.1820 
  147.8750   -30.9200    59.2560    12.9940    11.4460    32.4450    22.7740     2.1890 
  148.0000   -30.9100    57.3770    12.6220    11.1820    25.4170    22.7740     2.1960 
  148.1250   -30.8900    57.2790    12.0470    10.7110    21.0050    22.7740     2.2020 
  148.2500   -30.8550    59.0950    11.4420    10.1550    19.1920    22.7740     2.2050 
  148.3750   -30.8060    61.2450    10.9470     9.6280    17.3840    22.7740     2.2040 
  148.5000   -30.7330    62.8620    10.6490     9.2290    13.6930    22.7740     2.1990 
  148.6250   -30.6530    63.8210    10.5840     9.0430    11.3550    22.7740     2.1930 
