~V
VERS. 2.00: Ver 2.00
~W
STRT.M 140.0000:
STOP.M 286.0000:
STEP.M 0.1250:
NULL. -999.2500:
UWI. DF3059:
~C
DEPT.M :
SP.MV :
GR.API :
RML.OHMM :
RI. :
RXO.OHMM :
CALI.CM :
DEN.GM/CC :
~A
# ...
  218.7500   -19.5950    75.8560    86.0010    76.0650    86.2460    25.7070     2.2180 
  218.8750   -19.5210    72.6970    89.4320    79.7400    95.1590    25.7270     2.2040 
  219.0000   -19.4400    72.1630    90.4270    81.3750    97.2010    25.7150     2.1900 
  219.1250   -19.3620    71.6180    89.1900    80.9500    98.1300    25.6560     2.1800 
  219.2500   -19.3110    70.8290    87.7030    80.0690    96.8980    25.6670     2.1730 
  219.3750   -19.2700    71.6790    87.4310    80.0490    85.6910    25.6390     2.1680 
  219.5000   -19.2140    74.1770    88.9800    81.5900    73.6580    25.4270     2.1630 
  219.6250   -19.2090    75.0630    91.9180    84.5310    72.8160    24.9140     2.1620 
  219.7500   -19.2750    74.4190    94.6650    87.5120    84.6730    24.4580     2.1650 
  219.8750   -19.3820    74.4430    96.1050    89.4820    94.3740    24.5920     2.1730 
  220.0000   -19.5500    73.9800    95.7460    89.8690    96.1720    24.9900     2.1830 
  220.1250   -19.7140    71.0370    93.7870    88.6700    91.1360    25.1090     2.1900 
  220.2500   -19.8940    67.4110    91.4680    86.9570    82.9140    25.0060     2.1920 
  220.3750   -20.0330    65.0230    89.5120    85.4600    76.5680    24.7860     2.1880 
  220.5000   -20.2580    65.7960    88.1040    84.4820    75.2590    24.5040     2.1790 
  220.6250   -20.3890    69.6210    86.9950    83.9060    78.3860    24.1600     2.1710 
  220.7500   -20.5750    73.8940    85.8090    83.3590    80.1880    24.0450     2.1620 
  220.8750   -20.7200    75.2790    84.4780    82.7110    78.6260    24.3060     2.1620 
  221.0000   -20.9170    72.5240    83.1460    82.0290    75.0980    24.8600     2.1650 
  221.1250   -21.0860    68.8960    82.1250    81.5730    72.5640    25.3140     2.1710 
  221.2500   -21.2490    68.2850    81.5680    81.5400    74.1820    25.5610     2.1780 
  221.3750   -21.4310    69.1050    81.4980    82.0060    75.8830    25.6470     2.1840 
  221.5000   -21.6000    69.1700    81.8160    82.8980    76.2120    25.6680     2.1840 
  221.6250   -21.8490    68.1070    82.3320    84.0070    76.9030    25.6720     2.1770 
  221.7500   -22.0490    67.7130    82.8030    85.0310    78.0130    25.6720     2.1630 
  221.8750   -22.2850    68.3960    83.2200    85.8620    80.0770    25.6700     2.1520 
  222.0000   -22.4610    69.6710    83.7180    86.6110    83.9820    25.6660     2.1530 
  222.1250   -22.6610    72.3020    84.3070    87.8020    86.0390    25.6540     2.1670 
  222.2500   -22.8210    75.0560    86.2230    90.1740    83.8910    25.6440     2.1890 
  222.3750   -22.9450    76.3680    90.4460    94.6790    82.4600    25.6400     2.2030 
  222.5000   -23.0160    74.8890    99.9760   102.3400    88.7010    25.6530     2.2050 
  222.6250   -23.0700    71.2560   115.9760   114.7860    98.7820    25.6950     2.1960 
  222.7500   -23.0860    68.8310   140.0720   131.6930   115.7920    25.7570     2.1840 
  222.8750   -23.1220    67.4080   170.2730   152.5170   138.2720    25.8190     2.1770 
  223.0000   -23.1870    65.4360   198.3960   175.7540   162.9320    25.8510     2.1730 
  223.1250   -23.2590    64.7460   224.5760   198.6880   181.1100    25.8610     2.1700 
  223.2500   -23.3180    65.6970   246.8980   218.5140   188.9820    25.8420     2.1660 
  223.3750   -23.3960    65.9450   263.2150   233.4370   183.2320    25.7230     2.1630 
  223.5000   -23.3830    64.7540   272.8840   242.8580   168.6260    25.4620     2.1630 
  223.6250   -23.3570    64.1300   276.2560   246.9700   160.5540    25.4700     2.1690 
  223.7500   -23.2790    64.6430   276.5160   248.4000   166.1550    25.7070     2.1810 
  223.8750   -23.1280    62.9480   275.4400   248.6700   175.9170    25.8580     2.1970 
  224.0000   -22.9920    60.0250   274.1180   248.7460   176.2110    25.9180     2.2120 
  224.1250   -22.8130    60.9250   273.1120   249.1410   169.1640    25.9350     2.2220 
  224.2500   -22.7510    63.4600   272.5400   249.9420   171.0960    25.9450     2.2240 
  224.3750   -22.6520    62.5790   272.5660   251.2420   183.9340    25.9450     2.2150 
  224.5000   -22.7110    57.6680   273.4750   253.2290   196.5090    25.9380     2.2020 
  224.6250   -22.7290    56.0770   275.6840   256.2170   202.4830    25.8970     2.1880 
  224.7500   -22.8300    58.3980   278.7360   259.8670   200.5080    25.8330     2.1790 
  224.8750   -22.9130    59.5940   281.7670   263.4670   204.1630    25.8260     2.1770 
  225.0000   -22.9920    58.9870   283.2360   265.8050   212.1570    25.9160     2.1810 
  225.1250   -23.0860    60.2460   279.9050   264.6910   223.5310    25.8650     2.1860 
  225.2500   -23.1510    62.4730   271.8490   259.3050   227.6700    25.5870     2.1900 
  225.3750   -23.2240    62.6130   259.2730   249.5190   219.1690    25.2860     2.1900 
  225.5000   -23.2910    62.7670   246.2110   236.3940   204.9930    25.1570     2.1850 
  225.6250   -23.3830    66.9010   233.7510   221.8770   191.9110    25.1630     2.1770 
  225.7500   -23.4800    70.6940   226.1970   208.1680   178.0130    25.1690     2.1670 
  225.8750   -23.6560    69.3010   221.8720   196.2500   161.9340    25.1970     2.1600 
  226.0000   -23.8520    63.7590   212.1360   186.3760   150.1520    25.2930     2.1580 
  226.1250   -24.0860    61.5280   202.7840   178.6100   147.8850    25.5120     2.1640 
  226.2500   -24.2640    64.8250   195.2350   172.3270   151.3990    25.6420     2.1850 
  226.3750   -24.4840    69.6810   189.3730   167.4170   155.8350    25.5710     2.2250 
  226.5000   -24.6640    70.6150   185.3580   164.0120   161.3790    25.4730     2.2760 
  226.6250   -24.9180    66.9150   184.0090   162.8070   164.9920    25.3100     2.3190 
  226.7500   -25.1010    65.2030   185.2190   163.7680   178.8930    24.8880     2.3350 
  226.8750   -25.2970    67.3860   188.5380   166.5940   189.8020    24.2680     2.3140 
  227.0000   -25.3840    70.1520   192.5730   170.1950   169.2950    23.8830     2.2740 
  227.1250   -25.5200    70.5380   194.5770   172.3420   144.3090    23.9120     2.2330 
  227.2500   -25.6500    68.5860   192.5920   171.3070   151.9040    24.2740     2.2060 
  227.3750   -25.7520    65.8460   185.9160   166.3530   164.1130    24.8770     2.1950 
  227.5000   -25.8300    64.6280   175.4500   158.0280   160.1380    25.3750     2.1910 
  227.6250   -25.7900    66.9510   163.4560   147.9760   131.2080    25.6640     2.1900 
  227.7500   -25.8610    70.5520   152.8190   138.6650   105.9460    25.7710     2.1910 
  227.8750   -25.8530    71.8570   145.1740   131.6080    97.1200    25.8530     2.1910 
  228.0000   -25.9090    70.6620   141.3630   127.6900   100.1490    25.8850     2.1920 
  228.1250   -25.8590    69.3440   142.3300   127.8670   104.6510    25.9450     2.1930 
  228.2500   -25.8700    66.9630   147.2640   131.5220   109.7780    26.0410     2.1930 
  228.3750   -25.8900    63.5760   155.7950   138.3710   117.0160    26.2150     2.1920 
  228.5000   -25.9580    60.5510   167.2500   147.8460   123.0750    26.2580     2.1900 
  228.6250   -26.0240    60.8950   180.5410   159.0430   134.9310    26.3380     2.1880 
  228.7500   -26.0860    64.3280   193.4520   170.0220   148.2630    26.2590     2.1850 
  228.8750   -26.1720    66.6720   204.0920   179.1180   158.2900    26.1970     2.1820 
  229.0000   -26.2570    65.0400   211.0600   185.0630   156.9040    26.1890     2.1790 
  229.1250   -26.3350    60.5030   213.5170   187.0470   155.9780    26.1510     2.1790 
  229.2500   -26.4100    59.9270   213.4400   186.7390   157.3230    26.1080     2.1810 
  229.3750   -26.4480    65.4660   212.6440   185.7450   155.8030    26.1500     2.1850 
  229.5000   -26.4770    71.3280   212.4470   185.3530   158.5890    26.1940     2.1850 
  229.6250   -26.4880    71.4070   212.6850   185.7290   165.4550    26.2520     2.1800 
  229.7500   -26.4980    68.9760   211.3140   185.2280   167.6630    26.3200     2.1710 
  229.8750   -26.4770    65.9070   206.0600   181.8380   169.0560    26.3690     2.1740 
