~V
VERS. 2.00: Ver 2.00
~W
STRT.M 125.0000:
STOP.M 275.0000:
STEP.M 0.1250:
NULL. -999.2500:
UWI. DF3046:
~C
DEPT.M :
GR.API :
CALI.CM :
RXO.OHMM :
RI. :
RML.OHMM :
DEN.GM/CC :
SP.MV :
~A
# ...
  237.5000    61.1880    24.8790   200.1040   134.1450   169.9150     2.2040   -19.0210 
  237.6250    62.7280    24.8600   186.8360   137.3800   176.1200     2.2110   -19.2800 
  237.7500    62.5150    24.8460   175.2940   138.6960   179.4700     2.2150   -19.4510 
  237.8750    60.3030    24.8440   175.3330   137.8300   178.7330     2.2200   -19.5330 
  238.0000    58.5950    24.8530   186.7000   134.1620   172.9120     2.2320   -19.5300 
  238.1250    59.2650    24.8520   199.5090   126.7560   161.1790     2.2470   -19.5000 
  238.2500    60.2570    24.8340   189.0020   116.8910   146.1630     2.2520   -19.4390 
  238.3750    61.0200    24.8300   150.3400   106.1940   130.5180     2.2400   -19.3730 
  238.5000    61.4480    24.8410   105.3980    96.4620   116.7980     2.2160   -19.3040 
  238.6250    61.5310    24.8470    83.4620    89.4210   107.3170     2.2010   -19.2030 
  238.7500    62.1270    24.8520    78.1950    85.0550   101.7560     2.2050   -19.0590 
  238.8750    63.6770    24.8490    80.3460    83.1050    99.4350     2.2200   -18.8670 
  239.0000    64.6920    24.8330    82.9550    83.0580    99.2410     2.2330   -18.6440 
  239.1250    64.9360    24.8020    82.5620    84.2800    99.9270     2.2400   -18.3410 
  239.2500    65.1840    24.7880    81.4680    85.6400   100.2360     2.2400   -17.9620 
  239.3750    64.8240    24.7880    82.3520    86.3660    99.5210     2.2360   -17.4990 
  239.5000    63.4260    24.7920    85.7230    85.8720    97.3970     2.2260   -16.9660 
  239.6250    61.2300    24.7990    86.0490    83.5790    93.4770     2.2160   -16.4120 
  239.7500    60.3850    24.7810    80.0600    79.8490    88.1800     2.2110   -15.8860 
  239.8750    62.1500    24.7490    70.3270    75.0040    81.8140     2.2160   -15.4070 
  240.0000    65.7020    24.7180    61.9700    69.3090    74.7250     2.2320   -14.9940 
  240.1250    67.6430    24.7000    56.0680    62.9560    67.3440     2.2470   -14.6830 
  240.2500    67.1300    24.6960    51.0730    56.6430    60.3640     2.2550   -14.4440 
  240.3750    66.7910    24.7060    45.4720    51.1970    54.4750     2.2610   -14.2710 
  240.5000    67.6960    24.7140    37.9500    47.4040    50.3120     2.2710   -14.1140 
  240.6250    70.2900    24.7140    31.8270    46.1320    48.6350     2.2810   -13.9960 
  240.7500    73.6910    24.7130    31.8860    46.9360    48.9470     2.2800   -13.8850 
  240.8750    75.7000    24.6990    39.8670    49.0980    50.4790     2.2690   -13.7970 
  241.0000    74.8370    24.6610    50.3400    51.3130    51.9390     2.2610   -13.6990 
  241.1250    72.8830    24.6370    51.1280    51.6190    51.5690     2.2580   -13.5830 
  241.2500    72.8830    24.6350    42.7400    49.4910    49.0750     2.2550   -13.4730 
  241.3750    74.7030    24.6550    33.0140    45.6410    45.1740     2.2490   -13.3770 
  241.5000    77.8630    24.6850    27.0800    41.5620    41.2040     2.2470   -13.3220 
  241.6250    81.6750    24.6970    25.0260    38.8850    38.6850     2.2520   -13.2690 
  241.7500    83.5500    24.6940    24.5010    37.9920    37.9850     2.2570   -13.2190 
  241.8750    81.9490    24.6990    25.2570    38.7770    38.9810     2.2560   -13.1780 
  242.0000    79.3050    24.7040    28.1150    40.7510    41.1310     2.2490   -13.1900 
  242.1250    79.2130    24.7040    32.6320    43.0420    43.5100     2.2450   -13.2520 
  242.2500    80.0570    24.7010    36.0440    44.6450    45.1620     2.2490   -13.3290 
  242.3750    80.2320    24.7070    36.5330    45.1370    45.7360     2.2540   -13.3720 
  242.5000    80.0340    24.7020    35.1590    44.7210    45.5110     2.2510   -13.3910 
  242.6250    81.2410    24.6820    33.5270    44.2930    45.4680     2.2390   -13.4270 
  242.7500    82.2840    24.6620    33.4120    44.9700    46.7340     2.2250   -13.5360 
  242.8750    81.3500    24.6660    35.5080    47.5690    50.1330     2.2180   -13.6870 
  243.0000    79.0610    24.6940    40.3640    52.6340    56.1690     2.2240   -13.8250 
  243.1250    75.4670    24.7030    51.5560    60.6820    65.1520     2.2370   -13.9190 
  243.2500    71.4410    24.6970    70.2520    70.3370    75.3790     2.2440   -14.0510 
  243.3750    68.9470    24.6810    93.3300    79.5130    84.5300     2.2400   -14.2870 
  243.5000    68.7020    24.6780   111.3920    85.5220    90.0210     2.2320   -14.5730 
  243.6250    67.6200    24.6670   117.3950    85.8100    89.7560     2.2320   -14.8680 
  243.7500    65.2010    24.6310   109.6860    82.2520    85.9310     2.2460   -15.0910 
  243.8750    64.9720    24.6120    91.0910    77.4330    81.0910     2.2720   -15.2570 
  244.0000    67.5230    24.6370    71.8750    73.7190    77.4310     2.3010   -15.4400 
  244.1250    68.4770    24.6960    65.6710    72.7640    76.4390     2.3090   -15.6770 
  244.2500    68.9850    24.6740    75.6110    74.1270    77.6270     2.2880   -15.9080 
  244.3750    72.9220    24.5340    95.2320    77.0210    80.2180     2.2570   -16.1010 
  244.5000    77.7670    24.3350   105.8810    80.2540    83.0610     2.2490   -16.2880 
  244.6250    75.1990    24.3590    92.9270    82.2500    84.5850     2.2620   -16.4970 
  244.7500    68.4070    24.4830    82.1060    82.3310    84.1070     2.2780   -16.7340 
  244.8750    65.6690    24.5770    77.9810    80.4960    81.6480     2.2850   -16.9710 
  245.0000    67.2090    24.5920    73.1470    77.2720    77.8140     2.2810   -17.1360 
  245.1250    67.0570    24.6340    64.6950    73.3210    73.4010     2.2770   -17.1690 
  245.2500    65.5260    24.6940    59.4470    69.3180    69.1780     2.2770   -17.1270 
  245.3750    65.4700    24.6700    56.4500    65.7330    65.6310     2.2800   -17.0280 
  245.5000    67.1650    24.4790    54.1600    63.2760    63.3380     2.2810   -16.8970 
  245.6250    68.4240    24.1730    51.3540    63.3320    63.5100     2.2740   -16.7570 
  245.7500    69.6880    24.0580    49.1580    66.5490    66.7490     2.2600   -16.5800 
  245.8750    68.9560    24.2320    52.4200    73.5340    73.7390     2.2420   -16.3840 
  246.0000    65.0080    24.4830    74.7830    84.1600    84.4500     2.2330   -16.2060 
  246.1250    62.2610    24.6480   138.5140    96.5510    96.8210     2.2390   -16.0990 
  246.2500    64.5390    24.6620   206.4080   105.9220   105.6860     2.2540   -16.0490 
  246.3750    67.9920    24.5480   211.7410   107.7600   106.7050     2.2660   -16.0410 
  246.5000    66.8720    24.2540   148.5790   100.4150    98.8330     2.2700   -16.0680 
  246.6250    64.4670    24.1420    99.0850    86.8230    85.2380     2.2760   -16.1100 
  246.7500    66.0380    24.2830    70.0730    73.7790    72.3860     2.2910   -16.1650 
  246.8750    70.0220    24.3570    54.5220    64.4510    63.2840     2.3270   -16.2060 
  247.0000    72.4600    24.1710    47.6640    59.7610    58.6590     2.3910   -16.2060 
  247.1250    75.2110    23.8890    56.4410    59.8340    58.4830     2.4670   -16.1760 
  247.2500    79.0700    23.7750    78.3630    62.5610    60.8390     2.5360   -16.1620 
  247.3750    81.2690    23.9130    96.4500    66.1000    64.1490     2.5790   -16.1620 
  247.5000    80.2620    24.2040    96.3270    68.4810    66.6640     2.5710   -16.1430 
  247.6250    77.5650    24.4420    79.3180    68.0090    66.8020     2.5330   -16.1040 
  247.7500    76.4840    24.4390    61.5860    65.5850    65.1740     2.4890   -16.0710 
  247.8750    76.1070    24.2890    51.1080    62.7580    63.0680     2.4490   -16.0620 
  248.0000    75.1270    24.0430    52.6000    60.9710    61.8320     2.3960   -16.1060 
  248.1250    74.2420    23.6860    65.0400    61.2560    62.5640     2.3430   -16.1890 
  248.2500    73.7370    23.4210    78.9360    63.3310    65.0820     2.3260   -16.2340 
  248.3750    72.9390    23.3340    88.6710    66.9610    69.1960     2.3650   -16.2190 
  248.5000    72.2450    23.6380    96.7990    71.8870    74.7310     2.4460   -16.1430 
  248.6250    73.1230    24.0760   123.9610    78.2900    81.9590     2.5280   -15.9670 
