~V
VERS. 2.00: Ver 2.00
~W
STRT.M 130.0000:
STOP.M 271.0000:
STEP.M 0.1250:
NULL. -999.2500:
UWI. DF3076:
~C
DEPT.M :
DEN.GM/CC :
GR.API :
CALI.CM :
RXO.OHMM :
RI. :
RML.OHMM :
SP.MV :
~A
# ...
  231.2500     2.3290    89.2140    23.7880    23.5540    14.5640    19.5430   -13.2800 
  231.3750     2.3080    86.1430    23.7120    33.1580    19.0510    24.7940   -13.6720 
  231.5000     2.2950    83.4180    23.6860    36.4110    24.1940    30.1930   -14.0790 
  231.6250     2.2920    81.6300    23.6860    35.5980    28.9360    34.6070   -14.5010 
  231.7500     2.2920    79.2050    23.6200    38.6050    32.5510    37.6610   -14.8960 
  231.8750     2.2940    75.6260    23.5570    44.1170    35.0130    39.6430   -15.2680 
  232.0000     2.2980    73.2030    23.5460    47.8200    36.7690    41.2150   -15.6040 
  232.1250     2.2980    73.9010    23.5810    46.8600    38.3380    43.0200   -15.9070 
  232.2500     2.2890    74.7070    23.6030    45.6140    40.1160    45.3860   -16.2110 
  232.3750     2.2760    74.0560    23.5640    47.1330    42.5100    48.7160   -16.5330 
  232.5000     2.2640    74.3040    23.5070    51.8080    46.1020    53.5830   -16.8480 
  232.6250     2.2570    75.5970    23.4870    57.3770    51.9390    61.0410   -17.1460 
  232.7500     2.2490    75.5880    23.4990    65.7910    60.2100    71.1380   -17.4490 
  232.8750     2.2350    73.7740    23.5330    80.7690    70.7180    83.5290   -17.7620 
  233.0000     2.2180    71.2850    23.6010    98.3580    82.0820    96.4340   -18.0680 
  233.1250     2.2050    69.0680    23.7090   108.7720    90.6200   104.8130   -18.3610 
  233.2500     2.2040    68.5580    23.8040   109.7100    93.3180   105.0410   -18.6230 
  233.3750     2.2120    70.3920    23.8430   101.9900    89.4570    97.4130   -18.8400 
  233.5000     2.2190    73.2100    23.8510    87.2270    81.2190    86.1080   -19.0010 
  233.6250     2.2180    74.2080    23.8600    71.0350    72.4820    76.2240   -19.1070 
  233.7500     2.2100    75.3650    23.8830    61.3680    66.0050    69.6920   -19.1540 
  233.8750     2.2020    76.9500    23.9040    58.9350    62.4650    66.4930   -19.1510 
  234.0000     2.2020    76.4260    23.9160    61.8190    61.5510    65.8450   -19.1240 
  234.1250     2.2120    74.3310    23.9220    66.7210    62.3070    66.3870   -19.0490 
  234.2500     2.2270    73.4590    23.9230    69.1570    62.7970    66.1040   -18.9310 
  234.3750     2.2340    73.7050    23.9130    68.5050    61.8190    63.9630   -18.7680 
  234.5000     2.2330    74.1970    23.9030    64.2790    59.1330    60.1410   -18.6110 
  234.6250     2.2340    76.3780    23.9000    57.2220    55.4150    55.7780   -18.4710 
  234.7500     2.2440    79.7760    23.9010    48.5260    51.8970    52.0650   -18.3180 
  234.8750     2.2540    81.1340    23.8970    45.7970    48.9660    49.5430   -18.1800 
  235.0000     2.2570    80.1400    23.8800    50.5120    47.0700    47.6380   -18.0500 
  235.1250     2.2510    80.1320    23.8520    53.2390    45.7830    46.1730   -17.8970 
  235.2500     2.2480    82.0980    23.8380    49.2860    44.7430    44.9390   -17.7600 
  235.3750     2.2540    83.4400    23.8390    43.9060    44.1100    44.0550   -17.6500 
  235.5000     2.2640    82.0570    23.8420    42.2230    44.2290    43.8290   -17.5310 
  235.6250     2.2650    78.5200    23.8370    43.5470    45.6120    44.8040   -17.4190 
  235.7500     2.2530    76.3310    23.8220    47.9010    48.0570    46.9020   -17.3150 
  235.8750     2.2430    75.7520    23.7970    53.3670    51.1330    49.7750   -17.2250 
  236.0000     2.2430    76.0580    23.7840    58.2200    54.2320    52.8390   -17.1350 
  236.1250     2.2480    77.6290    23.7990    60.3660    56.8990    55.6150   -17.0660 
  236.2500     2.2480    79.8660    23.8370    59.3820    59.3350    58.2430   -17.0220 
  236.3750     2.2400    79.2660    23.8790    59.1170    61.7910    61.0040   -16.9780 
  236.5000     2.2260    74.4590    23.9020    66.5910    64.1700    63.8480   -16.9580 
  236.6250     2.2140    72.4700    23.9130    82.7330    65.8870    66.2120   -16.9120 
  236.7500     2.2090    76.6640    23.9310    93.0480    66.8120    67.8500   -16.8730 
  236.8750     2.2070    82.1990    23.9600    87.9920    67.3100    69.0520   -16.8190 
  237.0000     2.2070    82.5180    23.9960    72.7190    67.9790    70.4460   -16.7380 
  237.1250     2.2210    76.1420    24.0050    73.2700    69.1410    72.6410   -16.6770 
  237.2500     2.2700    69.8780    24.0060   107.9580    69.6940    74.8570   -16.6190 
  237.3750     2.3360    67.7260    23.9940   150.8150    67.3950    74.9180   -16.5620 
  237.5000     2.3770    69.5630    23.9550   152.4610    60.3050    70.2300   -16.5070 
  237.6250     2.3680    73.2980    23.9140   102.8860    48.9190    59.6540   -16.5130 
  237.7500     2.3250    78.9800    23.8990    63.4740    37.5800    47.3190   -16.5520 
  237.8750     2.2920    87.4140    23.8970    39.8180    28.8150    36.6230   -16.6420 
  238.0000     2.2790    94.4950    23.8950    26.7080    23.3500    29.2760   -16.7930 
  238.1250     2.2770    93.3840    23.8960    22.5630    21.1160    25.7840   -17.0010 
  238.2500     2.2800    88.8220    23.9000    22.9230    20.7360    24.7080   -17.2600 
  238.3750     2.2800    86.7690    23.9120    25.3370    21.4470    25.2130   -17.5830 
  238.5000     2.2720    87.8630    23.9400    28.6200    22.5510    26.5240   -17.9830 
  238.6250     2.2590    89.0410    23.9720    30.1040    23.3470    27.7730   -18.4170 
  238.7500     2.2560    91.1980    23.9970    28.0390    23.6010    28.4140   -18.8980 
  238.8750     2.2690    95.7980    24.0070    24.2630    23.4910    28.4890   -19.3920 
  239.0000     2.2880   100.2960    24.0050    21.8000    23.3740    28.3640   -19.8740 
  239.1250     2.2990    98.9530    23.9730    23.3090    23.5640    28.4160   -20.3370 
  239.2500     2.3000    94.7030    23.8980    27.4420    24.0600    28.7010   -20.7490 
  239.3750     2.2980    92.8080    23.7680    30.5350    24.8240    29.1760   -21.1110 
  239.5000     2.2970    92.0930    23.6030    30.1360    25.9000    29.8620   -21.3990 
  239.6250     2.3000    88.6490    23.4270    27.1360    27.6120    31.0580   -21.5960 
  239.7500     2.3250    85.4260    23.3790    26.0940    30.2460    33.1240   -21.6920 
  239.8750     2.3800    87.0660    23.5250    28.6620    34.1210    36.4930   -21.7140 
  240.0000     2.4550    91.6830    23.7190    37.5540    39.3710    41.4210   -21.6730 
  240.1250     2.5170    92.4220    23.7210    50.8290    45.8670    47.8810   -21.5130 
  240.2500     2.5270    88.5000    23.6560    59.6560    52.5850    54.7600   -21.3130 
  240.3750     2.5030    83.4970    23.5860    63.7030    58.5630    61.0030   -21.0540 
  240.5000     2.4720    81.0080    23.5360    67.3460    63.1870    65.8940   -20.7160 
  240.6250     2.4480    81.4860    23.4900    67.5010    66.4610    69.3040   -20.3270 
  240.7500     2.4300    83.5700    23.5040    65.3900    69.2200    72.0410   -19.8920 
  240.8750     2.4220    87.5610    23.6400    66.4030    71.6980    74.3950   -19.4160 
  241.0000     2.4230    92.9430    23.8900    70.6310    73.6410    76.2050   -18.9220 
  241.1250     2.4280    94.9860    23.9620    70.9070    74.4590    76.9230   -18.4510 
  241.2500     2.4280    93.0920    23.8520    69.3310    74.2110    76.5310   -17.9860 
  241.3750     2.4270    91.4350    23.7070    68.7350    73.2590    75.2840   -17.5440 
  241.5000     2.4260    89.1020    23.6430    67.9370    72.3180    73.8250   -17.1530 
  241.6250     2.4260    83.8960    23.6100    65.0760    72.4910    73.2440   -16.8010 
  241.7500     2.4380    78.6380    23.5000    60.0850    74.3330    74.2300   -16.4880 
  241.8750     2.4680    77.4800    23.2960    53.5550    78.0650    77.0940   -16.2210 
  242.0000     2.5150    80.6490    23.0590    46.7630    83.4310    81.6570   -16.0000 
  242.1250     2.5600    87.4940    22.8600    42.9540    89.6690    87.2810   -15.7840 
  242.2500     2.5790    93.7830    22.7850    45.2010    95.6430    92.8830   -15.5640 
  242.3750     2.5710    92.0140    22.8520    53.1100   101.1430    98.2090   -15.3630 
