~V
VERS. 2.00: Ver 2.00
~W
STRT.M 120.0000:
STOP.M 233.0000:
STEP.M 0.1250:
NULL. -999.2500:
UWI. DF3066:
~C
DEPT.M :
GR.API :
RML.OHMM :
RI. :
RXO.OHMM :
CALI.CM :
DEN.GM/CC :
SP.MV :
~A
# ...
  142.5000    59.5220    19.1680    17.9190    19.5770    24.1260     2.4920   -12.3350 
  142.6250    58.1890    19.6210    18.4010    20.0130    24.0730     2.5120   -12.4220 
  142.7500    60.7280    19.6920    18.5350    19.9580    24.0730     2.5280   -12.4240 
  142.8750    64.0750    19.3890    18.3130    19.8630    24.1490     2.5380   -12.4890 
  143.0000    65.2930    18.7910    17.7980    19.3940    24.2230     2.5400   -12.5730 
  143.1250    66.6810    18.0380    17.1040    18.3950    24.2740     2.5330   -12.5520 
  143.2500    69.9890    17.3570    16.4370    17.1740    24.1890     2.5180   -12.6100 
  143.3750    71.4730    16.9260    15.9540    16.5020    24.0580     2.5030   -12.6220 
  143.5000    68.9660    16.8640    15.7720    16.3160    24.0330     2.4950   -12.6040 
  143.6250    63.8940    17.2530    15.9920    16.5020    24.2050     2.5010   -12.6310 
  143.7500    59.3100    17.9150    16.4890    16.5380    24.2830     2.5140   -12.6010 
  143.8750    56.1080    18.6700    17.1240    17.3810    24.2690     2.5280   -12.5430 
  144.0000    53.4920    19.3100    17.7200    18.7550    24.2940     2.5370   -12.4820 
  144.1250    52.3010    19.5960    18.0590    19.4690    24.3480     2.5400   -12.4390 
  144.2500    53.1060    19.5160    18.0880    19.5690    24.3970     2.5430   -12.3690 
  144.3750    55.5620    19.1450    17.8360    19.1710    24.4880     2.5480   -12.3170 
  144.5000    57.9810    18.6370    17.4120    18.8760    24.6500     2.5550   -12.2800 
  144.6250    59.2380    18.1980    16.9750    17.6830    24.5250     2.5620   -12.1890 
  144.7500    59.3390    17.9550    16.6550    16.5490    24.2780     2.5670   -12.1830 
  144.8750    58.5550    17.9350    16.5000    15.9300    24.1390     2.5680   -12.1670 
  145.0000    59.2860    18.0870    16.4950    15.8530    24.1280     2.5650   -12.1400 
  145.1250    62.0520    18.3080    16.5800    16.1570    24.1730     2.5570   -12.1730 
  145.2500    64.4590    18.4770    16.6580    16.5980    24.2020     2.5500   -12.1520 
  145.3750    64.7900    18.5440    16.6800    17.1750    24.1720     2.5440   -12.1540 
  145.5000    63.1710    18.5210    16.6410    17.2600    23.9790     2.5400   -12.1830 
  145.6250    61.6180    18.4730    16.5750    16.7980    23.7630     2.5370   -12.2300 
  145.7500    61.1840    18.4680    16.5340    16.3260    23.6630     2.5330   -12.2410 
  145.8750    61.7160    18.5250    16.5390    16.1810    23.6510     2.5270   -12.3060 
  146.0000    62.3990    18.6220    16.5860    16.3060    23.6810     2.5200   -12.4450 
  146.1250    62.1640    18.7050    16.6420    16.5940    23.8470     2.5160   -12.4470 
  146.2500    61.9850    18.7220    16.6620    16.5170    23.8370     2.5150   -12.5300 
  146.3750    63.4170    18.6390    16.6050    16.5120    23.8440     2.5190   -12.5870 
  146.5000    65.9340    18.4240    16.4320    16.3490    23.8890     2.5260   -12.5240 
  146.6250    64.9980    18.0160    16.0850    16.1470    23.9730     2.5320   -12.5820 
  146.7500    59.8830    17.4230    15.5720    15.7290    24.0250     2.5320   -12.5820 
  146.8750    56.6310    16.6630    14.9110    15.1470    24.0780     2.5220   -12.5050 
  147.0000    58.3010    15.8010    14.1510    14.3560    24.0960     2.5030   -12.4330 
  147.1250    61.1230    14.9480    13.3760    13.2560    24.0960     2.4820   -12.3900 
  147.2500    60.6420    14.2220    12.6850    12.1130    24.1270     2.4680   -12.3380 
  147.3750    58.4920    13.7110    12.1580    11.4880    24.2870     2.4640   -12.2630 
  147.5000    56.9160    13.4730    11.8520    11.6100    24.4460     2.4700   -12.2250 
  147.6250    54.2350    13.5620    11.8250    11.9220    24.2230     2.4740   -12.1310 
  147.7500    51.9870    13.8630    11.9950    12.3010    24.0220     2.4700   -12.0540 
  147.8750    52.9010    14.2670    12.2860    12.5720    24.0040     2.4600   -12.0190 
  148.0000    56.2380    14.6430    12.5970    13.2150    24.0250     2.4470   -11.9380 
  148.1250    58.3850    14.8400    12.8050    14.3680    23.9920     2.4400   -11.8650 
  148.2500    57.7280    14.8410    12.8640    14.3210    23.9880     2.4380   -11.8010 
  148.3750    55.2990    14.7010    12.7920    13.2610    24.1270     2.4410   -11.7600 
  148.5000    52.7140    14.5390    12.6650    12.5360    24.0890     2.4420   -11.7740 
  148.6250    52.2710    14.5100    12.6010    12.0840    24.0000     2.4420   -11.7540 
  148.7500    53.8560    14.6570    12.6610    11.8100    23.9460     2.4420   -11.7710 
  148.8750    55.8930    14.9340    12.8330    11.8840    24.0820     2.4440   -11.8190 
  149.0000    58.5830    15.2230    13.0420    12.5640    24.1730     2.4510   -11.8710 
  149.1250    59.9840    15.3540    13.1660    13.6260    24.0610     2.4580   -11.9410 
  149.2500    57.6400    15.2950    13.1570    13.8060    23.9680     2.4600   -12.0390 
  149.3750    52.7130    15.1170    13.0510    13.4400    23.9740     2.4540   -12.1370 
  149.5000    49.2740    14.9780    12.9500    13.1390    24.0380     2.4420   -12.1580 
  149.6250    50.0960    15.0960    13.0190    12.5850    24.0130     2.4340   -12.2910 
  149.7500    54.3950    15.4870    13.2950    12.6310    23.9700     2.4340   -12.3720 
  149.8750    60.1060    16.0300    13.7130    13.3390    23.9810     2.4430   -12.3520 
  150.0000    63.1520    16.5030    14.1200    14.3400    24.0290     2.4540   -12.4210 
  150.1250    61.0860    16.6120    14.2820    15.3550    24.0990     2.4610   -12.4480 
  150.2500    57.6730    16.3190    14.1270    16.4710    24.0990     2.4620   -12.4110 
  150.3750    56.8420    15.7250    13.6970    16.6310    24.0980     2.4580   -12.3890 
  150.5000    58.4660    15.0360    13.1330    14.1120    24.0810     2.4530   -12.3530 
  150.6250    58.7880    14.4900    12.6260    12.2940    24.0800     2.4510   -12.3060 
  150.7500    57.3780    14.1640    12.2760    11.8030    24.0840     2.4540   -12.2770 
  150.8750    57.9910    14.0290    12.0980    12.0700    24.1350     2.4620   -12.3030 
  151.0000    61.4820    14.0090    12.0550    12.2750    24.1700     2.4750   -12.2740 
  151.1250    63.2830    14.0260    12.0980    12.2750    24.2120     2.4890   -12.2770 
  151.2500    61.9020    14.0340    12.1760    11.8680    24.1940     2.5010   -12.3350 
  151.3750    61.2740    14.0410    12.2810    12.0030    24.1080     2.5080   -12.3750 
  151.5000    60.7730    14.0660    12.4160    12.5030    24.0200     2.5090   -12.4760 
  151.6250    59.1810    14.1170    12.5840    12.5500    24.0870     2.5070   -12.5460 
  151.7500    58.8490    14.1630    12.7530    12.6820    24.0790     2.5040   -12.6040 
  151.8750    59.6060    14.1600    12.8850    12.8290    24.0440     2.5030   -12.6890 
  152.0000    60.6660    14.0730    12.9400    13.2920    23.9970     2.5050   -12.7930 
  152.1250    61.9680    13.8810    12.8780    13.1020    24.0310     2.5130   -12.8520 
  152.2500    62.4170    13.6260    12.7270    12.9570    24.0580     2.5210   -12.9150 
  152.3750    59.7460    13.3570    12.5190    12.2850    24.1020     2.5280   -13.0650 
  152.5000    56.3600    13.1150    12.2950    11.6400    24.1270     2.5280   -13.1410 
  152.6250    58.2800    12.9280    12.0850    11.2710    24.1150     2.5190   -13.2770 
  152.7500    62.3480    12.7660    11.8770    10.8880    24.1600     2.5050   -13.5560 
  152.8750    64.1450    12.5820    11.6420    10.5240    24.2410     2.4920   -13.7760 
  153.0000    63.3700    12.3310    11.3490    10.3090    24.2450     2.4830   -14.0750 
  153.1250    62.9650    11.9990    10.9900     9.9890    24.1530     2.4770   -14.5680 
  153.2500    65.3710    11.6890    10.6420     9.3600    23.9430     2.4680   -15.0210 
  153.3750    70.0380    11.5740    10.4340     8.6870    23.8390     2.4550   -15.5650 
  153.5000    74.2000    11.7870    10.5500     8.1180    23.7450     2.4360   -16.2110 
  153.6250    75.5420    12.7820    11.3320     7.9310    23.7550     2.4140   -16.8760 
