~V
VERS. 2.00: Ver 2.00
~W
STRT.M 60.0000:
STOP.M 280.0000:
STEP.M 0.1250:
NULL. -999.2500:
UWI. DF3041:
~C
DEPT.M :
SP.MV :
GR.API :
RML.OHMM :
RI. :
RXO.OHMM :
CALI.CM :
DEN.GM/CC :
~A
# ...
  150.0000    -9.0450    86.2770    12.1220     9.7050    11.3990    23.4830     2.4510 
  150.1250    -9.0290    78.0390    15.3330    12.2660    15.6120    23.4780     2.5330 
  150.2500    -9.0000    71.6120    18.8820    15.2380    21.5610    23.4860     2.5900 
  150.3750    -8.9610    67.6530    22.1370    18.1290    25.7230    23.5730     2.6160 
  150.5000    -8.9170    64.4360    24.4530    20.3870    27.0230    23.7460     2.6160 
  150.6250    -8.8170    62.9890    25.2560    21.4510    27.7770    23.9900     2.6020 
  150.7500    -8.7740    63.6320    25.0090    21.5560    28.4810    24.1900     2.5910 
  150.8750    -8.7490    64.8130    24.2730    21.0700    26.1270    24.5100     2.5880 
  151.0000    -8.7160    64.2340    23.5590    20.4020    22.4130    24.4640     2.5920 
  151.1250    -8.6750    62.1500    23.1940    19.8790    21.7920    24.1800     2.5970 
  151.2500    -8.5940    59.1800    23.1510    19.6030    23.1040    24.1290     2.6010 
  151.3750    -8.5170    55.6330    23.3150    19.5600    23.6750    24.1270     2.6040 
  151.5000    -8.4290    53.0890    23.5230    19.6640    23.3990    23.9220     2.6110 
  151.6250    -8.3660    54.0780    23.5920    19.7880    23.9640    23.8390     2.6220 
  151.7500    -8.3010    58.0510    23.5020    19.8440    23.4820    23.7850     2.6350 
  151.8750    -8.2350    61.1320    23.3410    19.8500    21.7600    23.6230     2.6440 
  152.0000    -8.1910    59.7340    23.2530    19.8830    20.3290    23.6310     2.6460 
  152.1250    -8.1500    56.5610    23.3840    20.0390    19.5250    23.8130     2.6390 
  152.2500    -8.1210    57.2300    23.6950    20.3110    19.1850    23.9600     2.6290 
  152.3750    -8.0870    59.9950    24.0800    20.6340    19.8520    24.0450     2.6230 
  152.5000    -8.0810    60.3240    24.4060    20.9200    20.8410    23.9790     2.6240 
  152.6250    -8.0930    57.7440    24.5610    21.0800    21.4160    24.0660     2.6320 
  152.7500    -8.0930    54.8490    24.5940    21.1370    21.8540    23.9150     2.6400 
  152.8750    -8.0890    52.7030    24.6040    21.1640    22.6270    24.0610     2.6400 
  153.0000    -8.0690    51.9370    24.6980    21.2570    24.0160    24.4860     2.6260 
  153.1250    -8.0570    53.2700    24.9650    21.5330    26.2710    24.4220     2.5990 
  153.2500    -8.0630    54.8520    25.3600    21.9830    27.4580    24.0990     2.5700 
  153.3750    -8.0870    56.0390    25.8100    22.5430    26.8670    23.7590     2.5480 
  153.5000    -8.1050    55.6370    26.2260    23.0970    26.9260    23.6270     2.5390 
  153.6250    -8.1660    54.3960    26.5030    23.4720    27.6280    23.6340     2.5440 
  153.7500    -8.2000    55.0870    26.6160    23.5890    28.7610    23.6360     2.5560 
  153.8750    -8.2340    57.0040    26.5610    23.4270    28.2910    23.6410     2.5700 
  154.0000    -8.3010    58.1200    26.3400    23.0260    25.8460    23.6510     2.5840 
  154.1250    -8.3970    59.2340    25.9000    22.4310    24.8120    23.6710     2.5970 
  154.2500    -8.5140    61.7970    25.2250    21.7240    24.8820    23.6920     2.6080 
  154.3750    -8.6270    63.8820    24.2930    20.9300    25.5860    23.7020     2.6120 
  154.5000    -8.7520    63.4940    23.1490    20.0820    25.2950    23.7050     2.6060 
  154.6250    -8.8270    62.4730    21.9590    19.2590    23.3870    23.7050     2.5850 
  154.7500    -8.9230    62.6650    20.9740    18.5790    21.4470    23.6990     2.5570 
  154.8750    -9.0150    62.8270    20.4040    18.1640    20.3770    23.6860     2.5270 
  155.0000    -9.0640    61.7450    20.3900    18.1150    19.8660    23.6700     2.5010 
  155.1250    -9.0800    61.5900    21.0320    18.5290    20.4320    23.6650     2.4880 
  155.2500    -9.0640    64.0930    22.0540    19.2470    21.5650    23.6900     2.4880 
  155.3750    -9.0290    66.3740    23.1500    20.0700    22.8690    23.6980     2.5010 
  155.5000    -8.9840    65.4130    23.9450    20.7330    23.8410    23.6860     2.5220 
  155.6250    -8.9460    63.8270    23.9910    20.8890    24.9410    23.6440     2.5420 
  155.7500    -8.9450    63.7560    23.2940    20.4830    24.7470    23.5850     2.5560 
  155.8750    -8.9570    64.0010    22.0260    19.5800    22.2760    23.5460     2.5610 
  156.0000    -8.9900    63.6260    20.5000    18.3610    19.3110    23.5200     2.5640 
  156.1250    -9.0410    65.2390    19.0690    17.0590    17.4040    23.5120     2.5670 
  156.2500    -9.0850    69.5590    17.9270    15.8800    16.1430    23.5400     2.5700 
  156.3750    -9.1380    72.0240    17.1280    14.9360    15.4790    23.6410     2.5670 
  156.5000    -9.1740    70.4100    16.6510    14.2800    14.8400    23.8090     2.5560 
  156.6250    -9.1920    67.1140    16.4680    13.9650    14.3870    23.9930     2.5360 
  156.7500    -9.1770    66.2000    16.4580    13.9080    14.1230    24.2290     2.5170 
  156.8750    -9.1290    66.5270    16.5430    14.0430    14.3650    24.3630     2.5050 
  157.0000    -9.0090    65.5140    16.6420    14.2790    15.1630    24.3100     2.5020 
  157.1250    -8.8290    63.1860    16.6730    14.5130    15.5470    24.0240     2.5070 
  157.2500    -8.6430    60.1020    16.6270    14.6810    15.6600    23.7070     2.5150 
  157.3750    -8.4200    56.7880    16.5440    14.7910    15.5970    23.6000     2.5240 
  157.5000    -8.1600    56.0840    16.4880    14.8980    15.6730    23.6470     2.5310 
  157.6250    -7.9160    60.5600    16.5420    15.0860    16.2660    23.6640     2.5380 
  157.7500    -7.6050    66.2930    16.7060    15.3840    16.7970    23.6300     2.5430 
  157.8750    -7.2800    69.2600    16.9680    15.7840    16.9670    23.5720     2.5430 
  158.0000    -6.9890    69.4570    17.3030    16.2560    17.2230    23.5090     2.5400 
  158.1250    -6.7230    69.4690    17.6320    16.7300    17.7310    23.4790     2.5400 
  158.2500    -6.4700    69.8410    17.8990    17.0600    17.6690    23.4680     2.5460 
  158.3750    -6.2390    70.0260    17.9010    17.0250    16.9200    23.4700     2.5600 
  158.5000    -6.0610    70.1300    17.5310    16.3600    16.0600    23.4780     2.5730 
  158.6250    -5.8850    71.0870    16.2950    14.7490    15.6280    23.5030     2.5690 
  158.7500    -5.7920    73.1460    14.5250    12.4710    15.1490    23.5810     2.5430 
  158.8750    -5.7590    76.7280    12.4250     9.9610    13.7740    23.7200     2.4970 
  159.0000    -5.7860    83.2850     9.9730     7.7480    10.8190    23.7710     2.4430 
  159.1250    -5.8760    93.9020     8.4910     6.4060     7.6670    24.0040     2.3950 
  159.2500    -5.9810   104.0530     8.5670     6.1430     6.4940    24.3100     2.3590 
  159.3750    -6.1190   105.8650    10.6500     7.3110     8.6100    24.3500     2.3320 
  159.5000    -6.2740    97.3340    15.0340    10.2940    14.4100    24.4830     2.3060 
  159.6250    -6.4030    84.9720    21.8060    15.5390    24.2550    24.1250     2.2780 
  159.7500    -6.5490    75.5170    29.4300    22.0860    38.6720    24.1450     2.2510 
  159.8750    -6.6860    70.4320    36.0960    28.5800    51.6180    24.1610     2.2320 
  160.0000    -6.8050    70.4210    39.9210    33.3130    50.4710    24.1610     2.2260 
  160.1250    -6.8680    73.4260    39.4420    34.5730    42.8060    24.1450     2.2380 
  160.2500    -6.9370    74.9970    36.2500    33.0960    37.7410    24.1510     2.2590 
  160.3750    -6.9820    74.7730    31.7270    29.7960    34.7340    24.1580     2.2840 
  160.5000    -7.0130    74.6570    26.7700    25.4850    32.7360    24.1810     2.3080 
  160.6250    -7.0950    75.7540    21.9450    20.8330    26.4650    24.2380     2.3200 
  160.7500    -7.1780    78.9360    17.7240    16.5650    17.0590    24.3640     2.3130 
  160.8750    -7.2830    84.7050    14.4890    13.1540    10.3350    24.5760     2.2800 
  161.0000    -7.4040    90.1170    12.4250    10.8130     7.8160    24.7810     2.2250 
  161.1250    -7.5820    92.8930    11.6210     9.6530     7.4550    24.9540     2.1670 
