~V
VERS. 2.00: Ver 2.00
~W
STRT.M 125.0000:
STOP.M 254.0000:
STEP.M 0.1250:
NULL. -999.2500:
UWI. DF3068:
~C
DEPT.M :
SP.MV :
GR.API :
CALI.CM :
RXO.OHMM :
RI. :
RML.OHMM :
DEN.GM/CC :
~A
# ...
  226.2500   -13.0230    84.7290    25.5240    30.6710    28.1140    28.4180     2.4360 
  226.3750   -12.8920    80.1920    25.6070    27.9410    26.1950    26.5830     2.3850 
  226.5000   -12.7950    76.3680    25.6260    26.6760    24.4910    24.8410     2.3420 
  226.6250   -12.7030    78.3450    25.6290    25.3550    23.6050    23.3920     2.3160 
  226.7500   -12.5760    79.0210    25.6320    24.7150    22.7400    22.6920     2.3010 
  226.8750   -12.3990    74.7620    25.6340    24.7830    22.0020    22.1120     2.2930 
  227.0000   -12.1830    70.7090    25.6310    23.4310    21.1900    21.4150     2.2950 
  227.1250   -11.9710    71.1370    25.6160    21.8100    20.2400    20.4950     2.3050 
  227.2500   -11.7890    73.8810    25.5940    20.6020    19.2510    19.4670     2.3130 
  227.3750   -11.6430    75.0120    25.5800    19.7860    18.3060    18.4550     2.3150 
  227.5000   -11.5140    73.3820    25.5850    18.5630    17.4500    17.5580     2.3110 
  227.6250   -11.3920    71.4890    25.5900    17.5180    16.6520    16.7780     2.3080 
  227.7500   -11.2670    72.2580    25.5570    17.1500    15.8020    15.9740     2.3070 
  227.8750   -11.1430    74.7730    25.4810    16.0810    14.8490    15.0510     2.3050 
  228.0000   -11.0230    75.7240    25.3960    14.2980    13.8300    14.0190     2.3010 
  228.1250   -10.9180    77.2630    25.3490    13.5530    12.8700    13.0210     2.3020 
  228.2500   -10.8190    81.0970    25.3320    13.3160    12.0840    12.2370     2.3090 
  228.3750   -10.7270    82.9100    25.3080    12.3460    11.5420    11.7710     2.3170 
  228.5000   -10.6360    81.7660    25.2510    11.0800    11.2530    11.6110     2.3210 
  228.6250   -10.5490    81.6380    25.2160    11.3550    11.1840    11.6450     2.3310 
  228.7500   -10.4660    82.6990    25.2780    12.7000    11.2080    11.6880     2.3560 
  228.8750   -10.3900    82.4650    25.4150    14.1580    11.2530    11.6710     2.3850 
  229.0000   -10.3210    81.6650    25.5320    14.1860    11.2810    11.6210     2.4020 
  229.1250   -10.2690    83.8480    25.5640    12.6360    11.3110    11.6450     2.3970 
  229.2500   -10.2290    85.5110    25.5620    11.7910    11.3880    11.7820     2.3860 
  229.3750   -10.2000    83.9920    25.5590    12.5190    11.5030    11.9700     2.3750 
  229.5000   -10.1730    81.3360    25.5440    13.1750    11.5910    12.0830     2.3650 
  229.6250   -10.1350    79.8490    25.5080    13.2000    11.5520    11.9810     2.3570 
  229.7500   -10.0750    79.9850    25.4730    12.5030    11.3460    11.6760     2.3570 
  229.8750    -9.9890    81.0630    25.4570    11.2880    10.9640    11.2150     2.3670 
  230.0000    -9.8860    83.3520    25.4560    10.1130    10.4380    10.6670     2.3860 
  230.1250    -9.7840    86.7910    25.4550    10.5580     9.8230    10.0790     2.4150 
  230.2500    -9.6880    89.6280    25.4530    11.0040     9.1900     9.4710     2.4400 
  230.3750    -9.5920    92.7070    25.4530     9.7830     8.5800     8.8720     2.4460 
  230.5000    -9.4850    96.0940    25.4550     7.7030     8.0530     8.3630     2.4240 
  230.6250    -9.3760    98.5180    25.4570     7.7910     7.7220     8.1190     2.3830 
  230.7500    -9.2870    97.3690    25.4570     7.7940     7.6360     8.2140     2.3470 
  230.8750    -9.2330    93.2640    25.4570     8.0710     7.8480     8.6870     2.3280 
  231.0000    -9.2070    90.9980    25.4560     8.9220     8.3710     9.4820     2.3270 
  231.1250    -9.1800    90.2240    25.4590    10.5730     9.1700    10.4490     2.3350 
  231.2500    -9.1310    86.6530    25.4530    12.4640    10.0300    11.3330     2.3380 
  231.3750    -9.0610    81.1630    25.4210    13.3030    10.7780    11.9900     2.3350 
  231.5000    -8.9970    77.4330    25.3690    12.7870    11.3120    12.3920     2.3350 
  231.6250    -8.9810    76.1060    25.3330    12.4240    11.6080    12.6050     2.3430 
  231.7500    -9.0190    74.3750    25.3230    12.9860    11.7840    12.7720     2.3570 
  231.8750    -9.1070    73.7010    25.3250    14.0870    11.9010    12.9360     2.3710 
  232.0000    -9.2200    75.6840    25.3250    15.7010    11.9660    13.0660     2.3850 
  232.1250    -9.3240    77.7030    25.3250    15.7580    11.9100    13.0660     2.3900 
  232.2500    -9.3890    78.3840    25.3280    13.8400    11.7080    12.9130     2.3820 
  232.3750    -9.4100    78.4130    25.3320    12.1340    11.3810    12.6440     2.3640 
  232.5000    -9.3990    77.5200    25.3300    12.0810    10.9840    12.3330     2.3450 
  232.6250    -9.3750    75.0660    25.2930    12.0380    10.6110    12.0920     2.3350 
  232.7500    -9.3520    73.4990    25.2260    12.2910    10.3710    12.0220     2.3320 
  232.8750    -9.3300    74.9150    25.1690    12.3860    10.3730    12.2330     2.3280 
  233.0000    -9.3100    77.9810    25.1140    12.8040    10.7420    12.8730     2.3220 
  233.1250    -9.3040    79.8710    24.9430    14.3450    11.7720    14.3060     2.3310 
  233.2500    -9.3310    80.3870    24.6840    19.2250    13.6180    16.6940     2.3730 
  233.3750    -9.4000    79.6170    24.5310    23.6090    16.4060    20.1320     2.4460 
  233.5000    -9.4960    78.6790    24.6270    29.6920    19.9430    24.3090     2.5240 
  233.6250    -9.5720    80.2180    24.8720    36.9090    23.1670    27.7460     2.5690 
  233.7500    -9.5880    83.1840    25.0150    44.9210    24.4380    28.4010     2.5740 
  233.8750    -9.5290    83.6490    25.0120    45.8990    22.8400    25.4380     2.5500 
  234.0000    -9.4130    79.9900    24.8830    39.7290    19.0480    20.2300     2.5180 
  234.1250    -9.2870    75.2430    24.6510    25.8130    14.8120    15.2000     2.4860 
  234.2500    -9.1990    74.0390    24.3870    17.1230    11.3650    11.4690     2.4500 
  234.3750    -9.1600    75.3950    24.1410     9.7390     8.9250     9.0610     2.4150 
  234.5000    -9.1700    75.7390    23.9120     5.5880     7.3720     7.6970     2.3940 
  234.6250    -9.2120    73.4430    23.6620     5.1370     6.5760     7.1200     2.3930 
  234.7500    -9.2540    71.4680    23.4470     5.0010     6.2060     6.9130     2.3980 
  234.8750    -9.2830    70.5680    23.3330     4.9100     6.1070     6.8970     2.4010 
  235.0000    -9.2890    70.6070    23.3380     4.8910     6.1610     6.9690     2.3970 
  235.1250    -9.2750    73.6570    23.4130     5.0350     6.2850     7.0820     2.3950 
  235.2500    -9.2520    77.0110    23.4730     5.2910     6.4140     7.2120     2.3960 
  235.3750    -9.2240    76.2870    23.4960     5.6180     6.5380     7.3580     2.3960 
  235.5000    -9.2110    71.2790    23.4870     5.9410     6.6540     7.5060     2.3940 
  235.6250    -9.2240    67.6820    23.5070     6.0350     6.7510     7.6260     2.3960 
  235.7500    -9.2550    68.2340    23.6390     6.0780     6.8220     7.7050     2.4050 
  235.8750    -9.2920    69.4590    23.8680     6.2940     6.8590     7.7530     2.4140 
  236.0000    -9.3100    70.1140    24.0750     6.5460     6.8560     7.7940     2.4190 
  236.1250    -9.3020    70.2900    24.1980     6.4370     6.8150     7.8670     2.4200 
  236.2500    -9.2720    68.6940    24.3500     6.3330     6.7590     7.9860     2.4240 
  236.3750    -9.2380    66.5960    24.6030     6.4080     6.7200     8.1440     2.4290 
  236.5000    -9.2150    66.4880    24.8790     6.4670     6.7260     8.3210     2.4320 
  236.6250    -9.1980    68.1650    25.0460     6.4310     6.7970     8.4880     2.4320 
  236.7500    -9.1910    67.7710    25.1180     6.4940     6.9080     8.6260     2.4370 
  236.8750    -9.2050    66.2150    25.1330     6.4520     7.0250     8.7320     2.4460 
  237.0000    -9.2380    66.6280    25.0660     6.2330     7.1200     8.8160     2.4550 
  237.1250    -9.2890    67.6480    24.8340     6.2710     7.1760     8.8860     2.4550 
  237.2500    -9.3570    66.8540    24.4850     6.3980     7.2010     8.9480     2.4490 
  237.3750    -9.4420    65.1010    24.0910     6.4880     7.2050     8.9940     2.4470 
