~V
VERS. 2.00: Ver 2.00
~W
STRT.M 100.0000:
STOP.M 258.0000:
STEP.M 0.1250:
NULL. -999.2500:
UWI. DF3025:
~C
DEPT.M :
AC.US/MT :
DEN.GM/CC :
GR.API :
CALI.CM :
RXO.OHMM :
RI. :
RML.OHMM :
SP.MV :
~A
# ...
  160.0000   414.7230     2.2250    63.3850    25.1660   121.7970   159.2000   158.9090   -32.0470 
  160.1250   410.0750     2.2300    65.2140    24.8610   112.0880   154.0320   153.5790   -31.9640 
  160.2500   408.5920     2.2370    67.2670    24.5170   107.4100   153.9940   153.4210   -31.8840 
  160.3750   408.2230     2.2430    69.1680    24.1320   113.1720   157.8190   157.4860   -31.7730 
  160.5000   408.2040     2.2460    72.0620    23.7910   121.4790   161.3930   162.1800   -31.6080 
  160.6250   409.1750     2.2510    76.6430    23.6110   118.8510   154.3160   158.3600   -31.4220 
  160.7500   410.3530     2.2610    80.0800    23.5380   115.7250   133.0460   141.3680   -31.2810 
  160.8750   410.8080     2.2760    78.7680    23.5150   107.8690   103.9490   114.5080   -31.1980 
  161.0000   410.2270     2.2940    75.5680    23.5070    87.8460    76.7650    86.1170   -31.1400 
  161.1250   408.9900     2.3140    76.0090    23.4850    56.3100    57.7730    64.1170   -31.0780 
  161.2500   407.9760     2.3320    79.2440    23.4580    34.3060    45.6650    49.4700   -31.0180 
  161.3750   407.5890     2.3440    81.3620    23.4370    29.4570    38.9620    41.0800   -30.9850 
  161.5000   407.2110     2.3460    80.9360    23.4090    37.6890    36.3600    37.3120   -31.0150 
  161.6250   406.4240     2.3370    80.0090    23.3560    33.9180    37.6250    37.6770   -31.1120 
  161.7500   406.4640     2.3230    79.3350    23.2970    34.1470    41.8630    41.4440   -31.1980 
  161.8750   407.6160     2.3070    78.2080    23.2540    45.6150    48.5450    48.4990   -31.2460 
  162.0000   408.4920     2.2930    76.3970    23.2250    58.3560    56.3880    57.7980   -31.2680 
  162.1250   408.0590     2.2850    73.9890    23.1970    63.6580    62.3950    66.2930   -31.2940 
  162.2500   408.0220     2.2860    72.3930    23.1710    60.6560    63.7130    70.3370   -31.3390 
  162.3750   409.3040     2.2950    71.7650    23.1570    59.0060    59.1870    67.8510   -31.3730 
  162.5000   410.9400     2.3080    73.2520    23.1550    58.9540    50.1940    59.3990   -31.3800 
  162.6250   413.0620     2.3290    76.0370    23.1490    44.7040    39.7270    47.8560   -31.3730 
  162.7500   417.2340     2.3600    78.6280    23.1040    34.6520    30.4220    36.9830   -31.3670 
  162.8750   422.7580     2.4000    82.1990    22.9620    27.2590    23.2160    28.3050   -31.3830 
  163.0000   425.6970     2.4330    87.7380    22.7680    16.9810    18.4240    22.2950   -31.4260 
  163.1250   422.7050     2.4370    91.7820    22.7190    10.4450    16.2280    19.1760   -31.4650 
  163.2500   418.2840     2.4130    92.4850    22.8720     9.6220    15.7030    17.9750   -31.4890 
  163.3750   415.8810     2.3790    90.5910    23.1460    13.1160    16.3310    18.1690   -31.5110 
  163.5000   415.0800     2.3560    88.2010    23.4720    18.0610    17.6540    19.3350   -31.5460 
  163.6250   413.5910     2.3510    85.2690    23.8180    19.4110    19.1230    20.9740   -31.5910 
  163.7500   411.6770     2.3490    82.4790    24.0750    16.1220    20.1570    22.2850   -31.6430 
  163.8750   411.3200     2.3430    81.6960    24.1650    14.3750    20.6170    22.8740   -31.7020 
  164.0000   412.6340     2.3340    83.1450    24.1450    21.8630    20.9100    22.9710   -31.7530 
  164.1250   413.8750     2.3280    85.4300    24.1200    26.8450    22.0670    23.4920   -31.8060 
  164.2500   413.8290     2.3210    87.1640    24.1470    21.7570    24.8690    25.4090   -31.8890 
  164.3750   412.6970     2.3060    87.9790    24.2300    25.6060    29.6820    29.3970   -31.9940 
  164.5000   411.3780     2.2840    85.8040    24.3250    32.1810    36.1140    35.3780   -32.1060 
  164.6250   410.7810     2.2660    78.4640    24.3670    53.5570    42.5460    41.8800   -32.2170 
  164.7500   410.5830     2.2630    72.1310    24.3640    74.5260    46.6350    46.5050   -32.3320 
  164.8750   410.0820     2.2770    71.8680    24.3530    80.9160    47.6470    47.8380   -32.4670 
  165.0000   408.7110     2.2990    77.3620    24.3520    91.2080    46.4440    46.9820   -32.6290 
  165.1250   407.2310     2.3090    82.0540    24.3510    85.1030    45.6160    47.3130   -32.7970 
  165.2500   406.6260     2.3020    81.7650    24.3500    62.5420    47.7690    51.0440   -32.9540 
  165.3750   406.9670     2.2890    78.2810    24.3520    55.2170    54.0180    58.9430   -33.1020 
  165.5000   407.7180     2.2790    75.0650    24.3560    60.8920    64.3170    70.7560   -33.2540 
  165.6250   408.5360     2.2730    73.5520    24.3560    68.6800    77.4000    85.0910   -33.4250 
  165.7500   409.7330     2.2660    71.8380    24.3400    70.1180    89.4770    98.0370   -33.6220 
  165.8750   410.8160     2.2570    70.9170    24.3040    70.9550    97.5810   106.4390   -33.8440 
  166.0000   410.9460     2.2510    71.4370    24.2510    74.3420   101.0270   109.7460   -34.0550 
  166.1250   410.5020     2.2520    73.5430    24.1980    75.6850   101.3840   109.9960   -34.2140 
  166.2500   410.8810     2.2580    75.6750    24.1550    73.7870   101.2050   109.9500   -34.3350 
  166.3750   411.9110     2.2660    77.4710    24.1230    70.6780   101.3390   110.3990   -34.4390 
  166.5000   412.3430     2.2730    78.4800    24.1100    66.2860   101.9930   111.4820   -34.5650 
  166.6250   411.5310     2.2750    76.1580    24.1330    65.7520   102.9530   112.8970   -34.7310 
  166.7500   410.6010     2.2720    71.9590    24.1880    68.1400   103.7890   114.1260   -34.8800 
  166.8750   410.3080     2.2660    68.9860    24.2450    72.6840   104.4790   115.1070   -34.9840 
  167.0000   410.4230     2.2620    68.5720    24.2790    73.1530   105.3300   116.1190   -35.0560 
  167.1250   410.3930     2.2640    69.6190    24.2840    73.0670   106.7320   117.5390   -35.1370 
  167.2500   410.3100     2.2670    69.4780    24.2830    71.7490   108.6420   119.3810   -35.2510 
  167.3750   410.7280     2.2680    69.7010    24.2820    73.5030   110.8580   121.4660   -35.3600 
  167.5000   411.8630     2.2660    71.5890    24.2850    76.4380   113.0310   123.4600   -35.4480 
  167.6250   413.5650     2.2660    73.1030    24.2780    80.2840   114.8150   125.1080   -35.5450 
  167.7500   415.1790     2.2660    73.2950    24.2460    81.2430   116.5460   126.8900   -35.6560 
  167.8750   415.9410     2.2600    73.0580    24.1950    79.8740   118.9950   129.6570   -35.7740 
  168.0000   415.5680     2.2460    73.3850    24.1600    77.8770   122.9610   134.1760   -35.8740 
  168.1250   414.2280     2.2310    71.9820    24.1190    76.9710   129.1190   141.0000   -35.9710 
  168.2500   412.7030     2.2220    69.1020    23.9810    76.0000   136.6250   149.0330   -36.1170 
  168.3750   411.4610     2.2220    69.4430    23.7320    73.9050   144.1990   156.7320   -36.3110 
  168.5000   411.0270     2.2290    73.4130    23.4710    72.9760   150.2590   162.3410   -36.5250 
  168.6250   412.4190     2.2380    76.0950    23.3340    72.4120   153.1270   164.1760   -36.7090 
  168.7500   415.0450     2.2460    74.8070    23.2940    73.4750   153.1060   162.8570   -36.8380 
  168.8750   417.3270     2.2530    71.4290    23.2660    72.3640   150.6600   158.9450   -36.9540 
  169.0000   417.9910     2.2580    69.6120    23.2060    67.5880   146.3490   152.9680   -37.0880 
  169.1250   416.9720     2.2620    71.9330    23.1310    62.1200   140.4280   145.1690   -37.2290 
  169.2500   416.3330     2.2640    74.7210    23.0770    60.0890   133.5820   136.4950   -37.3620 
  169.3750   417.5320     2.2640    74.2230    23.0460    60.3720   126.3650   127.8170   -37.4890 
  169.5000   419.7880     2.2640    71.0810    23.0280    59.3050   119.4470   119.9710   -37.6220 
  169.6250   420.8220     2.2640    69.2890    23.0220    57.4540   113.6210   113.7180   -37.7650 
  169.7500   420.5380     2.2650    70.0770    23.0230    55.5330   109.0970   108.9770   -37.8950 
  169.8750   420.7700     2.2670    72.0240    23.0230    54.9110   106.0140   105.7390   -38.0090 
