~V
VERS. 2.00: Ver 2.00
~W
STRT.M 60.0000:
STOP.M 258.0000:
STEP.M 0.1250:
NULL. -999.2500:
UWI. DF3032:
~C
DEPT.M :
GR.API :
RML.OHMM :
RI. :
RXO.OHMM :
CALI.CM :
DEN.GM/CC :
SP.MV :
~A
# ...
   71.2500    77.7390     9.4440     9.3500     9.3130    22.6950  -999.2500   -27.1730 
   71.3750    78.2250     9.5280     9.3890     9.4650    22.4120  -999.2500   -27.2980 
   71.5000    78.8070     9.6260     9.4430     9.5490    22.1490  -999.2500   -27.4410 
   71.6250    77.5550     9.6970     9.4780     9.5610    22.0460  -999.2500   -27.5660 
   71.7500    75.6130     9.7290     9.4730     9.5900    22.0340  -999.2500   -27.6430 
   71.8750    74.1010     9.7340     9.4300     9.6660    22.0290  -999.2500   -27.6550 
   72.0000    73.8960     9.7430     9.3720     9.7830    22.0280  -999.2500   -27.6850 
   72.1250    75.9230     9.8040     9.3450     9.7930    22.0220  -999.2500   -27.7100 
   72.2500    76.9830     9.9190     9.3650     9.7950    22.0640  -999.2500   -27.7800 
   72.3750    74.4860    10.0680     9.4210     9.8400    22.2420  -999.2500   -27.8500 
   72.5000    68.6760    10.2060     9.4740     9.7580    22.5570  -999.2500   -27.9910 
   72.6250    65.8590    10.2830     9.4730     9.7150    22.7720  -999.2500   -28.1400 
   72.7500    70.7910    10.3150     9.4170     9.9110    22.9450  -999.2500   -28.2870 
   72.8750    78.6020    10.3570     9.3420    10.1760    23.0600  -999.2500   -28.4240 
   73.0000    82.1160    10.4820     9.3040    10.3320    23.1080  -999.2500   -28.4790 
   73.1250    80.0500    10.7530     9.3620    10.2070    23.1060  -999.2500   -28.4930 
   73.2500    79.0080    11.1070     9.4900    10.2060    23.0270  -999.2500   -28.3510 
   73.3750    80.6620    11.4440     9.6310    10.2710    22.7750  -999.2500   -28.2360 
   73.5000    80.8160    11.6550     9.7120    10.3020    22.3390  -999.2500   -28.0640 
   73.6250    77.1970    11.6440     9.6640    10.1630    22.1660  -999.2500   -27.8230 
   73.7500    73.4960    11.4780     9.5180     9.9110    22.2760  -999.2500   -27.6730 
   73.8750    71.3390    11.2500     9.3300     9.6030    22.6010  -999.2500   -27.5790 
   74.0000    70.9660    11.0550     9.1670     9.4380    22.8230  -999.2500   -27.4720 
   74.1250    70.6710    10.9670     9.0840     9.6040    22.8900  -999.2500   -27.4520 
   74.2500    69.7130    10.9690     9.0730     9.8690    22.9090  -999.2500   -27.5940 
   74.3750    69.9810    11.0240     9.1130     9.8940    22.9470  -999.2500   -27.6260 
   74.5000    72.5560    11.1010     9.1800     9.8540    22.9870  -999.2500   -27.6000 
   74.6250    75.1340    11.1840     9.2580     9.9290    23.0350  -999.2500   -27.6840 
   74.7500    77.6970    11.2810     9.3470    10.0230    23.0630  -999.2500   -27.5730 
   74.8750    80.8020    11.4030     9.4460    10.0520    23.0830  -999.2500   -27.2780 
   75.0000    81.7680    11.5400     9.5450    10.0670    23.0970  -999.2500   -26.9960 
   75.1250    79.0820    11.6280     9.5950    10.0730    23.1420  -999.2500   -26.4600 
   75.2500    78.1180    11.5930     9.5450    10.0560    23.2110  -999.2500   -25.6380 
   75.3750    80.5570    11.3840     9.3550     9.9380    23.3030  -999.2500   -24.7880 
   75.5000    83.7120    10.9940     9.0180     9.7440    23.4310  -999.2500   -23.9010 
   75.6250    86.3340    10.4680     8.5610     9.3500    23.7080  -999.2500   -22.7840 
   75.7500    89.3270     9.9330     8.0810     8.5930    24.0900  -999.2500   -21.7100 
   75.8750    92.8840     9.4740     7.6430     7.8060    24.3930  -999.2500   -20.8920 
   76.0000    98.0970     9.1400     7.2950     7.3550    24.4440  -999.2500   -20.2510 
   76.1250   104.7460     8.9620     7.0780     7.2210    24.2750  -999.2500   -19.8270 
   76.2500   108.5260     8.9040     6.9780     7.3090    24.2800  -999.2500   -19.6960 
   76.3750   106.4870     8.9530     6.9920     7.2230    24.3320  -999.2500   -19.8620 
   76.5000   101.3870     9.1040     7.1190     7.1530    24.1960  -999.2500   -20.3490 
   76.6250    98.4300     9.3580     7.3710     7.3980    23.9670  -999.2500   -21.1320 
   76.7500    96.2900     9.6670     7.7040     7.8730    23.7460  -999.2500   -22.0030 
   76.8750    92.1010     9.9890     8.0830     8.3210    23.5030  -999.2500   -22.8790 
   77.0000    84.6780    10.2950     8.4720     8.8010    23.2840  -999.2500   -23.6630 
   77.1250    79.4220    10.5910     8.8460     9.4100    23.2180  -999.2500   -24.2540 
   77.2500    78.8250    10.9180     9.2130     9.9250    23.2200  -999.2500   -24.7250 
   77.3750    79.5080    11.2810     9.5700    10.2140    23.2280  -999.2500   -24.9820 
   77.5000    80.5780    11.5960     9.8670    10.4230    23.2410  -999.2500   -24.8530 
   77.6250    81.7810    11.6540     9.9580    10.7040    23.3050  -999.2500   -24.4640 
   77.7500    84.1450    11.3590     9.7670    11.2060    23.4610  -999.2500   -24.0390 
   77.8750    86.8680    10.7350     9.2920    11.9900    23.6950  -999.2500   -23.4300 
   78.0000    89.5560     9.9660     8.6450    12.2950    23.9190  -999.2500   -22.7230 
   78.1250    93.3780     9.3780     8.0560     9.4140    23.9600  -999.2500   -22.3130 
   78.2500    97.0350     9.1610     7.7020     7.1600    23.8020  -999.2500   -22.0490 
   78.3750    97.7430     9.3200     7.6370     6.6700    23.5470  -999.2500   -21.7890 
   78.5000    94.5770     9.7090     7.8040     7.2180    23.2750  -999.2500   -21.7410 
   78.6250    89.0040    10.0510     8.0530     8.1000    23.0600  -999.2500   -21.9070 
   78.7500    85.9610    10.0960     8.1750     8.6970    22.9810  -999.2500   -21.9600 
   78.8750    84.8540     9.7460     8.0540     8.8310    22.9650  -999.2500   -21.9770 
   79.0000    84.2870     9.1120     7.7070     8.7240    22.9650  -999.2500   -22.0400 
   79.1250    85.1220     8.6850     7.4060     8.6980    22.9650  -999.2500   -21.9040 
   79.2500    84.9980     9.1840     7.6760     8.9280    22.9650  -999.2500   -21.5000 
   79.3750    82.1140    11.2640     9.0790     9.9800    22.9710  -999.2500   -20.9490 
   79.5000    79.1180    15.1720    11.9770    13.0610    22.9890  -999.2500   -20.2580 
   79.6250    79.0780    20.3640    16.2560    20.6010    23.0400  -999.2500   -19.5070 
   79.7500    78.1830    24.8740    20.4410    32.6500    23.1790  -999.2500   -18.8200 
   79.8750    75.1620    26.7770    22.8440    49.1100    23.4800  -999.2500   -18.1200 
   80.0000    75.9290    24.8650    22.0790    62.0180    23.8480  -999.2500   -17.3580 
   80.1250    85.0600    19.5650    18.0050    48.9500    23.9780  -999.2500   -16.7220 
   80.2500    97.7450    14.0370    13.3080    23.9530    24.0640  -999.2500   -16.2720 
   80.3750   111.0570    10.0180     9.6150    10.0450    23.9950  -999.2500   -15.9360 
   80.5000   121.3120     7.8080     7.3160     5.9480    23.9150  -999.2500   -15.7350 
   80.6250   123.0530     7.0640     6.2550     5.3530    23.9780  -999.2500   -15.7040 
   80.7500   120.2610     6.9530     5.8390     5.4030    24.1420  -999.2500   -15.7650 
   80.8750   117.3330     7.1010     5.8010     5.4330    24.1470  -999.2500   -15.9770 
   81.0000   115.8980     7.2930     5.9530     5.5280    24.0410  -999.2500   -16.4370 
   81.1250   116.6250     7.4720     6.1940     5.5960    23.9410  -999.2500   -17.0330 
   81.2500   119.3690     7.7000     6.4880     5.7000    23.9280  -999.2500   -17.6850 
   81.3750   120.3380     8.0360     6.8570     5.9040    23.9400  -999.2500   -18.5610 
   81.5000   114.8860     8.4810     7.3040     6.3570    23.7840  -999.2500   -19.6470 
   81.6250   104.2000     8.9770     7.7950     7.3030    23.5600  -999.2500   -20.6660 
   81.7500    94.5770     9.4310     8.2540     8.2890    23.4750  -999.2500   -21.6310 
   81.8750    88.2750     9.7940     8.6190     8.6800    23.6250  -999.2500   -22.6590 
   82.0000    85.3900    10.0570     8.8610     8.6170    23.8310  -999.2500   -23.6270 
   82.1250    84.9090    10.2390     8.9770     8.7590    23.8270  -999.2500   -24.3250 
   82.2500    82.5690    10.3870     9.0280     9.3100    23.5370  -999.2500   -24.8990 
   82.3750    78.2730    10.5090     9.0480     9.7480    23.2190  -999.2500   -25.3680 
