~V
VERS. 2.00: Ver 2.00
~W
STRT.M 62.0000:
STOP.M 265.0000:
STEP.M 0.1250:
NULL. -999.2500:
UWI. DF3071:
~C
DEPT.M :
GR.API :
CALI.CM :
RXO.OHMM :
RI. :
RML.OHMM :
DEN.GM/CC :
SP.MV :
~A
# ...
  118.2500    91.7930    24.2580     6.6900     6.0110     7.1860     2.2320   -12.5340 
  118.3750    90.5300    24.2670     6.5920     5.8700     6.9160     2.2450   -12.1820 
  118.5000    92.6920    24.3960     6.2890     5.5490     6.4640     2.2760   -11.7360 
  118.6250    98.1030    24.6860     5.8780     5.1780     6.0020     2.3090   -11.1540 
  118.7500   103.5490    24.9980     5.5560     4.8830     5.6680     2.3340   -10.5010 
  118.8750   107.3520    25.2180     5.3790     4.6990     5.4840     2.3570    -9.8590 
  119.0000   109.1250    25.3080     5.3730     4.6070     5.3930     2.3840    -9.2600 
  119.1250   108.7280    25.3190     5.6300     4.5340     5.2910     2.4180    -8.8170 
  119.2500   107.2980    25.3240     5.9080     4.4230     5.1360     2.4460    -8.5550 
  119.3750   107.3290    25.3260     5.8890     4.3000     4.9830     2.4550    -8.5100 
  119.5000   108.5920    25.3130     5.5750     4.2510     4.9430     2.4440    -8.6220 
  119.6250   105.7200    25.2810     5.3620     4.3870     5.1600     2.4220    -8.8820 
  119.7500    99.4790    25.2530     5.6630     4.7120     5.6060     2.4010    -9.2630 
  119.8750    94.4820    25.2220     6.7650     5.1930     6.1920     2.3840    -9.7140 
  120.0000    91.4760    25.1340     8.1350     5.7360     6.7770     2.3710   -10.2130 
  120.1250    87.8900    24.9480     8.3820     6.1950     7.2050     2.3520   -10.7680 
  120.2500    85.2220    24.7520     7.6490     6.5150     7.4720     2.3190   -11.3570 
  120.3750    84.2310    24.6140     7.1260     6.7380     7.6490     2.2780   -11.9300 
  120.5000    82.8440    24.5320     7.2180     6.9470     7.8280     2.2400   -12.4470 
  120.6250    79.4510    24.4760     7.5870     7.2260     8.0720     2.2210   -12.8360 
  120.7500    76.4090    24.4420     7.8800     7.5670     8.3350     2.2140   -13.1550 
  120.8750    73.1660    24.4210     8.0810     7.8980     8.5470     2.2130   -13.4030 
  121.0000    70.1880    24.3680     8.2080     8.1410     8.6630     2.2150   -13.6210 
  121.1250    69.4650    24.2540     8.2600     8.2670     8.7040     2.2170   -13.8160 
  121.2500    69.8960    24.1470     8.2250     8.3580     8.7830     2.2130   -13.9570 
  121.3750    69.9300    24.0730     8.1420     8.4960     8.9960     2.2050   -14.0880 
  121.5000    69.4650    23.9630     8.1060     8.7360     9.3760     2.2020   -14.1720 
  121.6250    69.1170    23.7390     8.1960     9.0350     9.8050     2.2090   -14.2270 
  121.7500    69.3740    23.4830     8.3350     9.1750     9.9790     2.2160   -14.1210 
  121.8750    70.8460    23.3030     8.4680     8.8930     9.6040     2.2170   -13.9000 
  122.0000    71.8070    23.2500     8.4580     8.0220     8.5640     2.2160   -13.5070 
  122.1250    71.3550    23.3360     7.9650     6.6790     7.0370     2.2330   -12.9790 
  122.2500    74.0700    23.5620     6.9410     5.3830     5.6030     2.2790   -12.4030 
  122.3750    81.6350    23.8880     5.8190     4.4720     4.6880     2.3430   -11.8280 
  122.5000    89.0870    24.1800     5.1430     4.1270     4.5590     2.4050   -11.3400 
  122.6250    90.4980    24.2520     5.5210     4.5810     5.5180     2.4530   -11.0210 
  122.7500    88.0800    24.1840     7.7670     5.8510     7.4150     2.5000   -10.9210 
  122.8750    84.2590    24.1620    13.9660     7.9800     9.9420     2.5460   -11.0610 
  123.0000    79.5630    24.2880    23.9970    10.6060    12.3320     2.5700   -11.4470 
  123.1250    75.6130    24.5020    28.7540    12.3580    13.3330     2.5370   -12.0260 
  123.2500    72.8230    24.6300    24.4690    12.4020    12.7890     2.4600   -12.6820 
  123.3750    68.9310    24.5880    16.5140    11.2550    11.2940     2.3670   -13.3330 
  123.5000    64.0350    24.4070    11.2010     9.8820     9.7430     2.2870   -13.9500 
  123.6250    63.9150    24.2130     9.4640     8.9220     8.8130     2.2410   -14.5050 
  123.7500    68.1700    24.0950     9.0030     8.3920     8.4350     2.2210   -14.9630 
  123.8750    72.1870    24.0340     8.8330     8.1650     8.3830     2.2190   -15.3310 
  124.0000    74.2120    24.0010     8.5790     8.0680     8.4140     2.2260   -15.6010 
  124.1250    75.4870    23.9450     8.2750     7.9300     8.3340     2.2370   -15.7740 
  124.2500    76.3850    23.8540     8.0240     7.7000     8.1150     2.2460   -15.8790 
  124.3750    76.6130    23.8370     7.8080     7.4140     7.8150     2.2530   -15.9750 
  124.5000    78.1030    24.0200     7.5930     7.1350     7.5200     2.2610   -16.0440 
  124.6250    80.7480    24.3320     7.4660     6.9480     7.3380     2.2650   -16.0600 
  124.7500    80.8550    24.5200     7.4410     6.8940     7.3140     2.2610   -16.1010 
  124.8750    78.1310    24.5440     7.4820     7.0010     7.4790     2.2480   -16.1260 
  125.0000    75.8070    24.5100     7.5790     7.2780     7.8360     2.2330   -16.1580 
  125.1250    77.7940    24.4890     7.8030     7.7210     8.3520     2.2270   -16.1730 
  125.2500    80.4230    24.4770     8.1890     8.2050     8.8580     2.2300   -16.2110 
  125.3750    78.8030    24.4750     8.6020     8.5520     9.1530     2.2310   -16.2200 
  125.5000    73.9100    24.4780     8.8150     8.5630     9.0600     2.2240   -16.1910 
  125.6250    72.6320    24.4740     8.7180     8.0870     8.4840     2.2190   -16.0920 
  125.7500    75.4730    24.4900     8.3250     7.3490     7.6810     2.2330   -15.9330 
  125.8750    79.1290    24.5730     7.5310     6.5880     6.9090     2.2660   -15.8040 
  126.0000    82.4420    24.7650     6.5580     5.9980     6.3670     2.2960   -15.7350 
  126.1250    84.7250    25.0350     6.0640     5.7050     6.1770     2.3000   -15.7420 
  126.2500    85.0970    25.2030     6.2700     5.6410     6.2270     2.2850   -15.7450 
  126.3750    83.8910    25.1360     6.7920     5.7450     6.4170     2.2680   -15.7530 
  126.5000    82.1220    24.8790     7.1870     5.9550     6.6660     2.2600   -15.8020 
  126.6250    80.3570    24.6500     7.1820     6.2280     6.9360     2.2610   -16.0050 
  126.7500    78.6730    24.5570     7.0370     6.5310     7.2280     2.2650   -16.3050 
  126.8750    77.2670    24.5390     7.2280     6.8640     7.5470     2.2660   -16.6260 
  127.0000    76.3030    24.5210     8.0490     7.2150     7.8680     2.2610   -16.8890 
  127.1250    76.8070    24.5300     9.0280     7.5290     8.1160     2.2480   -17.0870 
  127.2500    78.1240    24.6040     9.3080     7.7540     8.2520     2.2410   -17.3080 
  127.3750    78.6330    24.7210     8.9780     7.8770     8.2890     2.2430   -17.5500 
  127.5000    77.5350    24.8120     8.6890     7.9300     8.2920     2.2520   -17.8150 
  127.6250    76.1960    24.8380     8.6400     7.9930     8.3620     2.2560   -17.9840 
  127.7500    74.8250    24.8400     8.6900     8.1300     8.5320     2.2540   -18.0940 
  127.8750    72.2440    24.8110     8.7270     8.3390     8.7550     2.2510   -18.0770 
  128.0000    70.5060    24.7320     8.7370     8.5370     8.9110     2.2480   -17.9960 
  128.1250    72.3430    24.6370     8.6890     8.5450     8.8040     2.2440   -17.7820 
  128.2500    77.4100    24.5910     8.5890     8.2720     8.3870     2.2400   -17.4120 
  128.3750    82.2870    24.5990     8.3750     7.7120     7.6950     2.2450   -16.9330 
  128.5000    83.4970    24.6430     7.8750     6.9580     6.8500     2.2630   -16.3860 
  128.6250    82.0840    24.7610     7.0850     6.1730     6.0290     2.2940   -15.8590 
  128.7500    83.2760    24.9730     6.3220     5.5000     5.3640     2.3210   -15.4160 
  128.8750    88.5340    25.2140     5.7840     5.0070     4.9130     2.3350   -15.1040 
  129.0000    94.6060    25.3820     5.4470     4.7160     4.6880     2.3370   -14.9230 
  129.1250    97.3870    25.4100     5.3240     4.6490     4.6970     2.3290   -14.9630 
  129.2500    97.8020    25.3690     5.3890     4.7350     4.8470     2.3170   -15.2280 
  129.3750    96.8550    25.3320     5.5580     4.9200     5.0660     2.3130   -15.6750 
