~V
VERS. 2.00: Ver 2.00
~W
STRT.M 55.0000:
STOP.M 252.0000:
STEP.M 0.1250:
NULL. -999.2500:
UWI. DF3024:
~C
DEPT.M :
GR.API :
RML.OHMM :
RI. :
RXO.OHMM :
CALI.CM :
DEN.GM/CC :
SP.MV :
~A
# ...
  201.2500    64.4630   149.8700   140.9860   123.9040    24.4970     2.1850   -17.3960 
  201.3750    63.8720   143.4990   136.1160   122.8870    24.4820     2.1830   -17.4160 
  201.5000    61.2540   136.5140   130.5590   120.5670    24.4750     2.1810   -17.4510 
  201.6250    58.3830   128.9690   124.2790   116.8950    24.4710     2.1810   -17.5270 
  201.7500    58.6410   121.1550   117.5460   110.3110    24.4710     2.1850   -17.5330 
  201.8750    60.3160   113.3510   110.6060   101.0100    24.4710     2.1920   -17.5710 
  202.0000    61.9380   105.9840   103.8500    92.1870    24.4710     2.2060   -17.6150 
  202.1250    64.2150    99.9840    98.1070    89.5660    24.4690     2.2240   -17.4960 
  202.2500    68.8540    96.0950    94.1390    85.0240    24.4570     2.2390   -17.4600 
  202.3750    72.8880    95.1760    92.8050    78.5620    24.4320     2.2450   -17.5060 
  202.5000    71.8990    97.9250    94.8240    73.5440    24.4220     2.2370   -17.3650 
  202.6250    66.3670   105.3110   101.1690    76.6930    24.4310     2.2190   -17.3030 
  202.7500    63.0470   116.2220   110.8430    85.5470    24.4450     2.2030   -17.3350 
  202.8750    64.8060   129.4610   122.7410   101.7860    24.4750     2.1970   -17.1930 
  203.0000    68.0750   143.2390   135.1770   122.6990    24.5320     2.2000   -17.0840 
  203.1250    68.1710   155.0940   145.8340   137.9340    24.5930     2.2070   -17.1230 
  203.2500    65.8410   163.8040   153.5610   143.9040    24.6270     2.2130   -16.9840 
  203.3750    63.5640   169.1380   158.1560   145.3500    24.5350     2.2090   -16.8590 
  203.5000    63.0520   171.6950   160.2200   144.5700    24.2550     2.2010   -16.8650 
  203.6250    64.1310   172.1980   160.5280   143.3740    24.2610     2.1940   -16.7660 
  203.7500    63.7890   171.6550   160.0800   145.2310    24.4270     2.1890   -16.7060 
  203.8750    62.5290   170.3130   159.1350   147.6050    24.5300     2.1900   -16.7240 
  204.0000    62.5110   168.2270   157.7220   149.0620    24.5310     2.1950   -16.7670 
  204.1250    65.4780   165.1800   155.6180   146.8140    24.5070     2.2020   -16.8390 
  204.2500    69.5120   161.0350   152.6170   143.5480    24.4600     2.2110   -16.9230 
  204.3750    71.8490   155.3780   148.2740   140.8620    24.4200     2.2190   -17.0160 
  204.5000    72.4630   147.8500   142.1580   138.9090    24.3940     2.2260   -17.2000 
  204.6250    72.9310   138.2980   133.9250   137.7170    24.3800     2.2310   -17.4000 
  204.7500    73.6160   128.0220   124.6400   131.3180    24.3580     2.2320   -17.5450 
  204.8750    73.4210   118.5830   115.6830   116.8170    24.3290     2.2300   -17.8050 
  205.0000    71.9950   111.7720   108.7780    97.0210    24.3320     2.2250   -18.0300 
  205.1250    69.9280   110.1650   106.4750    85.0990    24.3590     2.2160   -18.2150 
  205.2500    68.3310   114.3170   109.5070    82.7870    24.3870     2.2040   -18.4940 
  205.3750    67.3290   124.6420   118.3150    90.9340    24.4150     2.1890   -18.6590 
  205.5000    66.8080   140.6060   132.3310   109.0740    24.4390     2.1740   -18.7450 
  205.6250    65.7550   160.6000   149.8490   130.2980    24.4610     2.1620   -18.9810 
  205.7500    65.1530   180.4410   166.8890   155.8910    24.4690     2.1570   -19.0650 
  205.8750    66.6080   196.6280   180.2440   174.5780    24.4710     2.1630   -19.0530 
  206.0000    68.8880   206.7410   187.8390   177.1570    24.4710     2.1760   -19.2020 
  206.1250    69.2270   209.9350   189.0420   167.4870    24.4720     2.1870   -19.2010 
  206.2500    67.7120   210.1420   187.4680   163.3570    24.4830     2.1890   -19.1690 
  206.3750    66.0440   210.7200   186.1820   167.0320    24.4970     2.1790   -19.2560 
  206.5000    67.0460   213.9520   187.3950   168.9800    24.4840     2.1640   -19.1840 
  206.6250    69.0730   220.3320   191.9620   158.9380    24.4510     2.1520   -19.0300 
  206.7500    69.0520   226.8320   197.5040   153.5440    24.3880     2.1510   -18.9460 
  206.8750    68.4580   229.6830   200.9520   156.4320    24.1730     2.1610   -18.7800 
  207.0000    68.8760   225.1030   199.0070   166.0170    23.8250     2.1770   -18.5610 
  207.1250    69.5340   209.4760   188.1430   172.8820    23.6350     2.1940   -18.3780 
  207.2500    69.5670   186.2330   170.3230   173.1340    23.5440     2.2090   -18.2410 
  207.3750    70.4370   159.8680   148.6690   165.6520    23.5960     2.2180   -18.1540 
  207.5000    72.7800   135.2310   127.1510   148.5600    23.7290     2.2230   -18.1590 
  207.6250    73.2680   116.3710   109.6590   114.1120    23.7230     2.2250   -18.2970 
  207.7500    70.6530   102.6960    96.5690    84.5750    23.4910     2.2280   -18.5100 
  207.8750    67.2220    92.7050    86.9700    71.3900    23.3330     2.2370   -18.8320 
  208.0000    65.2720    84.5510    79.3350    66.9500    23.2880     2.2530   -19.1720 
  208.1250    64.5890    76.9160    72.4040    65.6080    23.2860     2.2740   -19.5150 
  208.2500    64.2200    69.5920    65.7630    67.1510    23.2880     2.2950   -19.8710 
  208.3750    66.5920    63.4130    60.0350    63.0760    23.2870     2.3030   -20.1850 
  208.5000    70.7560    59.4860    56.1840    54.5390    23.2650     2.2910   -20.4600 
  208.6250    70.5020    59.1510    55.4910    47.1770    23.2760     2.2640   -20.6140 
  208.7500    67.3390    61.8790    57.6260    47.4680    23.4040     2.2290   -20.8320 
  208.8750    66.4040    66.8730    61.9700    55.2010    23.6510     2.2020   -20.9810 
  209.0000    68.0330    72.7950    67.3410    65.9340    23.8350     2.1920   -20.9910 
  209.1250    68.4970    77.7200    71.9490    76.9080    23.7680     2.2000   -21.1460 
  209.2500    69.5000    80.3610    74.4810    78.9740    23.9300     2.2210   -21.2040 
  209.3750    72.9000    80.2700    74.4320    77.0170    24.1100     2.2450   -21.1710 
  209.5000    75.9410    77.8070    72.0990    71.9350    24.1370     2.2640   -21.2900 
  209.6250    74.8920    73.7490    68.2370    68.3350    24.0490     2.2720   -21.3030 
  209.7500    71.9530    69.4490    64.1640    67.3070    24.1960     2.2690   -21.2040 
  209.8750    69.1440    65.9460    60.8170    66.4720    24.2930     2.2570   -21.1510 
  210.0000    67.6560    64.5630    59.2930    64.1280    24.3160     2.2440   -21.1010 
  210.1250    68.8630    67.7130    61.6120    60.2520    24.3200     2.2430   -21.0150 
  210.2500    69.9720    75.6780    68.1030    59.9810    24.3120     2.2670   -20.8780 
  210.3750    67.9100    87.2010    77.8540    67.5500    24.2660     2.3350   -20.7130 
  210.5000    64.7400    98.4880    87.7410    82.9160    24.1480     2.4370   -20.5270 
  210.6250    63.2940   101.9870    91.2930   100.6690    24.0470     2.5460   -20.3240 
  210.7500    60.9640    93.6330    84.7290   124.6840    24.0080     2.6250   -20.1420 
  210.8750    57.0070    74.1550    68.2520   150.1610    23.9990     2.6340   -19.9970 
  211.0000    56.5050    50.3360    47.2850   117.9350    23.9830     2.5930   -19.9040 
  211.1250    62.6990    31.5560    30.1000    44.3170    23.9520     2.5320   -19.9000 
  211.2500    68.5440    19.8580    19.1650    17.0100    23.9400     2.4820   -20.0200 
  211.3750    69.0610    13.6880    13.2870     9.0030    23.9690     2.4590   -20.2780 
  211.5000    65.4660    10.9740    10.5880     7.6260    24.0040     2.4560   -20.6370 
  211.6250    63.9800    10.3420     9.8420     8.2740    24.0510     2.4600   -21.1260 
  211.7500    68.0720    10.5170     9.9420     9.1100    24.1170     2.4610   -21.7080 
  211.8750    75.7670    11.0090    10.4680     9.8870    24.1870     2.4540   -22.3620 
  212.0000    81.8140    11.5050    11.1060    10.3430    24.2760     2.4450   -23.0230 
  212.1250    82.7780    11.8030    11.5970    10.1390    24.3700     2.4380   -23.6030 
  212.2500    83.5540    11.8980    11.8630     9.9580    24.3870     2.4350   -24.2770 
  212.3750    85.9570    11.8340    11.9090     9.9050    24.3140     2.4360   -24.9010 
