~V
VERS. 2.00: Ver 2.00
~W
STRT.M 56.0000:
STOP.M 263.0000:
STEP.M 0.1250:
NULL. -999.2500:
UWI. DF3034:
~C
DEPT.M :
DEN.GM/CC :
GR.API :
RML.OHMM :
RI. :
RXO.OHMM :
CALI.CM :
SP.MV :
~A
# ...
  112.2500  -999.2500    73.9770     9.8170     8.4800     9.7780    23.1430   -25.7230 
  112.3750  -999.2500    76.9870    10.1270     8.6770     9.7750    23.2910   -25.6930 
  112.5000  -999.2500    79.7260    10.4470     8.8950     9.8280    23.5340   -25.7140 
  112.6250  -999.2500    78.9020    10.6860     9.0850     9.9970    23.6420   -25.6410 
  112.7500  -999.2500    77.8070    10.7870     9.2040    10.2120    23.6770   -25.6260 
  112.8750  -999.2500    78.8000    10.7290     9.2250    10.3860    23.6220   -25.5230 
  113.0000  -999.2500    79.3260    10.5330     9.1450    10.4470    23.5280   -25.4700 
  113.1250  -999.2500    77.8880    10.2520     8.9790    10.3860    23.3260   -25.4330 
  113.2500  -999.2500    76.7740     9.9710     8.7830    10.3840    23.2790   -25.4000 
  113.3750  -999.2500    77.1830     9.7370     8.5930    10.3640    23.2870   -25.4260 
  113.5000  -999.2500    77.4080     9.5700     8.4330    10.2070    23.3390   -25.4880 
  113.6250  -999.2500    73.8550     9.4810     8.3180    10.0630    23.4460   -25.6130 
  113.7500  -999.2500    70.2400     9.4420     8.2410     9.9640    23.5230   -25.8030 
  113.8750  -999.2500    70.7630     9.4450     8.2030     9.9140    23.5420   -26.0050 
  114.0000  -999.2500    74.5060     9.4840     8.2040     9.9440    23.5620   -26.1720 
  114.1250  -999.2500    77.9050     9.5480     8.2370     9.8330    23.6340   -26.2690 
  114.2500  -999.2500    79.4550     9.5960     8.2660     9.7550    23.7310   -26.2540 
  114.3750  -999.2500    77.6030     9.5700     8.2420     9.7330    23.7600   -26.1520 
  114.5000  -999.2500    73.5770     9.4110     8.1170     9.8160    23.6680   -25.9340 
  114.6250  -999.2500    73.8770     9.0750     7.8470    10.0340    23.4040   -25.6030 
  114.7500  -999.2500    79.4480     8.6510     7.4920    10.1970    23.1140   -25.1980 
  114.8750  -999.2500    86.0780     8.2540     7.1330    10.0600    22.9170   -24.8670 
  115.0000  -999.2500    90.1030     7.9970     6.8600     9.6240    22.7080   -24.5300 
  115.1250  -999.2500    91.2010     7.9920     6.7760     8.9380    22.5980   -24.4380 
  115.2500  -999.2500    88.5900     8.2060     6.8760     8.7700    22.5440   -24.4290 
  115.3750  -999.2500    82.3920     8.5800     7.1360     9.3570    22.5770   -24.5210 
  115.5000  -999.2500    76.9560     9.0210     7.4940     9.8260    22.6670   -24.7310 
  115.6250  -999.2500    76.2030     9.4050     7.8550    10.1190    22.7970   -25.0750 
  115.7500  -999.2500    78.3790     9.6550     8.1300    10.2650    22.9640   -25.4420 
  115.8750  -999.2500    80.1740     9.7440     8.2780    10.3570    23.2250   -25.7000 
  116.0000  -999.2500    78.9550     9.6960     8.2930    10.3160    23.5810   -25.9520 
  116.1250  -999.2500    74.9350     9.5450     8.1890    10.0430    23.6850   -25.9440 
  116.2500  -999.2500    69.3980     9.3460     8.0210     9.7320    23.7460   -25.8970 
  116.3750  -999.2500    65.2150     9.1150     7.8130     9.5270    23.6680   -25.7580 
  116.5000  -999.2500    65.0950     8.8740     7.5930     9.5110    23.4040   -25.5740 
  116.6250  -999.2500    70.6220     8.6610     7.3920     9.7340    23.0630   -25.3550 
  116.7500  -999.2500    77.9180     8.5090     7.2370     9.7270    22.8690   -25.1800 
  116.8750  -999.2500    82.4970     8.4430     7.1470     9.2340    22.8030   -25.0780 
  117.0000  -999.2500    83.8510     8.4580     7.1280     8.7360    22.7710   -25.0300 
  117.1250  -999.2500    83.8140     8.5260     7.1790     8.3940    22.7420   -25.0460 
  117.2500  -999.2500    81.6030     8.5920     7.2610     8.5280    22.7300   -25.0950 
  117.3750  -999.2500    76.0760     8.6360     7.3520     8.5890    22.7300   -25.1070 
  117.5000  -999.2500    69.9000     8.6720     7.4440     8.7490    22.7320   -25.0240 
  117.6250  -999.2500    68.3840     8.7520     7.5540     8.8280    22.7440   -24.7540 
  117.7500  -999.2500    70.0600     8.8970     7.6960     8.9190    22.7790   -24.2950 
  117.8750  -999.2500    72.6040     9.0670     7.8480     8.7920    22.9040   -23.5930 
  118.0000  -999.2500    74.4900     9.1590     7.9440     8.8320    23.2180   -22.6440 
  118.1250  -999.2500    75.3590     9.0210     7.8670     9.0290    23.6410   -21.5320 
  118.2500  -999.2500    79.0200     8.6560     7.6010     9.0440    23.9010   -20.2610 
  118.3750  -999.2500    87.1650     8.1570     7.1940     8.5030    24.0770   -19.0670 
  118.5000  -999.2500    95.9890     7.6760     6.7460     7.4670    24.3030   -17.9320 
  118.6250  -999.2500   100.3150     7.3680     6.3860     6.3520    24.4600   -17.0640 
  118.7500  -999.2500   101.0980     7.2240     6.1480     6.1360    24.4240   -16.2630 
  118.8750  -999.2500   100.6880     7.1730     6.0160     6.4710    24.2190   -15.6720 
  119.0000  -999.2500    99.8510     7.1310     5.9450     7.1110    24.0160   -15.2400 
  119.1250  -999.2500    98.6230     7.0550     5.9050     7.2290    23.9590   -15.0410 
  119.2500  -999.2500    97.6840     6.9800     5.8850     7.0050    23.9690   -15.0450 
  119.3750  -999.2500    98.6310     6.9590     5.9000     6.6930    23.9570   -15.1090 
  119.5000  -999.2500   100.8110     7.0220     5.9640     6.5490    23.9240   -15.2650 
  119.6250  -999.2500   100.0760     7.1560     6.0780     6.7680    23.9690   -15.4220 
  119.7500  -999.2500    98.5790     7.2950     6.2090     7.0530    24.0450   -15.6950 
  119.8750     2.2700   100.9950     7.3990     6.3350     7.2230    23.9330   -15.9770 
  120.0000     2.2700   105.7270     7.4640     6.4430     7.1910    23.6570   -16.3020 
  120.1250     2.2670   104.8200     7.5160     6.5380     7.3370    23.2900   -16.5560 
  120.2500     2.2680    97.9720     7.5810     6.6290     7.4100    23.1470   -16.7510 
  120.3750     2.2710    93.1700     7.6550     6.7090     7.2950    23.1130   -16.8140 
  120.5000     2.2780    94.7260     7.7140     6.7570     7.1740    23.1130   -16.7790 
  120.6250     2.2870    97.7820     7.7040     6.7310     7.4170    23.1160   -16.5600 
  120.7500     2.2950    98.1490     7.6040     6.6200     7.5330    23.1690   -16.2540 
  120.8750     2.2990    96.5160     7.4160     6.4300     7.2870    23.3510   -15.8970 
  121.0000     2.2950    95.7300     7.1670     6.1840     6.9140    23.7380   -15.5760 
  121.1250     2.2830    94.9390     6.9030     5.9220     6.3890    24.0120   -15.2850 
  121.2500     2.2710    94.1500     6.6910     5.7010     6.1980    24.2060   -15.0420 
  121.3750     2.2680    95.7380     6.6020     5.5780     6.1820    24.2510   -14.8540 
  121.5000     2.2860    98.7840     6.7150     5.6180     6.3300    24.2190   -14.6730 
  121.6250     2.3280    98.6660     7.1210     5.9050     6.6750    24.1910   -14.6410 
  121.7500     2.3750    96.5350     7.7140     6.3720     7.1010    24.2010   -14.6240 
  121.8750     2.4070    95.8620     8.3330     6.9060     7.7530    24.1910   -14.7490 
  122.0000     2.4090    96.6100     8.7710     7.3470     8.6550    24.1970   -14.8190 
  122.1250     2.3810    95.6200     8.8070     7.5030    10.3870    24.2060   -14.9550 
  122.2500     2.3450    96.3540     8.5390     7.3970    11.0280    24.0950   -15.0730 
  122.3750     2.3150   100.2410     8.1820     7.1570     8.9890    23.7150   -15.2040 
  122.5000     2.2950   102.4020     7.9720     6.9550     7.2950    23.4440   -15.3870 
  122.6250     2.2800   101.5100     8.0600     6.9390     7.2310    23.2110   -15.5410 
  122.7500     2.2650   101.6770     8.3200     7.0680     8.1980    23.0760   -15.7170 
  122.8750     2.2540   102.5140     8.5800     7.2420     9.4160    22.9690   -15.7870 
  123.0000     2.2530   100.9160     8.6730     7.3310    10.2560    22.8090   -15.8390 
  123.1250     2.2690    98.1370     8.4790     7.2210     8.8120    22.7220   -15.7940 
  123.2500     2.2930    97.5650     8.1160     6.9600     7.2510    22.8970   -15.7230 
  123.3750     2.3130    98.1130     7.7110     6.6320     6.5070    23.2620   -15.6460 
