~V
VERS. 2.00: Ver 2.00
~W
STRT.M 56.0000:
STOP.M 263.0000:
STEP.M 0.1250:
NULL. -999.2500:
UWI. DF3034:
~C
DEPT.M :
DEN.GM/CC :
GR.API :
RML.OHMM :
RI. :
RXO.OHMM :
CALI.CM :
SP.MV :
~A
# ...
  224.7500     2.2100    62.5750   159.1300   132.3080    94.1580    24.5750   -27.3530 
  224.8750     2.2180    61.4170   156.8540   131.3000    94.3330    24.5140   -27.1540 
  225.0000     2.2260    63.3610   154.2730   130.1530    98.2210    24.4990   -26.9590 
  225.1250     2.2320    67.3930   151.2710   128.7380   101.8620    24.5790   -26.7760 
  225.2500     2.2370    70.5480   147.5060   126.7390   102.7380    24.7470   -26.5720 
  225.3750     2.2400    71.0160   142.2910   123.5590   101.9890    24.9040   -26.3530 
  225.5000     2.2400    68.6300   134.7310   118.3930    99.3160    24.9140   -26.1230 
  225.6250     2.2320    65.7000   123.4550   109.9200    96.1070    24.5990   -25.9120 
  225.7500     2.2130    64.8410   109.1470    98.5060    90.2860    24.3980   -25.7020 
  225.8750     2.1840    65.5610    93.2960    85.2180    79.7150    24.2950   -25.5460 
  226.0000     2.1570    66.5530    78.1790    71.9480    70.2690    24.2890   -25.4090 
  226.1250     2.1440    69.2550    66.4780    61.1370    63.7630    24.3370   -25.2960 
  226.2500     2.1540    71.5340    58.6120    53.5380    52.2650    24.3980   -25.2230 
  226.3750     2.1860    72.1290    54.5450    49.1860    42.7120    24.4260   -25.2000 
  226.5000     2.2220    71.6610    53.6890    47.6660    40.9980    24.4200   -25.1950 
  226.6250     2.2440    70.9350    55.6520    48.7940    46.0450    24.4580   -25.2810 
  226.7500     2.2460    69.0610    59.2210    51.7580    51.1180    24.4570   -25.3910 
  226.8750     2.2320    65.8820    63.8240    56.2530    54.5680    24.4530   -25.5650 
  227.0000     2.2190    64.4620    68.5460    61.9430    62.4930    24.4510   -25.7380 
  227.1250     2.2120    66.6330    73.5620    68.4120    72.9030    24.4570   -25.9550 
  227.2500     2.2110    70.4790    79.1150    74.8370    80.0800    24.4680   -26.1720 
  227.3750     2.2100    75.0660    85.7500    80.4820    83.6080    24.4680   -26.3790 
  227.5000     2.2060    77.0610    91.0240    84.6660    85.7630    24.4290   -26.5620 
  227.6250     2.2010    75.1490    94.0990    86.6370    88.1060    24.3550   -26.7880 
  227.7500     2.1970    73.2630    95.2860    86.7910    90.5010    24.2600   -26.9590 
  227.8750     2.1980    72.9300    95.0030    85.5800    92.5510    24.1900   -27.1030 
  228.0000     2.2030    73.3500    93.8680    83.6210    92.3540    24.1980   -27.2030 
  228.1250     2.2090    72.6600    92.6950    81.6870    90.7010    24.2180   -27.2020 
  228.2500     2.2120    71.4540    92.3640    80.5420    87.4290    24.2210   -27.1760 
  228.3750     2.2070    71.0760    93.5430    80.7550    84.7070    24.2180   -27.0860 
  228.5000     2.1950    71.4840    96.6080    82.6460    85.3460    24.2240   -26.9160 
  228.6250     2.1810    71.6580   101.7110    86.3720    86.1730    24.2380   -26.5870 
  228.7500     2.1730    70.5520   107.7650    91.0350    91.4250    24.2520   -26.2050 
  228.8750     2.1850    69.5670   113.5780    95.6710    99.4710    24.2500   -25.7690 
  229.0000     2.2170    69.3560   117.8020    99.1800   103.9370    24.2420   -25.2810 
  229.1250     2.2560    69.8780   118.7690   100.1890   104.4560    24.2320   -24.8170 
  229.2500     2.2860    72.8180   116.5410    98.6350   100.7890    24.2190   -24.3130 
  229.3750     2.2860    76.3630   111.6250    94.8180    97.7460    24.2150   -23.8330 
  229.5000     2.2650    76.3940   105.1620    89.5650    98.5630    24.2130   -23.3890 
  229.6250     2.2370    73.1010    98.6830    84.0840    95.4300    24.2150   -22.9920 
  229.7500     2.2180    71.8230    93.3380    79.4480    88.9330    24.1960   -22.5710 
  229.8750     2.2160    72.0210    89.5040    76.0980    80.2180    24.1360   -22.1540 
  230.0000     2.2210    70.3990    87.0210    74.0130    73.6990    24.0860   -21.7410 
  230.1250     2.2250    68.5250    85.5970    73.0540    74.3750    24.0470   -21.3010 
  230.2500     2.2220    68.6470    85.4110    73.2540    81.3000    23.9660   -20.8040 
  230.3750     2.2070    70.0560    88.2000    75.9090    88.4600    23.8400   -20.2610 
  230.5000     2.1910    72.4630    95.9820    82.8930    90.5750    23.8810   -19.7020 
  230.6250     2.1930    74.3190   109.6640    95.7000    91.8780    23.9010   -19.0520 
  230.7500     2.2310    74.3740   123.8970   110.3570   102.7160    23.8390   -18.4390 
  230.8750     2.3210    72.8030   131.0260   120.2600   129.5930    23.6880   -17.7800 
  231.0000     2.4410    70.5380   122.7870   117.6690   174.4820    23.5190   -17.1810 
  231.1250     2.5560    66.7730    94.2240    96.0740   250.4630    23.6950   -16.6090 
  231.2500     2.6280    61.2670    60.5940    65.5900   274.5390    23.9030   -16.1100 
  231.3750     2.6310    58.5770    35.0870    38.4420   176.5580    23.8480   -15.7170 
  231.5000     2.5920    63.1110    20.3060    21.0180    52.4920    23.4410   -15.4360 
  231.6250     2.5360    74.4730    13.3530    13.0260    18.2260    23.2100   -15.3530 
  231.7500     2.4830    85.9180    10.0020     9.4170     8.9000    23.3440   -15.3110 
  231.8750     2.4490    93.4690     8.9630     8.0570     7.7200    23.5960   -15.3460 
  232.0000     2.4300    95.3820     9.1790     7.8490     8.3890    23.7880   -15.3560 
  232.1250     2.4230    93.4850     9.7960     8.2800     9.3640    23.8590   -15.4100 
  232.2500     2.4210    93.3510    10.3450     8.8630     9.3960    23.8870   -15.4750 
  232.3750     2.4200    96.3550    10.6470     9.3520     9.1230    23.8830   -15.5040 
  232.5000     2.4180    99.5820    10.6870     9.6270     8.9050    23.8840   -15.5090 
  232.6250     2.4130   100.5870    10.5450     9.6740     8.8770    23.9510   -15.4360 
  232.7500     2.4090   100.8710    10.3640     9.6110     8.9850    24.0290   -15.3870 
  232.8750     2.4040   101.6500    10.2000     9.5000     9.1580    24.0660   -15.3470 
  233.0000     2.4020   103.7020    10.0730     9.3710     9.2550    24.0850   -15.3750 
  233.1250     2.4030   107.8470     9.9920     9.2270     9.3940    24.0350   -15.4240 
  233.2500     2.4050   110.9180     9.9500     9.0710     9.5200    23.8170   -15.5430 
  233.3750     2.4080   110.5050     9.9500     8.9150     9.5920    23.4620   -15.7070 
  233.5000     2.4100   110.5810     9.9970     8.7850     9.6370    23.2080   -15.8940 
  233.6250     2.4090   113.6170    10.1010     8.7170     9.5920    23.1540   -16.1240 
  233.7500     2.4040   117.6210    10.2410     8.7130     9.5430    23.2000   -16.3820 
  233.8750     2.3950   120.1780    10.3940     8.7650     9.6510    23.3230   -16.6630 
  234.0000     2.3830   122.9780    10.5310     8.8500     9.9220    23.3890   -16.9370 
  234.1250     2.3710   124.3960    10.6250     8.9450     9.9950    23.3660   -17.1970 
  234.2500     2.3610   123.1360    10.6920     9.0410    10.0720    23.4210   -17.4440 
  234.3750     2.3540   122.8690    10.7680     9.1510    10.1720    23.6870   -17.6590 
  234.5000     2.3490   125.3830    10.8960     9.2920    10.1760    23.9570   -17.8340 
  234.6250     2.3470   129.9880    11.1020     9.4720    10.0520    24.0550   -17.9370 
  234.7500     2.3470   134.1160    11.3330     9.6500    10.0770    24.0700   -18.0140 
  234.8750     2.3540   138.4450    11.5200     9.7780    10.2800    24.0700   -18.0560 
  235.0000     2.3650   142.7300    11.6220     9.8190    10.5740    24.0700   -18.0600 
  235.1250     2.3770   144.0120    11.6490     9.7740    10.9110    24.0690   -18.0620 
  235.2500     2.3850   141.2820    11.6890     9.7120    10.9110    24.0670   -18.0540 
  235.3750     2.3880   136.2600    11.7910     9.6820    10.5120    24.0660   -18.0790 
  235.5000     2.3850   131.5830    11.9540     9.6930    10.3710    24.0660   -18.1270 
  235.6250     2.3790   127.2330    12.0790     9.7190    11.0360    24.0690   -18.3070 
  235.7500     2.3720   121.4930    12.0910     9.7460    12.3720    24.0700   -18.5270 
  235.8750     2.3680   115.6830    12.2280     9.8670    13.5330    24.0700   -18.8660 
