~V
VERS. 2.00: Ver 2.00
~W
STRT.M 140.0000:
STOP.M 286.0000:
STEP.M 0.1250:
NULL. -999.2500:
UWI. DF3059:
~C
DEPT.M :
SP.MV :
GR.API :
RML.OHMM :
RI. :
RXO.OHMM :
CALI.CM :
DEN.GM/CC :
~A
# ...
  173.7500   -27.0930    92.5610    42.5980    37.2940    29.2970    25.0040     2.3490 
  173.8750   -27.3010    88.3040    46.3420    40.2520    30.8300    25.0050     2.3520 
  174.0000   -27.5270    84.5620    51.6490    44.7660    32.0970    25.0040     2.3490 
  174.1250   -27.8240    82.8010    58.0370    50.4510    35.7170    25.0060     2.3430 
  174.2500   -28.0550    80.0650    65.0480    56.7600    40.9760    25.0070     2.3370 
  174.3750   -28.2440    76.2220    72.8730    63.6950    46.7340    25.0090     2.3330 
  174.5000   -28.3870    75.0250    81.9590    71.5070    49.5570    25.0040     2.3260 
  174.6250   -28.6010    78.0580    92.6020    80.4010    49.2970    24.9370     2.3140 
  174.7500   -28.8090    79.6240   103.4170    89.3430    49.2200    24.7890     2.2970 
  174.8750   -28.9750    77.7480   112.2230    96.6000    50.0060    24.6480     2.2800 
  175.0000   -29.0590    74.5040   116.6460   100.2140    52.6210    24.6030     2.2690 
  175.1250   -29.0890    74.8220   114.5260    98.2800    52.0670    24.6600     2.2680 
  175.2500   -29.1050    77.7230   108.1790    92.5670    50.4990    24.7440     2.2740 
  175.3750   -29.1790    80.4160   100.5120    85.4030    50.6810    24.8020     2.2830 
  175.5000   -29.2480    82.6990    94.2850    79.1810    51.4500    24.8220     2.2910 
  175.6250   -29.3780    84.6350    91.5810    75.8880    50.9960    24.8220     2.2960 
  175.7500   -29.4950    85.8760    92.1840    75.5150    54.9850    24.8170     2.2990 
  175.8750   -29.5900    85.0910    96.1030    78.0650    59.8850    24.7950     2.3030 
  176.0000   -29.7060    82.0840   103.6610    83.7200    62.8070    24.7450     2.3040 
  176.1250   -29.7730    78.8010   116.2780    93.5450    68.1620    24.7110     2.2960 
  176.2500   -29.9470    75.7950   133.5260   107.1840    75.5540    24.6870     2.2790 
  176.3750   -30.0800    71.8110   154.3770   123.9340    86.2170    24.6910     2.2570 
  176.5000   -30.2370    67.1240   176.0710   141.7650   103.8220    24.7340     2.2360 
  176.6250   -30.2640    66.0460   193.1640   156.5620   128.1540    24.8010     2.2270 
  176.7500   -30.3130    69.7760   201.9640   165.2470   148.5240    24.8340     2.2290 
  176.8750   -30.3710    74.4180   201.2760   166.5720   158.8280    24.8440     2.2410 
  177.0000   -30.4560    77.6600   192.9580   161.5530   153.1330    24.8500     2.2540 
  177.1250   -30.5740    78.8050   180.3690   152.4190   134.9770    24.8810     2.2600 
  177.2500   -30.5970    78.5650   167.1000   142.2080   119.3220    24.8880     2.2560 
  177.3750   -30.5740    79.5270   153.9170   131.7660   111.6250    24.8170     2.2460 
  177.5000   -30.5360    81.7900   140.5790   121.0390   105.2330    24.6150     2.2370 
  177.6250   -30.5210    82.5850   126.7440   109.7310    96.8340    24.3690     2.2350 
  177.7500   -30.4840    80.8940   112.9580    98.2520    81.5850    24.1770     2.2440 
  177.8750   -30.4610    78.1360   100.3210    87.4710    65.7070    24.1110     2.2600 
  178.0000   -30.4020    76.7760    90.1700    78.5120    53.5730    24.2220     2.2790 
  178.1250   -30.3730    77.5950    84.4640    73.0570    44.6700    24.4770     2.2950 
  178.2500   -30.3470    79.2530    83.5420    71.5150    40.1240    24.6180     2.3050 
  178.3750   -30.4080    79.3180    88.0440    74.4960    42.2980    24.5970     2.3060 
  178.5000   -30.4870    76.5750    98.4770    82.4790    47.0310    24.5350     2.3000 
  178.6250   -30.6240    73.6290   116.0310    96.4780    53.9630    24.3850     2.2880 
  178.7500   -30.7280    72.8920   138.9870   114.9840    60.3840    24.2980     2.2720 
  178.8750   -30.8960    73.9110   165.5180   136.3860    67.6840    24.3080     2.2570 
  179.0000   -31.0240    73.8890   192.5760   158.1090    74.9200    24.5210     2.2460 
  179.1250   -31.1030    71.2790   215.0520   176.0240    80.0150    24.7070     2.2440 
  179.2500   -31.1550    68.9250   229.3880   187.4130    82.2550    24.7750     2.2490 
  179.3750   -31.1250    68.7180   233.2630   190.5110    82.4030    24.7830     2.2570 
  179.5000   -31.1160    69.9580   226.4400   185.0970    81.1980    24.7830     2.2640 
  179.6250   -30.9720    72.3540   210.5500   172.2150    79.3940    24.7840     2.2690 
  179.7500   -30.9230    73.8370   191.9670   156.7410    75.9030    24.7910     2.2720 
  179.8750   -30.7920    74.0300   174.9080   142.0380    70.3590    24.8070     2.2720 
  180.0000   -30.7190    74.4320   161.9060   130.3720    62.9610    24.8180     2.2690 
  180.1250   -30.6200    75.4320   154.2440   123.1880    57.4550    24.8220     2.2630 
  180.2500   -30.4930    75.8730   150.0710   119.2680    56.5900    24.8260     2.2580 
  180.3750   -30.3390    72.9830   147.9600   117.5630    57.2260    24.8390     2.2580 
  180.5000   -30.1210    67.8900   146.7340   117.0960    55.7920    24.8730     2.2630 
  180.6250   -29.9930    66.8600   145.7720   117.2680    54.2260    24.9120     2.2700 
  180.7500   -29.8460    70.0370   145.0230   117.7580    54.1770    24.9670     2.2750 
  180.8750   -29.7130    74.3050   144.8390   118.6790    54.6130    25.0200     2.2760 
  181.0000   -29.5840    75.8150   145.6490   120.2790    54.9890    25.0290     2.2740 
  181.1250   -29.4980    76.3870   147.9110   122.8760    55.9660    25.0280     2.2710 
  181.2500   -29.4620    76.8970   151.0990   126.1050    57.9450    24.9630     2.2670 
  181.3750   -29.4800    75.2580   154.1490   129.1880    60.1870    24.8850     2.2630 
  181.5000   -29.5100    73.5020   155.1170   130.6700    62.0250    24.8500     2.2580 
  181.6250   -29.5210    73.5770   150.2710   127.6440    63.4030    24.9100     2.2530 
  181.7500   -29.4650    74.5750   138.4420   119.0370    64.2420    25.0140     2.2500 
  181.8750   -29.4950    75.8820   120.6040   105.3260    64.8440    24.9260     2.2500 
  182.0000   -29.5230    76.9860   100.6890    89.3320    64.4340    24.7450     2.2560 
  182.1250   -29.6420    78.6290    84.9530    75.9120    61.3670    24.7610     2.2670 
  182.2500   -29.7360    79.7790    76.3260    67.9150    50.8960    24.9580     2.2760 
  182.3750   -29.8670    80.0440    75.1250    66.0670    41.0880    25.1100     2.2780 
  182.5000   -30.0290    79.5620    79.8400    69.5180    40.1230    25.4310     2.2700 
  182.6250   -30.1420    78.6050    87.9110    76.4520    52.9990    25.6820     2.2570 
  182.7500   -30.3620    77.9680    95.4930    83.4850    72.7940    25.8050     2.2520 
  182.8750   -30.4900    77.2640   100.3490    88.4530    84.1020    25.6920     2.2590 
  183.0000   -30.6700    77.2590   101.7250    90.3390    79.2170    25.5250     2.2750 
  183.1250   -30.7520    78.3620   100.5200    89.5060    72.9500    25.5770     2.2910 
  183.2500   -30.8620    79.5320    99.3810    88.2340    69.2920    25.7390     2.3020 
  183.3750   -30.8810    79.8660    99.7500    87.9050    68.4130    25.7800     2.3110 
  183.5000   -30.8960    79.0870   102.0620    89.0320    67.5170    25.6370     2.3210 
  183.6250   -30.9830    78.4360   106.4660    91.7320    66.9280    25.4920     2.3340 
  183.7500   -31.0910    81.2970   112.7160    95.7330    67.1790    25.5320     2.3450 
  183.8750   -31.2320    86.9530   121.3140   101.3820    68.9310    25.7490     2.3450 
  184.0000   -31.3350    89.6370   132.9920   109.2870    69.9630    25.9110     2.3290 
  184.1250   -31.4510    83.8450   149.0280   120.5690    72.0980    25.8790     2.2990 
  184.2500   -31.5830    75.6060   168.8620   134.9410    76.0920    25.6790     2.2670 
  184.3750   -31.7600    70.6990   191.9180   152.0210    84.2540    25.4440     2.2410 
  184.5000   -31.9030    70.4430   217.2210   171.0080    99.3840    25.3310     2.2240 
  184.6250   -32.0220    69.3870   243.5890   190.8460   116.4430    25.3330     2.2150 
  184.7500   -32.0340    64.9830   269.2780   210.0970   124.4980    25.3380     2.2100 
  184.8750   -32.0560    62.1060   292.2220   227.3110   124.8820    25.3330     2.2040 
