~V
VERS. 2.00: Ver 2.00
~W
STRT.M 60.0000:
STOP.M 270.0000:
STEP.M 0.1250:
NULL. -999.2500:
UWI. DF3075:
~C
DEPT.M :
GR.API :
RML.OHMM :
RI. :
RXO.OHMM :
CALI.CM :
DEN.GM/CC :
SP.MV :
~A
# ...
   71.2500    77.1800    11.9710     8.9250     9.7730    23.8980  -999.2500   -33.2480 
   71.3750    73.9530    11.8170     8.9320     9.7250    23.9860  -999.2500   -33.8180 
   71.5000    73.9160    11.5070     8.8070     9.4570    24.0710  -999.2500   -34.2390 
   71.6250    73.5530    11.0770     8.5810     9.1210    24.1560  -999.2500   -34.5810 
   71.7500    70.2210    10.6330     8.3600     8.8550    24.2290  -999.2500   -34.7370 
   71.8750    67.8250    10.3050     8.2110     8.7200    24.2710  -999.2500   -34.7780 
   72.0000    68.3840    10.1710     8.1680     8.6250    24.3040  -999.2500   -34.5930 
   72.1250    69.6080    10.2100     8.2410     8.5050    24.3390  -999.2500   -34.2270 
   72.2500    69.2020    10.2610     8.3430     8.5930    24.3740  -999.2500   -33.7150 
   72.3750    66.9050    10.2050     8.4060     8.8180    24.3950  -999.2500   -33.0460 
   72.5000    64.3420     9.9790     8.3640     9.1710    24.4540  -999.2500   -32.2440 
   72.6250    66.0720     9.5660     8.1520     9.1330    24.4840  -999.2500   -31.2940 
   72.7500    73.9780     9.0610     7.8090     8.7740    24.4780  -999.2500   -30.3730 
   72.8750    85.2640     8.5330     7.3840     8.3260    24.4010  -999.2500   -29.6070 
   73.0000    96.0980     8.0580     6.9550     7.7800    24.3520  -999.2500   -29.0700 
   73.1250   104.4720     7.7580     6.6320     6.8780    24.3800  -999.2500   -28.8210 
   73.2500   106.9470     7.6770     6.4550     6.4030    24.4710  -999.2500   -28.7920 
   73.3750   101.2230     7.8040     6.4320     6.5140    24.6300  -999.2500   -28.9230 
   73.5000    90.0860     8.0690     6.5300     7.1010    24.9240  -999.2500   -29.2280 
   73.6250    80.4650     8.3430     6.6900     8.0450    25.1390  -999.2500   -29.6690 
   73.7500    74.9640     8.5370     6.8550     8.6940    25.2230  -999.2500   -30.1040 
   73.8750    72.5880     8.6720     7.0200     8.9720    25.1610  -999.2500   -30.4020 
   74.0000    72.3670     8.8450     7.2340     9.1950    24.9340  -999.2500   -30.5040 
   74.1250    73.1200     9.2010     7.5890     9.3040    24.7130  -999.2500   -30.4670 
   74.2500    75.3210     9.7830     8.1340     9.4540    24.6240  -999.2500   -30.3330 
   74.3750    78.3750    10.5830     8.8900     9.4630    24.6640  -999.2500   -30.2450 
   74.5000    79.0930    11.5080     9.7940     9.3590    24.7030  -999.2500   -30.1380 
   74.6250    76.2540    12.3620    10.6720     9.8190    24.8050  -999.2500   -30.1350 
   74.7500    75.4040    12.9090    11.2980    10.3590    24.8420  -999.2500   -30.2630 
   74.8750    77.0720    12.9690    11.5020    10.4360    24.6040  -999.2500   -30.4920 
   75.0000    77.0870    12.4880    11.2380    10.0340    24.0770  -999.2500   -30.8700 
   75.1250    74.9670    11.6000    10.5770     9.7060    23.8840  -999.2500   -31.2430 
   75.2500    75.0530    10.7060     9.8090     9.6500    23.9920  -999.2500   -31.7250 
   75.3750    77.1280    10.0420     9.1300     9.6640    24.3320  -999.2500   -32.2020 
   75.5000    78.8710     9.7050     8.6550     9.6400    24.6580  -999.2500   -32.7440 
   75.6250    79.6670     9.6830     8.4520     9.6700    24.6830  -999.2500   -33.1960 
   75.7500    79.5870     9.7950     8.4280     9.8830    24.5620  -999.2500   -33.5830 
   75.8750    76.6040     9.9250     8.5080    10.2500    24.5570  -999.2500   -33.9480 
   76.0000    72.0820    10.0020     8.6080    10.5330    24.6450  -999.2500   -34.2820 
   76.1250    68.5780     9.9760     8.6570    10.6250    24.7220  -999.2500   -34.5740 
   76.2500    67.4150     9.8630     8.6370    10.1050    24.8000  -999.2500   -34.7770 
   76.3750    69.2250     9.6840     8.5450     9.4120    24.8580  -999.2500   -34.8830 
   76.5000    72.3210     9.4700     8.4020     9.1300    24.8550  -999.2500   -34.8920 
   76.6250    72.9500     9.2690     8.2410     9.3510    24.7790  -999.2500   -34.8410 
   76.7500    70.9980     9.1200     8.0810     9.6700    24.6470  -999.2500   -34.7980 
   76.8750    69.8790     9.0310     7.9400     9.7850    24.5710  -999.2500   -34.7320 
   77.0000    72.3210     8.9820     7.8390     9.3850    24.4990  -999.2500   -34.6790 
   77.1250    76.2520     8.9560     7.8010     8.7410    24.3670  -999.2500   -34.6220 
   77.2500    77.5240     8.9560     7.8270     8.4440    24.3300  -999.2500   -34.6180 
   77.3750    74.6710     9.0020     7.9190     8.6740    24.4260  -999.2500   -34.6270 
   77.5000    71.2310     9.1020     8.0510     9.2370    24.5930  -999.2500   -34.6850 
   77.6250    70.3290     9.2070     8.1690     9.4340    24.8440  -999.2500   -34.7600 
   77.7500    69.7150     9.2380     8.2320     9.2200    24.9890  -999.2500   -34.7640 
   77.8750    68.4570     9.1650     8.2140     8.7940    24.9550  -999.2500   -34.7550 
   78.0000    68.4570     9.0190     8.1240     8.3560    25.0050  -999.2500   -34.5750 
   78.1250    69.4490     8.8660     8.0030     8.4400    25.0230  -999.2500   -34.3130 
   78.2500    68.2380     8.7720     7.8980     8.9390    25.0170  -999.2500   -33.8370 
   78.3750    65.1920     8.7600     7.8460     9.5610    24.9170  -999.2500   -33.2460 
   78.5000    63.0550     8.8190     7.8630     9.5970    24.6360  -999.2500   -32.4270 
   78.6250    62.7170     8.9280     7.9470     9.0100    24.3630  -999.2500   -31.4760 
   78.7500    64.3530     9.0610     8.0690     8.3880    24.3760  -999.2500   -30.3940 
   78.8750    68.7520     9.1960     8.1940     8.2570    24.4860  -999.2500   -29.2890 
   79.0000    75.0830     9.3030     8.2900     8.7360    24.4180  -999.2500   -28.2270 
   79.1250    79.5340     9.3350     8.3300     9.8250    24.2310  -999.2500   -27.2110 
   79.2500    81.3660     9.2920     8.3210    10.8770    24.0200  -999.2500   -26.2960 
   79.3750    83.2780     9.1930     8.2690    11.2840    23.9130  -999.2500   -25.4950 
   79.5000    86.0250     9.0700     8.1870    10.8100    23.9140  -999.2500   -24.8830 
   79.6250    89.2310     8.9530     8.0800     9.7880    23.9950  -999.2500   -24.4970 
   79.7500    92.3320     8.8500     7.9510     8.8320    24.1390  -999.2500   -24.3180 
   79.8750    94.9910     8.7530     7.8090     8.7390    24.3420  -999.2500   -24.2590 
   80.0000    96.2560     8.6690     7.6790     8.9450    24.5100  -999.2500   -24.3270 
   80.1250    93.7680     8.6610     7.6020     9.0800    24.5810  -999.2500   -24.5550 
   80.2500    90.4880     8.7690     7.6030     9.1470    24.4290  -999.2500   -24.9220 
   80.3750    88.0810     8.9980     7.6890     9.2400    24.3960  -999.2500   -25.3540 
   80.5000    85.8580     9.3100     7.8520     9.4960    24.5120  -999.2500   -25.8350 
   80.6250    83.3560     9.6330     8.0740     9.8260    24.7530  -999.2500   -26.2160 
   80.7500    81.8830     9.9020     8.2990    10.1280    25.0120  -999.2500   -26.6310 
   80.8750    81.9230    10.0750     8.4620    10.5600    25.2160  -999.2500   -26.9460 
   81.0000    80.5120    10.1050     8.5010    11.0050    25.2890  -999.2500   -27.2510 
   81.1250    78.8190     9.9420     8.3740    10.8030    25.1590  -999.2500   -27.5500 
   81.2500    79.4520     9.6340     8.1490    10.0730    25.1150  -999.2500   -27.8090 
   81.3750    79.5990     9.2720     7.8890     9.2010    25.1730  -999.2500   -28.1420 
   81.5000    77.5220     8.9830     7.6630     8.1750    25.2250  -999.2500   -28.5570 
   81.6250    76.6250     8.8940     7.5520     7.7090    25.0380  -999.2500   -29.1200 
   81.7500    77.5830     8.9840     7.5560     8.0620    24.9610  -999.2500   -29.6500 
   81.8750    77.4440     9.1920     7.6630     8.7240    25.0940  -999.2500   -30.2800 
   82.0000    76.7310     9.4360     7.8450     9.3840    25.4330  -999.2500   -30.8760 
   82.1250    78.4800     9.6320     8.0400    10.1180    25.5440  -999.2500   -31.3840 
   82.2500    79.7250     9.7480     8.1940    10.5570    25.4070  -999.2500   -31.8220 
   82.3750    76.1500     9.7890     8.2850    10.7030    25.2410  -999.2500   -32.1370 
