~V
VERS. 2.00: Ver 2.00
~W
STRT.M 56.0000:
STOP.M 263.0000:
STEP.M 0.1250:
NULL. -999.2500:
UWI. DF3034:
~C
DEPT.M :
DEN.GM/CC :
GR.API :
RML.OHMM :
RI. :
RXO.OHMM :
CALI.CM :
SP.MV :
~A
# ...
   67.2500  -999.2500    60.1340     4.2860     5.0140     9.5350    23.4770    -5.0110 
   67.3750  -999.2500    64.2060     5.6440     6.7910    10.7030    23.4510    -9.4240 
   67.5000  -999.2500    72.7780     6.5000     8.0740    12.4300    23.3540   -12.1460 
   67.6250  -999.2500    83.4300     6.6180     8.4750    13.3460    23.3380   -13.7100 
   67.7500  -999.2500    91.8850     6.3550     8.2750    10.8430    23.3330   -14.6480 
   67.8750  -999.2500    96.8370     5.9910     7.8030     8.1080    23.3330   -15.3720 
   68.0000  -999.2500    98.3290     5.6870     7.3330     6.9380    23.3330   -15.8810 
   68.1250  -999.2500   100.0070     5.5300     7.0440     6.9140    23.3420   -16.3130 
   68.2500  -999.2500   106.7470     5.4970     6.9260     6.9030    23.6970   -16.6170 
   68.3750  -999.2500   116.2610     5.5630     6.9320     6.7080    24.3000   -16.8200 
   68.5000  -999.2500   121.3330     5.7050     7.0180     6.3970    24.6400   -17.1080 
   68.6250  -999.2500   118.4290     5.9140     7.1700     6.0050    24.6620   -17.3080 
   68.7500  -999.2500   112.6100     6.1550     7.3630     6.0220    24.6220   -17.6120 
   68.8750  -999.2500   107.9830     6.3860     7.5620     6.3640    24.5910   -17.9110 
   69.0000  -999.2500   105.8900     6.5590     7.7150     6.8440    24.5630   -18.2430 
   69.1250  -999.2500   106.6150     6.6200     7.7480     7.1790    24.4080   -18.5500 
   69.2500  -999.2500   107.5090     6.5840     7.6650     7.5550    24.0650   -18.8630 
   69.3750  -999.2500   108.4750     6.5010     7.5070     7.6320    24.0100   -19.2440 
   69.5000  -999.2500   112.6250     6.4510     7.3590     7.2620    24.1440   -19.6110 
   69.6250  -999.2500   115.8630     6.5650     7.3570     6.9740    24.2910   -20.0640 
   69.7500  -999.2500   110.6440     6.8860     7.5590     6.9660    24.3560   -20.4990 
   69.8750  -999.2500   100.8710     7.3970     7.9570     7.3190    24.2600   -20.9520 
   70.0000  -999.2500    93.6150     8.0020     8.4620     8.0260    24.1540   -21.4600 
   70.1250  -999.2500    91.4550     8.5120     8.8980     9.1010    24.0870   -22.0600 
   70.2500  -999.2500    90.9650     8.7890     9.1300    10.1630    24.1190   -22.6930 
   70.3750  -999.2500    92.0870     8.8340     9.1410    11.0510    24.2020   -23.4080 
   70.5000  -999.2500    94.5500     8.8010     9.0440    10.2130    24.1100   -24.0660 
   70.6250  -999.2500    94.0250     8.9760     9.0740     9.8270    24.0230   -24.6950 
   70.7500  -999.2500    92.3750     9.4790     9.3700     9.7870    23.9400   -25.3330 
   70.8750  -999.2500    91.1790    10.2590     9.9240    10.6220    24.0160   -26.0020 
   71.0000  -999.2500    88.6650    11.1100    10.5980    12.4610    24.1450   -26.7390 
   71.1250  -999.2500    83.8390    11.6710    11.1140    15.1560    24.1360   -27.4890 
   71.2500  -999.2500    80.2030    11.7560    11.2830    17.0400    23.6420   -28.3480 
   71.3750  -999.2500    80.9120    11.3900    11.0650    16.2760    23.2200   -29.1110 
   71.5000  -999.2500    83.4750    10.7840    10.5750    13.1910    23.4250   -29.9320 
   71.6250  -999.2500    82.6440    10.2300    10.0320    10.9400    23.7980   -30.6940 
   71.7500  -999.2500    79.3620     9.8960     9.6250    10.0940    24.1690   -31.3450 
   71.8750  -999.2500    76.4900     9.8210     9.4240    10.0700    24.2700   -31.8890 
   72.0000  -999.2500    75.7350     9.9710     9.4280    10.2180    24.1790   -32.2570 
   72.1250  -999.2500    75.3870    10.2930     9.6010    10.5000    23.9930   -32.4720 
   72.2500  -999.2500    74.4230    10.6760     9.8330    10.8500    23.8720   -32.3970 
   72.3750  -999.2500    73.9740    11.0060    10.0470    11.1010    23.7710   -32.1760 
   72.5000  -999.2500    75.4740    11.2180    10.1740    11.2860    23.7490   -31.7440 
   72.6250  -999.2500    77.3780    11.0890    10.1320    11.4050    23.7680   -31.1310 
   72.7500  -999.2500    77.8250    10.6940     9.9170    11.2900    23.8290   -30.4470 
   72.8750  -999.2500    78.5110    10.0160     9.5420    10.8720    24.0310   -29.6950 
   73.0000  -999.2500    81.8500     9.1600     9.0560    10.5700    24.3400   -28.9730 
   73.1250  -999.2500    88.1020     8.7410     8.5530    10.2730    24.1910   -28.3600 
   73.2500  -999.2500    93.7700     8.4520     8.1510     9.5540    23.6640   -27.9690 
   73.3750  -999.2500    97.9330     8.3920     7.9430     8.4750    23.2760   -27.7980 
   73.5000  -999.2500    98.4110     8.6230     7.9910     7.7150    23.1510   -27.8200 
   73.6250  -999.2500    93.2640     9.1840     8.3500     7.7320    23.2070   -28.0610 
   73.7500  -999.2500    87.5670     9.9210     8.9040     8.2920    23.4270   -28.3900 
   73.8750  -999.2500    83.1220    10.6690     9.5210     9.0210    23.7280   -28.8340 
   74.0000  -999.2500    78.1150    11.2480    10.0460     9.7050    23.8320   -29.2420 
   74.1250  -999.2500    73.8280    11.4760    10.2960    10.2290    23.7150   -29.6580 
   74.2500  -999.2500    73.8440    11.4110    10.2700    10.3860    23.6310   -29.9900 
   74.3750  -999.2500    76.5200    11.1720    10.0340    10.1120    23.5500   -30.2610 
   74.5000  -999.2500    79.0280    10.9020     9.7000     9.3970    23.2610   -30.4870 
   74.6250  -999.2500    81.1790    10.7220     9.3860     8.9960    22.8320   -30.7660 
   74.7500  -999.2500    81.9860    10.6340     9.1440     8.9460    22.7580   -31.0940 
   74.8750  -999.2500    81.2130    10.5910     8.9690     8.9920    22.9380   -31.4730 
   75.0000  -999.2500    80.0030    10.5330     8.8310     8.9610    23.2400   -31.8720 
   75.1250  -999.2500    79.0120    10.4170     8.6990     9.3540    23.5180   -32.2680 
   75.2500  -999.2500    77.0480    10.2770     8.5710     9.8010    23.6820   -32.6510 
   75.3750  -999.2500    75.7600    10.1910     8.4890     9.9980    23.8070   -32.9790 
   75.5000  -999.2500    75.6260    10.2590     8.5210    10.1020    23.9670   -33.2520 
   75.6250  -999.2500    75.2580    10.5850     8.7500    10.7960    24.0420   -33.3940 
   75.7500  -999.2500    73.7470    11.0910     9.1300    12.2190    24.0680   -33.4870 
   75.8750  -999.2500    72.8540    11.6340     9.5630    14.3970    24.1840   -33.4110 
   76.0000  -999.2500    75.0360    12.0210     9.9030    17.9260    24.3680   -33.3860 
   76.1250  -999.2500    79.0470    12.0240     9.9630    23.7950    24.6480   -33.2460 
   76.2500  -999.2500    79.7860    11.6780     9.7410    26.6290    24.8180   -33.0600 
   76.3750  -999.2500    76.1070    11.1220     9.3150    19.2710    24.8440   -32.8320 
   76.5000  -999.2500    72.5960    10.5500     8.8250    12.3650    24.5330   -32.5740 
   76.6250  -999.2500    74.4670    10.1490     8.4240    10.4830    24.3460   -32.2550 
   76.7500  -999.2500    78.1300     9.9380     8.1650    10.0270    24.2830   -31.8690 
   76.8750  -999.2500    78.2590     9.8780     8.0420     9.9590    24.2540   -31.5290 
   77.0000  -999.2500    75.3080     9.9010     8.0180     9.9810    24.1450   -31.0790 
   77.1250  -999.2500    75.9320     9.9470     8.0500    10.0130    23.9530   -30.7370 
   77.2500  -999.2500    80.9470     9.9830     8.0930    10.1150    23.7370   -30.4410 
   77.3750  -999.2500    83.3240    10.0110     8.1320    10.2130    23.4440   -30.2280 
   77.5000  -999.2500    79.1670    10.0450     8.1690    10.4480    23.2720   -30.1020 
   77.6250  -999.2500    74.0210    10.1100     8.2160    10.5990    23.2180   -30.1220 
   77.7500  -999.2500    74.4390    10.2160     8.2870    10.7320    23.2050   -30.2550 
   77.8750  -999.2500    80.2920    10.3610     8.3890    10.7880    23.2070   -30.5110 
   78.0000  -999.2500    86.0990    10.5290     8.5210    10.7060    23.3790   -30.8350 
   78.1250  -999.2500    86.1950    10.6930     8.6680    10.6400    23.7580   -31.1710 
   78.2500  -999.2500    81.7390    10.8210     8.8030    10.7110    24.1800   -31.4850 
   78.3750  -999.2500    76.8770    10.8940     8.9070    10.8990    24.3250   -31.7400 
