~V
VERS. 2.00: Ver 2.00
~W
STRT.M 63.0000:
STOP.M 272.0000:
STEP.M 0.1250:
NULL. -999.2500:
UWI. DF3013:
~C
DEPT.M :
DEN.GM/CC :
SP.MV :
AC.US/MT :
GR.API :
CALI.CM :
RXO.OHMM :
RI. :
RML.OHMM :
~A
# ...
  253.0000     2.5190    -7.8000   219.9630    75.1610    24.6950    18.3790    18.0070    18.7810 
  253.1250     2.5020    -7.7480   213.9660    75.5570    24.6950    18.0530    18.1490    18.8970 
  253.2500     2.4910    -7.7050   207.0410    75.0350    24.6960    18.8380    18.2630    19.0110 
  253.3750     2.4880    -7.6830   202.1380    74.4950    24.6910    20.6790    18.3740    19.1520 
  253.5000     2.4980    -7.6810   200.2060    75.9470    24.6730    23.2090    18.5240    19.3530 
  253.6250     2.5200    -7.6910   201.7970    78.5300    24.6460    24.7320    18.7820    19.6540 
  253.7500     2.5410    -7.7030   206.0080    78.9870    24.6170    25.4310    19.1620    20.0390 
  253.8750     2.5530    -7.7090   210.1910    77.9860    24.5890    24.4440    19.6470    20.4910 
  254.0000     2.5550    -7.7050   210.8240    77.9160    24.5670    22.9590    20.1900    20.9820 
  254.1250     2.5530    -7.6840   207.8450    78.5950    24.5610    20.6430    20.7160    21.4600 
  254.2500     2.5550    -7.6550   202.8720    77.7490    24.5670    18.9660    21.1610    21.8620 
  254.3750     2.5600    -7.6350   196.4460    76.0950    24.5800    17.4050    21.4890    22.1400 
  254.5000     2.5620    -7.6420   191.1960    76.2380    24.6010    17.2470    21.6890    22.2810 
  254.6250     2.5570    -7.6850   192.4650    76.8800    24.6220    18.8270    21.7420    22.2780 
  254.7500     2.5480    -7.7360   200.4260    76.5570    24.6330    19.7400    21.6750    22.1590 
  254.8750     2.5400    -7.7690   212.8570    76.3020    24.6330    19.9160    21.5040    21.9230 
  255.0000     2.5360    -7.7750   226.6010    76.6230    24.6290    21.3230    21.2420    21.5770 
  255.1250     2.5380    -7.7750   237.0470    75.9670    24.6280    22.2630    20.8430    21.0830 
  255.2500     2.5370    -7.8150   242.8970    75.0030    24.6290    20.7680    20.2750    20.4240 
  255.3750     2.5290    -7.9190   240.8890    76.4650    24.6270    18.8310    19.5200    19.5940 
  255.5000     2.5140    -8.0770   233.6660    79.3100    24.6130    17.3050    18.6150    18.6330 
  255.6250     2.5020    -8.2310   233.6810    79.6030    24.5930    14.4830    17.6680    17.6640 
  255.7500     2.4950    -8.3310   242.8640    78.2530    24.6020    12.3770    16.8670    16.8790 
  255.8750     2.4990    -8.3630   249.9190    77.6130    24.6430    12.2220    16.3720    16.4420 
  256.0000     2.5170    -8.3620   245.4000    78.4850    24.6850    12.9330    16.3000    16.4570 
  256.1250     2.5410    -8.3760   233.3300    78.7900    24.6980    14.2190    16.7770    17.0220 
  256.2500     2.5510    -8.4230   223.5250    76.8360    24.7000    16.2780    17.6690    17.9790 
  256.3750     2.5420    -8.4770   217.9350    74.8930    24.7040    18.4450    18.8110    19.1520 
  256.5000     2.5340    -8.4920   216.7120    74.2330    24.7090    19.6420    19.9630    20.2970 
  256.6250     2.5370    -8.4150   218.6880    74.8610    24.7100    19.2990    20.8550    21.1370 
  256.7500     2.5420    -8.2610   221.5410    75.3950    24.7110    19.1310    21.4320    21.6510 
  256.8750     2.5420    -8.0510   223.2260    74.9680    24.7230    18.9910    21.7460    21.9160 
  257.0000     2.5430    -7.8050   223.8790    73.8010    24.7450    18.8080    21.9140    22.0660 
  257.1250     2.5470    -7.5150   226.0660    73.2180    24.7640    19.7300    22.0450    22.2190 
  257.2500     2.5460    -7.1940   228.9520    74.6760    24.7700    21.6360    22.1680    22.3830 
  257.3750     2.5390    -6.8730   229.1190    76.9400    24.7680    22.2750    22.2390    22.4970 
  257.5000     2.5270    -6.6110   226.8770    78.0940    24.7670    21.5920    22.2080    22.5090 
  257.6250     2.5150    -6.4910   226.4790    76.9900    24.7660    21.3620    22.0580    22.3990 
  257.7500     2.5090    -6.5050   228.2190    74.5540    24.7670    21.2710    21.8700    22.2530 
  257.8750     2.5090    -6.6120   229.5510    72.9200    24.7690    21.0780    21.7340    22.1630 
  258.0000     2.5080    -6.7390   228.7380    74.9200    24.7640    20.6180    21.7220    22.1990 
  258.1250     2.4990    -6.8180   226.8910    79.6350    24.7300    20.4640    21.8860    22.4100 
  258.2500     2.4900    -6.8520   226.1680    82.0720    24.6790    20.8840    22.2000    22.7700 
  258.3750     2.4920    -6.8660   226.8780    80.2670    24.6410    20.6780    22.6400    23.2550 
  258.5000     2.5070    -6.8820   227.1950    76.7790    24.6290    20.4470    23.1580    23.8130 
  258.6250     2.5210    -6.9040   225.7240    74.7740    24.6180    21.3180    23.6450    24.3190 
  258.7500     2.5290    -6.9150   225.1090    74.7820    24.5800    22.3420    23.9710    24.6240 
  258.8750     2.5310    -6.8990   226.9900    76.7160    24.5280    23.9210    24.0150    24.5890 
  259.0000     2.5290    -6.8430   231.3780    79.8890    24.4830    25.1760    23.6970    24.1460 
  259.1250     2.5240    -6.7520   236.7800    80.3930    24.4560    25.7900    23.0030    23.3180 
  259.2500     2.5170    -6.6450   241.4840    78.3740    24.4660    24.6760    22.1550    22.3760 
  259.3750     2.5140    -6.5450   244.9070    77.9840    24.5210    23.7510    21.3510    21.5430 
  259.5000     2.5140    -6.4770   246.6140    78.1300    24.5920    26.0540    20.7520    20.9900 
  259.6250     2.5220    -6.4600   246.7640    78.1300    24.6260    28.0880    20.4990    20.8440 
  259.7500     2.5350    -6.4810   246.3890    78.1300    24.6340    27.8000    20.5520    21.0340 
  259.8750     2.5450    -6.5020   245.8510    78.1300    24.6500    29.2140    20.8830    21.5090 
  260.0000     2.5440    -6.5020   245.1820    78.1300    24.6670    33.1560    21.4430    22.2000 
  260.1250     2.5360    -6.5020   244.8110    78.1300    24.6220    31.4930    22.1620    23.0060 
  260.2500     2.5380    -6.5090   244.8560    78.1300    24.5420    30.9950    22.8850    23.7640 
  260.3750     2.5510    -6.5020   245.6470    78.1300    24.5050    32.3510    23.4720    24.3400 
  260.5000     2.5590    -6.4670   247.0350    78.1300    24.5530    33.7880    23.7940    24.6260 
  260.6250     2.5420    -6.4330   247.8960    78.1300    24.6470    31.6090    23.7540    24.5520 
  260.7500     2.5100    -6.4440   246.5470    78.1300    24.7170    30.5120    23.4790    24.2610 
  260.8750     2.4850    -6.4900   242.9570    78.1300    24.7540    27.9790    23.0950    23.8730 
  261.0000     2.4860    -6.5190   239.7620    78.1300    24.7530    26.3070    22.7140    23.4920 
  261.1250     2.5110    -6.4510   240.0920    78.1300    24.7080    26.1590    22.4200    23.2010 
  261.2500     2.5320    -6.3120   243.5310    78.1300    24.6580    27.3840    22.1880    22.9740 
  261.3750     2.5380    -6.2020   248.9630    78.1300    24.6300    28.9820    21.9530    22.7460 
  261.5000     2.5340    -6.2230   254.6380    78.1300    24.6280    28.4780    21.6880    22.4980 
  261.6250     2.5330    -6.3960   257.5520    78.1300    24.6290    29.9060    21.4540    22.3020 
  261.7500     2.5350    -6.5890   256.7440    78.1300    24.6070    34.4650    21.3320    22.2390 
  261.8750     2.5370    -6.6860   254.5290    78.1300    24.5630    36.7570    21.3550    22.3380 
  262.0000     2.5370    -6.6170   254.1160    78.1300    24.5350    39.2690    21.5120    22.5700 
  262.1250     2.5300    -6.3710   254.9040    78.1300    24.5640    32.2460    21.7260    22.8260 
  262.2500     2.5150    -6.0660   253.5370    78.1300    24.6240    26.2540    21.8620    22.9530 
  262.3750     2.5030    -5.7950   250.9990    78.1300    24.6670    22.4580    21.8220    22.8560 
  262.5000     2.5070    -5.6180   251.1460    78.1300    24.6680    28.0180    21.5720    22.5120 
  262.6250     2.5250    -5.5620   255.7170    78.1300    24.6390    31.7580    21.1270    21.9640 
  262.7500     2.5290    -5.5740   260.3730    78.1300    24.6250    33.1630    20.6260    21.3880 
  262.8750     2.5100    -5.6180   263.6410    78.1300    24.6390    32.4140    20.1790    20.9190 
