~V
VERS. 2.00: Ver 2.00
~W
STRT.M 110.0000:
STOP.M 266.0000:
STEP.M 0.1250:
NULL. -999.2500:
UWI. DF309:
~C
DEPT.M :
DEN.GM/CC :
SP.MV :
AC.US/MT :
GR.API :
CALI.CM :
RXO.OHMM :
RI. :
RML.OHMM :
~A
# ...
  180.0000     2.2950   -29.3830   392.5480    78.8990    23.2100    52.3890    71.8180    82.4700 
  180.1250     2.3210   -29.4320   396.8250    76.3080    23.2090    40.9540    55.2720    63.2260 
  180.2500     2.3480   -29.4950   400.5320    75.6000    23.2710    29.9190    42.5160    49.0130 
  180.3750     2.3750   -29.5710   400.7730    78.1660    23.3750    23.0820    33.7590    39.4270 
  180.5000     2.4000   -29.6570   395.8310    82.5340    23.4910    22.0620    27.8950    33.0830 
  180.6250     2.4190   -29.7600   388.1490    86.7360    23.5960    23.5970    23.8680    28.8220 
  180.7500     2.4290   -29.8740   384.6010    90.0820    23.6360    22.1910    20.6420    25.3590 
  180.8750     2.4300   -30.0170   388.4820    92.6030    23.6300    17.7010    17.9620    22.3070 
  181.0000     2.4240   -30.1790   397.3730    95.5250    23.5810    13.7860    15.7560    19.6090 
  181.1250     2.4160   -30.3530   405.3220    97.3350    23.4720    12.5760    14.0940    17.4690 
  181.2500     2.4110   -30.5360   409.9270    97.6290    23.3800    11.5970    12.9030    15.9380 
  181.3750     2.4080   -30.7220   412.3560    99.2970    23.2960    10.6590    12.1570    15.0240 
  181.5000     2.4070   -30.9250   413.8770   100.7690    23.1770     9.8950    11.7800    14.6080 
  181.6250     2.4080   -31.1410   414.2380    97.6640    22.9900     9.5100    11.7030    14.5670 
  181.7500     2.4040   -31.3670   413.6020    90.5830    22.8540     9.5570    11.7710    14.7080 
  181.8750     2.3930   -31.5940   412.6730    85.8470    22.7990     9.9540    11.8820    14.9200 
  182.0000     2.3800   -31.8260   412.2170    87.3310    22.7860    10.4670    11.9270    15.0620 
  182.1250     2.3740   -32.0430   412.6260    90.6270    22.7690    10.5700    11.8160    14.9970 
  182.2500     2.3780   -32.2490   413.4070    95.4630    22.7380    10.4330    11.5910    14.7730 
  182.3750     2.3900   -32.4420   414.1130   100.7530    22.7070    10.3050    11.3190    14.4880 
  182.5000     2.4010   -32.6110   414.5630   103.0110    22.6940    10.2640    11.0690    14.2500 
  182.6250     2.4060   -32.7430   414.7810   100.7600    22.6940    10.3880    10.9170    14.1670 
  182.7500     2.4080   -32.8330   414.7890    96.9650    22.6940    10.7580    10.8790    14.2440 
  182.8750     2.4090   -32.8780   414.5940    94.5180    22.6940    11.2520    10.9550    14.4620 
  183.0000     2.4080   -32.8850   414.3660    91.2450    22.6940    11.7820    11.1330    14.7960 
  183.1250     2.4000   -32.8470   414.2920    87.3140    22.6940    12.4620    11.4130    15.2460 
  183.2500     2.3940   -32.7840   414.0280    87.1110    22.6850    13.3610    11.7550    15.7690 
  183.3750     2.3900   -32.7000   412.9860    89.1880    22.6590    14.2100    12.1170    16.3020 
  183.5000     2.3880   -32.5940   411.0050    91.0350    22.6290    14.7850    12.4400    16.7560 
  183.6250     2.3800   -32.4860   408.9970    89.1480    22.6540    15.0240    12.6380    16.9930 
  183.7500     2.3710   -32.3970   408.4170    85.6080    22.7840    15.0260    12.6830    16.9830 
  183.8750     2.3700   -32.3400   409.7100    84.4450    23.0870    14.8010    12.5840    16.7510 
  184.0000     2.3760   -32.3030   412.0910    86.2880    23.5720    14.4460    12.3820    16.3800 
  184.1250     2.3810   -32.2980   414.1510    88.2070    24.1470    14.2430    12.1320    15.9770 
  184.2500     2.3830   -32.3030   415.3570    88.4030    24.5740    14.2560    11.8890    15.6160 
  184.3750     2.3920   -32.3290   415.8260    94.1830    24.7620    14.2790    11.6740    15.3150 
  184.5000     2.4050   -32.3750   415.5740   106.5520    24.8020    14.2060    11.4920    15.0620 
  184.6250     2.4130   -32.4200   414.4900   111.1140    24.8020    14.0430    11.3480    14.8490 
  184.7500     2.4120   -32.4520   413.3900   104.8960    24.8020    13.7420    11.2580    14.6950 
  184.8750     2.4110   -32.4710   413.2180    97.2340    24.8020    13.4720    11.2600    14.6670 
  185.0000     2.4090   -32.4790   414.3240    93.9800    24.8020    13.4900    11.4020    14.8410 
  185.1250     2.4000   -32.4860   416.1570    89.4270    24.8100    13.7950    11.7430    15.3070 
  185.2500     2.3870   -32.4960   417.7390    84.1380    24.8390    14.3860    12.2400    15.9970 
  185.3750     2.3740   -32.5050   418.7620    82.7840    24.9000    15.2080    12.8450    16.8370 
  185.5000     2.3660   -32.5230   419.2700    85.2930    24.9810    16.0750    13.5080    17.7420 
  185.6250     2.3600   -32.5770   419.3340    92.0110    25.0460    16.6700    14.1850    18.6380 
  185.7500     2.3490   -32.6550   419.1250    98.0570    25.0860    16.7740    14.8550    19.5030 
  185.8750     2.3360   -32.7490   418.8460    97.4970    25.1390    17.1350    15.5050    20.3340 
  186.0000     2.3230   -32.8800   418.8750    92.2220    25.2220    18.2580    16.0970    21.0930 
  186.1250     2.3210   -33.0350   419.6280    88.8560    25.2660    19.4680    16.5320    21.6420 
  186.2500     2.3260   -33.2150   420.9840    89.1130    25.2800    19.7980    16.7970    21.9400 
  186.3750     2.3330   -33.4230   422.8390    89.0130    25.2800    19.3610    16.9840    22.1110 
  186.5000     2.3340   -33.6540   425.1180    88.5160    25.2800    18.8670    17.3240    22.5150 
  186.6250     2.3240   -33.9050   427.4860    86.5180    25.2800    18.9180    18.2740    23.8920 
  186.7500     2.3070   -34.1810   429.5030    83.3740    25.2840    20.8070    20.0920    26.6310 
  186.8750     2.2820   -34.4730   431.2840    79.8040    25.3020    26.5470    22.8630    30.8360 
  187.0000     2.2510   -34.7630   433.6590    75.8560    25.3410    37.1780    26.2620    35.9710 
  187.1250     2.2240   -35.0330   438.4450    73.6820    25.3600    51.3070    29.2380    40.2790 
  187.2500     2.2100   -35.2760   446.3200    75.6000    25.3590    57.1660    30.8960    42.2100 
  187.3750     2.2110   -35.4820   456.2880    80.2050    25.3110    48.2140    31.4220    42.0040 
  187.5000     2.2150   -35.6470   464.9560    82.5820    25.1890    32.6200    32.0950    41.7190 
  187.6250     2.2110   -35.7800   466.1710    77.9590    25.0600    28.8780    35.5120    44.7220 
  187.7500     2.1980   -35.8860   458.1260    69.1810    25.0660    41.6680    44.1830    53.2020 
  187.8750     2.1900   -35.9620   441.7300    60.4430    25.1910    80.6720    61.6380    70.1430 
  188.0000     2.2000   -36.0150   419.9020    55.4960    25.3060   149.9020    92.0450   100.3040 
  188.1250     2.2320   -36.0520   396.7430    54.6140    25.2950   219.2750   139.4950   153.9390 
  188.2500     2.2680   -36.0610   377.2990    55.6080    25.1940   270.4050   191.4040   223.9450 
  188.3750     2.2930   -36.0460   364.7190    59.3310    25.1070   300.6350   226.3550   277.5420 
  188.5000     2.3070   -36.0150   359.2970    65.2360    25.0740   308.3290   228.1150   277.5400 
  188.6250     2.3070   -35.9350   359.5030    69.2040    25.0690   281.7650   198.7450   231.7640 
  188.7500     2.2970   -35.7980   363.4280    69.5020    25.0370   227.7560   161.0780   181.6920 
  188.8750     2.2850   -35.6320   371.5610    69.4640    24.9630   164.3340   126.4440   140.6050 
  189.0000     2.2800   -35.4330   382.2660    72.0760    24.9070   109.9920    99.5070   110.7930 
  189.1250     2.2850   -35.1900   389.7240    75.2380    24.8910    73.2830    81.8660    91.8200 
  189.2500     2.2950   -34.9250   390.5040    74.9200    24.8940    54.7120    70.5150    79.5090 
  189.3750     2.3030   -34.6230   385.8150    71.8260    24.8950    51.0710    63.8400    72.0420 
  189.5000     2.3040   -34.2740   379.5100    68.6500    24.8920    56.0810    60.5800    68.1380 
  189.6250     2.2960   -33.8870   375.9220    67.2870    24.8890    60.3710    60.2090    67.3000 
  189.7500     2.2830   -33.4730   376.6070    67.8860    24.8850    63.3880    61.5140    68.2930 
  189.8750     2.2720   -33.0130   380.9140    68.1490    24.8760    67.4720    63.4540    70.0660 
