~V
VERS. 2.00: Ver 2.00
~W
STRT.M 125.0000:
STOP.M 269.0000:
STEP.M 0.1250:
NULL. -999.2500:
UWI. DF3004:
~C
DEPT.M :
GR.API :
RML.OHMM :
RI. :
RXO.OHMM :
CALI.CM :
DEN.GM/CC :
SP.MV :
~A
# ...
  248.7500    58.9990     8.7790     7.9390     6.1930    24.2740     2.4100   -10.9100 
  248.8750    61.2190     8.7550     7.8680     6.1230    24.2520     2.4100   -10.9410 
  249.0000    63.3910     8.7710     7.8380     6.2970    24.2000     2.4060   -10.9860 
  249.1250    65.1780     8.8340     7.8550     6.7290    24.2010     2.4010   -10.9420 
  249.2500    65.9830     8.9300     7.9020     7.0640    24.3320     2.3970   -10.9800 
  249.3750    66.4110     9.0440     7.9670     7.2320    24.4590     2.3970   -10.9360 
  249.5000    67.6230     9.1600     8.0370     7.3140    24.3310     2.4020   -10.9680 
  249.6250    68.3470     9.2530     8.0990     7.5630    24.1740     2.4100   -10.9760 
  249.7500    68.1370     9.3110     8.1430     7.8630    24.1650     2.4180   -10.9770 
  249.8750    67.6430     9.3310     8.1620     8.0630    24.2440     2.4210   -11.0020 
  250.0000    67.0980     9.3190     8.1520     8.1330    24.3020     2.4200   -10.9440 
  250.1250    66.0270     9.2830     8.1130     7.8970    24.3190     2.4160   -10.9620 
  250.2500    66.7170     9.2420     8.0600     7.6800    24.3340     2.4100   -10.9190 
  250.3750    69.2410     9.2060     8.0050     7.3680    24.4480     2.4040   -10.9730 
  250.5000    69.8080     9.1830     7.9620     7.1460    24.5160     2.3990   -10.9680 
  250.6250    66.8030     9.1830     7.9410     7.0120    24.4670     2.3940   -10.9800 
  250.7500    64.7920     9.2010     7.9400     7.0280    24.4760     2.3920   -11.0230 
  250.8750    65.9310     9.2300     7.9530     7.2600    24.3950     2.3910   -10.9920 
  251.0000    67.7790     9.2590     7.9700     7.4440    24.3720     2.3910   -11.0470 
  251.1250    67.7750     9.2660     7.9800     7.4560    24.3540     2.3900   -11.0870 
  251.2500    67.2190     9.2470     7.9770     7.4040    24.2210     2.3900   -11.1140 
  251.3750    67.5590     9.2080     7.9640     7.3410    24.0110     2.3880   -11.1650 
  251.5000    70.5150     9.1610     7.9470     7.3370    23.8460     2.3850   -11.2120 
  251.6250    73.9040     9.1250     7.9390     7.2820    23.8440     2.3830   -11.2620 
  251.7500    73.7920     9.1130     7.9490     7.2390    24.0030     2.3830   -11.2980 
  251.8750    70.2990     9.1280     7.9810     7.5270    24.1940     2.3890   -11.3740 
  252.0000    65.4450     9.1710     8.0330     8.0580    24.2810     2.3970   -11.4500 
  252.1250    60.9760     9.2320     8.0990     8.3010    24.2520     2.4050   -11.4410 
  252.2500    58.7480     9.2910     8.1650     8.4470    24.2130     2.4150   -11.5110 
  252.3750    61.1960     9.3280     8.2180     8.8090    24.2240     2.4290   -11.4850 
  252.5000    66.4610     9.3290     8.2510     9.4430    24.2580     2.4490   -11.4870 
  252.6250    68.8700     9.2900     8.2560    10.2520    24.2820     2.4720   -11.4840 
  252.7500    68.1270     9.2300     8.2420    10.5110    24.3010     2.4910   -11.4260 
  252.8750    67.8490     9.1710     8.2200    10.0330    24.3370     2.4960   -11.4230 
  253.0000    68.9760     9.1290     8.2020     9.4300    24.3560     2.4870   -11.3530 
  253.1250    69.8870     9.1190     8.2020     9.2660    24.3120     2.4680   -11.3600 
  253.2500    70.0960     9.1390     8.2250     9.1860    24.2990     2.4450   -11.3100 
  253.3750    70.2570     9.1810     8.2690     8.9830    24.3380     2.4270   -11.3050 
  253.5000    70.8170     9.2310     8.3290     8.8450    24.3980     2.4180   -11.2670 
  253.6250    71.8880     9.2660     8.3850     9.1280    24.3290     2.4160   -11.2790 
  253.7500    73.0300     9.2710     8.4230     9.2370    24.1840     2.4210   -11.2820 
  253.8750    73.7440     9.2430     8.4330     9.0980    24.1200     2.4280   -11.2720 
  254.0000    73.3860     9.2020     8.4250     8.8560    24.1140     2.4360   -11.2430 
  254.1250    72.4340     9.1910     8.4290     8.6590    24.1140     2.4430   -11.2300 
  254.2500    72.5240     9.2520     8.4830     8.5740    24.1140     2.4510   -11.2300 
  254.3750    74.3520     9.4150     8.6210     8.7710    24.1140     2.4620   -11.2210 
  254.5000    75.3210     9.6850     8.8530     9.1830    24.1230     2.4750   -11.2430 
  254.6250    72.4850    10.0340     9.1650     9.7650    24.1370     2.4880   -11.2260 
  254.7500    68.6640    10.3770     9.4850     9.8960    24.1370     2.4970   -11.2460 
  254.8750    66.4520    10.6420     9.7470    10.3380    24.0960     2.4970   -11.2610 
  255.0000    65.9680    10.7790     9.8990    10.8270    24.0310     2.4880   -11.3710 
  255.1250    66.6950    10.7630     9.9130    10.8950    24.0210     2.4730   -11.3690 
  255.2500    68.7390    10.6650     9.8510    10.7210    24.0290     2.4570   -11.4380 
  255.3750    71.3090    10.5490     9.7670    10.3010    24.0380     2.4460   -11.5070 
  255.5000    72.9910    10.4680     9.7120     9.9840    24.0420     2.4440   -11.5540 
  255.6250    73.4670    10.4560     9.7240    10.1940    24.0390     2.4510   -11.6390 
  255.7500    73.3200    10.4910     9.7920    10.7590    24.0260     2.4630   -11.6520 
  255.8750    71.0560    10.5460     9.8970    11.5100    24.0090     2.4750   -11.6870 
  256.0000    67.5460    10.5960    10.0130    11.8390    24.0200     2.4810   -11.6390 
  256.1250    67.1520    10.6220    10.1140    11.7940    24.0300     2.4820   -11.5920 
  256.2500    70.4590    10.6270    10.1890    11.5150    24.0360     2.4790   -11.5660 
  256.3750    73.6150    10.6160    10.2380    11.0770    24.0420     2.4750   -11.5400 
  256.5000    74.2670    10.5950    10.2670    10.5090    24.0590     2.4720   -11.4680 
  256.6250    72.1980    10.5720    10.2860    10.1580    24.0800     2.4680   -11.4060 
  256.7500    69.4430    10.5620    10.3150    10.0310    24.0680     2.4660   -11.4530 
  256.8750    67.9090    10.5880    10.3770    10.1730    24.0470     2.4650   -11.4040 
  257.0000    70.0190    10.6830    10.5020    10.4700    24.0360     2.4680   -11.3890 
  257.1250    70.0190    10.8840    10.7390    10.6930    24.0030     2.4730   -11.5130 
  257.2500    70.0190    11.1690    11.0950    11.4660    23.9440     2.4760   -11.5020 
  257.3750    70.0190    11.5750    11.5690    13.4630    23.9310     2.4730   -11.4870 
  257.5000    70.0190    12.0680    12.1420    16.2190    24.0050     2.4630   -11.5780 
  257.6250    70.0190    12.7860    12.7620    19.2410    24.0400     2.4510   -11.5480 
  257.7500    70.0190    13.5590    13.3480    19.6950    24.0360     2.4420   -11.5360 
  257.8750    70.0190    14.3920    13.8360    17.9380    24.0260     2.4430   -11.6240 
  258.0000    70.0190    15.2060    14.1870    17.1440    24.0280     2.4490   -11.6580 
  258.1250    70.0190    15.3070    14.3830    16.5490    24.0220     2.4590   -11.6850 
  258.2500    70.0190    15.3530    14.4990    15.7940    24.0100     2.4690   -11.8010 
  258.3750    70.0190    15.4020    14.5920    14.2920    23.9980     2.4750   -11.8530 
  258.5000    70.0190    15.4930    14.7100    12.6920    24.0000     2.4820   -11.8770 
  258.6250    70.0190    15.6490    14.8850    12.4740    24.0280     2.4910   -11.9840 
  258.7500    70.0190    15.8470    15.1010    13.2480    24.0310     2.5010   -11.9510 
  258.8750    70.0190    16.0730    15.3400    14.9120    24.0500     2.5110   -11.8800 
  259.0000    70.0190    16.3140    15.5870    17.1250    24.0270     2.5160   -11.9200 
  259.1250    70.0190    16.5640    15.8410    18.3590    23.9530     2.5160   -11.8880 
  259.2500    70.0190    16.8170    16.1030    19.0370    23.9490     2.5130   -11.8680 
  259.3750    70.0190    17.0590    16.3750    19.0900    24.0120     2.5110   -11.9900 
  259.5000    70.0190    17.2700    16.6430    18.7420    24.0580     2.5160   -12.0850 
  259.6250    70.0190    17.4140    16.8730    19.0870    24.0790     2.5280   -12.1550 
  259.7500    70.0190    17.4870    17.0450    19.8400    24.1200     2.5410   -12.2990 
  259.8750    70.0190    17.4960    17.1530    20.7150    24.1760     2.5480   -12.4790 
