~V
VERS. 2.00: Ver 2.00
~W
STRT.M 125.0000:
STOP.M 275.0000:
STEP.M 0.1250:
NULL. -999.2500:
UWI. DF3074:
~C
DEPT.M :
GR.API :
CALI.CM :
RXO.OHMM :
RI. :
RML.OHMM :
DEN.GM/CC :
SP.MV :
~A
# ...
  260.0000    63.9460    25.4140     5.3430     5.1040     6.0640     2.3290    -2.6940 
  260.1250    64.6850    25.4710     5.3700     5.0970     6.0550     2.3180    -2.6740 
  260.2500    65.7490    25.4530     5.4890     5.1360     6.0920     2.3270    -2.7670 
  260.3750    66.7820    25.3770     5.6090     5.2060     6.1560     2.3470    -2.8660 
  260.5000    67.1630    25.3190     5.6980     5.2880     6.2310     2.3610    -2.9870 
  260.6250    65.8020    25.3380     5.7050     5.3550     6.2920     2.3620    -3.1970 
  260.7500    62.8770    25.3730     5.7610     5.3920     6.3190     2.3560    -3.4040 
  260.8750    60.1190    25.3690     5.8250     5.3930     6.3050     2.3520    -3.4950 
  261.0000    59.0940    25.3490     5.9680     5.3630     6.2510     2.3540    -3.6090 
  261.1250    61.8260    25.3360     6.3900     5.3150     6.1760     2.3550    -3.7570 
  261.2500    64.7580    25.3420     6.8990     5.2690     6.1070     2.3530    -3.8320 
  261.3750    63.8380    25.3840     7.2020     5.2420     6.0670     2.3530    -3.9130 
  261.5000    59.7900    25.4450     7.2100     5.2500     6.0740     2.3580    -3.9890 
  261.6250    58.0990    25.4380     7.0900     5.3080     6.1450     2.3650    -3.9950 
  261.7500    59.7750    25.3630     7.0490     5.4070     6.2660     2.3670    -4.0150 
  261.8750    61.9610    25.3040     6.9980     5.5320     6.4160     2.3620    -4.1010 
  262.0000    62.2320    25.2680     6.7700     5.6680     6.5710     2.3540    -4.1360 
  262.1250    62.7980    25.2570     6.4610     5.8030     6.7170     2.3480    -4.0990 
  262.2500    64.2860    25.2450     6.4940     5.9270     6.8440     2.3450    -4.1280 
  262.3750    64.2560    25.2000     7.2000     6.0280     6.9420     2.3410    -4.2240 
  262.5000    63.3900    25.1570     8.5670     6.0910     6.9930     2.3440    -4.2970 
  262.6250    65.1290    25.1320     8.7430     6.0920     6.9710     2.3570    -4.3320 
  262.7500    68.7700    25.1170     7.8200     6.0380     6.8800     2.3750    -4.3480 
  262.8750    71.1040    25.0720     6.6350     5.9400     6.7370     2.3830    -4.3540 
  263.0000    70.3310    25.0040     6.0270     5.8200     6.5740     2.3830    -4.3850 
  263.1250    68.6100    24.9800     6.0700     5.7010     6.4310     2.3810    -4.3770 
  263.2500    66.6950    24.9980     6.4540     5.6000     6.3280     2.3820    -4.2900 
  263.3750    64.9580    24.9930     6.7890     5.5250     6.2650     2.3820    -4.1580 
  263.5000    64.7160    24.9700     6.8540     5.4740     6.2240     2.3810    -3.9970 
  263.6250    66.3540    24.9510     6.7250     5.4460     6.1820     2.3770    -3.8920 
  263.7500    66.3540    25.0130     6.5790     5.4380     6.1420     2.3700    -3.7920 
  263.8750    66.3540    25.1510     6.3250     5.4690     6.1450     2.3660    -3.6640 
  264.0000    66.3540    25.2580     6.0040     5.5680     6.2470     2.3660    -3.5650 
  264.1250    66.3540    25.2960     5.8620     5.7770     6.5120     2.3690    -3.5150 
  264.2500    66.3540    25.2970     6.1550     6.0800     6.9080     2.3700    -3.5580 
  264.3750    66.3540    25.2630     6.7520     6.4490     7.3850     2.3700    -3.6820 
  264.5000    66.3540    25.2150     7.2940     6.8330     7.8630     2.3710    -3.8430 
  264.6250    66.3540    25.1930     7.5460     7.1650     8.2460     2.3730    -3.9420 
  264.7500    66.3540    25.1800     7.9710     7.4290     8.5280     2.3830    -4.0040 
  264.8750    66.3540    25.1480     8.9850     7.6410     8.7510     2.4000    -4.0500 
  265.0000    66.3540    25.1400    10.4840     7.8350     8.9770     2.4210    -4.0480 
  265.1250    66.3540    25.1680    10.8690     8.0370     9.2460     2.4380    -4.0590 
  265.2500    66.3540    25.2390    10.4700     8.2330     9.5190     2.4440    -3.9820 
  265.3750    66.3540    25.2650     9.7900     8.3880     9.7270     2.4470    -3.7520 
  265.5000    66.3540    25.2430     9.3390     8.4600     9.8090     2.4520    -3.5210 
  265.6250    66.3540    25.1950     8.9710     8.4180     9.7390     2.4540    -3.3870 
  265.7500    66.3540    25.1400     8.7170     8.2980     9.5860     2.4390    -3.2680 
  265.8750    66.3540    25.0880     8.5190     8.1350     9.3910     2.4180    -3.1880 
  266.0000    66.3540    25.0850     8.4880     7.9600     9.1820     2.4090    -3.1990 
  266.1250    66.3540    25.0920     8.4830     7.7920     8.9710     2.4140    -3.2480 
  266.2500    66.3540    25.0770     8.3420     7.6440     8.7810     2.4170    -3.3090 
  266.3750    66.3540    25.0480     8.2100     7.5250     8.6330     2.4080    -3.4900 
  266.5000    66.3540    25.0230     8.2360     7.4460     8.5470     2.4000    -3.6600 
  266.6250    66.3540    24.9970     8.2950     7.4220     8.5370     2.4050    -3.7680 
  266.7500    66.3540    24.9490     8.3770     7.4410     8.5780     2.4160    -3.9640 
  266.8750    66.3540    24.8930     8.5610     7.4880     8.6450     2.4190    -4.1710 
  267.0000    66.3540    24.8680     8.8310     7.5360     8.7030     2.4140    -4.2680 
  267.1250    66.3540    24.8930     8.8480     7.5480     8.6990     2.4140    -4.3000 
  267.2500    66.3540    24.8920     8.6450     7.5050     8.6130     2.4240    -4.4400 
  267.3750    66.3540    24.8600     8.3270     7.4070     8.4500     2.4290    -4.5510 
  267.5000    66.3540    24.8280     8.0780     7.2700     8.2420     2.4200    -4.6410 
  267.6250    66.3540    24.7980     8.0700     7.1250     8.0440     2.4000    -4.7650 
  267.7500    66.3540    24.7670     8.3480     7.0040     7.9000     2.3820    -4.8460 
  267.8750    66.3540    24.7520     8.5990     6.9250     7.8290     2.3760    -4.8550 
  268.0000    66.3540    24.7700     8.3910     6.8910     7.8270     2.3810    -4.8970 
  268.1250    66.3540    24.7980     7.7960     6.8820     7.8560     2.3950    -4.9630 
  268.2500    66.3540    24.7920     7.2550     6.8540     7.8460     2.4120    -4.9450 
  268.3750    66.3540    24.7770     6.8580     6.7800     7.7540     2.4230    -4.9100 
  268.5000    66.3540    24.7840     6.4350     6.6650     7.5840     2.4180    -4.9340 
  268.6250    66.3540    24.7960     6.0600     6.5410     7.3900     2.3980    -4.9280 
  268.7500    66.3540    24.7990     6.2090     6.4510     7.2480     2.3740    -4.8900 
  268.8750    66.3540    24.7770     7.0170     6.4090     7.1890     2.3580    -4.8970 
  269.0000    66.3540    24.6890     7.9260     6.4040     7.2010     2.3510    -4.8970 
  269.1250    66.3540    24.5320     8.2700     6.4120     7.2470     2.3410    -4.9010 
  269.2500    66.3540    24.4240     8.4570     6.4120     7.2830     2.3210    -4.8880 
  269.3750    66.3540    24.3540     9.7910     6.4010     7.2930     2.2980    -4.8530 
  269.5000    66.3540    24.3260    13.0090     6.3990     7.2930     2.2830    -4.8170 
  269.6250    66.3540    24.3120    14.0900     6.3990     7.2930     2.2770    -4.8390 
  269.7500    66.3540    24.2130    11.9870     6.3990     7.2930     2.2710    -4.8990 
  269.8750    66.3540    23.9980     8.6650     6.3990     7.2930     2.2650    -4.9560 
  270.0000    66.3540    23.8400     6.6040     6.3990     7.2930     2.2640    -5.0430 
  270.1250    66.3540    23.7680     6.0330     6.3990     7.2930     2.2700    -5.0870 
  270.2500    66.3540    23.6810     6.0070     6.3990     7.2930     2.2830    -5.0870 
  270.3750    66.3540    23.4430     6.1170     6.3990     7.2930     2.3040    -5.0870 
  270.5000    66.3540    22.9290     6.1170     6.3990     7.2930     2.3290  -999.2500 
  270.6250    66.3540    22.0180     6.0700     6.3990     7.2930     2.3510  -999.2500 
  270.7500    66.3540    20.9680     6.1750     6.3990     7.2930     2.3610  -999.2500 
  270.8750    66.3540    20.2190     6.4360     6.3990     7.2930     2.3610  -999.2500 
  271.0000    66.3540    20.0310     6.6440     6.3990     7.2930     2.3510  -999.2500 
  271.1250    66.3540    20.1530     6.7470     6.3990     7.2930     2.3310  -999.2500 
