~V
VERS. 2.00: Ver 2.00
~W
STRT.M 125.0000:
STOP.M 275.0000:
STEP.M 0.1250:
NULL. -999.2500:
UWI. DF3046:
~C
DEPT.M :
GR.API :
CALI.CM :
RXO.OHMM :
RI. :
RML.OHMM :
DEN.GM/CC :
SP.MV :
~A
# ...
  192.5000    65.0520    24.8630    86.6840   113.6720   115.5050     2.2800   -24.8890 
  192.6250    68.8540    24.8800    57.8820   104.8950   106.6200     2.2760   -24.9470 
  192.7500    70.8220    24.8980    50.9970   101.8400   103.4950     2.2600   -25.0810 
  192.8750    69.6580    24.9230    50.3640   103.0620   104.6550     2.2410   -25.1960 
  193.0000    68.0980    24.9400    51.3190   107.1400   108.7330     2.2310   -25.2910 
  193.1250    67.6100    24.9540    57.6000   112.9250   114.8260     2.2370   -25.3370 
  193.2500    66.9040    24.9790    66.3470   119.5450   122.2110     2.2500   -25.4330 
  193.3750    65.6100    25.0130    72.0370   127.5190   131.3970     2.2560   -25.6090 
  193.5000    66.1370    25.0660    75.1740   138.2050   143.6340     2.2440   -25.8380 
  193.6250    68.3430    25.1100    80.4030   154.3540   161.6780     2.2170   -25.9980 
  193.7500    67.3290    25.0510    93.6170   176.7170   186.3200     2.1960   -26.1180 
  193.8750    63.4070    24.9350   135.4010   205.1620   217.4880     2.1910   -26.2840 
  194.0000    59.6470    24.8980   266.0020   237.0970   252.4270     2.2000   -26.5100 
  194.1250    58.4870    24.9260   730.5060   265.6490   283.5740     2.2130   -26.7800 
  194.2500    59.5010    24.9410  1159.3890   283.7730   302.9040     2.2170   -27.0030 
  194.3750    61.0700    24.9380  1191.0850   287.1060   305.2440     2.2130   -27.1280 
  194.5000    61.9700    24.9240   830.9830   274.9910   290.0200     2.2100   -27.1760 
  194.6250    61.1310    24.8930   411.0040   249.2530   260.0710     2.2220   -27.1500 
  194.7500    60.0130    24.8760   273.1530   218.1740   225.0860     2.2440   -27.0980 
  194.8750    60.6580    24.8550   244.6210   187.2290   191.1110     2.2630   -26.9750 
  195.0000    62.5270    24.8190   174.6050   160.4760   162.1920     2.2700   -26.7800 
  195.1250    64.3120    24.7550    96.4480   141.4000   141.5520     2.2640   -26.5400 
  195.2500    65.3240    24.6370    65.1810   129.4530   128.3210     2.2550   -26.3530 
  195.3750    66.6190    24.4670    63.7350   124.2900   122.0340     2.2480   -26.2840 
  195.5000    69.1590    24.3080    69.7020   125.3190   121.8640     2.2460   -26.2650 
  195.6250    70.1520    24.2430    72.8720   131.8000   126.7790     2.2460   -26.2280 
  195.7500    67.8150    24.2320    75.8930   139.6530   132.9880     2.2450   -26.1650 
  195.8750    63.6250    24.2640    86.0300   144.7230   136.9930     2.2460   -26.1210 
  196.0000    60.0680    24.3520   112.0230   143.5440   135.9790     2.2520   -26.1020 
  196.1250    60.3330    24.4570   132.0230   134.7780   128.8130     2.2640   -26.0990 
  196.2500    63.1690    24.5560   116.3750   123.1900   119.3480     2.2710   -26.0640 
  196.3750    66.3790    24.5910    76.2990   113.1950   111.3590     2.2630   -25.9680 
  196.5000    67.2840    24.5510    49.1650   108.1830   107.9690     2.2450   -25.8510 
  196.6250    64.9220    24.4820    48.3020   111.5540   112.5560     2.2300   -25.8650 
  196.7500    62.5570    24.4500    65.8730   123.5620   125.6800     2.2200   -25.9380 
  196.8750    62.0900    24.4780    81.3680   145.2580   149.0090     2.2060   -26.0310 
  197.0000    62.1230    24.5430    82.7450   177.2690   184.2410     2.1890   -26.1460 
  197.1250    61.0040    24.6030    86.1420   220.4000   234.1250     2.1820   -26.2390 
  197.2500    60.4890    24.6430   105.9160   269.7300   294.0710     2.1840   -26.3030 
  197.3750    60.6530    24.6680   181.0240   319.8760   358.1830     2.1850   -26.3110 
  197.5000    60.8140    24.6780   562.0960   364.3440   418.1390     2.1830   -26.2970 
  197.6250    59.2890    24.6800  1041.8430   395.0190   461.9250     2.1880   -26.2450 
  197.7500    56.9930    24.6920  1318.6720   410.0080   483.8440     2.1990   -26.2120 
  197.8750    54.9460    24.7410  1344.3200   406.8370   478.6690     2.2150   -26.1790 
  198.0000    54.5290    24.8320  1344.3200   383.2400   444.3260     2.2350   -26.1710 
  198.1250    56.3810    24.9380  1114.4110   337.1200   383.1690     2.2550   -26.2200 
  198.2500    58.1750    24.9150   732.1190   280.9300   313.9680     2.2680   -26.2590 
  198.3750    59.8250    24.7700   389.8680   226.5870   251.0470     2.2700   -26.3500 
  198.5000    62.6210    24.5940   203.3440   182.8560   203.1770     2.2640   -26.4910 
  198.6250    64.5190    24.4950   117.6800   155.5550   174.9180     2.2490   -26.6310 
  198.7500    64.2230    24.4630    68.4480   141.7390   161.1450     2.2320   -26.7180 
  198.8750    62.6810    24.4690    55.9510   139.6490   159.4620     2.2220   -26.7470 
  199.0000    61.3300    24.4900    65.0810   147.1030   167.7650     2.2200   -26.6800 
  199.1250    59.7540    24.5570    84.8430   161.5750   183.8010     2.2200   -26.5860 
  199.2500    59.1770    24.6840   116.1300   176.7950   200.8050     2.2160   -26.5510 
  199.3750    60.0660    24.8170   171.4050   187.2370   212.7630     2.2100   -26.4930 
  199.5000    60.9590    24.8870   324.8080   189.2310   215.8570     2.2140   -26.3590 
  199.6250    61.2890    24.8120   530.6140   182.9800   209.7130     2.2510   -26.0990 
  199.7500    61.2840    24.6590   494.0920   174.0550   198.9320     2.3250   -25.7910 
  199.8750    60.9010    24.5690   290.6070   163.5250   183.7500     2.4310   -25.4550 
  200.0000    59.3820    24.5610   185.4670   148.4160   161.6840     2.5490   -25.0840 
  200.1250    57.5780    24.4870   192.6510   123.7600   130.9730     2.6460   -24.5860 
  200.2500    56.0320    24.3860   220.2970    93.6600    98.0400     2.7050   -23.9250 
  200.3750    53.7040    24.3660   182.4410    65.5230    69.4040     2.7230   -23.1170 
  200.5000    52.6080    24.3800    93.0200    44.8420    48.8810     2.7080   -22.2250 
  200.6250    55.5260    24.3630    32.9140    33.5060    37.6050     2.6820   -21.2580 
  200.7500    60.0220    24.3570    20.3040    27.8000    31.9600     2.6690   -20.2460 
  200.8750    62.9440    24.3980    18.5380    25.4930    29.7550     2.6740   -19.2440 
  201.0000    62.9740    24.4360    21.8110    24.7040    28.8360     2.6900   -18.2980 
  201.1250    61.1010    24.4680    26.1340    23.2360    26.8910     2.7080   -17.4600 
  201.2500    58.4140    24.4810    25.8410    19.9170    23.0810     2.7120   -16.7430 
  201.3750    55.9600    24.4720    20.2810    15.4310    18.0260     2.6880   -16.1640 
  201.5000    56.7800    24.5040    12.7510    11.2190    13.0630     2.6340   -15.6660 
  201.6250    57.8980    24.6430     7.9610     8.3260     9.5190     2.5690   -15.2720 
  201.7500    55.5030    24.7960     5.8760     6.5610     7.4060     2.5140   -14.9590 
  201.8750    52.6490    24.7150     5.5240     5.6570     6.4220     2.4740   -14.7120 
  202.0000    52.1850    24.6070     5.6130     5.3530     6.1790     2.4470   -14.5100 
  202.1250    52.6500    24.7360     5.6430     5.4330     6.3400     2.4300   -14.3060 
  202.2500    53.2120    24.9510     5.6640     5.5840     6.5430     2.4230   -14.0920 
  202.3750    55.1370    25.0670     5.7560     5.6590     6.6490     2.4250   -13.8450 
  202.5000    56.4970    24.9140     5.8280     5.6300     6.6550     2.4250   -13.6110 
  202.6250    56.8770    24.7560     5.6820     5.5780     6.6650     2.4130   -13.4560 
  202.7500    58.7130    24.6790     5.3980     5.6020     6.7780     2.3970   -13.3540 
  202.8750    60.7870    24.6150     5.3150     5.7380     7.0100     2.3900   -13.2940 
  203.0000    61.0330    24.5320     5.6560     5.9650     7.2980     2.3970   -13.2410 
  203.1250    60.5260    24.4130     6.3020     6.1960     7.5250     2.4120   -13.1750 
  203.2500    59.9810    24.2470     6.8330     6.3330     7.6300     2.4270   -13.0930 
  203.3750    57.0010    24.0930     6.9530     6.3360     7.6200     2.4390   -13.0350 
  203.5000    52.9420    24.0550     6.6940     6.2380     7.5640     2.4480   -13.0390 
  203.6250    51.4810    24.2010     6.4780     6.1320     7.5670     2.4490   -13.0930 
