~V
VERS. 2.00: Ver 2.00
~W
STRT.M 120.0000:
STOP.M 271.0000:
STEP.M 0.1250:
NULL. -999.2500:
UWI. DF3037:
~C
DEPT.M :
GR.API :
RML.OHMM :
RI. :
RXO.OHMM :
CALI.CM :
SP.MV :
DEN.GM/CC :
AC.US/MT :
~A
# ...
  200.0000    97.4220    13.2680    11.1390    11.7810    23.3800   -24.6940     2.4830   407.7110 
  200.1250    98.9570    12.6530    10.5170    11.7750    23.6480   -24.1660     2.4010   415.4880 
  200.2500   103.8910    11.8900     9.8140    11.1840    24.2700   -23.6320     2.2710   427.5200 
  200.3750   105.8180    11.0600     9.1010    10.0730    25.6180   -23.1070     2.1210   443.1540 
  200.5000   101.2890    10.3560     8.5200     8.5070    28.0530   -22.6120     1.9900   457.5360 
  200.6250    93.5680    10.0930     8.3050     7.2620    30.5390   -22.1380     1.9250   461.1540 
  200.7500    90.0420    10.3560     8.5210     6.4940    30.7620   -21.7240     1.9340   450.8300 
  200.8750    92.5190    11.0970     9.1510     6.4700    28.9500   -21.3520     2.0100   429.0190 
  201.0000    99.1100    12.1010    10.0430     7.1320    26.5280   -20.9890     2.1250   403.4610 
  201.1250   104.1470    12.9380    10.8600     8.2860    24.8030   -20.6530     2.2240   385.0720 
  201.2500   102.6890    13.2190    11.2340     9.4920    23.6080   -20.3050     2.2730   377.5230 
  201.3750    94.9900    12.7570    10.9620     9.7460    22.7580   -19.9800     2.2680   379.0310 
  201.5000    85.9880    11.6440    10.0820     8.6060    21.9860   -19.6340     2.2200   385.5600 
  201.6250    79.3440    10.2350     8.8720     6.9560    21.6730   -19.3180     2.1440   394.2540 
  201.7500    71.8200     9.0120     7.7640     5.5790    22.1430   -19.0110     2.0670   403.9930 
  201.8750    62.1390     8.2000     6.9630     4.8070    23.1550   -18.7500     2.0090   414.3900 
  202.0000    54.1650     7.8290     6.5220     4.5030    23.9860   -18.5660     1.9890   423.5590 
  202.1250    52.7260     7.8360     6.4320     4.4350    24.0740   -18.3870     2.0220   427.5820 
  202.2500    54.5960     7.9960     6.5330     4.5800    23.3950   -18.3030     2.0860   425.9690 
  202.3750    57.2910     8.1820     6.7260     4.7710    22.3350   -18.2100     2.1580   420.9450 
  202.5000    61.2380     8.3160     6.9350     4.8980    21.2850   -18.1810     2.2150   416.1760 
  202.6250    68.4960     8.3730     7.1070     4.9630    20.6700   -18.1490     2.2460   414.3270 
  202.7500    76.7810     8.4040     7.2450     5.0360    20.5200   -18.1570     2.2660   413.8140 
  202.8750    82.9610     8.4450     7.3610     5.2380    20.7390   -18.1320     2.2880   412.2490 
  203.0000    86.4100     8.5060     7.4600     5.5290    21.1480   -18.1200     2.3200   408.3360 
  203.1250    87.9940     8.5570     7.5230     5.6520    21.5600   -18.1000     2.3600   402.8010 
  203.2500    87.7570     8.5560     7.5280     5.5040    21.8740   -18.0710     2.3960   397.7870 
  203.3750    85.0550     8.4770     7.4570     5.3800    21.9670   -18.0560     2.4200   394.2220 
  203.5000    82.9470     8.3190     7.3100     5.5270    21.8030   -18.0220     2.4290   392.1930 
  203.6250    83.5460     8.1080     7.1080     5.9100    21.4980   -17.9960     2.4250   391.6410 
  203.7500    85.7130     7.9110     6.9120     6.1980    21.3480   -17.9520     2.4140   392.1550 
  203.8750    89.4560     7.7820     6.7750     6.3510    21.5310   -17.9540     2.4010   393.3960 
  204.0000    93.8280     7.7690     6.7430     6.4270    21.7900   -17.9310     2.3910   394.7310 
  204.1250    97.4360     7.9300     6.8770     6.5640    22.0060   -17.9770     2.3870   395.2650 
  204.2500   100.7400     8.2430     7.1620     6.9270    22.1930   -18.0250     2.3880   394.8420 
  204.3750   104.6490     8.6780     7.5820     7.4350    22.4850   -18.1020     2.3900   393.8440 
  204.5000   107.3990     9.1790     8.0940     8.0220    22.9370   -18.1990     2.3930   392.7900 
  204.6250   105.4930     9.6690     8.6300     8.7770    23.3160   -18.2970     2.3960   391.9870 
  204.7500   100.6850    10.0830     9.1130     9.7020    23.4850   -18.3730     2.4020   391.3400 
  204.8750    96.2060    10.3920     9.4990    10.5720    23.5220   -18.4220     2.4130   390.7930 
  205.0000    93.6040    10.5940     9.7770    11.2350    23.5350   -18.4560     2.4280   390.4210 
  205.1250    92.0960    10.7080     9.9610    11.3930    23.5970   -18.3640     2.4400   390.2400 
  205.2500    90.2450    10.8150    10.1220    11.8020    23.7170   -18.2480     2.4430   389.9440 
  205.3750    90.3960    11.0120    10.3370    12.4560    23.8420   -18.0410     2.4400   388.9930 
  205.5000    93.6930    11.3030    10.7140    13.3230    23.9210   -17.8090     2.4360   386.6450 
  205.6250    95.4110    12.0370    11.4900    14.4490    23.9840   -17.4690     2.4390   381.6700 
  205.7500    92.5630    13.4910    12.8800    15.9290    24.0290   -17.1650     2.4510   374.0010 
  205.8750    86.8500    16.3730    15.2290    18.3160    24.0690   -16.7880     2.4660   364.2430 
  206.0000    81.1700    20.9550    18.9520    22.9250    24.0920   -16.4540     2.4740   354.2450 
  206.1250    76.4940    28.6530    24.7540    31.7890    24.1040   -16.1060     2.4620   347.6170 
  206.2500    73.5060    38.5430    32.4350    42.1960    24.0910   -15.7640     2.4310   346.6310 
  206.3750    72.9420    49.0690    41.6160    51.8610    24.1230   -15.4450     2.3880   351.9990 
  206.5000    73.1030    59.2840    51.4310    65.3500    24.2450   -15.1420     2.3440   362.4460 
  206.6250    71.3620    68.1870    60.3070    75.9550    24.5010   -14.8750     2.3090   375.2400 
  206.7500    70.2550    74.5600    66.9030    82.2310    24.6340   -14.5740     2.2850   386.8870 
  206.8750    70.4400    77.2490    70.2120    80.5620    24.6860   -14.2920     2.2710   395.6430 
  207.0000    71.4350    76.1470    69.6240    80.2260    24.6960   -13.9760     2.2640   400.9530 
  207.1250    71.1390    70.4790    64.6450    76.1680    24.6960   -13.6340     2.2640   402.8710 
  207.2500    70.3920    63.1690    57.1880    70.7130    24.6960   -13.3110     2.2700   402.9480 
  207.3750    71.0940    55.9260    49.1380    63.9570    24.6960   -12.9640     2.2810   402.0140 
  207.5000    72.9240    48.7530    42.3420    53.9440    24.6960   -12.6210     2.2940   400.5820 
  207.6250    74.9160    45.0750    38.6500    41.1330    24.6980   -12.2790     2.3030   398.8900 
  207.7500    76.6340    45.3570    38.3330    34.0920    24.7130   -11.9010     2.3060   397.1170 
  207.8750    78.3730    49.7900    41.7220    36.3620    24.7530   -11.5130     2.3010   395.4080 
  208.0000    79.0930    58.5280    49.0450    45.2370    24.7950   -11.1380     2.2920   393.8580 
  208.1250    77.5270    72.2180    60.9380    56.4950    24.8410   -10.7470     2.2830   392.3760 
  208.2500    74.4110    89.3900    76.0370    69.9250    24.8590   -10.3290     2.2760   390.8860 
  208.3750    70.6350   108.4310    92.8190    92.9780    24.8650    -9.8830     2.2690   389.6850 
  208.5000    66.1800   126.9830   109.0860   120.8010    24.8670    -9.4350     2.2620   389.4520 
  208.6250    65.2470   141.7340   121.8210   135.4160    24.8920    -8.9950     2.2540   391.1280 
  208.7500    69.2660   151.5290   130.0470   126.9860    24.9490    -8.5890     2.2450   394.3700 
  208.8750    74.4800   156.5150   133.9220   125.3480    25.0110    -8.2160     2.2360   398.4290 
  209.0000    75.7850   158.3280   134.8640   132.8420    25.0430    -7.8420     2.2280   402.3900 
  209.1250    71.9600   159.6080   135.0960   134.7860    25.0480    -7.5560     2.2200   405.5900 
  209.2500    68.8600   162.4980   136.5580   129.3280    25.0480    -7.2650     2.2130   408.2350 
  209.3750    67.1750   167.6830   139.9500   125.0790    25.0480    -7.0740     2.2090   410.6090 
  209.5000    64.6950   174.9880   145.2700   126.1110    25.0480    -6.9020     2.2090   412.8040 
  209.6250    62.7580   183.4850   151.9750   132.3720    25.0480    -6.7630     2.2110   414.5870 
  209.7500    63.7470   191.2620   158.5480   138.3680    25.0480    -6.6520     2.2130   415.8910 
  209.8750    67.4000   196.8340   163.7490   139.3720    25.0480    -6.5080     2.2130   416.8050 
