~V
VERS. 2.00: Ver 2.00
~W
STRT.M 125.0000:
STOP.M 275.0000:
STEP.M 0.1250:
NULL. -999.2500:
UWI. DF3074:
~C
DEPT.M :
GR.API :
CALI.CM :
RXO.OHMM :
RI. :
RML.OHMM :
DEN.GM/CC :
SP.MV :
~A
# ...
  181.2500    74.8150    25.9020    69.8810    93.8980   102.1520     2.2900   -21.6780 
  181.3750    73.9570    25.8770    68.5630    92.9980   101.3670     2.2830   -21.6200 
  181.5000    75.9180    25.8440    66.8620    92.9920   101.8430     2.2820   -21.6090 
  181.6250    78.6640    25.8330    65.1170    96.0880   105.9960     2.2800   -21.6310 
  181.7500    79.9920    25.8050    66.9350   103.4250   114.9530     2.2770   -21.7180 
  181.8750    79.9360    25.7690    81.7900   115.9370   129.8230     2.2710   -21.7730 
  182.0000    77.8950    25.7360   121.2040   133.5380   150.9040     2.2590   -21.8280 
  182.1250    73.3340    25.7190   165.9260   154.2950   176.7090     2.2390   -21.9230 
  182.2500    68.0210    25.7150   182.5570   173.1650   200.9000     2.2180   -22.0190 
  182.3750    65.1920    25.7090   173.5690   185.9560   217.2760     2.2080   -22.0750 
  182.5000    63.7240    25.6660   161.5380   190.7420   222.7470     2.2130   -22.0620 
  182.6250    61.3920    25.5960   148.6170   188.3490   218.7920     2.2320   -22.1560 
  182.7500    59.1110    25.5180   131.1320   183.6070   212.0800     2.2480   -22.1980 
  182.8750    59.1090    25.4320   122.1540   178.8350   205.4000     2.2520   -22.3550 
  183.0000    62.8120    25.3680   125.7440   174.5510   199.1830     2.2450   -22.5020 
  183.1250    66.9970    25.3460   131.8060   170.1510   192.6810     2.2400   -22.6440 
  183.2500    69.5860    25.3450   131.9350   165.0250   185.3690     2.2460   -22.8310 
  183.3750    72.7980    25.3390   127.7760   158.7880   176.9520     2.2560   -23.0560 
  183.5000    76.6060    25.3200   120.6070   151.0450   166.9970     2.2600   -23.3290 
  183.6250    76.2750    25.2760   109.3500   141.0940   154.6570     2.2570   -23.4830 
  183.7500    72.8740    25.2260    97.8840   129.2940   140.4060     2.2600   -23.6880 
  183.8750    70.8440    25.1880    88.8220   116.4170   125.3320     2.2690   -23.7720 
  184.0000    72.1570    25.1540    80.3840   103.8680   111.1350     2.2760   -23.8490 
  184.1250    72.8750    25.1380    71.0620    93.7050   100.0210     2.2830   -23.8650 
  184.2500    73.0020    25.1260    60.2300    86.6700    92.4720     2.2970   -23.8490 
  184.3750    74.9680    25.1080    56.6750    82.9350    88.5200     2.3150   -23.7830 
  184.5000    78.1480    25.1010    64.7000    82.1680    87.7340     2.3250   -23.7090 
  184.6250    77.2890    25.1330    84.5380    83.9220    89.5760     2.3220   -23.6220 
  184.7500    73.5280    25.2080   102.8220    86.6550    92.3890     2.3120   -23.5010 
  184.8750    71.6940    25.2330   117.2430    89.1780    94.9110     2.2990   -23.4240 
  185.0000    74.4930    25.2160   128.8190    90.5210    96.1420     2.2860   -23.3290 
  185.1250    77.5440    25.1740   126.8790    89.9710    95.4080     2.2800   -23.2520 
  185.2500    77.0570    25.1630   110.8980    88.0500    93.3310     2.2810   -23.1790 
  185.3750    74.9130    25.2000    90.9170    85.3540    90.5810     2.2860   -23.1280 
  185.5000    74.5520    25.2850    77.3920    82.5490    87.8670     2.2930   -22.9770 
  185.6250    77.1720    25.3990    69.1900    80.3200    85.9090     2.3030   -22.9280 
  185.7500    78.8740    25.5270    63.5230    78.9410    84.9500     2.3120   -22.8570 
  185.8750    78.4980    25.6240    60.8820    78.5280    85.0680     2.3110   -22.7910 
  186.0000    77.4490    25.6710    61.0680    79.0210    86.1390     2.2970   -22.7650 
  186.1250    76.4760    25.7000    63.8250    80.3040    87.9420     2.2780   -22.6720 
  186.2500    75.3660    25.7210    68.0300    81.9910    90.0330     2.2660   -22.6220 
  186.3750    74.1400    25.6960    74.1080    83.8930    92.2290     2.2590   -22.5350 
  186.5000    74.1210    25.5920    81.4420    85.9060    94.4960     2.2450   -22.5310 
  186.6250    75.7580    25.4150    89.6090    88.0400    96.9700     2.2210   -22.4470 
  186.7500    76.8400    25.2920    96.7770    90.3630    99.7940     2.2090   -22.3740 
  186.8750    76.7260    25.2580    99.8930    92.9600   103.0690     2.2240   -22.2780 
  187.0000    77.1990    25.3150    97.3670    95.8690   106.7930     2.2610   -22.1650 
  187.1250    79.5180    25.3970    93.7850    99.0200   110.8350     2.2930   -22.0550 
  187.2500    79.7370    25.4840    93.2590   102.0260   114.6820     2.3030   -21.9050 
  187.3750    76.6640    25.5750    96.3010   104.3910   117.7050     2.2930   -21.7720 
  187.5000    74.3230    25.6510   100.5090   105.6840   119.3520     2.2720   -21.6530 
  187.6250    74.8470    25.6910   102.2490   105.6280   119.2510     2.2520   -21.5340 
  187.7500    75.5810    25.7240    99.2700   104.8040   118.1240     2.2420   -21.4840 
  187.8750    75.1770    25.7310    92.3620   103.8090   116.7290     2.2400   -21.4620 
  188.0000    74.8090    25.7270    86.6440   103.3070   115.9160     2.2400   -21.3890 
  188.1250    75.8980    25.7040    89.2220   104.0940   116.6860     2.2330   -21.4150 
  188.2500    75.5620    25.6940    98.0710   106.0620   118.9060     2.2230   -21.3890 
  188.3750    72.1660    25.6760   106.0750   108.2490   121.3430     2.2170   -21.3800 
  188.5000    68.0020    25.6570   110.5910   108.4720   121.1980     2.2180   -21.3160 
  188.6250    67.0510    25.6520   113.4590   103.1530   114.0280     2.2250   -21.2770 
  188.7500    67.4960    25.6770   108.9220    92.5460   100.6660     2.2330   -21.1370 
  188.8750    67.4780    25.6970    87.0390    79.0520    84.5660     2.2430   -20.9680 
  189.0000    68.7100    25.6730    55.6650    66.0360    69.7300     2.2570   -20.8470 
  189.1250    72.3530    25.6300    38.1720    56.5420    59.2540     2.2750   -20.6570 
  189.2500    75.0120    25.6250    32.4670    50.6800    52.8600     2.2950   -20.5510 
  189.3750    76.7240    25.6470    33.1450    47.9730    49.9320     2.3080   -20.4560 
  189.5000    79.4980    25.6580    35.1110    47.7430    49.6810     2.3090   -20.4520 
  189.6250    80.5520    25.6810    36.0610    49.5560    51.5280     2.3020   -20.4450 
  189.7500    77.7730    25.7160    36.4540    52.3770    54.3220     2.2940   -20.5220 
  189.8750    75.5660    25.7580    37.3250    55.5150    57.3750     2.2830   -20.6150 
  190.0000    77.8040    25.7910    39.5220    58.3450    60.1030     2.2670   -20.7300 
  190.1250    82.7230    25.7980    42.5360    59.9530    61.5810     2.2530   -20.8970 
  190.2500    85.8350    25.7980    44.0820    59.6470    61.0680     2.2500   -21.0120 
  190.3750    86.6660    25.7850    43.1940    56.9990    58.1270     2.2580   -21.1110 
  190.5000    85.5130    25.7450    41.0120    52.3890    53.2040     2.2710   -21.1690 
  190.6250    82.9340    25.7040    36.3440    47.0440    47.6510     2.2860   -21.2480 
  190.7500    81.3120    25.6940    29.6340    42.5760    43.1590     2.3010   -21.2760 
  190.8750    81.3470    25.7090    24.1100    39.9270    40.7230     2.3120   -21.3090 
  191.0000    81.7450    25.7160    22.9930    39.5540    40.8080     2.3130   -21.3380 
  191.1250    83.6740    25.7110    27.0210    41.8620    43.7790     2.3040   -21.3690 
  191.2500    86.9190    25.7100    33.1440    46.0410    48.6520     2.2950   -21.4290 
  191.3750    88.7680    25.6780    41.9940    51.0980    54.2430     2.2890   -21.5230 
  191.5000    87.7560    25.6330    49.9050    55.4250    58.7660     2.2880   -21.5720 
  191.6250    85.2200    25.6110    49.8020    57.0820    60.1690     2.2920   -21.6690 
  191.7500    83.0610    25.6030    44.5370    56.4160    59.0510     2.2970   -21.7550 
  191.8750    82.0740    25.6050    37.6470    54.5790    56.8420     2.2990   -21.8250 
  192.0000    82.6150    25.6100    31.8890    52.8940    55.1040     2.2970   -21.9380 
  192.1250    84.0880    25.6290    32.8850    52.6270    55.2800     2.2930   -22.0510 
  192.2500    84.8200    25.6500    40.2260    53.8860    57.3340     2.2880   -22.2160 
  192.3750    84.7140    25.6330    45.7660    56.2570    60.6860     2.2860   -22.3530 
