~V
VERS. 2.00: Ver 2.00
~W
STRT.M 60.0000:
STOP.M 275.0000:
STEP.M 0.1250:
NULL. -999.2500:
UWI. DF3003:
~C
DEPT.M :
DEN.GM/CC :
SP.MV :
AC.US/MT :
GR.API :
RML.OHMM :
RI. :
RXO.OHMM :
CALI.CM :
~A
# ...
  260.0000     2.4880    -7.0940   253.5840    68.1620    15.9430    15.1600    14.5080    24.8600 
  260.1250     2.5010    -7.0350   254.4110    66.3740    16.0200    15.2530    15.1230    24.8080 
  260.2500     2.5000    -6.9730   258.1660    65.9670    16.0470    15.2900    14.5830    24.7220 
  260.3750     2.4830    -6.8280   262.5500    66.5130    16.0100    15.2540    13.5900    24.6370 
  260.5000     2.4540    -6.6610   266.1440    66.1540    15.9200    15.1590    12.8170    24.5760 
  260.6250     2.4280    -6.6300   267.8560    65.3950    15.7890    15.0390    12.4010    24.4910 
  260.7500     2.4170    -6.6250   267.8750    64.7400    15.7030    14.9290    12.0090    24.4510 
  260.8750     2.4230    -6.6070   266.9950    63.7130    15.6440    14.8410    11.6140    24.3640 
  261.0000     2.4410    -6.6010   266.3470    62.5930    15.5910    14.7710    11.4040    24.3180 
  261.1250     2.4570    -6.6220   266.8990    63.2590    15.5000    14.7070    11.5560    24.2430 
  261.2500     2.4600    -6.6650   268.0670    64.9910    15.3860    14.6380    11.8730    24.1340 
  261.3750     2.4520    -6.7490   268.5330    66.4850    15.3080    14.5750    12.2770    24.0560 
  261.5000     2.4400    -6.8210   266.9060    66.4590    15.3170    14.5360    12.5840    24.0620 
  261.6250     2.4360    -6.8230   263.0080    65.3620    15.3990    14.5540    12.2800    24.1620 
  261.7500     2.4440    -6.8240   259.3800    64.3620    15.5640    14.6360    12.0220    24.2940 
  261.8750     2.4590    -6.8720   257.9570    65.0760    15.8140    14.7870    12.1070    24.4020 
  262.0000     2.4720    -6.9800   258.5120    66.6540    16.1300    15.0060    12.3940    24.5720 
  262.1250     2.4740    -7.1010   258.4860    66.8030    16.4950    15.3080    12.4720    24.7060 
  262.2500     2.4670    -7.2000   256.0400    65.6300    16.8870    15.6850    12.3320    24.7970 
  262.3750     2.4590    -7.3410   251.8010    64.6470    17.2950    16.1250    12.4690    24.8680 
  262.5000     2.4570    -7.5540   247.4190    64.5870    17.6940    16.5940    13.5370    24.8950 
  262.6250     2.4650    -7.8170   243.8950    65.4560    18.0290    17.0180    15.7300    24.9000 
  262.7500     2.4760    -8.0030   241.1240    67.0710    18.2560    17.3370    17.8230    24.9000 
  262.8750     2.4850    -8.0750   239.4210    68.5750    18.3590    17.5210    19.1310    24.9000 
  263.0000     2.4870    -8.0000   239.1600    67.5270    18.3580    17.5850    19.5620    24.9020 
  263.1250     2.4850    -7.7760   239.9290    64.5950    18.3050    17.5800    19.5200    24.9120 
  263.2500     2.4840    -7.5270   240.3460    63.7210    18.2670    17.5840    19.3400    24.9340 
  263.3750     2.4860    -7.2970   239.6260    63.9970    18.2640    17.6210    18.9980    24.9740 
  263.5000     2.4910    -7.0850   237.7990    63.1900    18.2780    17.6700    18.6100    25.0600 
  263.6250     2.4940    -6.9100   236.1770    63.0150    18.2370    17.6470    18.4410    25.0980 
  263.7500     2.4860    -6.8080   236.7170    63.0150    18.0720    17.4830    18.2360    25.0260 
  263.8750     2.4660    -6.8060   240.8600    63.0150    17.7590    17.1540    17.9800    24.8600 
  264.0000     2.4370    -6.9150   248.0110    63.0150    17.3390    16.7070    17.7740    24.5720 
  264.1250     2.4150    -7.1060   254.3190    63.0150    16.9460    16.2690    17.4480    24.3460 
  264.2500     2.4100    -7.2690   255.9800    63.0150    16.7290    15.9860    17.1520    24.3330 
  264.3750     2.4250    -7.3180   252.2490    63.0150    16.7710    15.9540    17.0630    24.2900 
  264.5000     2.4520    -7.3180   245.4140    63.0150    17.0820    16.2030    17.3700    24.2020 
  264.6250     2.4790    -7.2510   239.1000    63.0150    17.6200    16.7200    17.4370    24.0290 
  264.7500     2.4950    -7.1380   235.3490    63.0150    18.2240    17.3470    17.1820    23.8220 
  264.8750     2.5020    -7.0390   234.6440    63.0150    18.7750    17.9600    17.2820    23.7510 
  265.0000     2.5020    -6.9640   236.8370    63.0150    19.2010    18.4620    17.3440    23.8670 
  265.1250     2.4990    -6.8940   240.6920    63.0150    19.4790    18.7960    16.8760    23.9880 
  265.2500     2.4940    -6.9040   243.2310    63.0150    19.6860    19.0250    16.3500    24.0850 
  265.3750     2.4870    -7.0320   243.1740    63.0150    19.8730    19.2130    16.0520    24.1740 
  265.5000     2.4760    -7.1850   240.3340    63.0150    20.0660    19.4110    16.1890    24.2060 
  265.6250     2.4660    -7.3810   235.2320    63.0150    20.2610    19.6460    16.4380    24.1680 
  265.7500     2.4590    -7.6060   232.1460    63.0150    20.4500    19.9000    16.5350    24.1020 
  265.8750     2.4580    -7.7750   232.8770    63.0150    20.6340    20.1560    16.7460    24.0280 
  266.0000     2.4620    -7.9170   235.2250    63.0150    20.8230    20.4020    17.2220    23.9280 
  266.1250     2.4720    -8.0910   235.5310    63.0150    21.0170    20.6350    17.8580    23.7960 
  266.2500     2.4830    -8.1010   234.6970    63.0150    21.1970    20.8630    18.2770    23.6570 
  266.3750     2.4940    -8.0460   234.4140    63.0150    21.3410    21.0830    18.3030    23.5730 
  266.5000     2.4990    -8.0220   233.6450    63.0150    21.4330    21.2800    18.3380    23.5560 
  266.6250     2.4940    -8.0200   231.4620    63.0150    21.4680    21.4240    18.4680    23.5910 
  266.7500     2.4820    -8.0370   227.9100    63.0150    21.4710    21.5130    18.6650    23.6690 
  266.8750     2.4670    -8.1230   223.8400    63.0150    21.4560    21.5540    19.0200    23.8210 
  267.0000     2.4560    -8.2480   221.3620    63.0150    21.4380    21.5660    19.6950    24.0470 
  267.1250     2.4540    -8.2660   222.1190    63.0150    21.4320    21.5660    20.2200    24.2240 
  267.2500     2.4570    -8.3640   224.5300    63.0150    21.4420    21.5660    20.4030    24.2900 
  267.3750     2.4620    -8.4110   227.1390    63.0150    21.4610    21.5680    20.5080    24.3020 
  267.5000     2.4660    -8.3580   229.7080    63.0150    21.4740    21.5700    20.7650    24.3020 
  267.6250     2.4700    -8.2360   232.5980    63.0150    21.4670    21.5690    21.2130    24.3030 
  267.7500     2.4730    -8.0530   235.3690    63.0150    21.4470    21.5630    21.3680    24.3040 
  267.8750     2.4750    -7.8060   237.3150    63.0150    21.4310    21.5570    21.2050    24.3030 
  268.0000     2.4760    -7.4980   238.3860    63.0150    21.4360    21.5550    20.7970    24.2980 
  268.1250     2.4780    -7.2580   239.8750    63.0150    21.4630    21.5590    20.3620    24.2810 
  268.2500     2.4840    -7.0500   242.8210    63.0150    21.4890    21.5680    19.9880    24.2550 
  268.3750     2.4940    -6.9280   247.5860    63.0150    21.4930    21.5770    20.0450    24.2290 
  268.5000     2.5060    -6.9430   251.4860    63.0150    21.4690    21.5840    20.5520    24.2050 
  268.6250     2.5150    -6.9800   246.9440    63.0150    21.4310    21.5850    21.3690    24.1730 
  268.7500     2.5180    -7.0650   235.5390    63.0150    21.4030    21.5820    22.2240    24.1610 
  268.8750     2.5180    -7.1600   225.5920    63.0150    21.3960    21.5780    22.3930    24.1630 
  269.0000     2.5190    -7.2730   223.8860    63.0150    21.4080    21.5750    21.3730    24.1710 
  269.1250     2.5240    -7.3970   230.3650    63.0150    21.4250    21.5740    21.0890    24.1800 
  269.2500     2.5330    -7.5630   239.2020    63.0150    21.4360    21.5770    22.2700    24.1770 
  269.3750     2.5410    -7.6610   248.3030    63.0150    21.4390    21.5820    24.4900    24.1750 
  269.5000     2.5430    -7.6030   256.3180    63.0150    21.4390    21.5860    26.6380    24.1750 
  269.6250     2.5340    -7.6050   260.0340    63.0150    21.4380    21.5870    27.2280    24.1780 
  269.7500     2.5190    -7.5730   257.8460    63.0150    21.4380    21.5870    25.9840    24.1820 
  269.8750     2.5010    -7.6140   249.6870    63.0150    21.4380    21.5870    23.8570    24.1840 
