~V
VERS. 2.00: Ver 2.00
~W
STRT.M 64.0000:
STOP.M 268.0000:
STEP.M 0.1250:
NULL. -999.2500:
UWI. DF3073:
~C
DEPT.M :
SP.MV :
GR.API :
CALI.CM :
RXO.OHMM :
RI. :
RML.OHMM :
DEN.GM/CC :
~A
# ...
  154.0000   -19.5870    68.7590    24.8060    13.1020    16.9850    17.9780     2.4610 
  154.1250   -19.4830    69.9520    24.7590    13.3110    17.3270    18.4620     2.5350 
  154.2500   -19.4130    72.1270    24.7090    15.9290    18.1590    19.5800     2.5630 
  154.3750   -19.3160    70.9280    24.6190    16.9570    19.2820    20.9840     2.5650 
  154.5000   -19.1910    66.8920    24.7050    17.0190    20.5140    22.4120     2.5700 
  154.6250   -19.0370    64.4300    24.7430    17.1860    21.6040    23.5630     2.5900 
  154.7500   -18.8920    64.4320    24.6750    17.5310    22.2810    24.2130     2.6070 
  154.8750   -18.8110    63.8500    24.7260    17.9540    22.4310    24.3100     2.6120 
  155.0000   -18.8060    61.8200    24.8560    17.8130    22.2920    24.1150     2.6060 
  155.1250   -18.8490    61.0680    24.8220    17.5330    22.1220    23.9390     2.6000 
  155.2500   -18.8730    62.7170    24.8440    17.5170    21.9750    23.8340     2.6040 
  155.3750   -18.8520    63.8730    24.8790    18.1390    21.8790    23.8270     2.6200 
  155.5000   -18.7820    62.4190    24.9110    19.9600    21.7920    23.8570     2.6330 
  155.6250   -18.7740    60.4260    24.9210    19.9750    21.7020    23.8930     2.6270 
  155.7500   -18.8430    60.1250    24.9090    18.5930    21.6500    23.9510     2.6070 
  155.8750   -18.9340    60.9850    24.9390    17.1820    21.6460    24.0460     2.5900 
  156.0000   -18.9920    62.6210    24.9250    17.2100    21.7000    24.2030     2.5840 
  156.1250   -19.0440    64.8280    24.9370    17.5230    21.8530    24.4550     2.5830 
  156.2500   -19.0960    65.7100    24.9000    18.0550    22.1100    24.8060     2.5820 
  156.3750   -19.1520    62.6830    24.8990    18.8250    22.4140    25.2020     2.5860 
  156.5000   -19.2580    57.4090    24.9040    19.1330    22.6790    25.5430     2.5900 
  156.6250   -19.3830    55.5870    24.9220    18.9680    22.7520    25.6420     2.5820 
  156.7500   -19.4320    56.3760    24.9280    18.1710    22.5690    25.4400     2.5650 
  156.8750   -19.4390    57.6730    24.9160    17.9690    22.1370    24.9370     2.5570 
  157.0000   -19.4470    57.8490    24.8970    18.7130    21.4340    24.0960     2.5690 
  157.1250   -19.4360    56.9030    24.9150    18.5250    20.4420    22.8860     2.5890 
  157.2500   -19.4590    55.5110    24.9260    16.6730    19.3110    21.4890     2.6000 
  157.3750   -19.4960    55.9150    24.9100    14.7610    18.1780    20.0840     2.6030 
  157.5000   -19.5020    60.4750    24.9320    14.3940    17.1780    18.8550     2.6010 
  157.6250   -19.4850    64.6120    24.9020    14.4010    16.4470    17.9940     2.5930 
  157.7500   -19.5050    64.0690    24.8940    13.7700    15.9970    17.5130     2.5860 
  157.8750   -19.5380    61.9530    24.8930    12.7810    15.8330    17.4250     2.5880 
  158.0000   -19.5690    60.5630    24.8480    12.2310    15.9380    17.6900     2.6040 
  158.1250   -19.6220    59.3190    24.8900    13.2330    16.2230    18.1460     2.6200 
  158.2500   -19.6760    56.9740    24.8930    14.5640    16.4910    18.5210     2.6170 
  158.3750   -19.7610    55.0750    24.8990    15.0470    16.6530    18.7220     2.5940 
  158.5000   -19.9040    55.7550    24.8850    14.3320    16.6720    18.7190     2.5680 
  158.6250   -20.0780    59.4840    24.8730    13.1930    16.4870    18.4250     2.5570 
  158.7500   -20.2370    63.2280    24.8460    13.1630    16.1450    17.9470     2.5630 
  158.8750   -20.3820    64.2000    24.8850    13.1980    15.7290    17.3840     2.5760 
  159.0000   -20.5330    62.7380    24.9010    13.0020    15.3200    16.8430     2.5890 
  159.1250   -20.6410    62.9300    24.9090    12.7700    14.9960    16.4590     2.5920 
  159.2500   -20.7280    66.3390    24.9020    13.0570    14.7820    16.2390     2.5850 
  159.3750   -20.8190    70.3190    24.9040    12.7760    14.6820    16.1560     2.5620 
  159.5000   -20.9170    70.5800    24.9060    11.9580    14.6670    16.1690     2.5270 
  159.6250   -21.0240    65.9190    24.9260    11.2160    14.7380    16.3020     2.4990 
  159.7500   -21.1300    61.1490    24.8830    11.6750    14.8830    16.5020     2.4880 
  159.8750   -21.2280    58.5710    24.8790    12.4480    15.0730    16.7280     2.4900 
  160.0000   -21.3130    57.6690    24.7770    12.6660    15.2750    16.9560     2.4950 
  160.1250   -21.4480    57.4450    24.9010    12.7760    15.4740    17.1750     2.4940 
  160.2500   -21.6340    57.6970    24.9320    12.3680    15.6690    17.3840     2.4860 
  160.3750   -21.7970    59.1010    24.9440    11.9480    15.8130    17.5280     2.4730 
  160.5000   -21.9050    62.3400    24.9140    12.1470    15.8950    17.5940     2.4580 
  160.6250   -22.0060    67.2080    24.9280    12.8730    15.9050    17.5260     2.4550 
  160.7500   -22.1610    71.2320    24.8670    13.1430    15.8210    17.3340     2.4720 
  160.8750   -22.3720    71.6430    24.6580    13.1140    15.6310    17.0150     2.5060 
  161.0000   -22.6370    68.3740    24.2070    12.6340    15.3970    16.6020     2.5440 
  161.1250   -22.9280    66.9040    23.9480    12.3470    15.1660    16.1820     2.5650 
  161.2500   -23.1830    68.3630    23.9090    11.9070    14.9750    15.8400     2.5650 
  161.3750   -23.4330    68.5350    23.9050    11.7330    14.9250    15.6930     2.5540 
  161.5000   -23.7170    65.8700    23.9120    11.4460    15.0630    15.7830     2.5460 
  161.6250   -23.9960    65.2700    23.9220    11.3930    15.4120    16.1240     2.5400 
  161.7500   -24.2750    68.3200    23.9270    11.6300    15.9440    16.6690     2.5310 
  161.8750   -24.5860    71.1280    23.9300    12.2420    16.6170    17.3570     2.5170 
  162.0000   -24.9370    71.4460    23.9270    13.0690    17.3080    18.0440     2.5020 
  162.1250   -25.2940    70.3830    23.9230    14.0920    17.8800    18.5790     2.4820 
  162.2500   -25.5890    71.0620    23.9210    14.3950    18.2330    18.8330     2.4640 
  162.3750   -25.8300    74.4730    23.9300    14.4610    18.2240    18.6880     2.4540 
  162.5000   -26.0960    78.3260    23.9610    14.5420    17.8130    18.1320     2.4510 
  162.6250   -26.4890    78.8380    24.2050    14.2980    17.1490    17.3090     2.4460 
  162.7500   -26.9440    78.0070    24.5350    13.4260    16.5010    16.5140     2.4330 
  162.8750   -27.4530    78.2090    24.6460    12.7130    16.0880    16.0190     2.4220 
  163.0000   -27.9560    79.4260    24.6630    12.4140    16.1070    16.1110     2.4170 
  163.1250   -28.3830    80.3610    24.6510    12.1810    16.8190    17.0980     2.4110 
  163.2500   -28.8350    79.3800    24.7230    12.8250    18.2610    18.9860     2.3980 
  163.3750   -29.3500    75.8830    25.0040    15.5390    20.5650    21.8750     2.3820 
  163.5000   -29.8960    72.2010    25.1380    19.6970    23.8080    25.7340     2.3700 
  163.6250   -30.4190    71.7870    25.1530    24.2010    28.1090    30.6070     2.3610 
  163.7500   -30.9270    71.3230    25.1430    26.8390    33.2270    36.2300     2.3460 
  163.8750   -31.3980    68.9410    25.0290    28.9410    39.0490    42.5260     2.3240 
  164.0000   -31.8240    66.8550    25.1260    32.6350    45.4480    49.4340     2.3050 
  164.1250   -32.2100    66.3390    25.1480    38.5990    52.4260    57.1180     2.2960 
  164.2500   -32.5250    64.9510    25.1500    43.7660    59.9430    65.4950     2.2920 
  164.3750   -32.7810    64.2460    25.1490    46.4040    67.8630    74.3340     2.2860 
  164.5000   -33.0250    66.8410    25.1490    49.2590    75.6680    83.1200     2.2780 
  164.6250   -33.2620    71.2520    25.1540    55.7050    82.6290    91.0860     2.2740 
  164.7500   -33.4740    75.1070    25.1620    63.7000    88.3160    97.6830     2.2770 
  164.8750   -33.6170    77.0790    25.1630    68.1920    92.6260   102.6360     2.2850 
  165.0000   -33.7090    75.8520    25.1620    67.2170    96.0930   106.5500     2.2910 
  165.1250   -33.8140    73.2380    25.1550    62.9490    99.9100   110.7740     2.2870 
