~V
VERS. 2.00: Ver 2.00
~W
STRT.M 63.0000:
STOP.M 257.0000:
STEP.M 0.1250:
NULL. -999.2500:
UWI. DF3070:
~C
DEPT.M :
DEN.GM/CC :
GR.API :
RML.OHMM :
RI. :
RXO.OHMM :
CALI.CM :
SP.MV :
~A
# ...
  164.2500     2.1880    76.1110   276.5170   223.6270   246.0980    24.2530   -23.9530 
  164.3750     2.1890    74.4670   265.0300   215.9200   225.5590    23.9820   -23.9300 
  164.5000     2.1880    71.5140   259.7730   213.3350   206.3310    23.8770   -23.8710 
  164.6250     2.1870    69.1310   260.4040   215.7730   195.2530    23.8980   -23.6910 
  164.7500     2.1860    68.7210   263.1020   220.1660   192.1400    23.8970   -23.6390 
  164.8750     2.1850    67.6360   264.0300   223.3800   196.0840    23.8530   -23.4770 
  165.0000     2.1820    65.8700   259.1720   222.0140   205.9680    23.8140   -23.3830 
  165.1250     2.1750    65.3660   244.0870   212.0440   220.2010    23.8120   -23.2990 
  165.2500     2.1660    67.0380   220.5330   194.3620   231.1800    23.8940   -23.2420 
  165.3750     2.1580    70.0710   191.7510   171.1810   230.4370    24.0580   -23.1720 
  165.5000     2.1590    73.3490   162.0480   145.9990   207.4200    24.2290   -23.0900 
  165.6250     2.1730    76.5890   135.9910   122.9290   160.5720    24.2680   -23.1250 
  165.7500     2.1970    79.0740   115.6520   104.3950   113.7410    24.1750   -23.0250 
  165.8750     2.2270    81.0560   102.4170    91.8970    79.7230    24.0400   -23.0320 
  166.0000     2.2560    82.0970    97.1930    86.3780    60.2730    23.9350   -22.9920 
  166.1250     2.2720    81.6980   101.5990    89.3810    51.4830    23.9260   -22.9080 
  166.2500     2.2720    79.8370   113.0130    98.7470    49.6360    24.0440   -22.8640 
  166.3750     2.2550    76.4100   128.3190   111.9180    56.6840    24.2340   -22.7780 
  166.5000     2.2320    73.1240   142.5430   124.6900    75.1800    24.3830   -22.7660 
  166.6250     2.2170    73.2310   148.1670   130.6390   108.0520    24.4520   -22.6850 
  166.7500     2.2190    74.9520   142.8130   127.3780   154.7570    24.5240   -22.7420 
  166.8750     2.2380    74.1480   128.3430   115.9260   188.8170    24.5650   -22.7570 
  167.0000     2.2670    71.0440   110.8490   100.6620   157.0110    24.4840   -22.8580 
  167.1250     2.2940    70.3070    97.5560    87.8120   107.9540    24.3320   -22.8820 
  167.2500     2.3100    71.4030    91.1070    80.5890    83.1360    24.2490   -22.9710 
  167.3750     2.3110    72.8770    90.6710    79.5010    71.3470    24.2280   -23.0820 
  167.5000     2.2970    73.7630    95.0240    83.4890    65.5400    24.2050   -23.2240 
  167.6250     2.2720    71.1520   100.2240    90.7020    66.3690    24.1930   -23.3790 
  167.7500     2.2470    65.8660   104.3300    97.9230    76.3620    24.2090   -23.4400 
  167.8750     2.2300    63.7780   107.7600   103.0800    97.8320    24.2360   -23.5610 
  168.0000     2.2240    68.1700   109.5540   105.1560   126.9070    24.2410   -23.5230 
  168.1250     2.2280    73.8930   108.3970   104.2710   125.6900    24.2450   -23.6050 
  168.2500     2.2370    75.6910   106.5080   102.3360   103.2120    24.3370   -23.6540 
  168.3750     2.2470    75.1620   104.8640   100.3190    91.3290    24.5890   -23.6340 
  168.5000     2.2560    74.9160   103.4320    98.3520    92.5890    24.8220   -23.6270 
  168.6250     2.2610    74.9170   101.6090    95.9790    99.4580    24.7020   -23.5950 
  168.7500     2.2570    73.5630    99.4590    93.2380   106.6780    24.3610   -23.6110 
  168.8750     2.2470    71.8240    97.8410    90.8400   112.1390    24.1250   -23.5870 
  169.0000     2.2310    71.6130    97.9890    89.8790   104.5680    24.1780   -23.6510 
  169.1250     2.2140    74.2020   101.2270    91.6220    88.5460    24.3990   -23.6650 
  169.2500     2.2000    76.2390   106.8970    95.6170    83.4150    24.5790   -23.6210 
  169.3750     2.1890    75.5810   114.0870   101.1210    88.7070    24.6960   -23.6170 
  169.5000     2.1820    73.7380   121.8850   107.3410    97.8030    24.8070   -23.5530 
  169.6250     2.1810    74.1410   130.0630   114.0510   105.2040    24.8490   -23.4920 
  169.7500     2.1860    74.7290   139.4240   121.8070   113.4960    24.8070   -23.4160 
  169.8750     2.1950    73.0400   151.4980   131.8100   120.8460    24.7840   -23.3310 
  170.0000     2.2050    70.8460   167.5650   145.0940   127.1810    24.8630   -23.2540 
  170.1250     2.2120    71.9080   187.5520   161.6920   145.2370    24.8920   -23.1430 
  170.2500     2.2140    72.6860   207.1380   178.2430   176.5430    24.7800   -23.0860 
  170.3750     2.2110    71.0570   220.7650   190.4410   203.1880    24.6550   -22.9930 
  170.5000     2.2050    68.9340   222.6630   193.7250   207.5000    24.5990   -22.9190 
  170.6250     2.1970    69.1460   207.2000   183.2500   204.9730    24.5600   -22.8270 
  170.7500     2.1900    70.0910   179.9700   162.5410   201.7700    24.6220   -22.7540 
  170.8750     2.1830    70.2920   148.0030   136.4340   189.1130    24.7740   -22.6620 
  171.0000     2.1810    71.8790   118.2480   110.4820   163.5250    24.8100   -22.6070 
  171.1250     2.1840    75.3350    96.1940    89.8740   123.6140    24.5740   -22.5100 
  171.2500     2.1950    77.2180    81.4440    75.3890    86.8570    24.3160   -22.3940 
  171.3750     2.2130    76.4350    72.6360    66.3380    63.9660    24.1970   -22.3190 
  171.5000     2.2340    77.3670    67.7740    61.1520    52.6200    24.1640   -22.2170 
  171.6250     2.2550    81.5780    65.0010    58.2580    48.9900    24.1350   -22.2240 
  171.7500     2.2720    83.0210    62.5770    55.9480    49.4730    24.1300   -22.1950 
  171.8750     2.2840    80.8140    60.1620    53.7610    52.7470    24.1130   -22.2260 
  172.0000     2.2900    79.8520    58.2380    51.9520    55.0500    24.0310   -22.2290 
  172.1250     2.2890    82.0730    58.2610    51.6740    47.6550    24.0010   -22.3340 
  172.2500     2.2820    82.8600    61.2150    53.8550    40.6010    24.1550   -22.4730 
  172.3750     2.2720    81.6270    67.9200    59.3330    42.8870    24.3170   -22.6440 
  172.5000     2.2600    80.3260    78.6800    68.4890    55.3220    24.2550   -22.8390 
  172.6250     2.2530    79.9090    93.1950    81.1930    74.5750    24.0670   -23.0290 
  172.7500     2.2500    79.9490   108.4450    94.8370    89.3520    24.0370   -23.2480 
  172.8750     2.2510    79.3180   120.9400   106.4270   103.7120    24.1020   -23.4630 
  173.0000     2.2490    78.0320   126.9460   112.7120   124.7920    24.0860   -23.6820 
  173.1250     2.2400    76.1280   122.5350   110.1490   144.5130    24.1010   -23.8510 
  173.2500     2.2270    73.8210   110.3250   100.5660   152.3400    24.2070   -23.9750 
  173.3750     2.2160    72.4690    94.1510    86.8520   152.2570    24.3170   -24.0480 
  173.5000     2.2150    74.2400    78.2220    72.5500   151.9270    24.3970   -24.0540 
  173.6250     2.2280    78.1290    65.6670    60.7070   142.5340    24.5020   -23.9010 
  173.7500     2.2500    80.5850    56.2750    51.6740   114.6260    24.6260   -23.6850 
  173.8750     2.2750    80.9070    49.3710    45.0350    77.3980    24.6780   -23.3990 
  174.0000     2.2980    79.7640    44.4050    40.2990    55.3890    24.6400   -23.1200 
  174.1250     2.3120    81.7470    41.6240    37.6210    49.6540    24.5780   -22.8300 
  174.2500     2.3140    86.1090    41.0920    36.9800    47.3330    24.5470   -22.5650 
  174.3750     2.3010    87.6760    43.1270    38.6840    41.5710    24.5360   -22.3540 
  174.5000     2.2770    83.7140    47.6220    42.7420    34.3310    24.5390   -22.1190 
  174.6250     2.2490    78.3500    53.7800    48.6450    33.8110    24.5230   -22.0580 
  174.7500     2.2280    77.7730    59.5130    54.5160    39.7180    24.4800   -22.0120 
  174.8750     2.2200    78.0840    63.0970    58.6520    49.8470    24.5120   -22.0310 
  175.0000     2.2260    76.0840    63.5830    59.8990    60.1170    24.6690   -22.0340 
  175.1250     2.2430    74.5470    61.2370    58.0760    64.3180    24.7950   -22.0730 
  175.2500     2.2600    78.3400    58.3720    55.2150    63.7620    24.7400   -22.1680 
  175.3750     2.2730    85.2340    56.4720    52.7840    59.6030    24.5480   -22.2440 
