~V
VERS. 2.00: Ver 2.00
~W
STRT.M 60.0000:
STOP.M 232.0000:
STEP.M 0.1250:
NULL. -999.2500:
UWI. DF3065:
~C
DEPT.M :
GR.API :
CALI.CM :
RXO.OHMM :
RI. :
RML.OHMM :
DEN.GM/CC :
SP.MV :
~A
# ...
  206.2500    87.5420    23.2380     6.6080    11.2930    11.8870     2.5190   -13.2660 
  206.3750    93.2400    23.5090     7.0610     9.8930    10.5280     2.5080   -13.1490 
  206.5000    96.3540    23.9350     7.1340     9.5430    10.3950     2.4790   -13.0490 
  206.6250    98.2050    24.0670     7.5560     9.8960    10.9460     2.4520   -13.0540 
  206.7500   100.9000    24.1060     7.6270    10.5670    11.7190     2.4380   -13.0890 
  206.8750   103.1720    24.1300     7.6100    11.2740    12.4140     2.4330   -13.2340 
  207.0000   105.7160    24.1370     7.5220    11.7110    12.7600     2.4320   -13.4520 
  207.1250   110.2150    24.0910     7.5250    11.6750    12.6210     2.4330   -13.7250 
  207.2500   111.9220    23.9850     7.5520    11.3600    12.2730     2.4350   -14.0130 
  207.3750   111.2190    24.0010     7.6540    10.9670    11.9910     2.4370   -14.2920 
  207.5000   110.0770    24.0210     7.8590    10.6930    11.9970     2.4410   -14.5990 
  207.6250   109.1030    23.8450     8.1440    10.7720    12.6330     2.4480   -14.9080 
  207.7500   106.9400    23.8410     8.9410    11.3350    14.1020     2.4510   -15.1830 
  207.8750   102.6750    23.9780    10.8210    12.5400    16.6270     2.4460   -15.3990 
  208.0000    97.6720    24.0210    15.4660    14.5110    20.3080     2.4380   -15.5570 
  208.1250    91.3320    23.8450    22.3290    17.4630    25.2900     2.4320   -15.7200 
  208.2500    85.2370    23.8380    29.5930    21.2210    31.1380     2.4200   -15.8750 
  208.3750    81.6680    23.9360    34.0280    25.5660    37.4880     2.3910   -16.0160 
  208.5000    81.4120    23.9630    36.4620    30.0870    43.7700     2.3590   -16.1380 
  208.6250    81.4260    23.8090    38.5840    34.1120    49.1150     2.3400   -16.2320 
  208.7500    78.7050    23.7870    40.9870    37.1380    53.0200     2.3370   -16.3460 
  208.8750    76.1080    23.7580    41.2880    38.9300    55.2850     2.3490   -16.5100 
  209.0000    77.1120    23.5560    45.1200    39.6940    56.2200     2.3690   -16.7000 
  209.1250    80.5240    22.6900    50.6960    39.6820    56.2560     2.3900   -16.8730 
  209.2500    79.5080    22.4880    51.4800    39.3870    56.0680     2.3980   -17.0450 
  209.3750    75.0260    22.7200    45.6470    39.1510    56.1220     2.3840   -17.2260 
  209.5000    71.3170    23.1310    39.7310    39.4040    56.9920     2.3630   -17.3850 
  209.6250    70.1740    23.5230    37.8520    40.6650    59.2940     2.3470   -17.5250 
  209.7500    69.7440    23.7850    40.3900    42.6900    62.4990     2.3370   -17.6380 
  209.8750    69.9350    24.0280    50.5630    45.0420    65.7800     2.3330   -17.7050 
  210.0000    72.7200    24.3530    61.8190    47.1270    68.1750     2.3330   -17.7310 
  210.1250    76.2300    24.3950    70.4220    48.2040    68.6580     2.3360   -17.6900 
  210.2500    77.1860    24.4090    71.5270    47.9850    67.0850     2.3390   -17.5950 
  210.3750    77.0750    24.4420    59.5630    46.5790    63.9930     2.3400   -17.4640 
  210.5000    77.0150    24.4640    41.2880    44.5690    60.3400     2.3420   -17.3380 
  210.6250    78.0040    24.4160    33.6470    42.6610    57.2470     2.3460   -17.2140 
  210.7500    76.9900    24.4150    36.9770    41.5690    55.5820     2.3520   -17.0830 
  210.8750    75.2910    24.4520    44.2130    41.5320    55.5270     2.3560   -16.9490 
  211.0000    74.9270    24.4840    49.9510    42.4450    56.8140     2.3540   -16.8330 
  211.1250    73.3740    24.4120    52.2200    44.2230    59.1940     2.3510   -16.7810 
  211.2500    70.5150    24.4230    51.6730    46.6440    62.3180     2.3530   -16.8060 
  211.3750    69.8080    24.5430    53.0750    49.5270    65.8560     2.3590   -16.8700 
  211.5000    72.6860    24.5790    58.7270    52.5120    69.2910     2.3590   -16.9470 
  211.6250    73.0910    24.4440    63.6670    55.5550    72.6230     2.3470   -17.0130 
  211.7500    69.0880    24.5190    66.6320    58.6930    75.8930     2.3280   -17.0710 
  211.8750    68.3530    24.6070    72.7170    61.8260    78.8870     2.3110   -17.1140 
  212.0000    73.4020    24.6380    77.8850    64.6360    81.2300     2.3000   -17.1470 
  212.1250    76.9380    24.4770    76.9250    66.4550    82.2280     2.2930   -17.1410 
  212.2500    76.0860    24.5150    74.1280    66.9650    81.6200     2.2910   -17.0500 
  212.3750    74.1580    24.4460    78.1250    65.9120    79.3100     2.2980   -16.9090 
  212.5000    72.9090    24.4170    82.5460    63.3670    75.5370     2.3060   -16.7090 
  212.6250    70.9410    24.3880    75.1870    59.4750    70.5050     2.3100   -16.4820 
  212.7500    71.0070    24.3150    60.8110    55.0470    65.0530     2.3090   -16.2380 
  212.8750    75.7420    24.1700    51.8190    50.7370    59.9750     2.3120   -16.0220 
  213.0000    80.7080    24.1380    45.5230    47.1950    56.0300     2.3230   -15.8100 
  213.1250    80.2890    24.2960    40.3570    45.0810    53.8820     2.3360   -15.6220 
  213.2500    78.7480    24.2330    38.1020    44.3150    53.4430     2.3460   -15.4740 
  213.3750    78.6900    24.1630    40.4110    44.9370    54.6770     2.3530   -15.3050 
  213.5000    77.6190    24.2820    47.4550    46.9050    57.4160     2.3570   -15.1310 
  213.6250    74.1480    24.3340    54.1290    50.0660    61.3580     2.3560   -14.9510 
  213.7500    72.0500    24.2340    54.5370    53.8280    65.7360     2.3470   -14.7800 
  213.8750    72.6420    24.1150    56.9050    57.8310    70.2160     2.3300   -14.5970 
  214.0000    73.0070    24.1310    70.5450    61.7510    74.3860     2.3150   -14.4050 
  214.1250    71.8540    24.1910    79.8210    65.0050    77.5480     2.3130   -14.1580 
  214.2500    69.5830    24.2810    81.4770    67.4090    79.6090     2.3220   -13.8650 
  214.3750    66.8130    24.2500    80.6360    68.7830    80.3800     2.3300   -13.5760 
  214.5000    66.4390    24.1290    80.6340    68.9480    79.7330     2.3300   -13.3500 
  214.6250    69.1210    24.1340    81.0410    67.6790    77.5020     2.3230   -13.1760 
  214.7500    70.4340    24.1740    78.4640    65.5000    74.3450     2.3120   -13.0200 
  214.8750    69.9030    24.1360    71.9060    62.7320    70.6060     2.3050   -12.8770 
  215.0000    69.0600    24.1260    64.8170    59.6310    66.5270     2.3080   -12.7250 
  215.1250    68.0220    24.1160    57.6070    56.2240    62.3070     2.3240   -12.6030 
  215.2500    67.5370    24.0670    51.9760    52.6200    57.9610     2.3500   -12.4960 
  215.3750    68.7220    24.0040    49.6860    48.7970    53.4650     2.3700   -12.3860 
  215.5000    70.9270    23.7090    49.5830    44.7710    48.8230     2.3760   -12.2310 
  215.6250    72.1770    24.0510    45.0650    40.6880    44.1990     2.3670   -12.0050 
  215.7500    72.9170    24.3470    36.5160    36.8380    39.8830     2.3500   -11.7380 
  215.8750    73.0190    24.3970    29.9350    33.4830    36.1630     2.3310   -11.4710 
  216.0000    72.5750    24.3890    28.2020    30.7510    33.2070     2.3140   -11.1900 
  216.1250    73.1760    24.2510    26.8850    28.8540    31.2200     2.3060   -10.9070 
  216.2500    73.3840    24.3350    25.9200    27.5980    29.9730     2.3120   -10.6870 
  216.3750    70.8910    24.3190    26.0920    26.8470    29.2820     2.3270   -10.4980 
  216.5000    67.8050    24.1420    26.3390    26.4930    29.0200     2.3360   -10.3180 
  216.6250    67.3040    24.1770    24.9870    26.4790    29.0920     2.3370   -10.2300 
  216.7500    66.8590    24.2860    23.4510    26.5770    29.2460     2.3310   -10.1990 
  216.8750    64.9210    24.2100    22.3970    26.6450    29.3440     2.3180   -10.1900 
  217.0000    63.0850    24.2620    22.3900    26.5830    29.3020     2.3030   -10.2360 
  217.1250    62.0420    23.9130    22.8060    26.1950    28.9510     2.2950   -10.2910 
  217.2500    61.3440    23.6980    24.0160    25.4310    28.2140     2.3060   -10.2970 
  217.3750    63.4380    23.7280    24.1110    24.3480    27.1740     2.3420   -10.3030 
