~V
VERS. 2.00: Ver 2.00
~W
STRT.M 56.0000:
STOP.M 260.0000:
STEP.M 0.1250:
NULL. -999.2500:
UWI. DF3033:
~C
DEPT.M :
GR.API :
RML.OHMM :
RI. :
RXO.OHMM :
CALI.CM :
DEN.GM/CC :
SP.MV :
~A
# ...
  236.0000    92.6570    42.7370    33.6270    40.3800    24.5580     2.2400   -32.6600 
  236.1250    81.5500    55.8090    42.3240    49.8740    24.6270     2.2510   -32.8280 
  236.2500    72.8400    70.0770    52.6720    63.9810    24.6640     2.2600   -32.9010 
  236.3750    67.5480    81.9470    62.7100    79.5130    24.7180     2.2640   -32.9470 
  236.5000    65.1900    90.2540    70.3940    90.5740    24.8170     2.2620   -33.0500 
  236.6250    66.1430    93.2300    74.0370    91.0020    24.8670     2.2550   -33.0750 
  236.7500    66.6460    93.0770    74.9500    81.5960    24.8620     2.2510   -33.1240 
  236.8750    64.8010    92.0290    74.7020    72.2090    24.8190     2.2510   -33.1360 
  237.0000    63.0170    91.5650    74.5640    72.3720    24.7870     2.2560   -33.1180 
  237.1250    64.5430    92.0640    75.0820    81.5830    24.7760     2.2640   -33.0810 
  237.2500    66.0730    92.9910    76.0030    88.7810    24.7740     2.2720   -33.0630 
  237.3750    67.1230    94.1920    77.2170    88.4880    24.7690     2.2780   -33.0540 
  237.5000    69.2230    95.9450    78.9090    87.7180    24.7620     2.2810   -32.9890 
  237.6250    72.2630    99.1740    81.7740    87.5430    24.7550     2.2800   -32.9180 
  237.7500    72.8990   104.2400    86.1160    89.0970    24.7550     2.2750   -32.8150 
  237.8750    70.5490   110.9590    91.8660    93.5980    24.7420     2.2660   -32.6770 
  238.0000    68.1660   118.3250    98.3120   104.3230    24.6900     2.2540   -32.5380 
  238.1250    67.8320   124.3350   103.9450   122.6890    24.6370     2.2430   -32.3910 
  238.2500    68.2310   127.6010   107.5630   141.6280    24.6070     2.2370   -32.2110 
  238.3750    67.5980   127.7380   108.7140   145.4900    24.5770     2.2360   -31.9950 
  238.5000    65.7340   125.5710   107.8640   131.8750    24.5260     2.2380   -31.8480 
  238.6250    65.6050   122.9420   106.3090   114.2120    24.5600     2.2400   -31.6220 
  238.7500    66.6480   121.6550   105.5970   107.6950    24.6280     2.2410   -31.4180 
  238.8750    67.1080   122.3370   106.3840   109.3930    24.6720     2.2430   -31.1720 
  239.0000    66.2310   124.7020   108.5920   114.9870    24.6670     2.2480   -30.9510 
  239.1250    63.5700   127.7430   111.5640   120.2860    24.6270     2.2540   -30.6270 
  239.2500    60.5100   130.0560   114.1990   125.2910    24.5940     2.2580   -30.2790 
  239.3750    59.5840   130.7510   115.7490   125.8750    24.5550     2.2590   -29.9410 
  239.5000    63.2060   129.3670   115.7260   122.6610    24.5300     2.2580   -29.5590 
  239.6250    67.8080   125.5290   113.6300   119.2560    24.5100     2.2620   -29.2910 
  239.7500    69.5740   119.9070   109.8680   117.0700    24.4750     2.2720   -28.9400 
  239.8750    69.9270   112.9990   104.7710   114.5490    24.4290     2.2890   -28.6120 
  240.0000    71.1590   105.4510    98.8240   107.8730    24.3600     2.3060   -28.2350 
  240.1250    74.1180    98.0370    92.5930    90.9920    24.2060     2.3180   -27.9370 
  240.2500    76.8900    91.3080    86.6110    76.2820    23.9570     2.3220   -27.6490 
  240.3750    79.7280    85.5080    81.1530    65.5410    23.7630     2.3230   -27.3740 
  240.5000    83.8290    80.7120    76.4020    61.3160    23.6610     2.3260   -27.0630 
  240.6250    87.7090    77.0990    72.6860    61.3980    23.5420     2.3320   -26.7360 
  240.7500    88.0170    74.5870    70.0800    58.6580    23.4190     2.3350   -26.4160 
  240.8750    86.2570    73.4670    68.8680    54.7780    23.2630     2.3260   -26.0960 
  241.0000    85.8810    74.2620    69.4290    49.5690    23.0390     2.3050   -25.7750 
  241.1250    85.4430    77.9830    72.5100    49.0260    22.8670     2.2740   -25.4730 
  241.2500    81.6000    84.2500    77.7110    50.0820    22.8890     2.2460   -25.1400 
  241.3750    77.5670    92.1550    84.2830    51.6670    22.8280     2.2240   -24.7940 
  241.5000    76.1830    99.8490    90.7450    51.8260    22.6090     2.2130   -24.4260 
  241.6250    73.6510   104.1550    94.5520    52.3200    22.2190     2.2160   -24.0620 
  241.7500    69.4450   103.5560    94.4280    47.6480    21.5680     2.2310   -23.6360 
  241.8750    67.3480    98.0930    90.2770    35.8520    20.5900     2.2490   -23.1920 
  242.0000    69.8910    89.6510    83.4470    24.5380    19.5850     2.2620   -22.6930 
  242.1250    73.6060    81.3490    76.3360    18.9100    18.8760     2.2560   -22.1130 
  242.2500    75.2870    75.2650    70.8700    16.4490    18.6470     2.2350   -21.5640 
  242.3750    74.4800    71.5100    67.3970    16.2470    18.7130     2.2130   -20.9180 
  242.5000    72.6660    68.9510    65.1370    17.6160    19.0020     2.2080   -20.3120 
  242.6250    72.6660    65.6440    62.4680    20.3080    19.5550     2.2410   -19.5880 
  242.7500    73.8530    60.3900    58.1630    22.9340    20.1690     2.3080   -18.9640 
  242.8750    75.0360    53.1670    51.9960    24.3330    20.5460     2.3870   -18.3260 
  243.0000    76.7270    44.9360    44.6590    22.7190    20.6020     2.4490   -17.7610 
  243.1250    79.6010    37.2670    37.5080    18.6450    20.5140     2.4580   -17.1940 
  243.2500    81.5920    31.0670    31.5390    15.9820    20.7510     2.4210   -16.6840 
  243.3750    81.7280    26.5660    27.0660    15.3010    21.2560     2.3630   -16.2700 
  243.5000    80.9790    23.6490    24.0350    15.7790    21.8640     2.3160   -15.9120 
  243.6250    80.8120    22.1590    22.3240    16.6230    22.5220     2.3050   -15.6360 
  243.7500    80.4770    21.3800    21.2940    17.4720    23.2330     2.3310   -15.4300 
  243.8750    79.8300    20.8140    20.5050    17.7830    23.8040     2.3810   -15.2830 
  244.0000    78.9030    20.0480    19.5870    18.2320    24.0780     2.4340   -15.2040 
  244.1250    80.0240    18.8080    18.2870    21.7830    24.1400     2.4580   -15.2400 
  244.2500    83.5220    17.2590    16.7240    22.4140    24.1560     2.4460   -15.3010 
  244.3750    87.9220    15.6610    15.1120    16.5640    24.1660     2.4090   -15.3760 
  244.5000    90.4410    14.2790    13.6830    12.2780    24.1710     2.3670   -15.4780 
  244.6250    88.4290    13.4100    12.6970    12.2310    24.1950     2.3390   -15.5990 
  244.7500    85.3090    13.1310    12.2270    12.8240    24.2360     2.3240   -15.7290 
  244.8750    86.1350    13.5220    12.3590    12.8560    24.2670     2.3170   -15.8810 
  245.0000    88.7290    14.6070    13.1380    12.6450    24.2790     2.3110   -16.0280 
  245.1250    85.1980    16.4140    14.6330    13.4700    24.2830     2.3070   -16.0750 
  245.2500    76.5180    18.6530    16.5970    16.1420    24.2910     2.3080   -16.1190 
  245.3750    69.9510    21.0620    18.7900    19.8240    24.3070     2.3120   -16.1590 
  245.5000    67.9860    23.3120    20.8790    22.4850    24.3310     2.3160   -16.1680 
  245.6250    68.4420    24.9780    22.3760    23.0330    24.3550     2.3130   -16.1670 
  245.7500    69.9440    25.9250    23.0710    22.9100    24.3640     2.3090   -16.1440 
  245.8750    71.6810    25.9970    22.8890    23.2000    24.3660     2.3120   -16.0980 
  246.0000    72.1080    25.2140    21.9070    23.9390    24.3660     2.3240   -16.0160 
  246.1250    71.5180    23.2950    20.2620    23.5480    24.3660     2.3420   -16.0030 
  246.2500    72.8130    20.8490    18.3970    21.1410    24.3660     2.3520   -15.9730 
  246.3750    77.7070    18.2350    16.6730    17.6530    24.3660     2.3470   -15.9650 
  246.5000    82.3950    15.9870    15.4010    15.6120    24.3660     2.3290   -16.0030 
  246.6250    79.6980    15.6160    14.8600    14.4480    24.3660     2.3070   -16.0460 
  246.7500    75.1680    15.9460    14.9270    14.9230    24.3660     2.2930   -16.0710 
  246.8750    75.0010    16.7470    15.4470    16.3570    24.3660     2.2890   -16.1130 
  247.0000    77.7900    17.6980    16.1790    18.0520    24.3660     2.2920   -16.1380 
  247.1250    78.0160    18.4300    16.8170    18.6060    24.3580     2.2930   -16.1820 
