~V
VERS. 2.00: Ver 2.00
~W
STRT.M 140.0000:
STOP.M 286.0000:
STEP.M 0.1250:
NULL. -999.2500:
UWI. DF3059:
~C
DEPT.M :
SP.MV :
GR.API :
RML.OHMM :
RI. :
RXO.OHMM :
CALI.CM :
DEN.GM/CC :
~A
  140.0000   -23.4680    77.6270    16.3760    13.8760    23.7920    24.2780     2.5630 
  140.1250   -24.1040    76.0740    19.5700    17.2870    27.5680    24.2970     2.6300 
  140.2500   -24.8870    75.6040    21.7240    19.8690    28.6530    24.2940     2.6730 
  140.3750   -25.6650    77.1070    22.3790    21.0000    29.6440    24.2610     2.6860 
  140.5000   -26.4400    79.9170    21.5050    20.5110    29.3880    24.1860     2.6620 
  140.6250   -27.2600    79.6440    19.4460    18.6740    24.9850    24.0320     2.5930 
  140.7500   -28.1400    77.7550    17.1320    16.4450    18.9620    23.7960     2.4990 
  140.8750   -29.0530    78.2670    15.1130    14.3840    14.3330    23.5210     2.4020 
  141.0000   -29.9320    82.2950    13.6920    12.8130    11.9830    23.3590     2.3220 
  141.1250   -30.6030    87.3910    13.0140    11.9160    11.3330    23.3200     2.2750 
  141.2500   -31.0820    89.9340    12.8050    11.5020    11.3360    23.3170     2.2530 
  141.3750   -31.4790    89.0330    12.8550    11.4120    11.4680    23.3130     2.2460 
  141.5000   -31.8540    85.0400    12.9740    11.4810    11.4630    23.3050     2.2440 
  141.6250   -32.1460    80.2900    13.0080    11.5550    11.5160    23.3010     2.2390 
  141.7500   -32.2390    75.9820    12.9230    11.5490    11.6360    23.2990     2.2330 
  141.8750   -32.2540    71.1230    12.7320    11.4470    11.6650    23.3000     2.2270 
  142.0000   -32.1720    68.0970    12.4680    11.2620    11.5690    23.3040     2.2200 
  142.1250   -32.0220    70.4700    12.1690    11.0140    11.3680    23.3150     2.2120 
  142.2500   -31.9210    75.6620    11.8840    10.7480    11.2280    23.3300     2.2010 
  142.3750   -31.7470    78.9370    11.6590    10.5040    11.0360    23.3480     2.1910 
  142.5000   -31.5920    78.8430    11.5300    10.3200    10.7990    23.3510     2.1880 
  142.6250   -31.3900    78.3730    11.5320    10.2380    10.4430    23.3230     2.1950 
  142.7500   -31.2900    81.0120    11.6320    10.2450    10.1180    23.2820     2.2120 
  142.8750   -31.3080    86.3540    11.7880    10.3190    10.4070    23.2670     2.2300 
  143.0000   -31.3410    90.0980    11.9540    10.4240    10.8680    23.2730     2.2420 
  143.1250   -31.5920    87.2760    12.0780    10.5160    11.0800    23.2770     2.2420 
  143.2500   -31.8660    81.6440    12.1460    10.5680    11.1390    23.2770     2.2310 
  143.3750   -32.1640    77.4760    12.1610    10.5790    11.2400    23.2760     2.2170 
  143.5000   -32.4220    75.4870    12.1470    10.5620    11.2590    23.2770     2.2050 
  143.6250   -32.6890    74.7140    12.1440    10.5470    11.1420    23.2650     2.1980 
  143.7500   -32.9530    73.3960    12.1830    10.5580    11.1430    23.2490     2.1940 
  143.8750   -33.1710    70.9240    12.2800    10.6110    11.2110    23.2470     2.1900 
  144.0000   -33.3560    69.4540    12.4280    10.7060    11.2510    23.2330     2.1880 
  144.1250   -33.4040    73.6340    12.6020    10.8280    11.2540    23.1660     2.1900 
  144.2500   -33.4230    78.8680    12.7530    10.9390    11.2690    23.1250     2.1970 
  144.3750   -33.4460    78.6880    12.8430    11.0060    11.3620    23.1090     2.2060 
  144.5000   -33.5390    72.8810    12.8480    11.0050    11.4850    23.1010     2.2120 
  144.6250   -33.5330    68.9770    12.7590    10.9200    11.5520    23.0780     2.2130 
  144.7500   -33.4590    70.4940    12.6220    10.7830    11.5440    23.0420     2.2100 
  144.8750   -33.3130    73.7810    12.4770    10.6250    11.4030    23.0220     2.2070 
  145.0000   -33.2270    75.3660    12.3560    10.4760    11.1530    23.0590     2.2070 
  145.1250   -33.2000    73.7580    12.2790    10.3640    10.9560    23.1880     2.2090 
  145.2500   -33.0900    70.5050    12.2330    10.2880    10.8130    23.3540     2.2110 
  145.3750   -33.0310    68.6110    12.2060    10.2430    10.7000    23.4680     2.2100 
  145.5000   -32.8490    69.5290    12.1940    10.2240    10.5240    23.5330     2.2050 
  145.6250   -32.6920    71.7470    12.2080    10.2340    10.5260    23.5720     2.1950 
  145.7500   -32.5870    70.4490    12.2500    10.2670    10.5330    23.6250     2.1840 
  145.8750   -32.4580    67.2670    12.3130    10.3170    10.4960    23.6860     2.1760 
  146.0000   -32.3240    68.0860    12.3790    10.3710    10.5320    23.7340     2.1730 
  146.1250   -32.0590    73.2260    12.4200    10.4060    10.7270    23.4650     2.1760 
  146.2500   -31.8080    77.2810    12.4260    10.4130    10.7240    23.2690     2.1790 
  146.3750   -31.5080    76.9790    12.4010    10.3900    10.5590    23.1610     2.1820 
  146.5000   -31.1520    73.9780    12.3600    10.3520    10.3300    23.1290     2.1830 
  146.6250   -30.9070    72.1880    12.3230    10.3180    10.1140    23.1260     2.1850 
  146.7500   -30.6610    71.8350    12.3010    10.3040    10.1240    23.1260     2.1890 
  146.8750   -30.3330    72.8530    12.2970    10.3140    10.2240    23.1320     2.1950 
  147.0000   -29.9740    75.0860    12.3200    10.3520    10.3960    23.1460     2.1990 
  147.1250   -29.6740    76.2050    12.4020    10.4340    10.8380    23.1840     2.2000 
  147.2500   -29.2970    74.0910    12.5620    10.5700    11.5260    23.2340     2.1970 
  147.3750   -28.9020    70.2790    12.7960    10.7600    11.9490    23.2600     2.1940 
  147.5000   -28.4730    68.8680    13.0430    10.9640    11.6100    23.2630     2.1970 
  147.6250   -27.7880    71.6560    13.1390    11.0630    11.1370    23.2600     2.2130 
  147.7500   -27.0810    74.6050    12.9510    10.9470    10.8690    23.2600     2.2380 
  147.8750   -26.4210    77.4750    12.4240    10.5590    10.9180    23.2600     2.2650 
  148.0000   -25.6960    80.2490    11.6200     9.9330    10.7780    23.2640     2.2840 
  148.1250   -24.9340    83.5050    10.7120     9.1880     9.7260    23.3240     2.2870 
  148.2500   -24.2430    87.5900     9.9050     8.4940     8.7080    23.4680     2.2800 
  148.3750   -23.6070    92.5190     9.2900     7.9370     7.9750    23.6340     2.2690 
  148.5000   -23.0160    93.9320     8.8750     7.5430     7.5280    23.7410     2.2630 
  148.6250   -22.6300    89.5930     8.6400     7.3170     7.6650    23.8160     2.2650 
  148.7500   -22.2720    88.6580     8.5080     7.2020     7.6800    23.8880     2.2740 
  148.8750   -21.9590    94.0790     8.4480     7.1660     7.0860    23.9270     2.2840 
  149.0000   -21.7040    98.8810     8.4300     7.1750     6.6480    23.9490     2.2940 
  149.1250   -21.4390    97.9820     8.4190     7.1930     6.6950    23.9790     2.3020 
  149.2500   -21.2620    97.8170     8.3740     7.1810     7.0380    24.0020     2.3080 
  149.3750   -21.0160    99.8550     8.2710     7.1140     7.2580    24.0390     2.3130 
  149.5000   -20.8560   101.9780     8.1010     6.9770     6.9060    24.0840     2.3170 
  149.6250   -20.8070   106.3390     7.8630     6.7590     6.5490    24.1040     2.3180 
  149.7500   -20.6880   110.2020     7.5920     6.4930     6.2920    24.1090     2.3210 
  149.8750   -20.6470   109.7260     7.3190     6.2100     6.1360    24.1090     2.3280 
  150.0000   -20.7640   106.9190     7.0750     5.9470     5.9300    24.1090     2.3400 
  150.1250   -20.9590   107.1630     6.9120     5.7540     5.7120    24.1090     2.3540 
  150.2500   -21.1880   109.2560     6.8520     5.6520     5.5670    24.1080     2.3640 
  150.3750   -21.5680   110.6490     6.9080     5.6530     5.5550    24.1060     2.3650 
  150.5000   -21.9790   108.6670     7.0710     5.7540     5.7340    24.1000     2.3580 
  150.6250   -22.4870   104.7260     7.3250     5.9470     6.1360    24.0720     2.3430 
  150.7500   -23.2020   103.3520     7.6180     6.1920     6.5670    24.0010     2.3210 
  150.8750   -23.9320   103.2740     7.9280     6.4700     6.8180    23.9250     2.2940 
  151.0000   -24.5670    98.9870     8.2510     6.7710     7.0360    23.8720     2.2640 
  151.1250   -25.2030    93.1580     8.6130     7.1070     7.3640    23.8750     2.2400 
