~V
VERS. 2.00: Ver 2.00
~W
STRT.M 120.0000:
STOP.M 268.0000:
STEP.M 0.1250:
NULL. -999.2500:
UWI. DF3028:
~C
DEPT.M :
DEN.GM/CC :
GR.API :
CALI.CM :
RXO.OHMM :
RI. :
RML.OHMM :
SP.MV :
~A
# ...
  255.0000     2.4800    75.9460    27.2390    13.3070    14.1660    18.5650   -11.5800 
  255.1250     2.4910    76.3260    27.1930    13.5480    14.1760    18.5720   -11.5360 
  255.2500     2.5070    76.0100    27.1100    13.9530    14.1440    18.4930   -11.4860 
  255.3750     2.5270    76.0100    27.0330    14.2690    14.0760    18.3480   -11.4230 
  255.5000     2.5420    76.0100    26.9930    14.3580    14.0020    18.1990   -11.3410 
  255.6250     2.5390    76.0100    26.9810    14.2920    13.9700    18.1290   -11.2510 
  255.7500     2.5190    76.0100    26.9420    14.4850    14.0030    18.1680   -11.1680 
  255.8750     2.5040    76.0100    26.8780    15.1470    14.1040    18.3050   -11.0910 
  256.0000     2.5130    76.0100    26.8270    15.9100    14.2580    18.4980   -11.0380 
  256.1250     2.5390    76.0100    26.8460    15.9600    14.4310    18.6930   -11.0080 
  256.2500     2.5590    76.0100    26.9320    15.3610    14.5930    18.8580   -10.9930 
  256.3750     2.5550    76.0100    27.0400    14.6930    14.7300    18.9860   -11.0010 
  256.5000     2.5390    76.0100    27.1220    14.2030    14.8380    19.0810   -11.0250 
  256.6250     2.5230    76.0100    27.1490    13.6020    14.9160    19.1260   -11.0440 
  256.7500     2.5140    76.0100    27.1460    13.0060    14.9720    19.1210   -11.0590 
  256.8750     2.5070    76.0100    27.1480    12.9200    15.0180    19.0820   -11.0870 
  257.0000     2.5050    76.0100    27.1660    13.5820    15.0790    19.0560   -11.0980 
  257.1250     2.5090    76.0100    27.1920    15.4560    15.1980    19.1260   -11.1020 
  257.2500     2.5160    76.0100    27.1940    19.7120    15.3910    19.3250   -11.0930 
  257.3750     2.5160    76.0100    27.1780    27.5130    15.6570    19.6450   -11.0630 
  257.5000     2.5090    76.0100    27.1660    35.9530    15.9700    20.0260   -11.0210 
  257.6250     2.5060    76.0100    27.1490    36.5520    16.2580    20.3350   -10.9820 
  257.7500     2.5110    76.0100    27.1120    30.0370    16.4290    20.4440   -10.9330 
  257.8750     2.5280    76.0100    27.0710    22.9840    16.4060    20.2610   -10.8620 
  258.0000     2.5510    76.0100    27.0530    19.2800    16.1550    19.7710   -10.7770 
  258.1250     2.5740    76.0100    27.0520    17.4430    15.7030    19.0570   -10.6870 
  258.2500     2.5890    76.0100    27.0520    15.2020    15.2110    18.3430   -10.6050 
  258.3750     2.5890    76.0100    27.0520    12.7050    14.7930    17.7740   -10.5480 
  258.5000     2.5750    76.0100    27.0520    11.0650    14.5160    17.4150   -10.5000 
  258.6250     2.5520    76.0100    27.0520    11.7330    14.3970    17.2670   -10.4690 
  258.7500     2.5270    76.0100    27.0530    14.8890    14.3590    17.2190   -10.4700 
  258.8750     2.5060    76.0100    27.0550    18.8990    14.3530    17.2070   -10.4900 
  259.0000     2.4980    76.0100    27.0460    20.3000    14.3520    17.2000   -10.5380 
  259.1250     2.5060    76.0100    27.0090    17.5320    14.3510    17.1920   -10.5960 
  259.2500     2.5220    76.0100    26.9650    14.7030    14.3490    17.1860   -10.6450 
  259.3750     2.5300    76.0100    26.9300    14.2220    14.3470    17.1830   -10.6850 
  259.5000     2.5270    76.0100    26.9000    15.4290    14.3460    17.1860   -10.7220 
  259.6250     2.5150    76.0100    26.8680    16.5420    14.3450    17.1950   -10.7440 
  259.7500     2.5010    76.0100    26.8350    17.1420    14.3450    17.2060   -10.7410 
  259.8750     2.4980    76.0100    26.7890    17.6680    14.3450    17.2150   -10.7160 
  260.0000     2.5120    76.0100    26.7200    18.3030    14.3450    17.2180   -10.6750 
  260.1250     2.5320    76.0100    26.6470    18.8120    14.3460    17.2140   -10.6140 
  260.2500     2.5450    76.0100    26.5920    18.8320    14.3460    17.2070   -10.5450 
  260.3750     2.5460    76.0100    26.5290    18.3090    14.3460    17.2020   -10.4690 
  260.5000     2.5390    76.0100    26.4120    17.5570    14.3460    17.2000   -10.3930 
  260.6250     2.5160    76.0100    26.2210    16.7480    14.3460    17.1990   -10.3180 
  260.7500     2.4760    76.0100    26.0210    15.6830    14.3450    17.1980   -10.2520 
  260.8750     2.4380    76.0100    25.8700    14.4680    14.3440    17.1970   -10.2090 
  261.0000     2.4270    76.0100    25.7910    13.7470    14.3430    17.1940   -10.1710 
  261.1250     2.4470    76.0100    25.7540    14.3800    14.3440    17.1890   -10.1360 
  261.2500     2.4850    76.0100    25.6970    15.9140    14.3450    17.1840   -10.1160 
  261.3750     2.5200    76.0100    25.6010    17.4180    14.3450    17.1840   -10.1180 
  261.5000     2.5440    76.0100    25.4850    18.1450    14.3450    17.1840   -10.1330 
  261.6250     2.5600    76.0100    25.3850    18.2170    14.3450    17.1840   -10.1480 
  261.7500     2.5700    76.0100    25.3020    18.5220    14.3450    17.1840   -10.1560 
  261.8750     2.5720    76.0100    25.2260    19.2500    14.3450    17.1840   -10.1580 
  262.0000     2.5670    76.0100    25.1640    19.9680    14.3450    17.1840   -10.1540 
  262.1250     2.5480    76.0100    25.1330    20.2120    14.3450    17.1840   -10.1520 
  262.2500     2.5150    76.0100    25.1260    20.4430    14.3450    17.1840   -10.1350 
  262.3750     2.4840    76.0100    25.1280    20.9870    14.3450    17.1840   -10.0990 
  262.5000     2.4720    76.0100    25.1360    21.5700    14.3450    17.1840   -10.0470 
  262.6250     2.4710    76.0100    25.1580    21.7710    14.3450    17.1840    -9.9930 
  262.7500     2.4650    76.0100    25.1700    21.8890    14.3450    17.1840    -9.9300 
  262.8750     2.4610    76.0100    25.1600    22.3500    14.3450    17.1840    -9.8640 
  263.0000     2.4590    76.0100    25.1300    23.3750    14.3450    17.1840    -9.8120 
  263.1250     2.4110    76.0100    25.0410    24.6060    14.3450    17.1840    -9.7750 
  263.2500     2.2600    76.0100    24.8920    25.2530    14.3450    17.1840    -9.7380 
  263.3750     2.0380    76.0100    24.7410    25.1910    14.3450    17.1840    -9.6970 
  263.5000     1.8770    76.0100    24.6550    24.8980    14.3450    17.1840    -9.6460 
  263.6250     1.8280    76.0100    24.6400    24.8130    14.3450    17.1840    -9.6000 
  263.7500     1.8480    76.0100    24.6400    24.8240    14.3450    17.1840    -9.5650 
  263.8750     1.8680    76.0100    24.6400    24.8260    14.3450    17.1840    -9.5330 
  264.0000     1.8690    76.0100    24.6400    24.8240    14.3450    17.1840    -9.4750 
  264.1250     1.8650    76.0100    24.6400    24.8230    14.3450    17.1840    -9.3880 
  264.2500     1.8690    76.0100    24.6380    24.8190    14.3450    17.1840    -9.3150 
  264.3750     1.8800    76.0100    24.6340    24.8110    14.3450    17.1840    -9.2520 
  264.5000     1.8880    76.0100    24.6310    24.8030    14.3450    17.1840    -9.2060 
  264.6250     1.8850    76.0100    24.6300    24.8000    14.3450    17.1840    -9.1630 
  264.7500     1.8730    76.0100    24.6300    24.7970    14.3450    17.1840    -9.1190 
  264.8750     1.8600    76.0100    24.6300    24.7930    14.3450    17.1840    -9.0670 
  265.0000     1.8550    76.0100    24.6300    24.7860    14.3450    17.1840    -9.0570 
  265.1250     1.8590    76.0100    24.6300    24.7800    14.3450    17.1840    -9.0570 
  265.2500     1.8680    76.0100    24.6300    24.7760    14.3450    17.1840  -999.2500 
  265.3750     1.8730    76.0100    24.6300    24.7730    14.3450    17.1840  -999.2500 
  265.5000     1.8740    76.0100    24.6310    24.7680    14.3450    17.1840  -999.2500 
  265.6250     1.8750    76.0100    24.6300    24.7590    14.3450    17.1840  -999.2500 
  265.7500     1.8790    76.0100    24.6280    24.7500    14.3450    17.1840  -999.2500 
  265.8750     1.8820    76.0100    24.6250    24.7480    14.3450    17.1840  -999.2500 
  266.0000     1.8770    76.0100    24.6200    24.7520    14.3450    17.1840  -999.2500 
  266.1250     1.8680    76.0100    24.6170    24.7550    14.3450    17.1840  -999.2500 
