~V
VERS. 2.00: Ver 2.00
~W
STRT.M 125.0000:
STOP.M 269.0000:
STEP.M 0.1250:
NULL. -999.2500:
UWI. DF3036:
~C
DEPT.M :
GR.API :
RML.OHMM :
RI. :
RXO.OHMM :
CALI.CM :
DEN.GM/CC :
SP.MV :
~A
# ...
  260.0000    77.3630    17.1850    17.5590    18.1810    24.0170     2.4930   -13.9040 
  260.1250    77.3630    17.0520    17.4310    19.7340    24.0050     2.5000   -13.8810 
  260.2500    77.3630    16.9570    17.3220    22.3210    24.0230     2.4940   -13.8700 
  260.3750    77.3630    16.9120    17.2520    25.4500    24.0770     2.4750   -13.8000 
  260.5000    77.3630    16.9020    17.2170    30.2120    24.1490     2.4510   -13.7450 
  260.6250    77.3630    16.8920    17.1930    34.7830    24.1760     2.4320   -13.6700 
  260.7500    77.3630    16.8480    17.1460    35.1560    24.1490     2.4260   -13.6290 
  260.8750    77.3630    16.7570    17.0570    29.2530    24.1480     2.4360   -13.6290 
  261.0000    77.3630    16.6290    16.9250    21.7410    24.1780     2.4540   -13.6470 
  261.1250    77.3630    16.4880    16.7650    19.7700    24.2170     2.4710   -13.6410 
  261.2500    77.3630    16.3580    16.6100    19.9020    24.2090     2.4800   -13.6380 
  261.3750    77.3630    16.2420    16.4730    20.4430    24.1810     2.4810   -13.6810 
  261.5000    77.3630    16.1280    16.3520    19.6810    24.2110     2.4800   -13.7330 
  261.6250    77.3630    15.9950    16.2300    18.7360    24.2340     2.4800   -13.7970 
  261.7500    77.3630    15.8420    16.0930    17.6670    24.2410     2.4810   -13.8490 
  261.8750    77.3630    15.6810    15.9440    16.4140    24.2220     2.4820   -13.8920 
  262.0000    77.3630    15.5390    15.8000    14.8530    24.1760     2.4810   -14.0010 
  262.1250    77.3630    15.4450    15.6920    13.5200    24.1340     2.4780   -14.1300 
  262.2500    77.3630    15.3960    15.6240    13.4320    24.0980     2.4750   -14.2390 
  262.3750    77.3630    15.3810    15.5910    14.4270    24.0800     2.4700   -14.3220 
  262.5000    77.3630    15.3850    15.5790    15.4480    24.0580     2.4630   -14.4350 
  262.6250    77.3630    15.3930    15.5770    15.7790    24.0200     2.4550   -14.4710 
  262.7500    77.3630    15.3990    15.5750    15.7050    24.0100     2.4510   -14.4350 
  262.8750    77.3630    15.4030    15.5750    15.4150    24.0240     2.4540   -14.3570 
  263.0000    77.3630    15.4050    15.5750    15.0560    24.0340     2.4610   -14.2090 
  263.1250    77.3630    15.4080    15.5750    14.5240    24.0060     2.4680   -13.9620 
  263.2500    77.3630    15.4120    15.5760    14.1640    24.0020     2.4680   -13.6140 
  263.3750    77.3630    15.4150    15.5760    13.8490    24.0100     2.4600   -13.2800 
  263.5000    77.3630    15.4180    15.5770    13.4870    24.0110     2.4490   -12.8540 
  263.6250    77.3630    15.4200    15.5770    13.3770    24.0060     2.4410   -12.5170 
  263.7500    77.3630    15.4210    15.5770    13.7040    23.9630     2.4400   -12.2800 
  263.8750    77.3630    15.4220    15.5770    14.3000    23.8700     2.4470   -12.0210 
  264.0000    77.3630    15.4220    15.5770    15.0360    23.7980     2.4570   -11.7680 
  264.1250    77.3630    15.4220    15.5770    15.9280    23.7590     2.4660   -11.6260 
  264.2500    77.3630    15.4220    15.5770    16.3460    23.7330     2.4720   -11.5910 
  264.3750    77.3630    15.4220    15.5770    15.6410    23.7190     2.4780   -11.5650 
  264.5000    77.3630    15.4220    15.5770    14.6820    23.7330     2.4860   -11.5780 
  264.6250    77.3630    15.4220    15.5770    14.3550    23.7320     2.4950   -11.5800 
  264.7500    77.3630    15.4220    15.5770    14.2080    23.6880     2.5040   -11.5540 
  264.8750    77.3630    15.4220    15.5770    14.2150    23.6350     2.5060   -11.5550 
  265.0000    77.3630    15.4220    15.5770    14.3740    23.6120     2.5000   -11.5720 
  265.1250    77.3630    15.4220    15.5770    14.4610    23.6120     2.4870   -11.6230 
  265.2500    77.3630    15.4220    15.5770    14.7000    23.6120     2.4690   -11.6150 
  265.3750    77.3630    15.4220    15.5770    14.8610    23.6120     2.4490   -11.6300 
  265.5000    77.3630    15.4220    15.5770    14.6600    23.6120     2.4280   -11.6450 
  265.6250    77.3630    15.4220    15.5770    14.4580    23.6230     2.4060   -11.6640 
  265.7500    77.3630    15.4220    15.5770    14.3390    23.6690     2.3850   -11.6910 
  265.8750    77.3630    15.4220    15.5770    14.5590    23.7230     2.3730   -11.7370 
  266.0000    77.3630    15.4220    15.5770    14.6720    23.5970     2.3720   -11.7920 
  266.1250    77.3630    15.4220    15.5770    14.2400    23.4540     2.3810   -11.7580 
  266.2500    77.3630    15.4220    15.5770    13.1250    23.3110     2.3940   -11.8220 
  266.3750    77.3630    15.4220    15.5770    11.5940    23.1620     2.4000   -11.8450 
  266.5000    77.3630    15.4220    15.5770     9.9740    22.9720     2.3970   -11.8900 
  266.6250    77.3630    15.4220    15.5770     8.8920    22.7540     2.3850   -11.9050 
  266.7500    77.3630    15.4220    15.5770     8.3560    22.3000     2.3690   -11.9410 
  266.8750    77.3630    15.4220    15.5770     8.2690    22.0360     2.3510   -12.0010 
  267.0000    77.3630    15.4220    15.5770     8.5200    19.9650     2.3340   -11.9930 
  267.1250    77.3630    15.4220    15.5770     8.4620    19.1370     2.3160   -12.0360 
  267.2500    77.3630    15.4220    15.5770     8.3990    18.8660     2.3000   -12.0090 
  267.3750    77.3630    15.4220    15.5770     8.3700    18.8350     2.2890   -12.0500 
  267.5000    77.3630    15.4220    15.5770     8.3700    18.8350     2.2830   -12.0610 
  267.6250    77.3630    15.4220    15.5770     8.3700    18.8350     2.2810   -12.0390 
  267.7500    77.3630    15.4220    15.5770     8.3690    18.8350     2.2830   -12.0450 
  267.8750    77.3630    15.4220    15.5770     8.3670    18.8350     2.2850   -12.0010 
  268.0000    77.3630    15.4220    15.5770     8.3650    18.8280     2.2860   -11.9810 
  268.1250    77.3630    15.4220    15.5770     8.3640    18.8070     2.2860   -12.0180 
  268.2500    77.3630    15.4220    15.5770     8.3630    18.7800     2.2850   -12.0180 
  268.3750    77.3630    15.4220    15.5770     8.3610    18.7680     2.2850   -12.0180 
  268.5000    77.3630    15.4220    15.5770     8.3590    18.7660     2.2870   -12.0180 
  268.6250    77.3630    15.4080    15.5630     8.3590    18.7660     2.2900  -999.2500 
  268.7500  -999.2500  -999.2500  -999.2500  -999.2500  -999.2500     2.2940  -999.2500 
  268.8750  -999.2500  -999.2500  -999.2500  -999.2500  -999.2500     2.2960  -999.2500 
  269.0000  -999.2500  -999.2500  -999.2500  -999.2500  -999.2500     2.2970  -999.2500 
