~V
VERS. 2.00: Ver 2.00
~W
STRT.M 120.0000:
STOP.M 235.0000:
STEP.M 0.1250:
NULL. -999.2500:
UWI. DF3022:
~C
DEPT.M :
SP.MV :
GR.API :
CALI.CM :
RXO.OHMM :
RI. :
RML.OHMM :
DEN.GM/CC :
~A
  120.0000   -25.6430    66.1490    23.4950     6.2980     5.9950     7.5980     2.2180 
  120.1250   -25.7090    68.9420    23.4760     6.6560     6.2190     7.9140     2.2140 
  120.2500   -25.8290    70.2230    23.4470     7.2780     6.5140     8.3060     2.2090 
  120.3750   -25.9900    67.8530    23.4170     7.7280     6.8060     8.6600     2.2030 
  120.5000   -26.1610    64.3530    23.4050     7.7820     7.0250     8.8770     2.1970 
  120.6250   -26.2980    62.8320    23.4050     7.7110     7.1140     8.8880     2.1940 
  120.7500   -26.4090    60.3270    23.4050     7.9240     7.1130     8.7750     2.1920 
  120.8750   -26.4850    53.6970    23.4050     8.3360     7.0660     8.6270     2.1880 
  121.0000   -26.5120    49.1600    23.4050     8.6260     7.0060     8.5020     2.1810 
  121.1250   -26.4490    56.3430    23.4420     8.4350     6.9150     8.3830     2.1770 
  121.2500   -26.3060    66.9020    23.5870     7.9850     6.7620     8.2040     2.1830 
  121.3750   -26.1120    70.2780    23.8510     7.6240     6.5270     7.9340     2.1970 
  121.5000   -25.8790    66.4240    24.0710     7.3510     6.2250     7.5960     2.2130 
  121.6250   -25.6330    63.4720    24.1460     6.9160     5.9020     7.2510     2.2220 
  121.7500   -25.3990    63.4440    24.1570     6.3830     5.6100     6.9520     2.2240 
  121.8750   -25.1930    63.5510    24.1500     6.1030     5.3740     6.7130     2.2220 
  122.0000   -25.0170    65.7360    24.1210     6.2390     5.2040     6.5260     2.2140 
  122.1250   -24.8880    69.1690    24.0730     6.4610     5.1270     6.4070     2.2060 
  122.2500   -24.8310    69.1870    24.0540     6.4730     5.1710     6.4100     2.2180 
  122.3750   -24.8250    65.8960    24.0510     6.3740     5.3790     6.6140     2.2730 
  122.5000   -24.8800    61.4330    24.0510     6.5380     5.7730     7.0720     2.3530 
  122.6250   -24.9940    60.8880    24.0720     7.7820     6.3400     7.7960     2.3850 
  122.7500   -25.1550    64.5260    24.1400    10.3730     6.9400     8.5950     2.3410 
  122.8750   -25.3490    70.0720    24.2470    12.8820     7.4160     9.2300     2.2560 
  123.0000   -25.5890    73.0840    24.2980    12.8220     7.6270     9.4720     2.1870 
  123.1250   -25.8540    69.4620    24.2150    10.3690     7.5050     9.2210     2.1640 
  123.2500   -26.1040    63.3130    24.1020     8.5130     7.2170     8.7730     2.1690 
  123.3750   -26.3310    58.1490    24.0560     7.9230     6.9000     8.3520     2.1790 
  123.5000   -26.5270    55.3430    24.0610     7.8520     6.6510     8.0780     2.1840 
  123.6250   -26.6800    55.7600    24.0890     7.8020     6.5180     7.9880     2.1790 
  123.7500   -26.7830    57.4040    24.1080     7.7240     6.4630     7.9930     2.1730 
  123.8750   -26.8280    60.1270    24.1150     7.7220     6.4510     8.0320     2.1680 
  124.0000   -26.8020    62.2690    24.1150     7.8170     6.4650     8.0760     2.1680 
  124.1250   -26.7200    62.1020    24.1320     7.9780     6.4970     8.1190     2.1700 
  124.2500   -26.6030    60.3640    24.1710     8.0910     6.5310     8.1590     2.1680 
  124.3750   -26.4530    59.0440    24.2070     8.1450     6.5590     8.1860     2.1640 
  124.5000   -26.2600    59.8610    24.2210     8.1170     6.5780     8.1930     2.1630 
  124.6250   -26.0240    61.0190    24.2200     8.0350     6.6160     8.2110     2.1780 
  124.7500   -25.7380    59.6750    24.2340     8.0010     6.7350     8.3270     2.2090 
  124.8750   -25.4120    56.6220    24.2960     8.0900     7.0050     8.6400     2.2590 
  125.0000   -25.0560    54.5440    24.4370     8.3490     7.4540     9.2000     2.3250 
  125.1250   -24.6760    54.7920    24.5110     9.2760     8.0310     9.9390     2.3780 
  125.2500   -24.3120    54.8030    24.5360    11.4170     8.5370    10.5670     2.3860 
  125.3750   -23.9880    56.3630    24.5370    13.8260     8.7820    10.7950     2.3430 
  125.5000   -23.7290    61.1150    24.5320    13.9540     8.6610    10.4820     2.2790 
  125.6250   -23.5290    65.6060    24.5180    11.1520     8.2110     9.7620     2.2300 
  125.7500   -23.3740    65.1830    24.5000     8.7750     7.6830     9.0330     2.2030 
  125.8750   -23.2200    62.5040    24.4910     7.8620     7.2070     8.4580     2.1980 
  126.0000   -23.0350    61.3230    24.4900     7.7790     6.8020     8.0140     2.2130 
  126.1250   -22.7790    59.7440    24.4900     7.7360     6.3870     7.5450     2.2440 
  126.2500   -22.4210    58.7140    24.4920     7.3330     5.8850     6.9260     2.2760 
  126.3750   -21.9650    62.3870    24.5100     6.5230     5.3060     6.1840     2.2920 
  126.5000   -21.4410    68.5240    24.5720     5.3990     4.7450     5.4770     2.2810 
  126.6250   -20.8980    73.4830    24.6770     4.5630     4.3730     5.0550     2.2610 
  126.7500   -20.3700    81.2310    24.7170     4.4150     4.2590     4.9870     2.2710 
  126.8750   -19.8760    88.5420    24.6720     4.9410     4.4120     5.2690     2.3240 
  127.0000   -19.4360    86.1380    24.5930     5.8130     4.7730     5.8070     2.3890 
  127.1250   -19.0640    73.3600    24.5880     7.1510     5.1990     6.3830     2.4120 
  127.2500   -18.7460    67.1890    24.6580     8.7540     5.4810     6.6990     2.3920 
  127.3750   -18.4560    71.8370    24.7790     9.3100     5.4910     6.5960     2.3540 
  127.5000   -18.1780    79.1760    24.8870     8.0250     5.2300     6.1430     2.3250 
  127.6250   -17.8880    81.8970    24.9290     6.0640     4.8050     5.5640     2.3170 
  127.7500   -17.5830    82.4650    24.9360     5.1310     4.3770     5.0640     2.3170 
  127.8750   -17.3010    83.2830    24.9360     4.9050     4.0150     4.7030     2.3160 
  128.0000   -17.0650    84.8600    24.9370     4.7760     3.7390     4.4700     2.3100 
  128.1250   -16.9180    85.3630    24.9390     4.5600     3.5420     4.3250     2.3060 
  128.2500   -16.8700    84.6460    24.9370     4.3340     3.3990     4.2240     2.3140 
  128.3750   -16.9250    83.5280    24.9360     4.2370     3.3260     4.1890     2.3340 
  128.5000   -17.0650    82.0120    24.9360     4.2700     3.3500     4.2640     2.3580 
  128.6250   -17.3080    80.7450    24.9360     4.4860     3.5030     4.5050     2.3770 
  128.7500   -17.6360    80.1400    24.9320     5.0600     3.7610     4.8920     2.3870 
  128.8750   -18.0390    79.6080    24.9130     6.0870     4.0890     5.3860     2.3870 
  129.0000   -18.5060    77.8010    24.8590     6.6130     4.4360     5.9000     2.3720 
  129.1250   -19.0050    74.6900    24.7700     6.3100     4.7310     6.3100     2.3390 
  129.2500   -19.5270    72.0740    24.6840     5.8540     4.9540     6.5800     2.2960 
  129.3750   -20.0610    69.8190    24.6310     6.0410     5.1210     6.7380     2.2520 
  129.5000   -20.5870    70.0900    24.6150     6.3990     5.2700     6.8570     2.2130 
  129.6250   -21.0390    74.5750    24.6140     6.4590     5.4380     7.0070     2.1790 
  129.7500   -21.3880    74.7890    24.6140     6.5160     5.5990     7.1670     2.1580 
  129.8750   -21.5820    67.8520    24.6140     6.8200     5.6870     7.2390     2.1710 
  130.0000   -21.5860    61.9180    24.6140     7.2070     5.6400     7.1240     2.2240 
  130.1250   -21.3780    68.3340    24.6250     7.0770     5.4250     6.7730     2.2890 
  130.2500   -21.0180    79.0490    24.6770     6.4140     5.1250     6.3160     2.3260 
  130.3750   -20.5720    84.3370    24.7840     5.6200     4.8240     5.8840     2.3290 
  130.5000   -20.1070    85.5090    24.8530     5.1020     4.5960     5.5890     2.3120 
  130.6250   -19.6550    83.4470    24.8730     4.9980     4.4870     5.5050     2.2910 
  130.7500   -19.2490    79.4320    24.8710     5.0300     4.4620     5.5670     2.2750 
  130.8750   -18.9290    77.1910    24.8710     5.1640     4.4780     5.6930     2.2660 
  131.0000   -18.7190    77.5800    24.8710     5.2100     4.4870     5.7950     2.2600 
  131.1250   -18.6500    81.4110    24.8710     4.9990     4.4510     5.8010     2.2560 
