~V
VERS. 2.00: Ver 2.00
~W
STRT.M 120.0000:
STOP.M 235.0000:
STEP.M 0.1250:
NULL. -999.2500:
UWI. DF3022:
~C
DEPT.M :
SP.MV :
GR.API :
CALI.CM :
RXO.OHMM :
RI. :
RML.OHMM :
DEN.GM/CC :
~A
# ...
  153.7500   -26.4320    64.9190    25.1680    48.7160    55.4190    56.4560     2.2680 
  153.8750   -26.3710    63.1780    25.1680    42.0690    52.3510    53.4980     2.2600 
  154.0000   -26.3210    65.4650    25.1680    39.8730    51.6620    52.9920     2.2460 
  154.1250   -26.2700    68.5870    25.1680    42.4230    54.4550    56.0900     2.2230 
  154.2500   -26.2450    66.9580    25.1750    51.8680    60.4320    62.6490     2.1900 
  154.3750   -26.2320    61.6030    25.2130    73.0340    69.2150    72.5990     2.1560 
  154.5000   -26.2220    56.7720    25.3300    98.6450    79.5540    84.9980     2.1340 
  154.6250   -26.2180    55.5860    25.5080    95.1950    88.4850    96.6820     2.1350 
  154.7500   -26.2340    55.7450    25.6870    69.7670    93.1180   103.4630     2.1510 
  154.8750   -26.2430    55.4080    25.7820    50.0750    92.1320   103.2160     2.1730 
  155.0000   -26.2370    53.9100    25.8080    49.1690    86.2950    96.8900     2.1950 
  155.1250   -26.2200    52.4600    25.8070    52.1870    78.0470    87.5610     2.2030 
  155.2500   -26.1730    51.7270    25.8060    47.0220    70.7600    79.1350     2.1940 
  155.3750   -26.1190    51.0140    25.7930    40.5780    66.1920    73.4820     2.1760 
  155.5000   -26.0470    50.1720    25.7320    40.1770    65.2030    71.5160     2.1640 
  155.6250   -25.9670    48.7800    25.5460    44.8370    68.6410    74.2070     2.1670 
  155.7500   -25.8680    52.4900    25.3150    54.9500    74.9400    80.1430     2.1790 
  155.8750   -25.7460    63.4520    25.1540    71.1430    81.4610    86.6780     2.2020 
  156.0000   -25.5970    73.8470    25.0920    88.7880    84.0140    88.9710     2.2390 
  156.1250   -25.4290    73.4830    25.0840   102.0900    77.8010    81.3580     2.2880 
  156.2500   -25.2690    68.8670    25.0840    97.7880    65.6150    67.6440     2.3300 
  156.3750   -25.1030    67.3310    25.0840    73.5270    52.1410    53.3880     2.3540 
  156.5000   -24.9490    70.8310    25.0840    43.2720    41.1140    42.1680     2.3600 
  156.6250   -24.8120    74.4710    25.0840    26.7480    34.4270    35.5120     2.3530 
  156.7500   -24.7010    75.1010    25.0840    19.7420    31.0670    32.3410     2.3360 
  156.8750   -24.6250    71.4890    25.0840    17.9930    30.4950    32.1900     2.3080 
  157.0000   -24.5980    66.6720    25.0840    19.3920    32.3640    34.7000     2.2770 
  157.1250   -24.6190    62.4500    25.0840    26.8070    36.6360    39.7060     2.2520 
  157.2500   -24.6510    57.6460    25.0840    42.3540    42.1820    45.8050     2.2330 
  157.3750   -24.6840    53.7370    25.0840    56.8230    47.7860    51.4470     2.2210 
  157.5000   -24.6970    53.3190    25.0840    57.9140    52.1120    55.0490     2.2210 
  157.6250   -24.7010    56.3430    25.0840    47.8230    54.1210    55.6930     2.2350 
  157.7500   -24.6820    59.9160    25.0840    42.1960    54.6610    54.9070     2.2490 
  157.8750   -24.6510    61.5600    25.0840    41.7510    54.7130    54.0360     2.2540 
  158.0000   -24.5830    59.5320    25.0840    42.9450    54.8280    53.6980     2.2560 
  158.1250   -24.4700    56.7960    25.0840    43.8740    54.0980    52.9130     2.2630 
  158.2500   -24.3160    57.9690    25.0840    44.5340    50.8100    49.7590     2.2790 
  158.3750   -24.1330    60.7650    25.0840    47.2270    44.1090    43.2500     2.3000 
  158.5000   -23.9650    62.1340    25.0840    50.3980    35.2210    34.4610     2.3250 
  158.6250   -23.7840    64.9410    25.0840    43.8070    27.0500    26.1700     2.3530 
  158.7500   -23.6110    69.6510    25.0840    29.3550    21.2160    20.1250     2.3760 
  158.8750   -23.4370    71.9460    25.0840    17.2730    17.8560    16.6420     2.3810 
  159.0000   -23.2870    69.7700    25.0840    12.9590    16.6420    15.5290     2.3600 
  159.1250   -23.1720    69.2930    25.0840    14.9490    17.5550    16.7960     2.3220 
  159.2500   -23.1230    71.3940    25.0840    20.6860    19.9890    19.6080     2.2920 
  159.3750   -23.1240    74.1410    25.0840    27.1940    23.2660    23.0860     2.2880 
  159.5000   -23.1420    76.2590    25.0840    32.6000    26.0280    25.8320     2.3020 
  159.6250   -23.1840    78.2290    25.0840    34.8740    26.4550    26.1100     2.3120 
  159.7500   -23.2370    80.4400    25.0840    31.7890    25.0980    24.5120     2.3050 
  159.8750   -23.3020    81.7820    25.0840    23.9730    23.4150    22.5700     2.2930 
  160.0000   -23.4080    79.1830    25.0670    17.9630    22.6880    21.7620     2.2880 
  160.1250   -23.5100    70.9910    24.9820    19.1990    23.9470    23.2960     2.2870 
  160.2500   -23.5880    63.6460    24.8210    25.3310    27.2680    27.1370     2.2810 
  160.3750   -23.6600    62.2360    24.6540    33.8540    32.7770    33.2800     2.2690 
  160.5000   -23.7440    64.2300    24.4960    43.2900    40.1540    41.3330     2.2610 
  160.6250   -23.8180    65.3330    24.3600    51.6580    48.1670    50.1050     2.2650 
  160.7500   -23.8810    64.8800    24.2990    56.4530    55.0350    57.7300     2.2740 
  160.8750   -23.9330    64.2810    24.3140    58.0690    60.1390    63.3870     2.2780 
  161.0000   -23.9500    62.9850    24.4320    60.4770    63.8350    67.4010     2.2730 
  161.1250   -23.9520    61.3810    24.6480    65.8950    66.7180    70.5130     2.2600 
  161.2500   -23.9580    61.1990    24.8470    71.9670    69.2540    73.3000     2.2490 
  161.3750   -23.9520    60.6340    24.9260    76.5990    71.2240    75.5390     2.2440 
  161.5000   -23.9120    57.7870    24.9360    79.1900    71.8510    76.3740     2.2450 
  161.6250   -23.8560    55.5390    24.9350    80.6920    69.6930    74.1200     2.2500 
  161.7500   -23.8090    56.6500    24.9310    80.8920    64.9700    68.9020     2.2560 
  161.8750   -23.7670    59.1000    24.9160    75.5420    58.7040    61.8550     2.2580 
  162.0000   -23.7360    61.5950    24.8640    60.5030    52.4270    54.7510     2.2560 
  162.1250   -23.7100    67.6750    24.7190    40.6420    47.7510    49.4350     2.2560 
  162.2500   -23.6980    73.3720    24.5280    29.2710    45.0720    46.3640     2.2630 
  162.3750   -23.6930    73.0180    24.3990    29.9100    44.4100    45.5520     2.2700 
  162.5000   -23.7210    67.4240    24.3600    37.9350    45.5520    46.7240     2.2680 
  162.6250   -23.7900    61.8410    24.3950    47.3100    48.3660    49.6540     2.2580 
  162.7500   -23.8850    60.1450    24.4740    54.4940    52.1430    53.5580     2.2490 
  162.8750   -23.9980    62.5670    24.5770    61.0820    56.4250    57.9900     2.2420 
  163.0000   -24.1020    66.3030    24.6670    66.6190    60.7220    62.5260     2.2370 
  163.1250   -24.2210    65.7880    24.7190    69.3620    64.1670    66.3770     2.2390 
  163.2500   -24.3080    63.2770    24.7580    69.9700    65.9630    68.6440     2.2520 
  163.3750   -24.3790    65.3410    24.8160    69.5940    65.6350    68.6710     2.2700 
  163.5000   -24.4230    70.3080    24.9410    67.6360    63.5580    66.7350     2.2820 
  163.6250   -24.4380    69.0140    25.0720    61.2560    61.0750    64.2620     2.2780 
  163.7500   -24.4230    63.3580    25.1450    53.0910    59.8610    63.1220     2.2620 
  163.8750   -24.3900    59.9240    25.1660    49.4060    60.9490    64.4440     2.2400 
  164.0000   -24.3770    60.8410    25.1680    53.8880    64.8440    68.8010     2.2200 
  164.1250   -24.3600    62.9380    25.1680    64.7460    71.8380    76.6300     2.2100 
  164.2500   -24.3500    63.3910    25.1680    76.0630    80.4900    86.5080     2.2120 
  164.3750   -24.3460    61.4560    25.1680    85.4780    89.2320    96.7320     2.2210 
  164.5000   -24.3770    59.1210    25.1680    91.1790    96.3540   105.2040     2.2290 
  164.6250   -24.4400    60.0840    25.1680    94.3250   100.3490   109.9720     2.2270 
  164.7500   -24.4950    62.1420    25.1680    96.6090   101.8790   111.8700     2.2190 
  164.8750   -24.5730    60.9860    25.1680    98.0860   101.6220   111.8230     2.2110 
