~V
VERS. 2.00: Ver 2.00
~W
STRT.M 60.0000:
STOP.M 238.0000:
STEP.M 0.1250:
NULL. -999.2500:
UWI. DF308:
~C
DEPT.M :
DEN.GM/CC :
SP.MV :
AC.US/MT :
GR.API :
CALI.CM :
RXO.OHMM :
RI. :
RML.OHMM :
~A
# ...
  210.0000     2.4250   -16.0000   368.4760    89.4670    23.9130     7.0980     6.4380     7.9590 
  210.1250     2.4050   -16.0250   361.0640    75.9050    23.7780     7.0320     6.6100     8.2190 
  210.2500     2.3910   -16.0130   353.6910    62.2510    23.6980     7.1620     6.7700     8.4860 
  210.3750     2.3960   -15.9770   348.9860    54.4680    23.6670     7.4490     6.8910     8.6780 
  210.5000     2.4050   -15.9580   349.3900    52.3710    23.5930     7.5540     6.9580     8.7440 
  210.6250     2.4030   -15.9450   352.6830    52.4630    23.4680     7.3790     6.9720     8.7050 
  210.7500     2.3930   -15.9150   355.9040    51.1770    23.3860     7.1870     6.9730     8.6650 
  210.8750     2.3890   -15.9070   356.3050    49.0760    23.3980     7.2600     6.9910     8.6800 
  211.0000     2.3970   -15.9330   351.6730    49.8670    23.4860     7.5600     7.0410     8.7570 
  211.1250     2.4090   -15.9550   344.1100    54.0920    23.6390     7.9280     7.1140     8.8550 
  211.2500     2.4130   -15.9700   337.2550    57.2440    23.7600     8.1960     7.1720     8.9260 
  211.3750     2.4070   -15.9850   334.8320    57.8260    23.7670     8.2680     7.1950     8.9670 
  211.5000     2.4000   -15.9940   339.0420    57.9210    23.6450     8.2300     7.1790     8.9920 
  211.6250     2.3970   -15.9840   346.4410    59.6850    23.4990     8.1850     7.1520     9.0350 
  211.7500     2.4030   -15.9550   352.8370    61.7980    23.5420     8.2440     7.1620     9.1230 
  211.8750     2.4260   -15.9070   354.1630    62.2250    23.7110     8.3660     7.2440     9.2710 
  212.0000     2.4590   -15.8480   347.5560    60.7020    23.8070     8.7490     7.4090     9.4830 
  212.1250     2.4890   -15.7940   336.4260    61.4250    23.8450     9.4430     7.6420     9.7500 
  212.2500     2.5050   -15.7410   324.8110    65.4830    23.8810    10.4880     7.8790    10.0230 
  212.3750     2.5140   -15.6970   316.5060    70.9720    23.9090    11.7190     8.0600    10.2350 
  212.5000     2.5280   -15.6650   314.8930    74.8870    23.9050    12.5050     8.1450    10.3180 
  212.6250     2.5420   -15.6360   318.6520    74.1020    23.8930    11.9900     8.1100    10.2260 
  212.7500     2.5410   -15.6220   325.0590    70.9210    23.8990    10.3700     8.0030    10.0340 
  212.8750     2.5190   -15.6360   330.7700    67.4830    23.9320     9.0490     7.8630     9.8140 
  213.0000     2.4870   -15.6590   333.4490    64.9030    23.9920     8.8190     7.7230     9.6340 
  213.1250     2.4590   -15.6590   334.3720    61.8620    23.9800     8.8350     7.6120     9.5380 
  213.2500     2.4450   -15.6710   335.1890    58.5010    23.9410     8.3800     7.5390     9.5040 
  213.3750     2.4550   -15.7060   336.5300    57.2020    23.8900     8.0500     7.5070     9.5110 
  213.5000     2.4730   -15.7380   337.3290    57.7640    23.8660     7.9880     7.5140     9.5420 
  213.6250     2.4830   -15.7790   336.2950    57.6070    23.8790     7.9630     7.5580     9.5900 
  213.7500     2.4830   -15.8330   333.3160    57.0460    23.9350     7.8680     7.6300     9.6530 
  213.8750     2.4810   -15.8810   329.0750    57.8570    23.9830     7.9020     7.7300     9.7380 
  214.0000     2.4810   -15.9330   323.5000    58.1590    23.9880     7.9400     7.8570     9.8500 
  214.1250     2.4830   -16.0220   315.4900    57.0370    23.9620     8.1190     7.9990     9.9840 
  214.2500     2.4850   -16.1220   304.2590    58.0500    23.8970     8.4730     8.1300    10.1100 
  214.3750     2.4780   -16.2050   291.6330    62.7420    23.8120     8.8260     8.2180    10.1890 
  214.5000     2.4620   -16.2930   283.6560    67.9770    23.7400     9.0070     8.2330    10.1770 
  214.6250     2.4440   -16.4180   284.1760    67.8860    23.7210     9.1300     8.1470    10.0260 
  214.7500     2.4400   -16.5520   292.3860    64.6230    23.7430     9.3180     7.9890     9.7830 
  214.8750     2.4500   -16.6680   303.4400    61.4030    23.7280     9.3990     7.7990     9.5190 
  215.0000     2.4560   -16.7630   312.2310    61.4760    23.6580     9.2230     7.6270     9.3280 
  215.1250     2.4480   -16.8450   319.5300    64.4740    23.4800     9.1150     7.5310     9.3010 
  215.2500     2.4350   -16.9180   328.1760    66.7370    23.3190     9.7490     7.5210     9.4100 
  215.3750     2.4310   -16.9730   338.2140    70.0890    23.3900    11.1960     7.5840     9.5890 
  215.5000     2.4300   -16.9950   344.3870    74.8950    23.5420    12.7750     7.6900     9.7460 
  215.6250     2.4240   -16.9760   343.2440    76.7130    23.5400    12.1880     7.7970     9.7980 
  215.7500     2.4200   -16.9490   336.1140    73.7260    23.4220    10.6990     7.8730     9.7670 
  215.8750     2.4220   -16.9260   327.4810    70.7160    23.3350     9.5010     7.9090     9.7010 
  216.0000     2.4210   -16.9030   321.9710    70.8080    23.2370     8.8620     7.9130     9.6530 
  216.1250     2.4100   -16.8730   319.9620    72.8490    23.0330     8.3110     7.9030     9.6450 
  216.2500     2.3990   -16.8510   320.0810    75.9480    22.9180     7.9680     7.8930     9.6540 
  216.3750     2.4030   -16.8530   320.5040    79.4310    22.9270     7.9180     7.8840     9.6510 
  216.5000     2.4210   -16.8670   319.9620    81.4550    22.8820     8.1040     7.8740     9.6270 
  216.6250     2.4400   -16.8800   318.9940    81.1510    22.7900     8.1380     7.8610     9.5960 
  216.7500     2.4490   -16.8850   318.3760    79.6970    22.7310     7.7140     7.8440     9.5710 
  216.8750     2.4410   -16.8850   318.0670    77.6190    22.7980     7.1580     7.8240     9.5560 
  217.0000     2.4270   -16.8730   316.9050    75.4400    23.0290     6.9360     7.8080     9.5620 
  217.1250     2.4170   -16.8500   314.7180    74.5880    23.2660     7.0370     7.8090     9.6030 
  217.2500     2.4160   -16.8210   312.4320    75.0910    23.3840     7.2370     7.8320     9.6630 
  217.3750     2.4270   -16.7780   311.1570    76.4270    23.3810     7.3930     7.8790     9.7290 
  217.5000     2.4480   -16.7320   311.3180    78.3650    23.3730     7.5650     7.9440     9.7970 
  217.6250     2.4690   -16.6760   311.8720    79.0830    23.4170     7.8800     8.0130     9.8540 
  217.7500     2.4820   -16.6040   311.9740    77.9650    23.5050     8.3510     8.0780     9.8800 
  217.8750     2.4820   -16.5280   311.3140    74.1790    23.6330     8.9540     8.1410     9.8740 
  218.0000     2.4720   -16.4520   310.3170    68.0600    23.7220     9.7440     8.2070     9.8590 
  218.1250     2.4490   -16.3850   309.8140    61.1460    23.6930     9.8000     8.2900     9.8880 
  218.2500     2.4190   -16.3240   310.0160    57.2710    23.6230     9.4430     8.3950    10.0030 
  218.3750     2.4020   -16.2670   310.2710    57.6680    23.5250     9.2380     8.5180    10.2060 
  218.5000     2.4120   -16.2260   309.1870    60.5640    23.4170     9.4620     8.6420    10.4340 
  218.6250     2.4400   -16.2080   306.6850    62.5060    23.3980     9.6960     8.7370    10.5570 
  218.7500     2.4710   -16.2140   304.0060    62.5160    23.4370     9.5690     8.7840    10.5430 
  218.8750     2.4980   -16.2340   302.8990    61.7960    23.5060     9.2870     8.7700    10.4240 
  219.0000     2.5150   -16.2690   304.3710    62.5890    23.4720     9.0500     8.6990    10.2650 
  219.1250     2.5150   -16.3250   306.7890    64.4300    23.4930     8.9360     8.5930    10.1440 
  219.2500     2.5000   -16.4030   308.6010    65.4020    23.5700     8.8090     8.4930    10.0900 
  219.3750     2.4840   -16.5040   308.8730    65.8490    23.6240     8.6310     8.4310    10.0980 
  219.5000     2.4770   -16.6100   307.2100    65.9990    23.6330     8.4770     8.4230    10.1560 
  219.6250     2.4730   -16.7170   305.2070    66.3710    23.6340     8.6190     8.4780    10.2670 
  219.7500     2.4630   -16.8240   305.4580    67.3710    23.6400     8.8630     8.5680    10.4050 
  219.8750     2.4570   -16.9260   309.8510    69.5650    23.6820     8.8320     8.6710    10.5330 
