~V
VERS. 2.00: Ver 2.00
~W
STRT.M 125.0000:
STOP.M 269.0000:
STEP.M 0.1250:
NULL. -999.2500:
UWI. DF3036:
~C
DEPT.M :
GR.API :
RML.OHMM :
RI. :
RXO.OHMM :
CALI.CM :
DEN.GM/CC :
SP.MV :
~A
# ...
  136.2500    67.9590    16.7230    13.9130    13.1680    23.4490     2.1730   -32.8770 
  136.3750    67.0820    16.7580    14.2030    14.0190    23.3180     2.1680   -32.8780 
  136.5000    70.7660    16.1930    13.9370    13.6190    23.1390     2.1580   -32.8250 
  136.6250    74.8470    15.3750    13.3460    12.7970    23.0920     2.1460   -32.8480 
  136.7500    75.3680    14.7220    12.7970    12.2740    23.0730     2.1350   -32.7640 
  136.8750    74.0420    14.3940    12.4550    12.0730    23.0200     2.1290   -32.7300 
  137.0000    72.7660    14.3750    12.3510    11.9970    22.9400     2.1260   -32.6230 
  137.1250    70.6070    14.5440    12.4350    11.9750    22.8840     2.1280   -32.5560 
  137.2500    69.0010    14.7090    12.5680    12.0060    22.8670     2.1340   -32.4770 
  137.3750    70.0480    14.7890    12.6780    11.9770    22.9080     2.1430   -32.3790 
  137.5000    73.3010    14.7740    12.7390    11.7960    22.9630     2.1550   -32.2690 
  137.6250    74.5270    14.7140    12.7660    11.6290    22.9350     2.1660   -32.1590 
  137.7500    73.6880    14.6820    12.8010    11.4100    22.8490     2.1730   -32.0740 
  137.8750    73.5570    14.7090    12.8620    11.1690    22.7780     2.1760   -32.0200 
  138.0000    74.1600    14.7820    12.9430    10.9660    22.7430     2.1760   -31.9760 
  138.1250    74.6060    14.8260    12.9900    11.0120    22.7110     2.1740   -31.9750 
  138.2500    74.2890    14.7500    12.9390    11.0450    22.6360     2.1750   -31.9820 
  138.3750    73.6370    14.4950    12.7410    11.0050    22.5190     2.1800   -32.0040 
  138.5000    73.3380    14.0710    12.3980    10.9340    22.3950     2.1920   -32.0430 
  138.6250    74.5380    13.5740    11.9730    10.8680    22.3120     2.2090   -32.0750 
  138.7500    78.1160    13.1720    11.5990    10.6980    22.2830     2.2230   -32.1140 
  138.8750    81.6100    12.9760    11.3730    10.2620    22.2700     2.2270   -32.1380 
  139.0000    81.4660    13.0280    11.3430     9.7500    22.2450     2.2200   -32.2080 
  139.1250    77.7750    13.3110    11.5260     9.7820    22.1840     2.2020   -32.2010 
  139.2500    75.3280    13.6740    11.8140    10.1080    22.1290     2.1830   -32.2840 
  139.3750    75.0050    14.0080    12.1200    10.3920    22.0820     2.1690   -32.3040 
  139.5000    75.2980    14.2340    12.3640    10.7320    22.0520     2.1630   -32.3790 
  139.6250    77.0620    14.3000    12.4750    11.0150    22.0350     2.1620   -32.4080 
  139.7500    78.3490    14.2590    12.4730    11.0250    22.0000     2.1650   -32.4490 
  139.8750    76.0570    14.1630    12.3930    10.8890    21.9220     2.1670   -32.5000 
  140.0000    71.4950    14.0650    12.2820    10.7710    21.8490     2.1690   -32.5320 
  140.1250    69.8130    14.0110    12.1890    10.6290    21.7740     2.1680   -32.5760 
  140.2500    71.0880    14.0170    12.1440    10.4860    21.7450     2.1650   -32.5130 
  140.3750    72.0830    14.0840    12.1570    10.4470    21.7360     2.1600   -32.4970 
  140.5000    72.5070    14.1940    12.2200    10.5610    21.7360     2.1550   -32.4280 
  140.6250    72.9540    14.3110    12.3030    10.8050    21.7340     2.1530   -32.4030 
  140.7500    73.6000    14.3800    12.3560    10.9420    21.7190     2.1530   -32.3670 
  140.8750    75.3150    14.3590    12.3410    11.0210    21.6780     2.1550   -32.3390 
  141.0000    78.0760    14.2270    12.2320    11.0440    21.6430     2.1570   -32.3180 
  141.1250    78.7210    13.9830    12.0210    11.0490    21.6350     2.1560   -32.3410 
  141.2500    76.8350    13.7010    11.7660    11.1380    21.6750     2.1560   -32.4070 
  141.3750    74.5550    13.4510    11.5230    11.3430    21.7320     2.1580   -32.5130 
  141.5000    72.7760    13.2940    11.3480    11.5870    21.8420     2.1650   -32.6350 
  141.6250    70.4990    13.2810    11.2950    11.7980    22.1350     2.1750   -32.7790 
  141.7500    69.9100    13.3750    11.3430    12.0680    22.5420     2.1830   -32.9040 
  141.8750    71.0270    13.5300    11.4570    12.3910    22.8930     2.1870   -33.0200 
  142.0000    71.9520    13.6900    11.5870    12.5060    23.0670     2.1840   -33.0690 
  142.1250    72.0250    13.7920    11.6750    12.6210    23.1010     2.1780   -33.1080 
  142.2500    71.7880    13.8240    11.7020    12.6510    23.1040     2.1710   -33.0810 
  142.3750    71.2010    13.7980    11.6750    12.5990    23.1040     2.1670   -32.9670 
  142.5000    70.1070    13.7390    11.6190    12.4970    23.1040     2.1670   -32.8920 
  142.6250    69.7830    13.6590    11.5540    12.4320    23.1040     2.1710   -32.6610 
  142.7500    69.0060    13.5520    11.4810    12.3890    23.1040     2.1770   -32.4890 
  142.8750    66.8320    13.4090    11.3930    12.3040    23.1040     2.1830   -32.2620 
  143.0000    64.9930    13.2570    11.3000    12.2100    23.1040     2.1870   -32.0680 
  143.1250    65.8810    13.2030    11.2650    12.0960    23.1040     2.1870   -31.7600 
  143.2500    69.4360    13.3640    11.3740    11.9720    23.1070     2.1840   -31.4240 
  143.3750    72.8070    13.7860    11.6750    11.8680    23.1230     2.1780   -31.0700 
  143.5000    73.6570    14.3640    12.1150    11.8340    23.1700     2.1750   -30.5660 
  143.6250    72.3810    14.7570    12.4600    12.0620    23.2810     2.1780   -30.1130 
  143.7500    71.9550    14.6380    12.4390    12.5490    23.5180     2.1910   -29.5380 
  143.8750    75.3560    13.8600    11.8920    13.3380    23.8750     2.2120   -28.9760 
  144.0000    81.8120    12.5330    10.8570    13.9090    24.2000     2.2380   -28.3870 
  144.1250    87.1610    11.0210     9.5780    12.3640    24.3910     2.2600   -27.9280 
  144.2500    89.8330     9.7560     8.4200     9.1210    24.4020     2.2710   -27.5080 
  144.3750    90.8950     8.9130     7.5500     7.6150    24.2960     2.2720   -27.1480 
  144.5000    91.8440     8.4670     6.9940     7.4100    24.2090     2.2680   -26.8310 
  144.6250    95.4820     8.2950     6.7080     7.3580    24.3100     2.2650   -26.5560 
  144.7500   101.2100     8.1860     6.5410     7.0580    24.5210     2.2640   -26.3950 
  144.8750   104.5020     8.0510     6.4160     6.6130    24.7360     2.2670   -26.2650 
  145.0000   103.3660     7.8890     6.3030     6.4320    24.8400     2.2740   -26.1960 
  145.1250   101.8430     7.7660     6.2330     6.3640    24.8390     2.2860   -26.1000 
  145.2500   103.5960     7.7410     6.2370     6.2900    24.8150     2.2990   -26.1050 
  145.3750   105.1860     7.8380     6.3360     6.2350    24.7610     2.3060   -26.0910 
  145.5000   104.7430     8.0520     6.5330     6.4440    24.6270     2.3020   -26.2210 
  145.6250   103.0780     8.3590     6.8120     6.8650    24.3510     2.2880   -26.3150 
  145.7500   100.6110     8.6840     7.1130     7.1820    24.0230     2.2730   -26.3700 
  145.8750    98.5140     8.9680     7.3820     7.3700    23.7290     2.2670   -26.4340 
  146.0000    97.4880     9.1620     7.5720     7.6350    23.6910     2.2720   -26.4100 
  146.1250    97.5030     9.2180     7.6310     8.2770    24.0020     2.2850   -26.3880 
  146.2500    97.1070     9.1640     7.5790     8.5310    24.4240     2.2950   -26.2730 
  146.3750    96.9870     9.0230     7.4330     8.1470    24.6800     2.2950   -26.1790 
  146.5000    98.0900     8.8120     7.2110     7.6300    24.7130     2.2880   -26.0070 
  146.6250    99.5570     8.5300     6.9150     7.2300    24.5890     2.2800   -25.8380 
  146.7500   100.5900     8.1920     6.5680     6.8520    24.3480     2.2780   -25.7080 
  146.8750   102.6040     7.8120     6.1850     6.5670    24.1640     2.2820   -25.5420 
  147.0000   106.9830     7.4190     5.7950     6.3460    24.2570     2.2880   -25.4700 
  147.1250   110.1200     7.0710     5.4490     5.8760    24.5650     2.2960   -25.3940 
  147.2500   109.3440     6.8200     5.1900     5.5540    24.8010     2.3050   -25.4270 
  147.3750   106.1440     6.7130     5.0560     5.3920    24.8850     2.3160   -25.4930 
