~V
VERS. 2.00: Ver 2.00
~W
STRT.M 100.0000:
STOP.M 258.0000:
STEP.M 0.1250:
NULL. -999.2500:
UWI. DF3025:
~C
DEPT.M :
AC.US/MT :
DEN.GM/CC :
GR.API :
CALI.CM :
RXO.OHMM :
RI. :
RML.OHMM :
SP.MV :
~A
# ...
  180.0000   415.0300     2.2470    64.3660    23.3010    95.4440   156.7710   171.0780   -37.1980 
  180.1250   409.7800     2.2650    59.5130    23.3180    96.6180   161.6520   175.0650   -37.0580 
  180.2500   399.6570     2.2950    56.6270    23.6150   108.2300   164.5510   176.6280   -36.9560 
  180.3750   381.9290     2.3320    56.4740    24.0060   133.0460   165.3350   175.8480   -36.8550 
  180.5000   360.0990     2.3630    58.3350    24.2830   145.9030   163.8270   172.8070   -36.6920 
  180.6250   347.3780     2.3700    58.8050    24.3450   147.0170   159.1690   166.8880   -36.4550 
  180.7500   353.6620     2.3480    57.5250    24.3150   156.7460   151.7550   158.4160   -36.1830 
  180.8750   376.6230     2.3100    57.1830    24.2930   144.7060   142.7280   148.3520   -35.9120 
  181.0000   402.8860     2.2700    57.7960    24.3170   110.8980   133.9390   138.4780   -35.6420 
  181.1250   416.9090     2.2400    58.3760    24.3710    78.9310   126.9340   130.5890   -35.3540 
  181.2500   421.3540     2.2210    58.7830    24.4300    82.9300   121.1400   124.3840   -35.0670 
  181.3750   423.4590     2.2180    60.4890    24.4760   101.7420   115.3720   118.7500   -34.7740 
  181.5000   421.9710     2.2350    63.7560    24.4890   117.9340   108.4260   112.4360   -34.4650 
  181.6250   407.6510     2.2720    65.3370    24.3820   106.2380    99.2000   104.2740   -34.1160 
  181.7500   385.0200     2.3150    63.9120    24.1420    86.5430    88.1320    94.3120   -33.7170 
  181.8750   370.5230     2.3490    62.8900    23.8750    72.0660    76.1930    83.0910   -33.3020 
  182.0000   378.3900     2.3590    65.2190    23.7160    65.2360    64.8140    71.7550   -32.8980 
  182.1250   406.1880     2.3380    68.8980    23.7030    56.2510    55.7090    62.0200   -32.5330 
  182.2500   426.5200     2.3120    70.7220    23.7410    41.1770    49.0390    54.5200   -32.1840 
  182.3750   418.6280     2.3170    70.8480    23.8140    31.6370    44.4470    49.1680   -31.8180 
  182.5000   382.7170     2.3630    70.3200    23.9110    31.6760    41.1270    45.2800   -31.4370 
  182.6250   345.3050     2.4130    70.6270    23.9850    39.8870    38.1170    41.8920   -31.0400 
  182.7500   337.1340     2.4230    72.1210    24.0120    47.8810    34.7810    38.2450   -30.6470 
  182.8750   360.0870     2.3960    73.1010    23.9900    44.0320    31.1120    34.2590   -30.2620 
  183.0000   391.7500     2.3540    72.3030    23.9470    30.0040    27.4070    30.1920   -29.8830 
  183.1250   405.7930     2.3160    73.3290    23.8880    19.1630    24.0830    26.4820   -29.5340 
  183.2500   403.6090     2.2900    75.4410    23.7670    17.1530    21.2990    23.3350   -29.1880 
  183.3750   398.3110     2.2840    75.5760    23.5670    19.4820    19.1890    20.8820   -28.8230 
  183.5000   397.5850     2.2980    73.5950    23.3890    18.9060    17.9540    19.2820   -28.4190 
  183.6250   400.9550     2.3250    73.4700    23.4050    14.9310    18.1910    19.0340   -27.9820 
  183.7500   396.3460     2.3550    75.1070    23.5460    15.6220    20.1730    20.4640   -27.5670 
  183.8750   370.7710     2.3940    75.3420    23.6850    23.8100    24.3460    24.2850   -27.1920 
  184.0000   321.9460     2.4540    72.0470    23.7540    37.9100    30.9380    31.0170   -26.8480 
  184.1250   265.9250     2.5410    66.0570    23.7530    66.2540    38.5580    39.4280   -26.4910 
  184.2500   230.0620     2.6110    61.2760    23.7050    93.3990    41.6100    43.7790   -26.0910 
  184.3750   228.3520     2.6210    61.1460    23.5960    97.8050    35.7840    39.2990   -25.6600 
  184.5000   260.1070     2.5700    64.2910    23.4470    68.5690    24.7810    28.4830   -25.2020 
  184.6250   310.9600     2.5020    66.0100    23.3430    30.2620    15.9120    18.5330   -24.7370 
  184.7500   353.9640     2.4570    67.4580    23.4040    11.1630    10.5670    12.1060   -24.2790 
  184.8750   376.0830     2.4310    73.0300    23.7240     5.7780     7.7950     8.5830   -23.8520 
  185.0000   378.3990     2.4130    82.1900    24.2290     5.4770     6.6190     6.8810   -23.4880 
  185.1250   374.4070     2.4040    88.8870    24.6100     6.0220     6.4420     6.3330   -23.2460 
  185.2500   377.4870     2.4070    90.4230    24.6870     6.4440     6.6250     6.3150   -23.1430 
  185.3750   387.7760     2.4190    87.8990    24.5830     6.6230     6.8460     6.5260   -23.1580 
  185.5000   398.8450     2.4240    85.5330    24.5460     6.6600     6.8970     6.7040   -23.2530 
  185.6250   402.2760     2.4060    88.4240    24.6250     6.4550     6.7130     6.6560   -23.3790 
  185.7500   399.6070     2.3760    92.8210    24.6670     5.9960     6.4740     6.3950   -23.5110 
  185.8750   394.9600     2.3450    91.2970    24.6490     5.5370     6.2110     6.0920   -23.6600 
  186.0000   391.9730     2.3240    81.5480    24.6350     5.4470     5.9520     5.8670   -23.8350 
  186.1250   390.1240     2.3200    69.1420    24.6390     5.6120     5.7510     5.7580   -24.0200 
  186.2500   387.8120     2.3190    62.2690    24.6130     5.5800     5.6150     5.7360   -24.1690 
  186.3750   385.9180     2.2960    62.0040    24.6170     5.5340     5.5390     5.7750   -24.2860 
  186.5000   386.2290     2.2450    64.7620    24.7120     5.6170     5.5110     5.8590   -24.4010 
  186.6250   390.4390     2.1940    66.5380    24.8590     5.6750     5.5440     6.0060   -24.5700 
  186.7500   395.7070     2.1810    70.4410    24.9430     5.9420     5.6490     6.2310   -24.8120 
  186.8750   398.9050     2.2200    78.7610    24.9170     6.1170     5.8410     6.5570   -25.1270 
  187.0000   397.9920     2.3030    88.4820    24.8000     6.0580     6.1220     6.9760   -25.5070 
  187.1250   393.1890     2.3940    94.7670    24.6320     6.8850     6.4730     7.4500   -25.9390 
  187.2500   389.5400     2.4540    98.3140    24.4770     7.8790     6.8160     7.8970   -26.4200 
  187.3750   389.3380     2.4730   100.5100    24.3720     8.2610     7.0820     8.2520   -26.9350 
  187.5000   391.7730     2.4700   101.2190    24.3110     8.2050     7.2250     8.4730   -27.4490 
  187.6250   394.8400     2.4590   101.1030    24.2440     8.4830     7.2110     8.5270   -27.9190 
  187.7500   398.8280     2.4390   100.4360    24.1440     8.5460     7.0910     8.4600   -28.3150 
  187.8750   405.0160     2.4170    99.9360    24.0520     8.3340     6.9000     8.3110   -28.6360 
  188.0000   412.1620     2.4060   101.1800    23.9850     8.0390     6.6610     8.1100   -28.8920 
  188.1250   417.9600     2.4160   104.5040    23.9280     7.5570     6.4010     7.9110   -29.0900 
  188.2500   420.7490     2.4290   106.6120    23.8810     7.0470     6.1890     7.8050   -29.2460 
  188.3750   419.6250     2.4420   107.1260    23.8660     6.9360     6.1080     7.8920   -29.3600 
  188.5000   413.2260     2.4570   107.4090    23.8860     7.0820     6.2290     8.2560   -29.4600 
  188.6250   400.4980     2.4710   104.7870    23.9160     7.6340     6.6250     8.9590   -29.5780 
  188.7500   386.6580     2.4750    99.4760    23.9180     9.5800     7.2180     9.8390   -29.7200 
  188.8750   378.5380     2.4710    95.0630    23.8560    12.0330     7.8830    10.6790   -29.8600 
  189.0000   380.8630     2.4640    93.8680    23.7220    13.1680     8.4360    11.2260   -29.9690 
  189.1250   392.8350     2.4540    94.5630    23.5480    12.6530     8.6660    11.2710   -30.0380 
  189.2500   405.4470     2.4430    93.8810    23.3950    11.1970     8.6110    10.9890   -30.0740 
  189.3750   412.0210     2.4380    91.5960    23.2960    10.0550     8.3870    10.6020   -30.0570 
  189.5000   408.6490     2.4500    88.8910    23.2490     9.9180     8.1270    10.2850   -29.9440 
  189.6250   397.2610     2.4750    88.9060    23.2360    10.5590     7.9070    10.0870   -29.6850 
  189.7500   389.1860     2.4940    91.9780    23.2300    10.6910     7.6900     9.8920   -29.3260 
  189.8750   393.2040     2.4970    95.2170    23.2680     9.9400     7.4130     9.5950   -28.9180 
