~V
VERS. 2.00: Ver 2.00
~W
STRT.M 120.0000:
STOP.M 268.0000:
STEP.M 0.1250:
NULL. -999.2500:
UWI. DF3028:
~C
DEPT.M :
DEN.GM/CC :
GR.API :
CALI.CM :
RXO.OHMM :
RI. :
RML.OHMM :
SP.MV :
~A
# ...
  232.5000     2.2520    67.9990    27.2430    35.1350    27.2170    31.4620   -22.5240 
  232.6250     2.2530    71.8930    27.2390    33.3920    26.9760    31.1770   -22.5030 
  232.7500     2.2590    73.9750    27.2410    29.7010    26.3380    30.4030   -22.4500 
  232.8750     2.2650    73.7960    27.2460    27.1790    25.3940    29.2470   -22.3670 
  233.0000     2.2670    71.5750    27.2520    26.3050    24.2960    27.8910   -22.2470 
  233.1250     2.2670    68.2810    27.2570    25.6010    23.2570    26.5920   -22.0790 
  233.2500     2.2660    65.6760    27.2560    24.4380    22.4620    25.5930   -21.8710 
  233.3750     2.2640    65.5610    27.2500    23.1880    22.0670    25.1150   -21.6440 
  233.5000     2.2600    68.4760    27.2420    22.3660    22.2230    25.3720   -21.3840 
  233.6250     2.2580    69.7480    27.2370    22.8650    23.1480    26.6370   -21.0920 
  233.7500     2.2560    65.7300    27.2480    24.7460    24.6300    28.5690   -20.8060 
  233.8750     2.2530    60.2700    27.2450    27.2840    26.2720    30.5920   -20.5230 
  234.0000     2.2550    59.2200    27.1740    29.3040    27.4010    31.8160   -20.2270 
  234.1250     2.2670    62.4280    27.0550    29.3140    26.9980    30.9990   -19.9510 
  234.2500     2.2840    65.8690    27.0300    26.9900    25.0770    28.3290   -19.7040 
  234.3750     2.2940    69.1910    27.1380    23.1550    22.2560    24.6980   -19.4670 
  234.5000     2.2990    71.4520    27.2770    19.3100    19.4550    21.2820   -19.2490 
  234.6250     2.3010    70.7630    27.3310    16.6670    17.5290    19.1430   -19.0600 
  234.7500     2.2960    69.1110    27.3310    15.5400    16.6400    18.4210   -18.8900 
  234.8750     2.2730    67.5080    27.3240    16.3580    16.8290    19.1120   -18.7400 
  235.0000     2.2460    65.2270    27.3240    19.0260    18.0370    21.0640   -18.6130 
  235.1250     2.2340    63.3750    27.3240    22.3020    20.1720    24.0100   -18.4920 
  235.2500     2.2410    63.4700    27.3260    24.9320    22.6400    27.1350   -18.3870 
  235.3750     2.2540    64.5260    27.3260    27.1300    24.8600    29.7080   -18.2870 
  235.5000     2.2600    65.5590    27.3220    29.2040    26.2900    31.1360   -18.1860 
  235.6250     2.2570    66.5550    27.3170    29.4630    26.4720    30.9990   -18.0700 
  235.7500     2.2510    67.3350    27.3110    27.3360    25.7260    29.8210   -17.9280 
  235.8750     2.2460    68.4690    27.2940    24.4150    24.3950    28.0660   -17.7600 
  236.0000     2.2470    71.5240    27.2630    22.3280    22.8030    26.1260   -17.5800 
  236.1250     2.2500    74.4130    27.2460    21.1780    21.2060    24.2990   -17.3810 
  236.2500     2.2520    73.9800    27.2560    20.5530    19.7970    22.7680   -17.1480 
  236.3750     2.2570    71.7070    27.2700    20.3630    18.6810    21.6100   -16.9060 
  236.5000     2.2670    70.6630    27.2760    20.0150    17.8410    20.7570   -16.6530 
  236.6250     2.2770    72.2540    27.2730    19.9810    17.2320    20.1240   -16.3930 
  236.7500     2.2860    72.5980    27.2660    21.6650    16.8060    19.6840   -16.1410 
  236.8750     2.3080    70.9380    27.2530    23.5080    16.5720    19.4600   -15.9110 
  237.0000     2.3510    69.3530    27.2350    22.9850    16.4980    19.4240   -15.7010 
  237.1250     2.4110    69.1580    27.2690    22.4110    16.5730    19.5790   -15.5230 
  237.2500     2.4760    69.4880    27.3780    25.3800    16.7380    19.8510   -15.3950 
  237.3750     2.5110    71.5850    27.5300    28.0900    16.8920    20.0910   -15.3130 
  237.5000     2.4880    76.9680    27.6590    25.9970    16.9120    20.1450   -15.2700 
  237.6250     2.4230    81.3000    27.7160    21.1890    16.7330    19.9690   -15.2770 
  237.7500     2.3700    81.0980    27.6710    18.7570    16.4150    19.6590   -15.3250 
  237.8750     2.3810    78.9230    27.5030    18.0550    15.9590    19.2130   -15.3990 
  238.0000     2.4260    77.9810    27.2860    17.6840    15.3450    18.5850   -15.4830 
  238.1250     2.4660    79.2460    27.1640    18.3750    14.4870    17.6170   -15.5650 
  238.2500     2.4760    79.6940    27.1610    19.3400    13.3870    16.2660   -15.6220 
  238.3750     2.4610    79.0680    27.2170    18.2340    12.1270    14.6430   -15.6370 
  238.5000     2.4520    77.8870    27.2730    14.4910    10.8990    13.0420   -15.6200 
  238.6250     2.4700    76.6500    27.2960    10.4890     9.9400    11.8270   -15.5600 
  238.7500     2.5010    76.7470    27.3100     8.2520     9.2960    11.0770   -15.4620 
  238.8750     2.5110    77.2490    27.3480     7.6760     8.9570    10.7680   -15.3150 
  239.0000     2.4930    76.4130    27.4060     7.9490     8.8560    10.7810   -15.1460 
  239.1250     2.4610    74.7010    27.4530     8.3830     8.8900    10.9130   -14.9700 
  239.2500     2.4370    74.6880    27.4790     8.7370     8.9080    10.9440   -14.7960 
  239.3750     2.4240    74.7370    27.4920     9.2100     8.8450    10.8120   -14.6250 
  239.5000     2.4110    71.1640    27.4920     9.8320     8.7040    10.5660   -14.4750 
  239.6250     2.3950    66.9030    27.4930    10.1560     8.5240    10.3070   -14.3580 
  239.7500     2.3850    67.7790    27.4940     9.9730     8.3420    10.0920   -14.2470 
  239.8750     2.3880    71.9620    27.4880     9.5460     8.1640     9.9150   -14.1650 
  240.0000     2.3940    74.7430    27.4710     9.2310     7.9840     9.7470   -14.0950 
  240.1250     2.3970    75.0080    27.4470     9.0280     7.7910     9.5510   -14.0120 
  240.2500     2.3980    76.2460    27.4220     8.6100     7.5830     9.3220   -13.9160 
  240.3750     2.4020    77.3720    27.3920     8.0170     7.3710     9.0830   -13.8290 
  240.5000     2.4100    74.6640    27.3540     7.7110     7.1710     8.8660   -13.7450 
  240.6250     2.4160    68.7080    27.3140     8.0820     7.0110     8.7170   -13.6620 
  240.7500     2.4200    65.3950    27.2770     8.5030     6.9010     8.6440   -13.5910 
  240.8750     2.4220    66.8500    27.2340     8.4200     6.8410     8.6400   -13.5370 
  241.0000     2.4210    69.7410    27.1850     7.9400     6.8220     8.6810   -13.4890 
  241.1250     2.4210    70.8030    27.1560     7.6440     6.8380     8.7480   -13.4620 
  241.2500     2.4230    71.8990    27.1480     7.5810     6.8790     8.8320   -13.4590 
  241.3750     2.4240    74.2660    27.1500     7.5510     6.9480     8.9460   -13.4560 
  241.5000     2.4170    76.3480    27.1500     7.5310     7.0490     9.1030   -13.4500 
  241.6250     2.4060    75.5530    27.1500     7.5780     7.1910     9.3120   -13.4330 
  241.7500     2.4010    71.7160    27.1500     7.5320     7.3500     9.5430   -13.4060 
  241.8750     2.4030    68.1860    27.1500     7.3130     7.4970     9.7560   -13.3490 
  242.0000     2.4020    67.9180    27.1500     7.0530     7.6000     9.9080   -13.2880 
  242.1250     2.3980    69.7180    27.1500     6.9910     7.6220     9.9490   -13.2270 
  242.2500     2.4000    70.5500    27.1500     7.1200     7.5760     9.8980   -13.1600 
  242.3750     2.4170    70.4450    27.1500     7.2960     7.4870     9.7910   -13.1020 
  242.5000     2.4420    69.4830    27.1500     7.3630     7.3920     9.6850   -13.0660 
  242.6250     2.4590    67.6510    27.1500     7.2290     7.3390     9.6630   -13.0610 
  242.7500     2.4550    65.9080    27.1500     7.0040     7.3500     9.7520   -13.0920 
  242.8750     2.4320    66.1950    27.1500     6.8140     7.4330     9.9540   -13.1640 
  243.0000     2.4110    69.0470    27.1500     6.7340     7.5720    10.2340   -13.2670 
  243.1250     2.4010    71.1150    27.1500     6.7570     7.7330    10.5220   -13.3970 
  243.2500     2.3980    70.7510    27.1490     6.7720     7.8650    10.7470   -13.5420 
  243.3750     2.4030    70.2920    27.1540     6.7680     7.9430    10.8800   -13.7030 
  243.5000     2.4120    72.0080    27.1710     6.9170     7.9630    10.9220   -13.8560 
  243.6250     2.4200    74.8520    27.1960     7.3590     7.9420    10.9060   -13.9900 
