~V
VERS. 2.00: Ver 2.00
~W
STRT.M 105.0000:
STOP.M 279.0000:
STEP.M 0.1250:
NULL. -999.2500:
UWI. DF3027:
~C
DEPT.M :
DEN.GM/CC :
AC.US/MT :
GR.API :
CALI.CM :
RXO.OHMM :
RI. :
RML.OHMM :
SP.MV :
~A
# ...
  165.0000     2.1910   395.3110    60.0280    41.8010    73.7660    58.4880    77.0740   -25.8980 
  165.1250     2.1720   395.7730    59.4450    41.7880   103.7350    74.7650   101.0890   -25.3750 
  165.2500     2.1620   397.0660    59.9390    41.7430   112.1150    93.9230   129.8560   -24.9260 
  165.3750     2.1620   397.8880    60.2380    41.6620   105.9700   110.2180   154.8770   -24.5490 
  165.5000     2.1660   397.0650    61.4110    41.5260   101.8400   118.0600   166.3610   -24.2290 
  165.6250     2.1700   394.1250    64.9290    41.2990    97.1110   115.6140   161.1320   -23.9900 
  165.7500     2.1690   390.5510    67.2530    41.0300    88.2820   108.8720   149.8170   -23.7990 
  165.8750     2.1690   387.7870    65.4530    40.7740    80.4510   101.3510   137.9850   -23.6380 
  166.0000     2.1760   386.7110    61.6310    40.5420    78.2330    94.5780   127.4570   -23.4860 
  166.1250     2.1890   387.5310    60.0060    40.2950    79.5100    88.9330   118.3980   -23.3590 
  166.2500     2.1990   389.3870    62.4290    40.0220    78.9360    83.9970   110.2010   -23.2300 
  166.3750     2.2040   391.8110    66.1340    39.7450    75.6590    79.6280   102.7980   -23.0900 
  166.5000     2.2070   394.3080    68.2510    39.4720    71.3010    75.8560    96.3310   -22.9450 
  166.6250     2.2120   395.9530    68.6430    39.1940    68.1580    72.5850    90.5660   -22.7630 
  166.7500     2.2180   396.3020    67.3010    38.9060    66.8370    68.6410    83.7830   -22.5330 
  166.8750     2.2250   395.5910    64.6230    38.6240    66.2580    62.3260    74.0080   -22.2560 
  167.0000     2.2390   394.6140    63.9790    38.3600    64.6350    52.6640    60.6170   -21.9600 
  167.1250     2.2660   394.2960    67.0480    38.0810    60.4540    40.7510    45.5790   -21.6240 
  167.2500     2.2980   394.5990    71.0470    37.7910    51.4030    29.8020    32.4040   -21.2870 
  167.3750     2.3290   394.7610    74.9800    37.5270    25.9560    21.4690    22.6700   -20.9710 
  167.5000     2.3550   393.8080    80.6730    37.2980    12.9820    15.9740    16.4130   -20.6900 
  167.6250     2.3690   391.3930    85.8480    37.0810     9.5270    12.9630    13.1380   -20.4580 
  167.7500     2.3690   389.0600    83.6910    36.8700     8.6020    11.2910    11.4490   -20.2980 
  167.8750     2.3550   388.4730    77.1830    36.6800     8.6000    10.5070    10.7780   -20.2120 
  168.0000     2.3360   390.5600    72.9100    36.4970     8.7280    10.3470    10.7940   -20.1850 
  168.1250     2.3250   394.8730    73.1550    36.3000     8.9970    10.7620    11.4610   -20.2350 
  168.2500     2.3180   398.9400    75.8440    36.1080     9.6990    11.6980    12.7920   -20.3350 
  168.3750     2.3070   400.9730    76.5170    35.9410    11.2840    13.2770    14.9720   -20.4590 
  168.5000     2.2860   400.4060    76.4310    35.8170    14.5760    15.6290    18.1190   -20.5880 
  168.6250     2.2680   397.8280    77.0860    35.7330    21.1340    18.9170    22.2800   -20.7180 
  168.7500     2.2680   394.7260    76.9420    35.6670    29.0850    22.7420    26.8410   -20.8350 
  168.8750     2.2810   391.6290    75.6110    35.6030    34.4320    26.5030    31.0700   -20.9260 
  169.0000     2.2930   388.7690    73.7420    35.5240    35.8400    29.4790    34.2750   -20.9940 
  169.1250     2.2900   386.9130    71.8640    35.4360    37.4760    31.1720    36.1280   -21.0360 
  169.2500     2.2770   386.8940    68.1910    35.3570    40.2830    32.1490    37.3840   -21.0580 
  169.3750     2.2630   388.9560    64.6240    35.2910    40.2870    32.9340    38.6300   -21.0660 
  169.5000     2.2560   392.1440    63.9630    35.2140    37.2410    33.7970    40.0480   -21.0600 
  169.6250     2.2590   394.6070    65.8650    35.1140    36.7320    34.3730    40.9730   -21.0460 
  169.7500     2.2670   395.7170    67.2880    35.0240    39.4240    33.7850    40.2680   -21.0380 
  169.8750     2.2800   396.1100    67.4710    34.9520    40.6220    31.3330    37.1690   -21.0460 
  170.0000     2.2990   396.6660    68.3530    34.8820    36.4580    27.1970    31.9880   -21.0630 
  170.1250     2.3240   397.8660    70.7650    34.8010    27.4990    22.5500    26.1770   -21.1150 
  170.2500     2.3470   399.4500    74.6650    34.7100    18.9960    18.7200    21.4520   -21.1930 
  170.3750     2.3590   401.0420    79.9750    34.6170    13.6880    16.2460    18.6210   -21.2910 
  170.5000     2.3540   402.0910    83.5560    34.5320    12.4740    15.2560    17.9430   -21.4180 
  170.6250     2.3410   401.4770    81.8860    34.4610    16.2030    15.9920    19.7540   -21.5830 
  170.7500     2.3330   398.7330    76.4350    34.3900    23.3470    18.2410    23.5730   -21.7680 
  170.8750     2.3260   394.2370    72.8510    34.3210    31.4100    22.0030    29.1520   -21.9530 
  171.0000     2.3140   389.7370    72.3490    34.2720    38.0950    27.0650    35.9850   -22.1360 
  171.1250     2.2960   388.1780    73.0010    34.2320    43.3380    32.8380    43.2170   -22.3180 
  171.2500     2.2790   389.8440    73.5390    34.1580    48.1170    38.3300    49.9210   -22.4940 
  171.3750     2.2690   392.9740    71.8370    34.0440    51.8610    43.1170    55.8360   -22.6630 
  171.5000     2.2660   395.0520    69.0550    33.8730    54.5120    47.2730    61.1980   -22.8270 
  171.6250     2.2670   394.3750    68.5800    33.6310    56.8780    51.0300    66.3830   -22.9950 
  171.7500     2.2680   392.3510    71.4690    33.4040    59.8690    54.5460    71.5560   -23.1510 
  171.8750     2.2640   390.6350    73.8510    33.2420    64.0840    57.8040    76.6970   -23.3110 
  172.0000     2.2550   390.0300    74.1940    33.1330    68.5880    60.8260    81.7760   -23.4900 
  172.1250     2.2480   390.0070    73.5460    33.0280    70.3670    63.6500    86.7320   -23.6500 
  172.2500     2.2510   389.5120    73.3530    32.9050    69.8770    66.4360    91.5910   -23.7860 
  172.3750     2.2620   388.6180    74.4410    32.7630    69.5140    69.3050    96.3590   -23.9120 
  172.5000     2.2750   388.3520    74.0740    32.6170    70.7680    72.2490   100.8700   -24.0210 
  172.6250     2.2770   390.1850    70.7080    32.5110    74.0270    75.0220   104.5670   -24.0860 
  172.7500     2.2680   393.7680    69.1240    32.4050    78.1300    77.3120   107.0510   -24.1360 
  172.8750     2.2570   397.8270    71.1440    32.2610    80.8830    78.8940   108.0850   -24.1780 
  173.0000     2.2520   400.6420    72.3890    32.0410    80.5260    79.7580   107.8530   -24.1960 
  173.1250     2.2500   400.3300    69.5280    31.7040    77.8480    80.1580   106.9810   -24.2160 
  173.2500     2.2470   397.1410    66.8990    31.3290    75.8400    80.6300   106.3600   -24.2490 
  173.3750     2.2440   392.0040    66.0720    31.0130    75.3610    81.3930   106.2600   -24.2910 
  173.5000     2.2460   386.3280    64.9760    30.7860    75.7980    82.1610   106.1160   -24.3240 
  173.6250     2.2570   381.7030    64.8770    30.6020    76.6170    81.4280   103.6280   -24.3590 
  173.7500     2.2700   378.7820    67.5340    30.4370    78.0430    77.6900    96.9390   -24.3770 
  173.8750     2.2780   377.6510    68.8460    30.2970    78.1320    70.5390    86.0540   -24.3660 
  174.0000     2.2820   378.0330    67.2670    30.1630    71.1860    61.3080    73.3040   -24.3170 
  174.1250     2.2890   379.6280    67.5560    30.0380    55.4740    52.4760    62.1340   -24.2290 
  174.2500     2.2960   381.8510    72.8970    29.9400    41.9970    45.7380    54.1930   -24.1070 
  174.3750     2.2990   384.3450    75.6830    29.8660    38.6310    41.7350    49.9710   -23.9510 
  174.5000     2.2910   386.5350    72.0390    29.7880    42.6520    40.5790    49.4130   -23.7720 
  174.6250     2.2780   387.3560    66.3510    29.6900    43.3460    42.6460    52.8830   -23.5640 
  174.7500     2.2710   386.6190    66.7000    29.5950    40.0820    47.6230    59.8710   -23.3490 
  174.8750     2.2730   385.0320    71.6010    29.5100    42.9560    55.7910    70.5140   -23.1340 
