~V
VERS. 2.00: Ver 2.00
~W
STRT.M 65.0000:
STOP.M 270.0000:
STEP.M 0.1250:
NULL. -999.2500:
UWI. DF3062:
~C
DEPT.M :
SP.MV :
GR.API :
CALI.CM :
RXO.OHMM :
RI. :
RML.OHMM :
DEN.GM/CC :
~A
# ...
  132.5000   -32.5310    62.9200    22.4700    11.0520    10.1480    11.2870     2.2050 
  132.6250   -32.3970    67.8720    22.5880    11.7000     9.9150    10.9770     2.2020 
  132.7500   -32.1990    70.5730    22.8380    11.3200     9.7960    10.7900     2.1970 
  132.8750   -31.9590    70.9720    22.9860    10.6350     9.8240    10.7790     2.2000 
  133.0000   -31.6960    71.9750    22.9980    10.3250     9.9850    10.9370     2.2090 
  133.1250   -31.3690    73.4750    22.9030    10.4250    10.1790    11.1470     2.2180 
  133.2500   -31.0150    74.0660    22.7860    10.5620    10.2810    11.2390     2.2200 
  133.3750   -30.6200    73.6370    22.7680    10.6170    10.2060    11.1070     2.2110 
  133.5000   -30.1460    71.8340    22.8100    10.8630     9.8670    10.6610     2.2120 
  133.6250   -29.6060    70.7160    22.8420    10.6690     9.2200     9.8760     2.2440 
  133.7500   -29.0480    73.4750    22.9380    10.4460     8.4620     8.9920     2.2990 
  133.8750   -28.5360    79.5500    23.0010     9.2030     7.7170     8.1600     2.3400 
  134.0000   -28.0970    83.5980    22.8980     7.7800     7.0850     7.5350     2.3520 
  134.1250   -27.7500    82.3550    23.1230     7.6770     6.7390     7.3060     2.3430 
  134.2500   -27.4650    79.2630    23.4990     7.9570     6.6750     7.4270     2.3310 
  134.3750   -27.2210    76.3740    23.6760     7.8790     6.8420     7.7920     2.3300 
  134.5000   -27.0540    75.2550    23.7300     7.8930     7.1830     8.3070     2.3560 
  134.6250   -27.0310    75.4770    23.8740     8.1320     7.5900     8.7690     2.4120 
  134.7500   -27.1240    75.2930    23.8460     9.2590     7.8220     8.9230     2.4720 
  134.8750   -27.2620    75.0670    23.6450    11.5330     7.7690     8.7150     2.4830 
  135.0000   -27.4320    77.4610    23.3470    11.7280     7.4140     8.2000     2.4420 
  135.1250   -27.6650    82.1460    23.1050     9.4590     6.7570     7.3890     2.3840 
  135.2500   -27.9290    86.8320    22.9350     7.1510     6.0290     6.5510     2.3470 
  135.3750   -28.2570    90.3990    22.7940     6.5960     5.4560     5.9420     2.3430 
  135.5000   -28.6580    92.4470    22.7770     6.3290     5.1790     5.7620     2.3510 
  135.6250   -29.0950    91.6370    22.7830     5.9930     5.3590     6.3150     2.3670 
  135.7500   -29.5610    88.6520    22.8080     5.8230     6.0370     7.5850     2.3990 
  135.8750   -30.0670    83.8140    22.8040     6.6140     7.2300     9.4100     2.4610 
  136.0000   -30.5910    78.5420    22.7610    10.0570     8.8470    11.4980     2.5210 
  136.1250   -31.1100    76.6750    22.5550    17.0220    10.6680    13.4670     2.5310 
  136.2500   -31.6190    77.7370    22.5680    21.1060    12.2670    14.9650     2.4640 
  136.3750   -32.0880    76.8970    22.5270    17.9760    13.2820    15.7060     2.3550 
  136.5000   -32.5130    72.1400    22.5690    12.7710    13.5680    15.6700     2.2730 
  136.6250   -32.8650    67.2050    22.6170    11.4140    13.2350    15.0560     2.2360 
  136.7500   -33.1440    66.3260    22.9430    11.6510    12.7210    14.3550     2.2230 
  136.8750   -33.3640    68.3790    23.1870    11.5560    12.3040    13.8820     2.2070 
  137.0000   -33.5070    70.1450    23.2440    11.5870    12.1240    13.7510     2.1870 
  137.1250   -33.6080    69.4850    23.0920    11.9200    12.1670    13.8710     2.1760 
  137.2500   -33.6780    67.0910    23.0710    12.3020    12.2780    13.9960     2.1750 
  137.3750   -33.7350    65.4930    23.0830    12.4610    12.3600    14.0360     2.1700 
  137.5000   -33.7760    65.8150    23.0970    12.3540    12.4000    14.0070     2.1580 
  137.6250   -33.8050    64.9630    23.1750    12.2410    12.3940    13.9470     2.1500 
  137.7500   -33.8120    63.2880    23.1150    12.4220    12.3740    13.9010     2.1490 
  137.8750   -33.7740    63.2330    23.0740    12.6150    12.3500    13.9040     2.1490 
  138.0000   -33.7090    65.1350    22.9650    12.5530    12.3440    13.9160     2.1510 
  138.1250   -33.5440    65.3820    22.4820    12.4040    12.3530    13.9180     2.1580 
  138.2500   -33.3150    64.0290    22.3530    11.9360    12.3590    13.9100     2.1670 
  138.3750   -33.0320    63.5460    22.5550    11.6850    12.3590    13.9090     2.1660 
  138.5000   -32.6900    64.9020    23.0250    11.9890    12.3600    13.9260     2.1650 
  138.6250   -32.3250    67.1280    23.2990    12.6130    12.4070    14.0070     2.1720 
  138.7500   -31.9640    69.3620    23.0140    12.7690    12.5180    14.1020     2.1830 
  138.8750   -31.6120    69.6970    22.5720    12.9450    12.6180    14.1400     2.1920 
  139.0000   -31.3050    67.3470    22.2040    13.0510    12.6110    14.0020     2.1940 
  139.1250   -31.0580    64.4260    22.2680    12.9570    12.3910    13.5820     2.1890 
  139.2500   -30.8260    64.1980    22.5790    12.8900    11.9500    12.8910     2.1800 
  139.3750   -30.5720    66.3910    22.7400    12.8380    11.2650    11.9670     2.1890 
  139.5000   -30.2800    69.0170    22.7870    12.4690    10.4040    10.9120     2.2190 
  139.6250   -29.9590    71.4740    22.9010    10.8370     9.4880     9.8770     2.2540 
  139.7500   -29.6460    75.4950    23.1700     9.0540     8.6500     9.0000     2.2700 
  139.8750   -29.3560    81.3780    23.0680     8.1590     7.9660     8.3290     2.2660 
  140.0000   -29.0420    87.2910    22.6920     7.9930     7.4530     7.8560     2.2710 
  140.1250   -28.7580    88.5170    22.6700     7.9070     7.1400     7.6060     2.2910 
  140.2500   -28.5750    86.3540    23.0490     7.5190     6.9730     7.5090     2.3120 
  140.3750   -28.5570    84.5000    23.2830     7.2830     6.9290     7.5230     2.3130 
  140.5000   -28.7310    83.9910    23.3800     7.4890     6.9610     7.5870     2.3000 
  140.6250   -29.0360    82.1270    23.4310     7.8590     7.0390     7.6690     2.2840 
  140.7500   -29.3750    80.5080    23.4900     7.9020     7.1590     7.7960     2.2730 
  140.8750   -29.7180    80.0880    23.4850     8.1560     7.3780     8.1020     2.2690 
  141.0000   -30.0550    79.0850    23.4700     8.6270     7.7970     8.7190     2.2700 
  141.1250   -30.3580    77.3410    23.3990     8.8930     8.4940     9.7520     2.2870 
  141.2500   -30.5880    76.4320    23.3930     9.1780     9.4360    11.0700     2.3350 
  141.3750   -30.7000    74.9030    23.4240     9.8930    10.6010    12.5660     2.4250 
  141.5000   -30.7070    71.2090    23.6470    11.9970    11.8650    14.0000     2.5120 
  141.6250   -30.6910    68.4500    23.7580    17.8410    12.8370    14.8870     2.5430 
  141.7500   -30.7230    68.8330    23.8510    26.1820    13.2570    15.0890     2.4890 
  141.8750   -30.8320    70.6360    23.6070    26.7300    13.1040    14.6390     2.3750 
  142.0000   -31.0250    70.9280    23.1110    17.8260    12.4890    13.7010     2.2690 
  142.1250   -31.2810    68.2010    22.8200    10.7740    11.6430    12.6160     2.2020 
  142.2500   -31.5640    66.1940    22.7660     9.9110    10.8910    11.7420     2.1760 
  142.3750   -31.8660    67.8100    22.7540    10.1390    10.3800    11.2480     2.1780 
  142.5000   -32.1470    71.1660    22.7710    10.3410    10.1520    11.1450     2.1870 
  142.6250   -32.3280    72.1390    22.8190    11.0850    10.2270    11.4170     2.2080 
  142.7500   -32.3570    70.3570    22.9940    11.6790    10.4720    11.8330     2.2560 
  142.8750   -32.2630    69.2520    23.2470    11.4680    10.7740    12.2130     2.3370 
  143.0000   -32.1230    71.5900    23.5870    11.2810    11.0510    12.4820     2.4160 
  143.1250   -31.9990    75.4210    23.8650    12.7900    11.2790    12.6290     2.4480 
  143.2500   -31.9640    75.9990    23.8240    13.7940    11.4590    12.7080     2.4130 
  143.3750   -31.9980    73.0080    23.6730    13.0390    11.5870    12.7480     2.3300 
  143.5000   -32.0560    68.2110    23.4690    11.7720    11.7050    12.8090     2.2540 
  143.6250   -32.1450    62.4700    23.6470    11.6800    11.8230    12.8840     2.2100 
