~V
VERS. 2.00: Ver 2.00
~W
STRT.M 60.0000:
STOP.M 283.0000:
STEP.M 0.1250:
NULL. -999.2500:
UWI. DF3045:
~C
DEPT.M :
DEN.GM/CC :
SP.MV :
AC.US/MT :
GR.API :
CALI.CM :
RXO.OHMM :
RI. :
RML.OHMM :
~A
# ...
  190.0000     2.2460   -38.4180   397.4500    61.3840    23.8690   144.3810   249.1980   294.6360 
  190.1250     2.2640   -38.6110   396.8500    61.4970    24.0360   141.7980   258.5590   304.3600 
  190.2500     2.2810   -38.8170   395.2230    60.0280    24.0020   146.9900   272.6190   318.6860 
  190.3750     2.2850   -39.0090   392.6700    58.5820    23.9660   158.9830   287.8330   333.3100 
  190.5000     2.2800   -39.1680   391.0970    57.5470    23.9380   173.9510   296.9540   338.7020 
  190.6250     2.2710   -39.2320   393.3120    55.9370    23.9550   178.7530   289.6080   321.1400 
  190.7500     2.2590   -39.2350   398.1020    53.7580    24.0000   175.6530   264.6720   282.3220 
  190.8750     2.2460   -39.2060   403.0900    53.2690    24.0050   177.6760   227.7420   233.5760 
  191.0000     2.2370   -39.1440   406.3030    57.0030    23.9720   176.8890   187.0970   186.9570 
  191.1250     2.2420   -39.0460   406.8330    64.1240    23.7140   149.1960   152.0490   152.0560 
  191.2500     2.2580   -38.9670   405.9120    68.8180    23.5320   107.6740   126.8280   129.5840 
  191.3750     2.2760   -38.9420   404.6590    68.7730    23.2950    73.1510   113.0970   118.7800 
  191.5000     2.2900   -39.0100   403.7200    65.6190    23.1000    57.0490   110.7180   118.2510 
  191.6250     2.2970   -39.2230   403.1920    62.8230    23.0220    58.7560   119.8500   128.1470 
  191.7500     2.2990   -39.5130   403.0750    60.3180    23.0490    69.1840   136.4630   145.5280 
  191.8750     2.2980   -39.8530   403.7690    58.0170    23.2920    80.3660   157.9240   168.2930 
  192.0000     2.2930   -40.1810   405.4200    56.5140    23.5760    86.3660   180.5380   192.7460 
  192.1250     2.2840   -40.4990   407.6870    56.6170    23.6450    98.6440   197.2740   210.4080 
  192.2500     2.2760   -40.8090   409.7090    57.3830    23.8520   129.9580   203.2460   215.1200 
  192.3750     2.2690   -41.0180   410.9690    58.4150    24.3980   163.7660   197.3700   206.0630 
  192.5000     2.2610   -41.1450   411.1230    61.3030    24.6470   177.7320   182.6000   188.1340 
  192.6250     2.2530   -41.2090   410.0500    64.1990    24.5770   169.6460   164.1650   167.8550 
  192.7500     2.2500   -41.2510   408.3530    64.3430    24.6060   164.5580   146.5820   149.3860 
  192.8750     2.2530   -41.2940   406.6010    63.7780    24.6390   150.4410   131.5980   134.0600 
  193.0000     2.2630   -41.4190   405.2300    66.6100    24.5500   126.2490   119.5440   121.8860 
  193.1250     2.2730   -41.5970   404.6090    70.1000    24.4580   105.0920   110.7830   112.8060 
  193.2500     2.2820   -41.8090   404.7580    68.1950    24.3040    98.1950   104.3020   105.8240 
  193.3750     2.2880   -42.1590   405.4170    63.9650    24.0350   100.0910    99.3880   100.3500 
  193.5000     2.2890   -42.5600   406.1250    64.4400    23.6710   103.0450    95.5620    96.0730 
  193.6250     2.2810   -42.9530   406.3090    67.6680    23.8070    98.2490    92.6330    93.0090 
  193.7500     2.2690   -43.3220   405.8300    68.9080    24.0430    91.1530    90.6710    91.2010 
  193.8750     2.2620   -43.6550   405.2140    69.0510    23.8920    83.7170    90.0060    90.9050 
  194.0000     2.2630   -43.9320   405.1690    69.0890    24.1910    79.0740    91.0960    92.6270 
  194.1250     2.2650   -44.1620   405.9910    68.1910    24.4910    79.2010    94.9970    97.5490 
  194.2500     2.2650   -44.3810   406.4820    66.7900    24.5930    84.4630   102.1380   105.9470 
  194.3750     2.2660   -44.5670   405.4880    67.2420    24.6360    91.2670   113.5030   118.7440 
  194.5000     2.2680   -44.7680   403.6920    69.3410    24.6150   100.1800   130.0810   136.8340 
  194.6250     2.2700   -44.9750   402.8880    69.7970    24.6240   122.8560   153.6500   162.4900 
  194.7500     2.2720   -45.2040   403.4540    67.6150    24.6480   151.9080   183.5820   195.3440 
  194.8750     2.2700   -45.4740   404.5250    63.4660    24.6500   187.5900   219.4100   235.3600 
  195.0000     2.2580   -45.7380   405.4450    59.2240    24.6150   233.3270   258.6830   280.5650 
  195.1250     2.2410   -45.9850   406.3490    55.5140    24.5970   278.1970   294.4970   323.7260 
  195.2500     2.2320   -46.1830   407.6820    52.4230    24.4810   326.2960   318.5570   354.0430 
  195.3750     2.2300   -46.2670   410.2500    52.4560    24.4120   367.8740   325.3120   363.3810 
  195.5000     2.2310   -46.2140   414.3600    55.1220    24.5690   379.2040   314.5630   351.1390 
  195.6250     2.2340   -46.0340   418.4670    58.2830    24.6050   361.9170   290.7500   323.7000 
  195.7500     2.2410   -45.7810   420.1100    60.4680    24.5750   305.2930   264.7820   295.0300 
  195.8750     2.2460   -45.4590   418.3340    59.8590    24.4110   220.2460   243.0000   272.1170 
  196.0000     2.2460   -45.1280   414.8800    58.2180    24.0810   149.0740   229.4170   258.3700 
  196.1250     2.2430   -44.7370   413.1560    59.9290    24.0500   126.6380   226.7530   256.3490 
  196.2500     2.2360   -44.2770   413.9920    62.0800    24.0980   136.4700   231.9370   262.8180 
  196.3750     2.2200   -43.8210   415.9820    61.6550    24.0500   157.2760   242.7520   275.8080 
  196.5000     2.1950   -43.3830   417.5630    59.0070    24.0170   173.9370   256.4650   292.7700 
  196.6250     2.1780   -42.9440   418.2400    57.3890    24.0580   174.6390   269.7850   310.0820 
  196.7500     2.1800   -42.5660   418.1100    54.4300    24.2610   181.8820   281.1710   325.2820 
  196.8750     2.1970   -42.3840   416.9930    50.9700    24.7170   207.1210   290.7990   338.1000 
  197.0000     2.2160   -42.2550   414.5440    50.1500    24.9430   233.7600   299.7320   349.9610 
  197.1250     2.2270   -41.6570   411.1840    50.7850    25.2330   267.7850   309.2810   362.9330 
  197.2500     2.2300   -40.9220   409.0850    51.0640    25.2680   284.4600   318.6440   376.0450 
  197.3750     2.2250   -40.1590   410.5770    51.6120    25.2570   290.5870   325.4940   385.3760 
  197.5000     2.2150   -39.4120   416.6180    51.9470    25.2560   303.2510   327.0090   386.7660 
  197.6250     2.2110   -38.6880   422.9890    51.2010    25.2740   347.1590   320.0570   375.7870 
  197.7500     2.2140   -38.0210   422.6460    50.2500    25.1450   345.6860   305.2730   354.2340 
  197.8750     2.2160   -37.4280   416.2190    51.2620    24.9800   312.6480   284.4510   325.7780 
  198.0000     2.2140   -36.9290   410.8520    54.1160    24.9840   254.0290   260.3360   294.5250 
  198.1250     2.2160   -36.5560   411.6270    55.4700    25.1800   228.7020   233.8620   260.3390 
  198.2500     2.2260   -36.3680   412.2580    55.4490    24.9860   235.0880   205.6090   223.7770 
  198.3750     2.2350   -36.2860   408.4520    56.3600    24.2480   236.9750   176.8890   188.1400 
  198.5000     2.2330   -36.2220   402.8800    58.0440    23.3220   212.1780   149.8390   156.9050 
  198.6250     2.2280   -36.1530   401.3540    58.7390    23.3590   182.5330   127.1800   133.1760 
  198.7500     2.2380   -36.0270   401.9230    61.5520    23.4100   144.5180   109.8060   116.7030 
  198.8750     2.2680   -35.8360   399.1890    66.8140    23.4250   103.2240    99.0610   107.5760 
  199.0000     2.3050   -35.5690   392.0720    68.6960    23.5390    69.5090    94.8840   104.6850 
  199.1250     2.3330   -35.2340   388.4180    62.9790    23.5840    62.6900    95.1550   105.7510 
  199.2500     2.3430   -34.8800   393.6990    57.2790    23.6840    82.6850    96.0100   106.6620 
  199.3750     2.3280   -34.4850   403.7470    54.6010    23.8830    96.8710    94.4960   104.0880 
  199.5000     2.2970   -34.0870   409.9560    54.2800    23.9210   100.1200    89.1700    96.7320 
  199.6250     2.2770   -33.6890   407.6880    58.0620    23.6080   135.1860    80.4930    86.1880 
  199.7500     2.2870   -33.3400   403.3540    64.8250    23.4160   140.8520    71.7640    76.9980 
  199.8750     2.3370   -33.0450   396.4920    69.2990    23.2210    97.2030    65.8210    71.6730 
