~V
VERS. 2.00: Ver 2.00
~W
STRT.M 60.0000:
STOP.M 266.0000:
STEP.M 0.1250:
NULL. -999.2500:
UWI. DF3052:
~C
DEPT.M :
GR.API :
CALI.CM :
RXO.OHMM :
RI. :
RML.OHMM :
DEN.GM/CC :
SP.MV :
~A
# ...
   93.7500    93.0260    23.3930     5.6760     5.6630     6.3690  -999.2500   -14.2830 
   93.8750    94.6850    23.3730     5.8440     5.5040     6.1910  -999.2500   -14.1640 
   94.0000    94.9330    23.3990     5.9280     5.3810     6.0740  -999.2500   -14.1660 
   94.1250    95.6740    23.4480     5.6610     5.3200     6.0300  -999.2500   -14.3730 
   94.2500    98.4460    23.4510     5.4220     5.3200     6.0550  -999.2500   -14.7680 
   94.3750   101.5750    23.3840     5.4500     5.3990     6.1770  -999.2500   -15.3060 
   94.5000   102.1990    23.2630     5.7140     5.5670     6.4020  -999.2500   -15.9170 
   94.6250    98.3040    23.1100     6.2540     5.8320     6.7280  -999.2500   -16.4460 
   94.7500    91.7450    22.9520     6.9230     6.1750     7.1250  -999.2500   -16.8780 
   94.8750    84.8260    22.8190     7.5280     6.5670     7.5640  -999.2500   -17.1850 
   95.0000    79.3330    22.7450     7.9160     6.9480     7.9540  -999.2500   -17.3250 
   95.1250    76.0630    22.7480     8.0840     7.2440     8.2250  -999.2500   -17.2330 
   95.2500    74.1560    22.7700     8.1060     7.4390     8.3860  -999.2500   -16.9160 
   95.3750    73.3710    22.7690     7.9970     7.5100     8.4040  -999.2500   -16.3420 
   95.5000    73.8160    22.7530     7.7750     7.4470     8.2690  -999.2500   -15.5170 
   95.6250    76.1800    22.7570     7.5040     7.2510     7.9920  -999.2500   -14.4940 
   95.7500    80.9230    22.7650     7.2320     6.9590     7.6000  -999.2500   -13.4040 
   95.8750    87.7980    22.7550     6.8860     6.5770     7.1130  -999.2500   -12.3290 
   96.0000    94.9460    22.7470     6.3420     6.1360     6.5870  -999.2500   -11.2860 
   96.1250    99.2800    22.7900     5.6160     5.7280     6.1390  -999.2500   -10.3480 
   96.2500   100.7040    22.8970     5.0770     5.4230     5.8180  -999.2500    -9.5440 
   96.3750   101.6710    23.0820     4.8890     5.2360     5.6340  -999.2500    -8.8920 
   96.5000   104.4790    23.3360     4.9300     5.1620     5.5900     2.3280    -8.4120 
   96.6250   107.6540    23.5680     5.0010     5.1930     5.6590     2.3280    -8.1200 
   96.7500   107.2490    23.6350     5.0830     5.2750     5.7750     2.3300    -7.9580 
   96.8750   102.8160    23.4950     5.2700     5.3460     5.8700     2.3550    -7.8720 
   97.0000    97.7460    23.2620     5.5160     5.3550     5.9030     2.3990    -7.8720 
   97.1250    95.4760    23.1130     5.6030     5.2800     5.8560     2.4270    -7.9230 
   97.2500    95.3010    23.0600     5.5140     5.1670     5.7890     2.4260    -7.9960 
   97.3750    95.5270    23.0390     5.3560     5.0790     5.7650     2.4070    -8.0980 
   97.5000    94.6910    23.0200     5.2350     5.0520     5.7870     2.3820    -8.2340 
   97.6250    91.8640    23.0060     5.2530     5.0980     5.8710     2.3460    -8.4230 
   97.7500    88.4130    22.9590     5.4250     5.1990     5.9920     2.3060    -8.6460 
   97.8750    86.5380    22.8700     5.6800     5.3370     6.1360     2.2750    -8.9030 
   98.0000    87.4900    22.7780     5.8580     5.4950     6.2710     2.2650    -9.1980 
   98.1250    89.6490    22.7670     5.8080     5.6680     6.4200     2.2760    -9.5250 
   98.2500    90.1470    22.8280     5.6460     5.8370     6.5680     2.2940    -9.8610 
   98.3750    88.9600    22.8810     5.5530     6.0060     6.7250     2.3060   -10.2020 
   98.5000    88.0710    22.8610     5.7080     6.1790     6.9090     2.3020   -10.5370 
   98.6250    88.3050    22.8530     6.1350     6.3190     7.0560     2.2900   -10.8700 
   98.7500    87.5040    22.9860     6.5200     6.3840     7.1220     2.2880   -11.2160 
   98.8750    84.7360    23.2400     6.5940     6.3630     7.1070     2.3020   -11.6040 
   99.0000    81.6880    23.4840     6.3480     6.2730     7.0460     2.3240   -12.0020 
   99.1250    81.2770    23.6060     6.0610     6.1360     6.9470     2.3360   -12.3850 
   99.2500    82.8250    23.6410     5.9920     6.0220     6.8710     2.3270   -12.7800 
   99.3750    83.4440    23.5810     6.1490     5.9800     6.8700     2.2980   -13.2080 
   99.5000    80.8040    23.4080     6.3510     6.0140     6.9420     2.2620   -13.6770 
   99.6250    76.0200    23.2210     6.4060     6.1480     7.1420     2.2410   -14.2100 
   99.7500    73.2120    23.1530     6.4270     6.3850     7.4420     2.2420   -14.7750 
   99.8750    73.3510    23.1680     6.7400     6.6900     7.7870     2.2510   -15.3010 
  100.0000    73.9730    23.1640     7.4270     7.0290     8.1460     2.2480   -15.7710 
  100.1250    72.1650    23.1740     8.0420     7.4490     8.5990     2.2270   -16.2010 
  100.2500    68.8820    23.2810     8.2760     8.0460     9.2900     2.2010   -16.5830 
  100.3750    65.7860    23.4150     8.6560     8.9530    10.3360     2.1800   -16.8840 
  100.5000    63.9310    23.4980    10.2770    10.2850    11.8290     2.1730   -17.0780 
  100.6250    64.4740    23.6250    14.4820    12.0550    13.7060     2.1970   -17.1390 
  100.7500    66.3710    23.8600    20.4180    13.8810    15.5570     2.2610   -17.1660 
  100.8750    67.2200    24.0900    26.1340    15.3910    16.9760     2.3680   -17.2220 
  101.0000    65.1730    24.1820    31.3760    16.2390    17.5790     2.4950   -17.3690 
  101.1250    61.5510    24.1410    35.9250    15.9590    16.8900     2.5760   -17.5980 
  101.2500    59.9690    24.0390    36.5610    14.7270    15.1880     2.5750   -17.8740 
  101.3750    61.9350    23.8190    30.7110    12.8400    12.9400     2.5060   -18.2070 
  101.5000    66.3320    23.4560    20.9560    10.8050    10.7640     2.4090   -18.5940 
  101.6250    70.0820    23.0660    13.3710     9.1280     9.1670     2.3150   -19.0390 
  101.7500    71.3630    22.8280     9.6240     7.9830     8.1730     2.2390   -19.4720 
  101.8750    70.9500    22.7650     8.4820     7.3440     7.6880     2.1900   -19.8290 
  102.0000    70.6260    22.7840     8.2120     7.1050     7.5870     2.1740   -20.0970 
  102.1250    70.0780    22.7750     7.9990     7.2050     7.7850     2.1840   -20.3100 
  102.2500    68.2440    22.7530     7.8660     7.4550     8.1040     2.1960   -20.4750 
  102.3750    66.0500    22.7640     7.9080     7.7300     8.4320     2.2010   -20.6440 
  102.5000    65.1160    22.7940     8.0610     7.9330     8.6560     2.1960   -20.8460 
  102.6250    64.9610    22.7900     8.1130     8.0130     8.7300     2.1830   -21.0250 
  102.7500    63.9850    22.7780     8.0010     8.0270     8.7260     2.1690   -21.1500 
  102.8750    63.3500    22.8080     7.7780     8.0210     8.6910     2.1660   -21.2520 
  103.0000    64.3530    22.8860     7.5530     8.0120     8.6510     2.1760   -21.2960 
  103.1250    65.5880    22.9620     7.4320     8.0180     8.6450     2.1900   -21.2730 
  103.2500    65.4590    23.0050     7.4390     8.0410     8.6690     2.1950   -21.2230 
  103.3750    65.2540    23.0180     7.5700     8.0710     8.7070     2.1880   -21.0740 
  103.5000    66.6610    22.9860     7.7630     8.0880     8.7430     2.1720   -20.8400 
  103.6250    69.3480    22.8910     7.9090     8.0850     8.7570     2.1550   -20.5830 
  103.7500    71.4150    22.7900     7.9570     8.0520     8.7410     2.1450   -20.3540 
  103.8750    72.1110    22.7440     7.8970     7.9760     8.6760     2.1440   -20.1540 
  104.0000    71.4160    22.7540     7.7400     7.8660     8.5660     2.1510   -19.9890 
  104.1250    69.9920    22.8030     7.6140     7.7390     8.4240     2.1600   -19.8560 
  104.2500    69.0650    22.8780     7.6030     7.6210     8.2950     2.1690   -19.7520 
  104.3750    69.1760    22.9590     7.6210     7.5300     8.2070     2.1840   -19.7230 
  104.5000    70.1520    23.0110     7.6400     7.4840     8.1730     2.2000   -19.7480 
  104.6250    71.6760    23.0180     7.7720     7.4840     8.1980     2.1990   -19.8150 
  104.7500    72.6620    23.0150     8.0190     7.5220     8.2510     2.1790   -19.8910 
  104.8750    71.7950    23.0210     8.2250     7.5900     8.3250     2.1550   -19.9530 
