~V
VERS. 2.00: Ver 2.00
~W
STRT.M 65.0000:
STOP.M 270.0000:
STEP.M 0.1250:
NULL. -999.2500:
UWI. DF3062:
~C
DEPT.M :
SP.MV :
GR.API :
CALI.CM :
RXO.OHMM :
RI. :
RML.OHMM :
DEN.GM/CC :
~A
# ...
  155.0000   -21.9170    57.6600    24.4170    21.7840    23.0680    24.3260     2.5260 
  155.1250   -22.0550    58.0090    24.3160    20.7710    22.5890    23.8360     2.5130 
  155.2500   -22.1370    57.3170    24.3040    20.1470    21.9710    23.2710     2.4930 
  155.3750   -22.1280    55.0490    24.3180    20.1950    21.3580    22.7630     2.4700 
  155.5000   -22.0330    51.8580    24.3530    19.9050    20.8500    22.3670     2.4610 
  155.6250   -21.9200    50.9120    24.5510    20.0420    20.4680    22.0210     2.4720 
  155.7500   -21.8200    52.5650    24.4500    20.8680    20.1330    21.6810     2.4940 
  155.8750   -21.7510    55.5550    24.4220    21.0730    19.8440    21.3750     2.5080 
  156.0000   -21.7400    59.1600    24.3820    19.6600    19.5770    21.0890     2.5070 
  156.1250   -21.7910    61.9140    24.3170    18.6220    19.3330    20.8540     2.5030 
  156.2500   -21.8810    62.7040    24.3340    18.8040    19.1470    20.7270     2.5100 
  156.3750   -22.0350    62.2390    24.5040    18.6980    19.0550    20.7440     2.5260 
  156.5000   -22.2040    62.7810    24.5870    17.3230    19.0720    20.9260     2.5290 
  156.6250   -22.3350    63.7620    24.5870    17.6370    19.2340    21.2920     2.5120 
  156.7500   -22.4210    62.8690    24.5370    18.5460    19.4610    21.6680     2.4870 
  156.8750   -22.4280    59.1050    24.5250    18.5410    19.6160    21.8780     2.4810 
  157.0000   -22.3630    55.5270    24.5230    17.7940    19.5680    21.8160     2.4890 
  157.1250   -22.2650    54.7600    24.3920    17.3220    19.2130    21.3850     2.4980 
  157.2500   -22.1800    56.7690    24.3210    17.0770    18.5910    20.6330     2.5000 
  157.3750   -22.1080    58.3950    24.3480    16.7060    17.7850    19.6650     2.5000 
  157.5000   -22.0580    57.7480    24.5850    16.0070    16.9490    18.6640     2.4990 
  157.6250   -22.0520    56.7270    24.6340    14.7030    16.2200    17.7770     2.4930 
  157.7500   -22.1120    56.5630    24.6030    12.8760    15.6350    17.0660     2.4780 
  157.8750   -22.2700    57.1350    24.5340    11.8960    15.2140    16.5590     2.4600 
  158.0000   -22.5030    57.0220    24.5190    11.7790    14.9420    16.2170     2.4510 
  158.1250   -22.7510    54.8610    24.2350    11.7140    14.7560    16.0180     2.4550 
  158.2500   -22.9660    54.1780    24.0620    12.3290    14.6240    15.9150     2.4700 
  158.3750   -23.1170    57.3000    23.9320    12.3250    14.5480    15.9070     2.4890 
  158.5000   -23.2350    62.1110    23.8090    11.1010    14.5200    15.9690     2.5100 
  158.6250   -23.3290    62.6600    24.1390    10.7690    14.5600    16.1120     2.5320 
  158.7500   -23.3930    59.0780    24.2350    10.5560    14.6650    16.3220     2.5480 
  158.8750   -23.4260    55.9390    24.1600    10.5500    14.7960    16.5670     2.5510 
  159.0000   -23.4610    54.7920    23.6190    10.4690    14.9100    16.7930     2.5520 
  159.1250   -23.5600    53.8810    22.9530    10.3300    14.9480    16.9440     2.5660 
  159.2500   -23.7050    53.9370    22.4660    10.0570    14.8910    17.0120     2.5970 
  159.3750   -23.8860    55.2250    22.0580     9.9190    14.7640    17.0160     2.6200 
  159.5000   -24.0640    56.7230    21.9460    10.0290    14.6210    17.0300     2.6190 
  159.6250   -24.2030    56.4340    22.3620    10.5470    14.5480    17.1830     2.5960 
  159.7500   -24.3120    55.2420    22.5500    11.1920    14.5940    17.4970     2.5700 
  159.8750   -24.3880    55.0840    22.7310    12.3280    14.8090    17.9910     2.5620 
  160.0000   -24.3880    55.8990    22.7970    14.7180    15.1530    18.6000     2.5680 
  160.1250   -24.2760    56.5320    22.8010    17.7560    15.5280    19.1840     2.5730 
  160.2500   -24.1100    58.1640    22.7890    19.4010    15.8090    19.5840     2.5670 
  160.3750   -23.9530    61.8290    22.7940    19.5180    15.9080    19.6770     2.5500 
  160.5000   -23.8630    65.4770    22.9480    18.8820    15.7750    19.4520     2.5300 
  160.6250   -23.8720    64.6750    23.0220    17.8000    15.4130    18.9370     2.5070 
  160.7500   -23.9330    62.6080    23.3160    16.7940    14.9970    18.3660     2.4820 
  160.8750   -24.0490    62.3290    23.7800    15.3170    14.6590    17.9360     2.4580 
  161.0000   -24.2230    64.4360    24.1720    13.4810    14.5160    17.7830     2.4440 
  161.1250   -24.4690    69.0160    24.0200    13.1100    14.6990    18.0200     2.4470 
  161.2500   -24.7510    73.7140    24.0100    13.8260    15.1010    18.4760     2.4660 
  161.3750   -25.0190    75.3350    24.1650    13.8550    15.5860    18.9480     2.4840 
  161.5000   -25.2300    73.7270    24.3800    12.9540    15.9670    19.1830     2.4810 
  161.6250   -25.3730    71.8790    24.5140    13.0840    15.9490    18.8280     2.4520 
  161.7500   -25.5040    69.1490    24.6340    14.1970    15.4330    17.9360     2.4070 
  161.8750   -25.6170    66.2700    24.7020    14.8220    14.4520    16.5770     2.3740 
  162.0000   -25.7360    67.4520    24.7410    14.0570    13.1860    14.9650     2.3760 
  162.1250   -25.8790    74.0400    24.7100    12.1120    11.8510    13.3590     2.4070 
  162.2500   -26.0650    79.4320    24.8310     9.6310    10.6140    11.9290     2.4420 
  162.3750   -26.2970    82.0120    24.7640     7.7340     9.5770    10.7940     2.4520 
  162.5000   -26.5650    84.5500    24.8020     7.3980     8.8180    10.0320     2.4520 
  162.6250   -26.8720    91.8360    24.8620     7.5110     8.4070     9.7390     2.4610 
  162.7500   -27.1790    99.2620    24.8680     6.8290     8.2720     9.7990     2.4780 
  162.8750   -27.4760   101.7150    24.8510     6.6000     8.4010    10.1940     2.4850 
  163.0000   -27.7670    97.8560    24.6530     7.4650     8.8230    10.9500     2.4740 
  163.1250   -28.0260    91.2250    24.6310     8.1710     9.5560    12.0370     2.4490 
  163.2500   -28.2400    85.4880    24.6220     9.6390    10.4600    13.2540     2.4220 
  163.3750   -28.4260    79.3660    24.6220    11.5950    11.4320    14.4990     2.4080 
  163.5000   -28.6090    75.9780    24.6520    12.9830    12.3790    15.6850     2.4070 
  163.6250   -28.8030    78.4930    24.7870    13.9330    13.1900    16.6720     2.4070 
  163.7500   -29.0180    82.9570    24.8330    16.7100    13.8030    17.4320     2.3950 
  163.8750   -29.2600    86.5680    24.8410    18.9270    14.2260    18.0400     2.3740 
  164.0000   -29.5300    87.5200    24.6880    17.2080    14.5590    18.6550     2.3600 
  164.1250   -29.8500    85.2780    24.8080    14.3490    14.9400    19.4000     2.3610 
  164.2500   -30.1980    81.5470    24.7650    14.6780    15.4210    20.2440     2.3720 
  164.3750   -30.5370    79.6700    24.7380    17.6880    15.9320    21.0770     2.3860 
  164.5000   -30.8660    81.5350    24.7690    18.7800    16.4840    21.9140     2.3970 
  164.6250   -31.1340    83.5100    24.7580    16.8780    17.1250    22.8080     2.3990 
  164.7500   -31.3750    82.2830    24.7750    17.2940    17.8510    23.7760     2.3860 
  164.8750   -31.5980    78.1110    24.7000    20.0160    18.6980    24.9110     2.3660 
  165.0000   -31.7930    73.3870    24.6420    20.4500    19.7660    26.4050     2.3500 
  165.1250   -31.9810    71.4580    24.6220    18.2780    21.2550    28.4740     2.3390 
  165.2500   -32.2110    71.6200    24.6440    21.9330    23.1730    31.0100     2.3250 
  165.3750   -32.5050    73.6180    24.8040    28.2750    25.3980    33.7720     2.3090 
  165.5000   -32.8480    75.2760    24.8580    30.6470    27.6720    36.4150     2.2940 
  165.6250   -33.2240    73.9120    24.8700    30.4420    29.6570    38.5490     2.2850 
  165.7500   -33.6050    70.1770    24.8680    32.5630    31.2850    40.0920     2.2880 
  165.8750   -33.9770    67.7850    24.7600    35.8830    32.3890    40.9840     2.3080 
  166.0000   -34.3310    68.6800    24.7830    35.0990    32.9930    41.4310     2.3350 
  166.1250   -34.6270    71.4570    24.7100    30.1390    33.5160    42.0920     2.3560 
