~V
VERS. 2.00: Ver 2.00
~W
STRT.M 64.0000:
STOP.M 264.0000:
STEP.M 0.1250:
NULL. -999.2500:
UWI. DF3031:
~C
DEPT.M :
DEN.GM/CC :
AC.US/MT :
GR.API :
CALI.CM :
RXO.OHMM :
RI. :
RML.OHMM :
SP.MV :
~A
# ...
  194.0000     2.2510   445.4780    77.7350    25.7710    50.4680    57.2680    65.6170   -21.9050 
  194.1250     2.2650   441.6740    76.5780    25.7890    50.3990    57.9860    66.9140   -21.8330 
  194.2500     2.2810   434.7270    76.1550    25.8000    49.0670    57.7630    67.0430   -21.7420 
  194.3750     2.2830   424.9150    77.2890    25.8010    47.7410    56.8330    66.2700   -21.6460 
  194.5000     2.2710   412.6760    78.2440    25.7970    47.0920    55.3930    64.7810   -21.5390 
  194.6250     2.2620   397.9700    77.0840    25.7980    46.5750    53.5740    62.6890   -21.4170 
  194.7500     2.2710   381.1720    74.0850    25.7900    45.5610    51.7680    60.5640   -21.2770 
  194.8750     2.3100   362.2150    70.9800    25.7540    44.2070    50.5060    59.1850   -21.1150 
  195.0000     2.3830   341.2770    71.3180    25.6950    43.4850    50.4340    59.4430   -20.9130 
  195.1250     2.4800   319.2030    74.4180    25.6420    45.3570    52.3150    62.1820   -20.6460 
  195.2500     2.5750   298.2130    75.2300    25.6010    50.5730    55.2880    66.0140   -20.3330 
  195.3750     2.6480   280.7260    71.7690    25.5600    58.8470    57.1620    67.9510   -19.9570 
  195.5000     2.6890   268.9940    67.8440    25.5200    67.5920    54.6460    63.9850   -19.5330 
  195.6250     2.6890   265.5960    67.8460    25.4880    68.3720    45.2660    51.8410   -19.0510 
  195.7500     2.6630   269.2850    69.9540    25.4610    56.4410    33.3470    37.2660   -18.5380 
  195.8750     2.6220   279.2900    70.3030    25.4640    36.9670    22.9000    24.8700   -18.0080 
  196.0000     2.5760   294.8940    67.3080    25.5400    20.2710    15.6190    16.3800   -17.4800 
  196.1250     2.5350   316.2500    65.4020    25.6860    12.2620    11.5360    11.7470   -16.9930 
  196.2500     2.5130   341.0990    64.4170    25.7740     9.0010     9.1700     9.2130   -16.5290 
  196.3750     2.5200   366.6100    61.8920    25.7080     7.8550     7.8450     7.9480   -16.1050 
  196.5000     2.5460   388.6690    60.1660    25.5060     7.2440     7.1560     7.4060   -15.7200 
  196.6250     2.5670   401.4430    64.1170    25.3070     6.6970     6.9080     7.3030   -15.4050 
  196.7500     2.5680   404.2170    70.1350    25.2040     6.4530     6.9030     7.4230   -15.1470 
  196.8750     2.5520   398.3990    74.0770    25.1840     6.6070     7.0900     7.7320   -14.9410 
  197.0000     2.5340   387.6780    77.4590    25.2250     7.0320     7.4330     8.2070   -14.7940 
  197.1250     2.5250   377.0230    81.9410    25.3290     7.6650     7.8770     8.7730   -14.7060 
  197.2500     2.5190   369.9710    86.7680    25.4520     8.3360     8.2850     9.2660   -14.6690 
  197.3750     2.5090   367.4300    90.8930    25.5310     8.8020     8.5520     9.5830   -14.6820 
  197.5000     2.4970   368.4970    95.2280    25.5390     8.9340     8.6470     9.7240   -14.7390 
  197.6250     2.4940   371.1370    97.9410    25.5060     8.8170     8.6090     9.7860   -14.8610 
  197.7500     2.5020   372.9220    96.5710    25.4710     8.7590     8.5630     9.9180   -15.0610 
  197.8750     2.5150   372.7880    92.5050    25.4330     9.0250     8.5760    10.1820   -15.3400 
  198.0000     2.5230   370.6040    91.0090    25.3800     9.6710     8.6510    10.5420   -15.6940 
  198.1250     2.5160   366.7010    94.7250    25.3170    10.2540     8.7280    10.8660   -16.1430 
  198.2500     2.4990   361.9330   100.1730    25.2460    10.3230     8.7490    11.0620   -16.6970 
  198.3750     2.4840   356.4930   104.3230    25.1640     9.9720     8.7230    11.1550   -17.3300 
  198.5000     2.4770   350.3650   104.0990    25.0590     9.6480     8.7070    11.2500   -18.0330 
  198.6250     2.4750   343.6440    98.2100    24.8950     9.9170     8.7850    11.4990   -18.7430 
  198.7500     2.4730   337.0100    92.0720    24.6950    10.8340     8.9780    11.9360   -19.4180 
  198.8750     2.4720   331.0970    88.9460    24.5230    11.9530     9.2600    12.4920   -20.0060 
  199.0000     2.4750   326.2530    87.9280    24.4430    12.4890     9.5430    12.9970   -20.4670 
  199.1250     2.4820   322.5550    87.6470    24.4550    12.1250     9.6550    13.1520   -20.7300 
  199.2500     2.4920   319.6540    90.2480    24.4880    11.6800     9.4980    12.8460   -20.8000 
  199.3750     2.5030   317.7340    96.1930    24.5170    11.4090     9.0690    12.1260   -20.7020 
  199.5000     2.5130   317.3020   101.1390    24.5420    10.7770     8.4800    11.2080   -20.4590 
  199.6250     2.5250   319.0710   101.2750    24.5970     9.3450     7.9290    10.4440   -20.1020 
  199.7500     2.5350   322.3870   100.0720    24.7300     7.9940     7.5750    10.0760   -19.7000 
  199.8750     2.5360   326.3520    99.3430    24.9540     7.5540     7.4870    10.2090   -19.3170 
  200.0000     2.5200   330.0180    98.0910    25.1880     8.1090     7.6630    10.7990   -19.0170 
  200.1250     2.4970   332.7100    95.9670    25.3060     9.1110     8.0340    11.6330   -18.8490 
  200.2500     2.4880   334.6470    95.8470    25.3210     9.9230     8.3940    12.2850   -18.8010 
  200.3750     2.4920   336.0350    97.4880    25.2700    10.3560     8.5840    12.4680   -18.8800 
  200.5000     2.4960   336.7090    98.1240    25.1680    10.3670     8.5440    12.1460   -19.0610 
  200.6250     2.4910   335.3330    97.7770    25.0330    10.0250     8.3930    11.6650   -19.3500 
  200.7500     2.4900   330.4430    95.9690    24.9390     9.8120     8.3890    11.5940   -19.6760 
  200.8750     2.5040   320.5340    92.1280    24.9420    10.1120     8.7360    12.3160   -19.9890 
  201.0000     2.5300   305.0600    89.1110    25.0480    11.1730     9.5760    14.0250   -20.2250 
  201.1250     2.5620   285.0080    88.8230    25.2090    13.5250    11.0280    16.7300   -20.3090 
  201.2500     2.5970   264.9910    88.5290    25.3390    16.6380    12.7250    19.5440   -20.2540 
  201.3750     2.6210   249.3790    86.4680    25.3910    18.5210    13.9780    21.2040   -20.0240 
  201.5000     2.6150   241.6740    83.8600    25.3330    17.5560    13.9730    20.5270   -19.6180 
  201.6250     2.5710   244.5010    80.6220    25.2100    14.3690    12.3750    17.3110   -19.0050 
  201.7500     2.5120   254.2920    73.6230    25.1520    11.1910    10.2430    13.4760   -18.2540 
  201.8750     2.4610   267.5790    64.4990    25.1840     8.5890     8.3140    10.2680   -17.4260 
  202.0000     2.4310   281.0620    60.3510    25.2260     6.7770     6.9160     8.1780   -16.5800 
  202.1250     2.4310   292.4860    64.1580    25.2100     6.0180     6.1540     7.2590   -15.8040 
  202.2500     2.4500   302.2530    70.0960    25.1860     5.8260     5.8110     7.0070   -15.1070 
  202.3750     2.4700   311.3850    75.4400    25.1810     5.8250     5.7600     7.1410   -14.5250 
  202.5000     2.4820   320.6290    81.0260    25.1810     5.8630     5.8850     7.4370   -14.0650 
  202.6250     2.4850   329.7270    88.2580    25.1780     5.9290     6.0800     7.7140   -13.7600 
  202.7500     2.4850   337.6320    93.1210    25.1760     5.9950     6.2530     7.8850   -13.5620 
  202.8750     2.4810   343.4080    94.2780    25.1780     6.0950     6.3650     7.9300   -13.4470 
  203.0000     2.4710   346.5980    94.0520    25.1830     6.2270     6.4010     7.8600   -13.3850 
  203.1250     2.4610   346.8550    94.6340    25.1680     6.2680     6.3430     7.6760   -13.3700 
  203.2500     2.4580   344.9990    94.4290    25.1390     6.1900     6.2200     7.4330   -13.3960 
  203.3750     2.4640   341.7160    91.6350    25.1280     6.0950     6.0630     7.1930   -13.4460 
  203.5000     2.4710   338.2600    88.2870    25.1460     6.0730     5.9210     7.0340   -13.5240 
  203.6250     2.4700   337.0270    88.2140    25.1680     6.0800     5.8610     7.0590   -13.6340 
  203.7500     2.4660   339.4560    91.4780    25.1850     6.1040     5.9110     7.2860   -13.7960 
  203.8750     2.4650   345.6470    95.3650    25.2260     6.2940     6.0780     7.7090   -13.9860 
