~V
VERS. 2.00: Ver 2.00
~W
STRT.M 100.0000:
STOP.M 264.0000:
STEP.M 0.1250:
NULL. -999.2500:
UWI. DF3023:
~C
DEPT.M :
GR.API :
CALI.CM :
RXO.OHMM :
RI. :
RML.OHMM :
SP.MV :
DEN.GM/CC :
AC.US/MT :
~A
# ...
  120.0000    68.6710    24.3010     9.2260     6.7280     7.7340   -25.2780     2.2180   430.0640 
  120.1250    72.9420    24.2720     9.5670     6.8500     7.9080   -25.1430     2.2050   430.1380 
  120.2500    75.7370    24.3010    10.1500     7.0230     8.1180   -25.0890     2.2080   428.0930 
  120.3750    76.8300    24.3410    11.0670     7.2030     8.3180   -25.0950     2.2180   424.3060 
  120.5000    74.8170    24.3170    12.7070     7.3580     8.4750   -25.1500     2.2180   420.9160 
  120.6250    70.2870    24.2070    14.4970     7.4780     8.5920   -25.1990     2.2100   420.5690 
  120.7500    67.3970    24.1090    15.1570     7.5910     8.7220   -25.2030     2.2090   422.5310 
  120.8750    67.7640    24.0770    14.4900     7.7190     8.9030   -25.1890     2.2060   424.6880 
  121.0000    70.2580    24.1060    13.5520     7.8690     9.1290   -25.1660     2.1990   425.8850 
  121.1250    73.6370    24.1710    12.8990     8.0060     9.3310   -25.1070     2.2030   426.0700 
  121.2500    76.2660    24.2330    11.9830     8.0750     9.4240   -25.0090     2.2160   423.2880 
  121.3750    76.1800    24.2770    11.4210     8.0540     9.3750   -24.8830     2.2110   415.5970 
  121.5000    73.4590    24.3090    11.3290     7.9680     9.2280   -24.7480     2.2000   405.0660 
  121.6250    70.4420    24.3330    11.1730     7.8970     9.1220   -24.6420     2.1940   397.1000 
  121.7500    68.4250    24.3480    10.8320     7.9230     9.1700   -24.5790     2.1940   389.4520 
  121.8750    67.2830    24.3570    10.7490     8.0880     9.4160   -24.5260     2.1980   375.8370 
  122.0000    67.9160    24.3530    10.9810     8.3800     9.8190   -24.4230     2.2130   356.7060 
  122.1250    72.6610    24.2690    11.3700     8.7050    10.2300   -24.2620     2.2410   345.2690 
  122.2500    77.3280    24.1200    11.6680     8.9090    10.4360   -24.0900     2.2670   351.2620 
  122.3750    79.9490    23.9830    11.8950     8.8710    10.2810   -23.9260     2.2880   371.9850 
  122.5000    82.5260    23.9270    11.8950     8.5370     9.7350   -23.7810     2.3000   397.2840 
  122.6250    85.8840    23.9620    11.3870     7.9420     8.9090   -23.6570     2.2990   418.2350 
  122.7500    85.1680    24.0380    10.6770     7.2790     8.0840   -23.5300     2.2720   433.9950 
  122.8750    81.4310    24.1270     9.6430     6.6780     7.4290   -23.4090     2.2400   445.4190 
  123.0000    79.8770    24.1920     8.3750     6.2360     7.0370   -23.3210     2.2230   451.3060 
  123.1250    81.4170    24.1940     7.6370     6.0470     6.9800   -23.2710     2.2140   449.0840 
  123.2500    80.7210    24.1490     7.9760     6.0840     7.1870   -23.2300     2.1990   439.1950 
  123.3750    76.3540    24.0860     8.8360     6.3140     7.5980   -23.1990     2.1940   426.7860 
  123.5000    71.8690    24.0410    10.1970     6.6820     8.1330   -23.1770     2.2090   417.2090 
  123.6250    69.8790    24.0360    11.4470     7.1150     8.6740   -23.1400     2.2250   414.1030 
  123.7500    67.3100    24.0430    13.0640     7.5100     9.0860   -23.0930     2.2200   414.3090 
  123.8750    63.6240    24.0310    14.2160     7.7930     9.2840   -23.0450     2.2160   415.0360 
  124.0000    61.2960    23.9900    13.6890     7.9350     9.2710   -22.9640     2.2250   417.1800 
  124.1250    62.3120    23.9740    12.6330     7.9460     9.1250   -22.8060     2.2360   415.5270 
  124.2500    63.5230    24.0310    12.3390     7.9070     8.9750   -22.5810     2.2370   398.0290 
  124.3750    64.2400    24.1300    11.7040     7.8690     8.8850   -22.2770     2.2360   364.4460 
  124.5000    65.5550    24.1880    10.3330     7.8680     8.8790   -21.8920     2.2500   332.3420 
  124.6250    67.0500    24.1710    10.1210     7.9170     8.9580   -21.4430     2.2760   329.1920 
  124.7500    67.5770    24.1960    10.6440     8.0050     9.1050   -20.9500     2.2820   348.3530 
  124.8750    68.8780    24.3040    11.1050     8.1520     9.3420   -20.4150     2.2550   371.4020 
  125.0000    70.1540    24.4100    11.0160     8.3690     9.6540   -19.8620     2.2180   395.2470 
  125.1250    68.8230    24.4000    10.7030     8.5750     9.8760   -19.3260     2.2060   425.3750 
  125.2500    65.6280    24.3260    10.7460     8.5850     9.7560   -18.8000     2.2240   454.2090 
  125.3750    64.0580    24.2980    11.8280     8.2080     9.0980   -18.2560     2.2510   469.9290 
  125.5000    67.3760    24.3540    13.2360     7.3790     7.9140   -17.6810     2.2870   468.9420 
  125.6250    75.0830    24.4130    11.0410     6.2570     6.5240   -17.0810     2.3250   458.8070 
  125.7500    83.2110    24.3980     8.0540     5.2140     5.3790   -16.4910     2.3520   448.5740 
  125.8750    90.2850    24.3610     6.3090     4.4500     4.6860   -15.9720     2.3670   442.0710 
  126.0000    94.4160    24.4250     5.0710     4.0510     4.4960   -15.5890     2.3720   438.1210 
  126.1250    93.5510    24.6340     5.0180     4.0950     4.8280   -15.4160     2.3460   430.9690 
  126.2500    88.4380    24.8310     5.7960     4.4580     5.4360   -15.4350     2.2880   424.1550 
  126.3750    82.3710    24.8690     6.9600     4.9880     6.0630   -15.6370     2.2300   423.0490 
  126.5000    77.5200    24.7240     7.9730     5.4540     6.4320   -15.9850     2.1900   429.9100 
  126.6250    75.8820    24.6240     8.4820     5.6080     6.3560   -16.3850     2.1770   442.4510 
  126.7500    78.9610    24.7620     7.6020     5.5240     6.0770   -16.7160     2.1900   450.9780 
  126.8750    85.7410    25.0140     6.0350     5.3970     5.8800   -16.9160     2.2170   449.3360 
  127.0000    90.7770    25.0520     5.7230     5.4210     5.9790   -16.9580     2.2360   438.3650 
  127.1250    90.4010    24.6770     7.7210     5.7230     6.4520   -16.8700     2.2400   426.8770 
  127.2500    86.9430    24.2180    10.4870     6.1760     7.0460   -16.7900     2.2430   421.9860 
  127.3750    82.0570    23.9290    12.9300     6.5610     7.4550   -16.7740     2.2430   423.7480 
  127.5000    77.3090    23.8480    13.4210     6.6520     7.4380   -16.7870     2.2380   430.3310 
  127.6250    75.0510    23.8530    11.4710     6.3880     7.0450   -16.7520     2.2170   439.1200 
  127.7500    76.9560    23.9140     8.9580     6.0800     6.7330   -16.6030     2.2070   440.1600 
  127.8750    81.6730    24.0750     7.3760     5.9600     6.7740   -16.2990     2.2540   419.9060 
  128.0000    84.2810    24.2750     7.5570     6.1100     7.1950   -15.8670     2.3460   377.2780 
  128.1250    78.5430    24.4220    10.0010     6.4420     7.7470   -15.3970     2.4350   339.8690 
  128.2500    70.4970    24.5490    12.8470     6.6450     7.9630   -14.9940     2.4660   339.1040 
  128.3750    70.7980    24.7220    12.3670     6.4780     7.5810   -14.7180     2.4620   375.0280 
  128.5000    81.1210    24.9150     8.8240     5.9350     6.7300   -14.6020     2.4470   419.8060 
  128.6250    92.7840    25.0170     5.1650     5.2760     5.8770   -14.6620     2.4170   440.2980 
  128.7500    98.6570    25.0200     4.7690     4.7900     5.3610   -14.8430     2.3760   438.1790 
  128.8750    99.0900    24.9230     4.9120     4.5830     5.2530   -15.1400     2.3440   428.5430 
  129.0000    96.3360    24.7170     5.3970     4.6650     5.4900   -15.5530     2.3180   423.7960 
  129.1250    94.7640    24.4290     6.1710     4.9920     5.9300   -16.0950     2.2910   427.9690 
  129.2500    95.8850    24.1960     6.5110     5.3730     6.3320   -16.7300     2.2710   434.4260 
  129.3750    96.6550    24.0870     6.7370     5.6580     6.5490   -17.4080     2.2640   438.2580 
  129.5000    95.0070    24.0700     7.3890     5.7550     6.5230   -18.0630     2.2580   438.5320 
  129.6250    93.5270    24.0730     7.8430     5.6230     6.2710   -18.6160     2.2490   438.5190 
  129.7500    94.9110    24.0760     6.6050     5.3780     5.9580   -19.0330     2.2600   439.7600 
  129.8750    98.4360    24.0870     5.5880     5.1240     5.7080   -19.3080     2.2880   439.0710 
