~V
VERS. 2.00: Ver 2.00
~W
STRT.M 62.0000:
STOP.M 282.0000:
STEP.M 0.1250:
NULL. -999.2500:
UWI. DF3054:
~C
DEPT.M :
DEN.GM/CC :
GR.API :
CALI.CM :
RXO.OHMM :
RI. :
RML.OHMM :
SP.MV :
~A
# ...
  152.0000     2.2200    81.5460    25.3630    12.8210    11.4560    13.5390   -10.4000 
  152.1250     2.2790    81.7170    25.4470    14.6210    12.2390    14.7000   -10.3710 
  152.2500     2.3640    75.9900    25.5010    17.3450    13.3610    16.3210   -10.2990 
  152.3750     2.4630    70.3590    25.4730    19.5950    14.7690    18.1360   -10.1570 
  152.5000     2.5580    66.8730    25.4260    20.7300    16.2880    19.7870    -9.9440 
  152.6250     2.6250    62.9920    25.3960    21.3040    17.6340    20.9360    -9.6570 
  152.7500     2.6540    58.3590    25.3810    21.2030    18.6430    21.6610    -9.3260 
  152.8750     2.6510    55.0180    25.3710    21.5570    19.2920    22.1220    -8.9960 
  153.0000     2.6300    52.3330    25.3360    22.5020    19.6280    22.4450    -8.6620 
  153.1250     2.6080    47.8790    25.3040    23.2900    19.6650    22.6010    -8.3990 
  153.2500     2.5950    45.3900    25.3090    22.9050    19.5260    22.5620    -8.1790 
  153.3750     2.5920    46.5840    25.3290    21.2460    19.3520    22.3900    -8.0140 
  153.5000     2.5980    48.0510    25.2980    19.5910    19.3150    22.2670    -7.8970 
  153.6250     2.6090    46.9940    25.1890    19.9160    19.6150    22.4800    -7.8690 
  153.7500     2.6210    45.4850    25.1110    21.7770    20.2560    23.0900    -7.8600 
  153.8750     2.6300    45.4440    25.0940    24.1850    21.1530    23.9970    -7.8570 
  154.0000     2.6310    46.5020    25.0910    26.1210    22.1170    24.9540    -7.8700 
  154.1250     2.6200    48.5930    25.0900    26.9510    22.8820    25.6210    -7.8970 
  154.2500     2.6140    51.5410    25.0600    27.0680    23.3620    25.9200    -7.9310 
  154.3750     2.6200    54.2210    24.9550    26.4660    23.6310    25.9600    -7.9390 
  154.5000     2.6280    55.2240    24.7150    26.0890    23.8570    25.9690    -7.9370 
  154.6250     2.6190    52.8980    24.4220    25.9860    24.2180    26.2040    -7.8940 
  154.7500     2.5990    49.3270    24.2020    25.0410    24.7220    26.6930    -7.8900 
  154.8750     2.5840    45.3380    24.1680    23.8710    25.2590    27.3060    -7.9070 
  155.0000     2.5800    42.9200    24.2570    24.0240    25.6470    27.8000    -7.9310 
  155.1250     2.5820    45.3840    24.4050    24.5440    25.6680    27.8730    -7.9790 
  155.2500     2.5780    50.3340    24.5950    23.8900    25.3720    27.5600    -8.0610 
  155.3750     2.5610    54.1610    24.7010    22.2830    24.9180    27.0420    -8.1740 
  155.5000     2.5300    55.5580    24.6000    20.9940    24.5230    26.5780    -8.2930 
  155.6250     2.4910    57.2250    24.4490    21.3950    24.4480    26.4310    -8.4100 
  155.7500     2.4720    58.6620    24.3500    23.2980    24.7300    26.6110    -8.4880 
  155.8750     2.4920    56.9800    24.3080    24.9200    25.2810    27.0340    -8.5340 
  156.0000     2.5420    53.0500    24.3600    25.4480    25.9050    27.5380    -8.5810 
  156.1250     2.5820    50.8640    24.5730    25.8550    26.3270    27.9090    -8.5800 
  156.2500     2.5900    52.3900    24.9200    27.3650    26.4240    28.0230    -8.5280 
  156.3750     2.5710    55.3680    25.2030    27.7980    26.1890    27.8340    -8.4660 
  156.5000     2.5400    56.3330    25.3960    26.1830    25.7080    27.3700    -8.4000 
  156.6250     2.5030    54.8120    25.4560    24.8000    25.0830    26.6930    -8.3650 
  156.7500     2.4670    53.7280    25.4270    24.4040    24.4100    25.9190    -8.3700 
  156.8750     2.4440    54.2430    25.3720    24.0810    23.6940    25.0880    -8.4300 
  157.0000     2.4450    56.3110    25.2510    23.2960    22.8940    24.2170    -8.4880 
  157.1250     2.4660    59.5990    25.1960    22.2190    21.9620    23.3480    -8.5510 
  157.2500     2.4860    62.2370    25.2360    20.3410    20.9690    22.5550    -8.6420 
  157.3750     2.4970    62.2000    25.2440    18.1660    20.0510    21.9250    -8.7370 
  157.5000     2.5000    60.3220    25.1850    16.6820    19.3860    21.5570    -8.8430 
  157.6250     2.5000    59.2290    25.1010    16.9120    19.1970    21.6310    -8.8970 
  157.7500     2.4960    59.6220    25.0340    18.2110    19.4650    22.1480    -8.9570 
  157.8750     2.4900    61.0540    24.9990    19.5230    20.1330    23.0740    -9.0080 
  158.0000     2.4810    64.0100    24.9850    20.4960    21.0780    24.2640    -9.0980 
  158.1250     2.4780    67.0880    24.9250    21.4230    22.1070    25.4450    -9.2120 
  158.2500     2.4890    66.2730    24.8340    22.6110    22.9740    26.3370    -9.3400 
  158.3750     2.5140    63.0530    24.7500    24.1650    23.5030    26.7680    -9.4620 
  158.5000     2.5330    62.5860    24.7640    25.7590    23.5880    26.6600    -9.5610 
  158.6250     2.5190    65.7440    24.7490    26.1300    23.1470    25.9560    -9.6890 
  158.7500     2.4870    68.3270    24.5460    25.1150    22.3750    24.8780    -9.7830 
  158.8750     2.4620    69.9920    24.2180    23.2320    21.4200    23.6150    -9.8610 
  159.0000     2.4600    72.3230    23.9440    21.2920    20.4040    22.3610    -9.9030 
  159.1250     2.4840    72.5110    23.8450    19.9330    19.4300    21.2880    -9.9100 
  159.2500     2.5200    69.8650    23.7540    18.8660    18.5600    20.4180    -9.8700 
  159.3750     2.5590    67.8710    23.5420    17.5210    17.8050    19.7230    -9.8140 
  159.5000     2.5890    68.4270    23.2410    16.1310    17.1560    19.1500    -9.7620 
  159.6250     2.6010    68.8490    23.0830    15.5190    16.6160    18.6610    -9.6950 
  159.7500     2.5960    66.9890    22.9820    15.5910    16.1420    18.2160    -9.6320 
  159.8750     2.5770    63.8690    22.8880    15.5460    15.6940    17.8040    -9.5830 
  160.0000     2.5510    61.1150    22.8430    14.9200    15.2550    17.4260    -9.5480 
  160.1250     2.5330    59.0660    22.7720    14.2170    14.8520    17.1070    -9.5040 
  160.2500     2.5260    58.2940    22.7920    13.8710    14.5280    16.8690    -9.4600 
  160.3750     2.5250    58.7350    22.9360    14.0640    14.3420    16.7390    -9.4170 
  160.5000     2.5250    58.8520    23.1720    14.8840    14.3370    16.7430    -9.3670 
  160.6250     2.5300    57.2900    23.5550    15.9730    14.5140    16.8750    -9.2790 
  160.7500     2.5440    55.6740    23.9830    16.5790    14.7420    17.0170    -9.1120 
  160.8750     2.5600    55.5340    24.4210    16.5010    14.9050    17.0480    -8.8730 
  161.0000     2.5640    57.4790    24.8370    16.1820    14.9130    16.8760    -8.5810 
  161.1250     2.5530    60.2190    25.2010    15.9360    14.7190    16.4540    -8.3150 
  161.2500     2.5460    60.7870    25.4320    15.5920    14.4250    15.8980    -8.0920 
  161.3750     2.5490    59.4610    25.5060    14.8630    14.1450    15.3440    -7.8990 
  161.5000     2.5580    59.1980    25.4850    14.3600    13.9870    14.9430    -7.7360 
  161.6250     2.5600    61.2430    25.4640    14.7540    14.0530    14.8460    -7.6450 
  161.7500     2.5560    63.0290    25.4350    14.8890    14.2650    14.9550    -7.6390 
  161.8750     2.5500    62.2690    25.3870    14.3240    14.4450    15.0500    -7.7130 
  162.0000     2.5430    59.6450    25.3690    13.6820    14.3250    14.8330    -7.8700 
  162.1250     2.5170    59.5860    25.4090    13.1260    13.5910    13.9920    -8.1020 
  162.2500     2.4570    63.9730    25.4740    12.0820    12.3700    12.6760    -8.3700 
  162.3750     2.3620    71.4120    25.5850    10.3770    10.9330    11.1680    -8.6890 
  162.5000     2.2590    79.2420    25.8150     8.5740     9.6020     9.8100    -9.0510 
  162.6250     2.1900    85.7330    25.9760     7.5330     8.6700     8.9690    -9.4320 
  162.7500     2.1640    91.1790    25.8770     7.2340     8.1480     8.6860    -9.8190 
  162.8750     2.1850    95.9710    25.6190     7.5430     7.9930     8.9180   -10.2120 
  163.0000     2.2490    99.2400    25.5240     8.2390     8.1500     9.5440   -10.6010 
  163.1250     2.3290   100.3600    25.5380     9.1370     8.6570    10.4870   -11.0040 
