~V
VERS. 2.00: Ver 2.00
~W
STRT.M 125.0000:
STOP.M 256.0000:
STEP.M 0.1250:
NULL. -999.2500:
UWI. DF3030:
~C
DEPT.M :
GR.API :
RML.OHMM :
RI. :
RXO.OHMM :
CALI.CM :
DEN.GM/CC :
SP.MV :
~A
# ...
  181.2500    71.8760   184.8360   168.0390    45.2110    22.2520     2.2280   -35.5990 
  181.3750    68.1340   189.2800   171.3840    36.4360    21.1590     2.2280   -35.7910 
  181.5000    64.5620   197.9520   178.5370    32.2940    20.2280     2.2290   -35.9190 
  181.6250    64.6160   210.4820   189.1140    31.4910    19.7730     2.2320   -36.0700 
  181.7500    68.1300   225.1700   201.5030    31.4150    19.6490     2.2340   -36.0290 
  181.8750    72.2920   240.8410   214.5730    30.8500    19.6450     2.2340   -35.9330 
  182.0000    73.1280   256.1330   227.0940    30.1830    19.6780     2.2280   -35.8520 
  182.1250    67.9940   268.9400   237.2950    29.8970    19.7300     2.2170   -35.6200 
  182.2500    62.3520   277.9760   244.2640    29.6120    19.9720     2.2070   -35.4610 
  182.3750    59.6080   282.2730   247.3200    29.7100    20.5800     2.2030   -35.1790 
  182.5000    58.4720   281.5640   246.3230    30.6930    21.3550     2.2060   -34.9550 
  182.6250    59.4600   275.8530   241.3110    32.5740    21.7900     2.2150   -34.5890 
  182.7500    64.3960   267.3500   234.0780    34.6090    21.9360     2.2230   -34.2740 
  182.8750    70.4790   257.4990   225.8270    36.1560    21.9600     2.2290   -34.0610 
  183.0000    71.7370   247.3350   217.4500    37.3490    21.9620     2.2330   -33.7830 
  183.1250    67.4340   237.3100   209.3640    37.6240    21.8850     2.2350   -33.6960 
  183.2500    64.7020   227.3060   201.3900    38.0570    21.6370     2.2360   -33.6610 
  183.3750    65.0560   217.1740   193.3030    37.7040    21.2600     2.2370   -33.5850 
  183.5000    65.7660   206.9700   185.0210    37.4410    21.0850     2.2350   -33.5810 
  183.6250    65.5850   196.9470   176.6120    40.9400    21.4050     2.2330   -33.7420 
  183.7500    65.8020   187.1900   168.1670    48.6770    22.2140     2.2320   -33.9690 
  183.8750    65.5810   177.6180   159.6830    60.6100    23.1390     2.2330   -34.1780 
  184.0000    63.8040   168.2280   151.2450    75.1810    23.7820     2.2360   -34.3750 
  184.1250    62.6870   159.6900   143.4860    86.3830    24.0170     2.2410   -34.5930 
  184.2500    64.5000   153.1520   137.4110    90.3320    24.1010     2.2470   -34.7140 
  184.3750    67.7220   150.0850   134.2770    87.6840    24.1370     2.2500   -34.9390 
  184.5000    70.3760   151.7900   135.2160    83.2530    24.1500     2.2500   -35.0830 
  184.6250    70.7090   159.7750   141.5880    83.0890    24.1490     2.2440   -35.2130 
  184.7500    69.4030   172.3970   152.0440    88.0920    24.1460     2.2350   -35.3510 
  184.8750    67.9500   187.5920   164.8580    97.5280    24.1400     2.2250   -35.3710 
  185.0000    67.4010   202.1660   177.3220   108.3260    24.1250     2.2170   -35.5410 
  185.1250    66.6790   211.0750   185.1800   119.0040    24.0770     2.2130   -35.6140 
  185.2500    65.0950   211.7500   186.1990   122.2330    23.9980     2.2110   -35.7540 
  185.3750    64.1100   203.2530   179.5180   118.0530    23.9140     2.2110   -35.8810 
  185.5000    64.6840   187.0050   166.2110   131.0370    23.8660     2.2120   -36.0410 
  185.6250    66.5810   166.3240   148.8730   112.2100    23.8390     2.2170   -36.1240 
  185.7500    68.8260   146.3470   131.8050    97.8580    23.8080     2.2250   -36.1570 
  185.8750    70.3740   129.9420   117.5200    88.2770    23.7820     2.2330   -36.2960 
  186.0000    69.6260   118.3580   107.2700    83.2370    23.7820     2.2400   -36.2490 
  186.1250    68.1540   111.8400   101.5100    81.9560    23.8240     2.2420   -36.2530 
  186.2500    68.0780   107.9920    98.2910    86.6040    23.9110     2.2400   -36.1940 
  186.3750    70.5360   105.1130    96.1440    92.2530    24.0030     2.2370   -35.9880 
  186.5000    74.5080   101.9020    93.8640    97.1800    24.0390     2.2370   -35.7540 
  186.6250    75.7720    97.5950    90.6530    97.7080    24.0000     2.2410   -35.4900 
  186.7500    73.9710    92.6070    86.7380    89.5920    23.9160     2.2480   -35.2290 
  186.8750    72.3120    87.6130    82.6530    78.3580    23.8410     2.2570   -34.9410 
  187.0000    73.7510    83.2980    79.0150    70.7010    23.7700     2.2660   -34.6920 
  187.1250    75.1890    80.3540    76.4670    71.6870    23.7260     2.2750   -34.4540 
  187.2500    72.5960    78.7960    75.0830    72.0330    23.7190     2.2830   -34.1520 
  187.3750    69.1040    78.6470    74.8950    70.8560    23.7110     2.2870   -33.9920 
  187.5000    69.3430    79.7860    75.7970    71.4480    23.6990     2.2870   -33.8190 
  187.6250    72.9740    81.9700    77.5590    76.0410    23.7280     2.2820   -33.7830 
  187.7500    74.4520    84.3660    79.4590    79.9660    23.8340     2.2740   -33.7580 
  187.8750    73.3690    86.2290    80.8400    83.0110    23.9810     2.2670   -33.7290 
  188.0000    72.0400    86.9350    81.1370    85.7210    24.0830     2.2620   -33.8130 
  188.1250    70.7970    86.1420    79.9830    89.1180    24.0840     2.2630   -33.7580 
  188.2500    69.5970    84.7390    78.1200    87.8420    24.0580     2.2660   -33.8100 
  188.3750    68.8070    83.9030    76.5360    82.4410    24.0310     2.2700   -33.7980 
  188.5000    69.4590    85.0760    76.4880    78.4180    23.9900     2.2720   -33.7710 
  188.6250    69.4870    90.5870    80.0170    78.3870    23.9230     2.2720   -33.6090 
  188.7500    68.5420   101.3730    88.0080    81.2660    23.9150     2.2690   -33.4620 
  188.8750    66.1670   118.3850   101.2800    86.1010    23.9290     2.2620   -33.2930 
  189.0000    63.9970   141.7690   119.9140    92.5890    23.9500     2.2520   -33.0140 
  189.1250    64.1090   170.7530   143.2230   103.8850    23.9820     2.2410   -32.9160 
  189.2500    65.1450   200.9170   167.5980   119.0060    24.0360     2.2300   -32.8310 
  189.3750    66.3080   227.8720   189.6070   132.4580    24.1150     2.2220   -32.9650 
  189.5000    65.7530   247.5490   206.1310   144.2470    24.1960     2.2180   -33.1790 
  189.6250    62.7930   256.2920   214.3320   154.3970    24.2280     2.2170   -33.5130 
  189.7500    60.2140   256.8760   216.1630   154.8490    24.2160     2.2170   -33.9870 
  189.8750    59.5780   251.9070   213.4900   145.3120    24.1750     2.2160   -34.4990 
  190.0000    61.1180   243.2660   207.7720   135.8210    24.1440     2.2150   -35.1740 
  190.1250    62.2640   230.2770   198.5540   133.9680    24.1570     2.2150   -35.9300 
  190.2500    62.3770   212.3530   185.3150   137.5340    24.2240     2.2160   -36.6360 
  190.3750    61.6200   189.3840   167.6850   145.3730    24.2840     2.2170   -37.2470 
  190.5000    60.8370   163.2100   146.7760   150.3450    24.2920     2.2190   -37.7990 
  190.6250    63.3580   137.7530   125.4360   140.8930    24.2410     2.2240   -38.3480 
  190.7500    68.8490   116.4600   106.8670   118.9990    24.1860     2.2320   -38.7420 
  190.8750    74.2720   101.0140    92.8990    97.0770    24.1300     2.2400   -39.1950 
  191.0000    76.2290    91.9560    84.3800    85.9350    24.0720     2.2460   -39.4960 
  191.1250    74.3150    90.6100    82.7460    84.0670    24.0530     2.2470   -39.5900 
  191.2500    71.8940    96.3490    87.5700    87.0220    24.0690     2.2430   -39.6700 
  191.3750    70.2580   109.2640    99.0650    93.8060    24.1350     2.2380   -39.6390 
  191.5000    70.2070   127.8890   116.0970   108.9850    24.2250     2.2350   -39.5870 
  191.6250    69.0620   147.4250   134.6140   129.4630    24.2900     2.2360   -39.4330 
  191.7500    62.2360   160.1500   147.5820   150.8690    24.3130     2.2390   -39.2850 
  191.8750    52.7550   159.7950   149.1670   173.3210    24.3280     2.2440   -39.0090 
  192.0000    49.5660   144.2860   137.0400   189.3260    24.3610     2.2530   -38.8550 
  192.1250    56.3690   117.9580   114.0800   174.7010    24.3770     2.2650   -38.6370 
  192.2500    63.6800    92.3460    90.4230   125.6760    24.2000     2.2740   -38.4120 
  192.3750    66.3700    73.1500    71.7630    64.4590    23.8400     2.2690   -38.2570 
