~V
VERS. 2.00: Ver 2.00
~W
STRT.M 100.0000:
STOP.M 258.0000:
STEP.M 0.1250:
NULL. -999.2500:
UWI. DF3025:
~C
DEPT.M :
AC.US/MT :
DEN.GM/CC :
GR.API :
CALI.CM :
RXO.OHMM :
RI. :
RML.OHMM :
SP.MV :
~A
# ...
  200.0000   406.3050     2.2200    64.7870    23.9640   102.3990   135.8130   139.3720   -36.7760 
  200.1250   409.5100     2.2210    66.3280    24.0050    95.6320   133.5060   136.1440   -36.7480 
  200.2500   411.6400     2.2280    66.8290    24.0660    92.0370   133.0180   135.2920   -36.7620 
  200.3750   410.1500     2.2400    65.9580    24.1170    95.8860   134.8780   137.0070   -36.8130 
  200.5000   402.7080     2.2510    65.9430    24.1380   104.2310   138.4600   140.3520   -36.8580 
  200.6250   391.0800     2.2580    67.4190    24.1360   114.5740   142.0180   142.9390   -36.8510 
  200.7500   384.5710     2.2600    67.5250    24.1340   124.2710   142.9090   143.1270   -36.8090 
  200.8750   389.6760     2.2540    64.6990    24.1390   122.6290   139.1620   141.0810   -36.7690 
  201.0000   404.1710     2.2440    62.3320    24.1650   114.9010   132.7690   136.1610   -36.7770 
  201.1250   416.0610     2.2380    63.6530    24.2050   106.1680   126.0100   130.0530   -36.8540 
  201.2500   417.6560     2.2400    67.3540    24.2350   103.4260   120.8390   124.9270   -36.9450 
  201.3750   411.4170     2.2460    70.7180    24.2470    98.0140   117.9180   121.8010   -36.9940 
  201.5000   405.5480     2.2450    69.5970    24.2520   101.3120   117.1210   120.8810   -36.9750 
  201.6250   407.1560     2.2340    63.9770    24.2640   110.9960   117.8700   121.8850   -36.9120 
  201.7500   413.1920     2.2230    60.3300    24.2870   118.7770   118.8890   123.5200   -36.8470 
  201.8750   418.4450     2.2170    61.4910    24.3470   117.5970   119.3730   124.8600   -36.8090 
  202.0000   419.7290     2.2110    65.2000    24.3930   119.0920   118.9290   125.2730   -36.7970 
  202.1250   420.7910     2.1940    67.9110    24.3180   120.1840   117.7030   124.6260   -36.7920 
  202.2500   420.8370     2.1760    68.5040    24.1840   123.0580   116.4560   123.6910   -36.7760 
  202.3750   404.9960     2.1850    66.1560    24.1500   128.1370   115.6170   123.0380   -36.7630 
  202.5000   362.2810     2.2370    63.1100    24.3070   127.4020   115.2900   122.9120   -36.7650 
  202.6250   311.5750     2.3060    64.1170    24.4710   116.5740   115.3430   123.2640   -36.7900 
  202.7500   297.3620     2.3410    66.5100    24.4520   113.1800   115.3360   123.6700   -36.8140 
  202.8750   331.7650     2.3220    67.0560    24.3150   119.3060   114.8140   123.6880   -36.8130 
  203.0000   385.9060     2.2650    67.0950    24.2020   127.8220   113.4520   122.9600   -36.7710 
  203.1250   417.9810     2.2090    67.0970    24.1610   118.2850   111.0860   121.2490   -36.7080 
  203.2500   425.5110     2.1820    67.3040    24.1090   107.4850   108.0390   118.7940   -36.6700 
  203.3750   424.3820     2.1800    68.5020    24.0240    97.1740   104.5130   115.7170   -36.7060 
  203.5000   424.2410     2.1900    69.5150    23.9310    96.3090   100.7190   112.1700   -36.8240 
  203.6250   425.2980     2.1940    67.5750    23.8540    95.7820    96.8840   108.3120   -36.9950 
  203.7500   426.5370     2.1930    65.9570    23.8370    94.8440    93.1970   104.3870   -37.1320 
  203.8750   425.8050     2.1930    67.8620    23.8820    86.9280    89.7750   100.6050   -37.1800 
  204.0000   422.4780     2.2000    71.3130    23.9680    76.2120    86.6330    97.1150   -37.1300 
  204.1250   417.9650     2.2110    70.5770    24.1220    74.3340    83.6150    93.8680   -37.0440 
  204.2500   413.5970     2.2230    67.0910    24.3110    78.9280    80.5460    90.6380   -37.0120 
  204.3750   409.9530     2.2360    64.8040    24.4610    80.2050    77.5200    87.4180   -37.0890 
  204.5000   408.6550     2.2500    64.8720    24.5220    77.3830    74.9480    84.5500   -37.2550 
  204.6250   412.6040     2.2560    66.6970    24.4630    69.8080    73.8070    83.0200   -37.4460 
  204.7500   418.6770     2.2540    69.1630    24.3290    65.0200    74.6720    83.5790   -37.5850 
  204.8750   422.5510     2.2480    71.3590    24.1900    61.4270    77.9960    86.9170   -37.6570 
  205.0000   421.6360     2.2400    71.1100    24.1380    59.5500    83.7770    93.3150   -37.6870 
  205.1250   416.6100     2.2280    67.0160    24.1730    62.6300    90.9910   102.0700   -37.7340 
  205.2500   412.1320     2.2130    63.1410    24.1840    71.8050    96.3710   109.6080   -37.8120 
  205.3750   410.2450     2.2030    60.9880    24.1550    88.8360    96.4350   111.8960   -37.9180 
  205.5000   411.1600     2.2020    60.6640    24.1230   101.9340    89.6780   106.4900   -38.0270 
  205.6250   413.6980     2.2120    63.9000    24.0530    95.3020    78.3350    94.4280   -38.1240 
  205.7500   415.1480     2.2230    68.7500    23.8830    72.5550    67.8200    81.6980   -38.2070 
  205.8750   414.8370     2.2350    72.0460    23.6510    50.1900    60.7880    71.9920   -38.2940 
  206.0000   414.3550     2.2410    72.7750    23.5080    41.5130    58.0160    66.9690   -38.3880 
  206.1250   415.6740     2.2370    72.9650    23.6370    51.2710    59.7490    67.4050   -38.4790 
  206.2500   416.7840     2.2320    72.7130    23.9710    63.4680    64.5120    71.7090   -38.5580 
  206.3750   414.7970     2.2330    71.8980    24.3630    72.8000    71.4080    78.8660   -38.6360 
  206.5000   409.9690     2.2410    71.2800    24.6790    75.1090    79.4560    87.6380   -38.7400 
  206.6250   405.8220     2.2470    70.3190    24.8430    78.5180    87.8180    96.7950   -38.9100 
  206.7500   404.7680     2.2450    68.3760    24.9020    91.9320    96.2420   105.7960   -39.1380 
  206.8750   406.4690     2.2350    65.7750    24.8950   108.8170   105.1060   114.9900   -39.3890 
  207.0000   408.6740     2.2260    62.8470    24.8520   116.7750   114.7850   124.8180   -39.6060 
  207.1250   409.8020     2.2240    60.7910    24.7650   110.6970   125.2390   135.2330   -39.7420 
  207.2500   410.2000     2.2300    61.1720    24.6630   103.3690   135.5440   145.2500   -39.8000 
  207.3750   409.5340     2.2390    63.2430    24.5770   102.6940   144.7290   153.8580   -39.8060 
  207.5000   407.1690     2.2470    63.3390    24.5290   107.3280   152.0480   160.3660   -39.8000 
  207.6250   404.3120     2.2510    60.5300    24.4920   108.4290   156.8910   164.3380   -39.8250 
  207.7500   405.1930     2.2480    58.7320    24.3900   115.3870   159.9510   166.6550   -39.8820 
  207.8750   411.6700     2.2360    59.0050    24.2210   122.8770   161.8570   168.0270   -39.9550 
  208.0000   419.5900     2.2160    60.6170    24.0470   124.7170   163.2370   169.1370   -40.0130 
  208.1250   421.3470     2.1940    63.0120    23.9150   124.5010   164.5360   170.5010   -40.0310 
  208.2500   415.5630     2.1790    64.9350    23.7970   131.3800   166.0630   172.3870   -40.0120 
  208.3750   406.3790     2.1760    66.3890    23.6930   140.5970   168.0840   175.0850   -39.9800 
  208.5000   398.1650     2.1910    67.3850    23.6400   135.9910   170.7660   178.7830   -39.9620 
  208.6250   394.7570     2.2240    67.0280    23.6540   110.2100   173.4800   182.9000   -39.9850 
  208.7500   397.6570     2.2510    65.5680    23.7100    88.7040   174.2990   185.3440   -40.0250 
  208.8750   407.6970     2.2610    64.0000    23.8420    84.8030   170.9130   183.5490   -40.0390 
  209.0000   419.8820     2.2600    64.1120    24.0560   101.2100   161.9620   175.7530   -39.9720 
  209.1250   422.8260     2.2610    64.4010    24.3100   127.3100   148.2730   162.2040   -39.8090 
  209.2500   415.3360     2.2640    64.9730    24.5250   137.7090   134.1300   147.3140   -39.6260 
  209.3750   405.9430     2.2610    67.6430    24.6530   127.7410   122.0890   134.0180   -39.5150 
  209.5000   403.4630     2.2500    71.4770    24.6870   119.3730   113.0170   123.6410   -39.5370 
  209.6250   408.9990     2.2280    71.9680    24.6370   120.1030   106.4100   116.0450   -39.6960 
  209.7500   415.0500     2.2060    69.3290    24.5750   130.6310   100.3150   109.2670   -39.8780 
  209.8750   417.4810     2.1940    67.6560    24.5580   132.8860    93.8070   102.2020   -39.9880 
