~V
VERS. 2.00: Ver 2.00
~W
STRT.M 125.0000:
STOP.M 269.0000:
STEP.M 0.1250:
NULL. -999.2500:
UWI. DF3004:
~C
DEPT.M :
GR.API :
RML.OHMM :
RI. :
RXO.OHMM :
CALI.CM :
DEN.GM/CC :
SP.MV :
~A
  125.0000    60.8990    12.0330    10.5750     9.8960    23.6540     2.1480   -22.6010 
  125.1250    61.6190    11.8660    10.5180    10.0950    23.7040     2.1430   -22.5950 
  125.2500    64.1560    11.7050    10.4200    10.1810    23.7140     2.1420   -22.6500 
  125.3750    66.3510    11.5510    10.2670    10.1730    23.6940     2.1400   -22.6680 
  125.5000    66.3940    11.3990    10.0540    10.1220    23.6830     2.1370   -22.7600 
  125.6250    65.9860    11.2540     9.7990     9.9840    23.6840     2.1400   -22.9870 
  125.7500    66.8750    11.1340     9.5550     9.7690    23.6670     2.1510   -23.1350 
  125.8750    68.2030    11.0710     9.3730     9.5270    23.6570     2.1690   -23.3570 
  126.0000    67.5960    11.0890     9.2850     9.3890    23.6550     2.1910   -23.6210 
  126.1250    66.4720    11.2050     9.3140     9.3340    23.6540     2.2120   -23.6980 
  126.2500    67.5840    11.3670     9.4120     9.3330    23.6480     2.2280   -23.8370 
  126.3750    70.3830    11.5150     9.5310     9.4600    23.6340     2.2390   -24.0130 
  126.5000    73.6750    11.5950     9.6210     9.6940    23.6280     2.2460   -23.9930 
  126.6250    76.7130    11.5590     9.6340     9.9060    23.6030     2.2480   -23.9440 
  126.7500    77.5890    11.4370     9.5830     9.9550    23.5850     2.2450   -23.9070 
  126.8750    74.7540    11.2670     9.4920     9.9720    23.5780     2.2370   -23.7840 
  127.0000    71.0990    11.0900     9.3960     9.9370    23.5770     2.2230   -23.6630 
  127.1250    70.0830    10.9480     9.3260     9.7990    23.5770     2.2080   -23.5460 
  127.2500    70.8670    10.8560     9.2860     9.7150    23.5780     2.1960   -23.4440 
  127.3750    71.4160    10.8100     9.2710     9.7940    23.5850     2.1910   -23.3180 
  127.5000    70.5190    10.7930     9.2660     9.9420    23.6030     2.1920   -23.2360 
  127.6250    68.3570    10.7750     9.2600     9.5870    23.6350     2.1980   -23.1990 
  127.7500    67.1370    10.7330     9.2470     9.4890    23.6490     2.2050   -23.1600 
  127.8750    68.7560    10.6640     9.2280     9.4900    23.6540     2.2090   -23.1840 
  128.0000    72.5080    10.5900     9.2140     9.4320    23.6550     2.2100   -23.2060 
  128.1250    74.3770    10.5580     9.2210     9.3960    23.6550     2.2050   -23.2390 
  128.2500    73.0530    10.5910     9.2520     9.3620    23.6570     2.1990   -23.2760 
  128.3750    71.3830    10.6730     9.2870     9.3320    23.6630     2.1930   -23.2940 
  128.5000    73.7990    10.7330     9.2780     9.3360    23.6810     2.1880   -23.2730 
  128.6250    77.3710    10.6180     9.1220     9.3260    23.6980     2.1870   -23.2540 
  128.7500    75.9120    10.2380     8.7670     9.2590    23.7310     2.1920   -23.3090 
  128.8750    71.1510     9.5840     8.2090     9.1220    23.7560     2.2010   -23.2630 
  129.0000    68.5780     8.7600     7.5230     8.9050    23.7940     2.2140   -23.1870 
  129.1250    71.6860     8.0000     6.8730     8.5270    23.9240     2.2310   -23.2630 
  129.2500    78.1270     7.5100     6.4140     7.8430    24.1250     2.2490   -23.2390 
  129.3750    84.4200     7.3930     6.2320     7.0580    24.2260     2.2660   -23.2510 
  129.5000    85.3480     7.6420     6.3450     6.6760    24.1630     2.2780   -23.4250 
  129.6250    79.6240     8.1820     6.7320     6.9170    23.8580     2.2800   -23.4480 
  129.7500    73.5520     8.7960     7.2440     7.6410    23.6820     2.2710   -23.4280 
  129.8750    71.1210     9.3310     7.7590     8.3380    23.6710     2.2530   -23.5140 
  130.0000    70.8260     9.6770     8.1690     8.7680    23.7620     2.2320   -23.5170 
  130.1250    70.4790     9.7700     8.3870     8.8820    23.8680     2.2150   -23.4540 
  130.2500    68.8820     9.7350     8.4670     8.8850    23.8310     2.2070   -23.4250 
  130.3750    67.3310     9.7300     8.5130     9.0170    23.6660     2.2050   -23.2680 
  130.5000    67.4930     9.9460     8.6680     9.4550    23.0840     2.2050   -23.0350 
  130.6250    68.5590    10.5860     9.1070     9.8440    22.7740     2.2050   -22.8300 
  130.7500    66.7910    11.5270     9.7860    10.0940    22.5060     2.2100   -22.5550 
  130.8750    63.7420    12.4860    10.5290    10.6530    22.2310     2.2310   -22.2990 
  131.0000    63.3160    13.0640    11.0410    11.7740    22.5190     2.2790   -22.0640 
  131.1250    66.0980    12.7740    10.9110    13.8100    23.3720     2.3530   -21.7670 
  131.2500    70.5190    11.7100    10.1370    17.1180    24.0200     2.4250   -21.5270 
  131.3750    75.8620    10.1860     8.9260    18.8610    24.2450     2.4650   -21.3330 
  131.5000    81.7960     8.6610     7.6340    14.5620    24.2520     2.4600   -21.1550 
  131.6250    86.3140     7.5810     6.6270     8.6170    24.1360     2.4150   -21.0710 
  131.7500    87.9220     6.9840     5.9840     7.0620    24.0830     2.3670   -20.9810 
  131.8750    87.6950     6.7850     5.6770     6.5670    24.2900     2.3330   -20.8360 
  132.0000    84.9830     6.8310     5.6160     6.3020    24.3690     2.3160   -20.8250 
  132.1250    80.3340     6.9500     5.6930     6.4210    24.3460     2.3120   -20.8430 
  132.2500    78.6030     7.0020     5.7770     6.3480    24.0960     2.3130   -20.7730 
  132.3750    83.3940     6.9390     5.8050     6.1420    23.8100     2.3160   -20.8270 
  132.5000    92.3010     6.7640     5.7530     6.0350    23.6200     2.3210   -20.8980 
  132.6250    96.1510     6.5270     5.6340     6.0310    23.6810     2.3280   -20.8500 
  132.7500    94.0200     6.3300     5.5190     5.9080    23.7880     2.3340   -20.9380 
  132.8750    91.6190     6.2430     5.4640     5.8800    23.8690     2.3390   -21.0450 
  133.0000    91.4470     6.2900     5.5020     5.8920    23.9570     2.3400   -21.0020 
  133.1250    90.2020     6.4380     5.6240     5.7450    24.2010     2.3350   -21.0190 
  133.2500    87.6320     6.5760     5.7580     6.1180    24.1900     2.3260   -21.0270 
  133.3750    86.6840     6.6300     5.8400     6.8790    24.1090     2.3180   -20.9470 
  133.5000    87.8750     6.5690     5.8340     7.1930    24.1820     2.3150   -20.8980 
  133.6250    88.5330     6.4270     5.7390     6.7020    24.1440     2.3210   -20.8500 
  133.7500    89.5060     6.3050     5.6270     6.0170    24.0710     2.3330   -20.7610 
  133.8750    91.9390     6.2680     5.5520     5.8510    24.1850     2.3450   -20.7140 
  134.0000    94.4500     6.3270     5.5350     6.0820    24.2520     2.3530   -20.6790 
  134.1250    96.4070     6.4260     5.5520     6.1560    24.2740     2.3530   -20.6770 
  134.2500    99.4280     6.4550     5.5280     6.2710    24.2510     2.3500   -20.7790 
  134.3750   103.1960     6.3350     5.4100     6.3570    24.2580     2.3490   -20.8680 
  134.5000   105.3660     6.0480     5.1780     6.3230    24.2690     2.3540   -20.9590 
  134.6250   105.7480     5.6640     4.8770     5.8800    24.0910     2.3670   -21.1390 
  134.7500   103.9370     5.3730     4.6350     5.5540    23.8170     2.3800   -21.2580 
  134.8750   100.2740     5.3730     4.5910     5.4100    23.6630     2.3900   -21.4140 
  135.0000    96.8900     5.8340     4.8850     5.6060    23.6930     2.3970   -21.6550 
  135.1250    94.3360     6.9120     5.6840     6.3520    23.8230     2.4090   -21.7620 
  135.2500    89.4130     8.3730     6.8680     7.6650    23.8730     2.4290   -21.8960 
  135.3750    81.7930     9.8810     8.2250     9.6510    23.7030     2.4510   -22.1220 
  135.5000    75.4670    11.0060     9.4230    12.5080    23.5960     2.4660   -22.2170 
  135.6250    74.7560    11.2640    10.0030    13.9740    23.6220     2.4630   -22.3280 
  135.7500    74.1400    10.8330     9.9590    13.3430    23.6270     2.4460   -22.5520 
  135.8750    72.5160    10.1870     9.5740    11.5180    23.5600     2.4240   -22.6260 
  136.0000    71.7720     9.9660     9.3390     9.7640    23.4980     2.4110   -22.6810 
  136.1250    72.9150    10.8720     9.8680     9.1060    23.6240     2.4110   -22.8210 
