~V
VERS. 2.00: Ver 2.00
~W
STRT.M 64.0000:
STOP.M 278.0000:
STEP.M 0.1250:
NULL. -999.2500:
UWI. DF3056:
~C
DEPT.M :
SP.MV :
GR.API :
CALI.CM :
RXO.OHMM :
RI. :
RML.OHMM :
DEN.GM/CC :
~A
# ...
  120.2500   -19.4410    92.9690    24.8020     9.3000     5.9390     7.8190     2.2400 
  120.3750   -19.3830    89.5690    24.7990     9.2950     5.8390     7.6190     2.2460 
  120.5000   -19.3610    88.3990    24.8400     9.1730     5.7740     7.4600     2.2470 
  120.6250   -19.4030    90.1570    25.0610     9.0450     5.7610     7.3730     2.2310 
  120.7500   -19.5050    92.8340    25.1170     9.1540     5.8080     7.3800     2.2070 
  120.8750   -19.6480    95.6170    25.3010     9.3950     5.9040     7.4560     2.1950 
  121.0000   -19.7820    96.4300    25.4140     9.2980     6.0300     7.5840     2.2070 
  121.1250   -19.8660    93.8240    25.5980     8.9370     6.1630     7.7590     2.2300 
  121.2500   -19.9010    90.2880    25.6320     8.7440     6.2810     7.9420     2.2460 
  121.3750   -19.9000    85.3360    25.4960     8.9950     6.3590     8.0850     2.2550 
  121.5000   -19.9040    82.6270    25.2090     9.6960     6.3700     8.1520     2.2650 
  121.6250   -19.9350    84.4260    24.9780     9.7890     6.3060     8.1280     2.2720 
  121.7500   -20.0110    85.1930    24.9010     9.7380     6.1930     8.0400     2.2690 
  121.8750   -20.1420    83.9160    24.8020     9.5320     6.0520     7.9110     2.2640 
  122.0000   -20.3620    81.7510    24.5300     9.5730     5.9410     7.8100     2.2630 
  122.1250   -20.6470    80.6160    24.5060    10.0050     5.9520     7.8660     2.2610 
  122.2500   -20.9470    78.0610    24.5680    10.3720     6.1160     8.1340     2.2530 
  122.3750   -21.2430    76.0840    24.5940    10.3860     6.4350     8.6040     2.2480 
  122.5000   -21.4960    77.1300    24.5680    10.7960     6.8840     9.1880     2.2570 
  122.6250   -21.7040    78.3650    24.6390    12.0640     7.3520     9.7070     2.2790 
  122.7500   -21.8680    78.7040    24.6910    15.1620     7.7050    10.0020     2.2940 
  122.8750   -21.9870    78.7520    24.5740    17.9360     7.8350     9.9920     2.2950 
  123.0000   -22.0820    78.3250    24.5020    17.4340     7.7260     9.6900     2.2860 
  123.1250   -22.2070    79.8360    24.4590    14.3400     7.4300     9.1990     2.2730 
  123.2500   -22.3960    85.3420    24.3900    11.3940     7.1040     8.7250     2.2560 
  123.3750   -22.6360    92.0730    24.3160    10.2430     6.8570     8.4130     2.2370 
  123.5000   -22.9120    95.0980    24.2080    10.1490     6.7530     8.3170     2.2240 
  123.6250   -23.1660    90.5920    24.1370    10.4950     6.8110     8.4180     2.2250 
  123.7500   -23.3540    83.6370    23.9690    11.5080     6.9500     8.5700     2.2340 
  123.8750   -23.4820    79.5220    23.8820    12.0980     7.0710     8.6580     2.2460 
  124.0000   -23.5520    81.4460    23.8630    11.5830     7.0970     8.5970     2.2600 
  124.1250   -23.5810    86.2530    23.8590    10.1430     6.9580     8.3350     2.2800 
  124.2500   -23.5580    86.5020    23.8680     9.2130     6.7190     7.9780     2.3020 
  124.3750   -23.5260    84.0220    23.8500     8.1030     6.4520     7.6300     2.3250 
  124.5000   -23.5580    86.0010    23.7910     7.7360     6.2360     7.3890     2.3390 
  124.6250   -23.7050    90.9290    23.7650     8.3050     6.1560     7.3530     2.3330 
  124.7500   -24.0030    90.8220    23.7010     8.9660     6.2040     7.4790     2.3110 
  124.8750   -24.4260    84.8810    23.7710     9.0290     6.3760     7.7140     2.2810 
  125.0000   -24.9060    79.5690    23.8320     9.3870     6.6240     8.0060     2.2550 
  125.1250   -25.3780    79.7860    23.8460     9.7600     6.9110     8.3140     2.2370 
  125.2500   -25.7910    78.8130    23.8480    10.2420     7.1910     8.5960     2.2240 
  125.3750   -26.1400    74.8280    23.7970    10.5410     7.4270     8.8250     2.2200 
  125.5000   -26.3950    70.1930    23.7190    10.8960     7.5890     8.9950     2.2260 
  125.6250   -26.5320    70.1370    23.7190    11.5450     7.6350     9.0760     2.2340 
  125.7500   -26.5750    73.0310    23.7770    13.3430     7.6110     9.0900     2.2290 
  125.8750   -26.5670    72.2710    23.8320    14.8360     7.5660     9.1100     2.2120 
  126.0000   -26.5840    67.1860    23.8480    14.5720     7.5690     9.2300     2.2020 
  126.1250   -26.6260    63.4200    23.8730    11.7200     7.7770     9.6470     2.2330 
  126.2500   -26.7000    64.6880    23.9690    10.2670     8.2870    10.5250     2.3090 
  126.3750   -26.7910    67.3990    24.0240     9.8260     9.2150    11.9720     2.4200 
  126.5000   -26.8770    67.0050    24.1610    11.8310    10.5960    13.9030     2.5410 
  126.6250   -26.9960    66.2500    24.2010    16.9310    12.3940    16.0660     2.6360 
  126.7500   -27.1390    67.1630    24.3920    25.5950    14.2950    18.0610     2.6830 
  126.8750   -27.2960    67.1230    24.6460    34.1030    15.8610    19.4100     2.6710 
  127.0000   -27.4500    64.8720    24.7340    39.0460    16.6000    19.7070     2.5980 
  127.1250   -27.6280    63.4990    24.7350    38.3720    16.1650    18.7400     2.4760 
  127.2500   -27.8650    64.2710    24.6080    32.1880    15.0540    17.1300     2.3470 
  127.3750   -28.1420    63.2410    24.5120    23.9110    13.7180    15.3590     2.2430 
  127.5000   -28.4690    60.8830    24.6280    18.6910    12.5200    13.8770     2.1740 
  127.6250   -28.7950    60.6430    24.5750    15.9360    11.7170    13.0120     2.1440 
  127.7500   -29.1120    62.7240    24.4740    15.1100    11.2510    12.5740     2.1430 
  127.8750   -29.3790    64.0240    24.2680    14.8770    11.0560    12.4400     2.1610 
  128.0000   -29.5480    64.5930    24.1980    14.5730    11.0570    12.4850     2.1800 
  128.1250   -29.6110    65.8330    24.4520    14.7030    11.1480    12.5450     2.1740 
  128.2500   -29.5510    67.0350    24.4610    15.0480    11.1960    12.4940     2.1520 
  128.3750   -29.4050    67.0850    24.5620    15.0580    11.1960    12.3580     2.1340 
  128.5000   -29.1950    65.7450    24.6100    14.6590    11.1830    12.2110     2.1390 
  128.6250   -28.9290    64.3350    24.6180    14.3680    11.1930    12.0550     2.1600 
  128.7500   -28.6400    63.7590    24.6080    14.5290    11.2440    11.9130     2.1720 
  128.8750   -28.3730    63.0960    24.5530    14.8620    11.3170    11.7980     2.1710 
  129.0000   -28.1390    60.5900    24.4650    15.0860    11.3910    11.6780     2.1660 
  129.1250   -27.9210    55.8210    24.4520    14.9290    11.3390    11.4840     2.1650 
  129.2500   -27.7210    53.5090    24.4670    15.2640    11.1060    11.1660     2.1730 
  129.3750   -27.5350    56.7210    24.4530    15.6920    10.7150    10.7170     2.1930 
  129.5000   -27.3400    64.0010    24.4410    15.4170    10.2140    10.1630     2.2290 
  129.6250   -27.1360    70.0570    24.3370    14.0630     9.6920     9.6260     2.2630 
  129.7500   -26.9380    73.8560    24.2010    12.7980     9.3000     9.2720     2.2750 
  129.8750   -26.7530    77.1460    24.1070    11.9890     9.1170     9.1520     2.2670 
  130.0000   -26.6200    78.8930    23.8850    11.7530     9.1400     9.2480     2.2590 
  130.1250   -26.5820    74.7940    23.8510    13.0010     9.3970     9.5590     2.2760 
  130.2500   -26.6260    67.6830    23.8420    14.1090     9.7940     9.9690     2.3060 
  130.3750   -26.7160    61.6190    23.8480    14.9680    10.1930    10.3550     2.3250 
  130.5000   -26.8520    59.0960    23.9150    18.3820    10.5040    10.6500     2.3090 
  130.6250   -27.0320    61.5040    23.9200    17.6150    10.6660    10.8170     2.2590 
  130.7500   -27.1750    64.2080    23.9020    14.7880    10.6680    10.8570     2.2080 
  130.8750   -27.2320    64.7210    23.9530    11.9420    10.5560    10.8070     2.1820 
  131.0000   -27.1880    64.3010    23.8490    10.5000    10.4160    10.7520     2.1860 
  131.1250   -27.0230    66.2230    24.0410    10.1040    10.2720    10.6950     2.2040 
  131.2500   -26.7940    68.6630    24.1740    10.8600    10.1030    10.6030     2.2140 
  131.3750   -26.5290    68.0020    24.1540    11.8020     9.9010    10.4620     2.2150 
