~V
VERS. 2.00: Ver 2.00
~W
STRT.M 60.0000:
STOP.M 258.0000:
STEP.M 0.1250:
NULL. -999.2500:
UWI. DF3032:
~C
DEPT.M :
GR.API :
RML.OHMM :
RI. :
RXO.OHMM :
CALI.CM :
DEN.GM/CC :
SP.MV :
~A
# ...
  172.5000    70.7830    95.4750    91.1040    69.0780    25.1420     2.2140   -25.4390 
  172.6250    71.0820    97.9450    92.5010    70.2340    25.1960     2.2190   -25.2780 
  172.7500    70.7660   103.9030    97.5760    77.7100    25.1420     2.2260   -25.1160 
  172.8750    71.4500   111.6590   104.8330    87.8600    24.8530     2.2320   -24.9820 
  173.0000    72.4170   119.6390   112.7690    93.0960    24.6130     2.2350   -24.8840 
  173.1250    71.5280   126.9760   120.4370    90.5830    24.5840     2.2330   -24.7990 
  173.2500    69.3810   134.6150   128.3690    75.6140    24.7150     2.2300   -24.7470 
  173.3750    67.3730   144.3040   137.9840    51.1700    24.8710     2.2240   -24.7180 
  173.5000    67.2590   157.1510   150.3440    42.7130    25.0520     2.2180   -24.7620 
  173.6250    67.9070   171.5740   164.3090    58.4530    25.0580     2.2120   -24.7540 
  173.7500    66.4540   181.8280   174.8550    91.0950    24.8350     2.2060   -24.7340 
  173.8750    62.5810   181.5810   176.1740   128.8910    24.5730     2.2010   -24.8150 
  174.0000    59.7270   166.5610   164.0240   146.4200    24.4550     2.1960   -24.7500 
  174.1250    62.5750   137.1370   137.7180   156.4570    24.4780     2.1960   -24.6490 
  174.2500    68.4650   105.0000   107.2870   137.4190    24.5570     2.2060   -24.6730 
  174.3750    73.8290    78.7570    80.9690    98.9360    24.6910     2.2270   -24.5600 
  174.5000    77.2250    62.3010    63.3790    65.2720    24.8890     2.2560   -24.4450 
  174.6250    78.2170    56.9890    56.6010    50.9820    25.0530     2.2820   -24.4720 
  174.7500    76.6550    59.3720    57.5720    47.3220    25.0840     2.2940   -24.4050 
  174.8750    73.9860    67.3580    64.4120    54.6470    24.8780     2.2900   -24.3790 
  175.0000    73.6490    78.3540    74.7570    75.0100    24.5500     2.2740   -24.4810 
  175.1250    75.6770    88.8060    85.2680    92.2890    24.4860     2.2590   -24.5790 
  175.2500    75.9490    95.7090    92.6680   100.7000    24.6070     2.2500   -24.6760 
  175.3750    74.0640    97.8940    95.4440    96.4300    24.6650     2.2490   -24.7920 
  175.5000    70.5700    96.1410    94.0090    89.1220    24.7090     2.2530   -24.9330 
  175.6250    69.2380    92.6170    90.2100    81.1480    24.8630     2.2580   -25.1040 
  175.7500    71.4410    89.7390    86.5570    76.5720    25.1080     2.2590   -25.2840 
  175.8750    74.5220    88.3800    84.0450    74.8810    25.2090     2.2570   -25.4680 
  176.0000    74.0330    88.7150    82.9600    75.3170    25.2150     2.2540   -25.6530 
  176.1250    69.2860    90.8370    83.4530    76.4070    25.2240     2.2560   -25.7840 
  176.2500    65.5580    94.2440    85.1320    77.5740    25.2330     2.2620   -25.9090 
  176.3750    63.6720    98.7380    87.8760    80.1170    25.2150     2.2680   -26.0440 
  176.5000    63.1100   104.1680    91.6110    84.5200    25.1020     2.2720   -26.0560 
  176.6250    67.2110   110.4790    96.3690    91.7580    24.7890     2.2680   -26.0940 
  176.7500    73.7870   117.2090   101.7150    98.5740    24.5440     2.2590   -26.1840 
  176.8750    76.7950   123.8510   107.1710   104.5360    24.4370     2.2500   -26.1280 
  177.0000    74.0520   129.7830   112.1440   110.1440    24.3920     2.2440   -26.1050 
  177.1250    70.3650   134.1920   115.8840   115.6020    24.4860     2.2410   -26.2040 
  177.2500    70.4830   137.0690   118.3230   119.5300    24.7220     2.2390   -26.1320 
  177.3750    72.3870   138.5710   119.5680   118.7500    24.8410     2.2360   -26.0880 
  177.5000    72.0200   138.9990   119.8620   115.6080    24.6700     2.2340   -26.2080 
  177.6250    69.0140   138.4370   119.2830   114.8670    24.4050     2.2360   -26.1400 
  177.7500    67.1770   137.0480   117.9970   117.2690    24.3070     2.2410   -26.0740 
  177.8750    69.9890   134.8470   116.0280   118.1900    24.3130     2.2490   -26.0860 
  178.0000    75.5950   132.0380   113.5400   115.5090    24.3670     2.2560   -25.9280 
  178.1250    78.4810   129.1320   110.9530   110.6820    24.4230     2.2590   -25.7520 
  178.2500    77.2980   126.8060   108.8620   106.6420    24.4490     2.2610   -25.6740 
  178.3750    75.4990   125.5410   107.7270   105.3540    24.4690     2.2610   -25.4640 
  178.5000    74.9470   125.6140   107.8520   104.9850    24.5040     2.2630   -25.1650 
  178.6250    73.3080   127.4820   109.7100   107.2210    24.4990     2.2680   -24.8030 
  178.7500    69.6830   131.3000   113.3790   111.1410    24.4770     2.2730   -24.3100 
  178.8750    67.6120   137.6550   119.2860   116.0860    24.5410     2.2780   -23.7900 
  179.0000    69.0370   146.8430   127.6370   121.0610    24.7170     2.2810   -23.2420 
  179.1250    70.8920   157.8530   137.6950   121.5620    24.8260     2.2760   -22.6200 
  179.2500    70.1760   166.6910   146.2640   119.0170    24.7110     2.2650   -22.0310 
  179.3750    68.0500   168.4470   149.3070   119.9450    24.5400     2.2490   -21.4690 
  179.5000    66.7040   158.7230   142.9770   133.5560    24.4300     2.2290   -20.9110 
  179.6250    65.0720   134.9500   124.4050   141.0270    24.5360     2.2130   -20.4940 
  179.7500    63.3490   105.0700    99.4680   129.5500    24.7940     2.2030   -20.1080 
  179.8750    64.5510    77.0140    74.6770    97.3700    24.9870     2.2030   -19.7810 
  180.0000    70.0920    56.0830    55.1860    56.7370    25.0550     2.2150   -19.6960 
  180.1250    77.7330    44.4500    43.7740    35.1280    24.9250     2.2370   -19.6270 
  180.2500    82.6320    38.8480    38.0150    27.2360    24.8060     2.2610   -19.4790 
  180.3750    82.7560    37.1660    36.1040    29.7600    24.8640     2.2800   -19.5280 
  180.5000    78.8530    37.6100    36.4400    34.9930    24.9790     2.2910   -19.6590 
  180.6250    75.8210    38.7930    37.7790    38.0120    25.0220     2.2930   -19.7340 
  180.7500    76.5580    39.7190    39.0330    38.0980    25.0740     2.2950   -19.9770 
  180.8750    78.0350    40.1510    39.8080    37.5970    25.1280     2.2990   -20.2150 
  181.0000    76.8980    40.3110    40.1570    36.5670    25.1530     2.3050   -20.2580 
  181.1250    76.3440    40.8080    40.5530    35.9000    25.1530     2.3090   -20.3640 
  181.2500    78.8470    42.0380    41.4510    36.5350    25.1530     2.3110   -20.5140 
  181.3750    81.7800    44.0300    42.9470    38.1450    25.1530     2.3100   -20.5210 
  181.5000    80.8040    46.5110    44.8380    40.6990    25.1570     2.3080   -20.5380 
  181.6250    76.8480    49.0690    46.7380    45.3180    25.1660     2.3050   -20.6010 
  181.7500    75.8090    51.4890    48.4200    51.1270    25.1320     2.2990   -20.5720 
  181.8750    78.3310    53.9860    50.0360    54.5090    25.0230     2.2930   -20.6160 
  182.0000    80.5120    57.1000    52.0650    53.3530    24.9600     2.2880   -20.7340 
  182.1250    78.8720    61.7570    55.3640    51.8930    24.9630     2.2830   -20.7870 
  182.2500    74.5780    68.0870    60.1590    56.7990    24.7740     2.2780   -20.9500 
  182.3750    72.0540    75.8250    66.3050    69.5400    24.5400     2.2730   -21.1410 
  182.5000    72.9590    84.1970    73.1890    83.1710    24.5000     2.2690   -21.2650 
  182.6250    77.2480    91.8990    79.7080    89.4960    24.6970     2.2690   -21.4890 
  182.7500    81.4050    97.9720    84.9430    90.5980    24.8540     2.2720   -21.6830 
  182.8750    82.2680   101.9960    88.4710    89.1600    24.6710     2.2770   -21.8260 
  183.0000    78.4870   104.0920    90.3480    84.9510    24.4720     2.2790   -22.1010 
  183.1250    73.1320   104.5680    90.8210    84.1740    24.5430     2.2760   -22.3420 
  183.2500    70.9930   104.2610    90.6180    87.0320    24.8300     2.2720   -22.4760 
  183.3750    70.8910   103.6920    90.1980    91.0300    25.0060     2.2680   -22.7660 
  183.5000    70.6830   103.4290    90.0490    93.8070    24.8560     2.2670   -23.0650 
  183.6250    72.9080   104.2390    90.8450    94.0850    24.7390     2.2660   -23.1900 
