~V
VERS. 2.00: Ver 2.00
~W
STRT.M 90.0000:
STOP.M 264.0000:
STEP.M 0.1250:
NULL. -999.2500:
UWI. DF3021:
~C
DEPT.M :
AC.US/MT :
DEN.GM/CC :
GR.API :
CALI.CM :
RXO.OHMM :
RI. :
RML.OHMM :
SP.MV :
~A
# ...
  160.0000   420.3800     2.2600    70.0250    23.6280    37.6000    31.4080    33.9370   -21.2160 
  160.1250   419.5300     2.2480    74.3570    23.5240    45.9510    37.1730    40.6640   -21.2780 
  160.2500   419.0010     2.2450    79.4350    23.5760    51.2760    42.0640    46.3290   -21.2980 
  160.3750   419.2510     2.2460    80.7610    23.8810    52.9910    45.0480    49.7160   -21.3090 
  160.5000   420.0580     2.2410    77.2810    24.1780    51.1410    46.0350    50.6750   -21.3560 
  160.6250   420.3630     2.2270    75.0900    24.2200    46.5430    45.9700    50.3650   -21.3930 
  160.7500   419.0930     2.2140    76.7630    24.1920    42.0900    46.3840    50.7080   -21.4230 
  160.8750   415.9100     2.2080    76.5290    24.2000    41.7880    48.1900    52.8150   -21.4540 
  161.0000   411.7950     2.2120    72.0870    24.2590    49.7650    51.8900    57.2250   -21.4960 
  161.1250   408.9920     2.2210    68.0500    24.3430    62.0730    57.6880    64.0660   -21.5540 
  161.2500   408.2020     2.2250    66.7550    24.3900    70.1120    64.3920    71.8450   -21.6000 
  161.3750   408.5840     2.2230    67.4560    24.3520    71.5280    70.5410    78.7990   -21.6410 
  161.5000   409.0560     2.2210    68.1230    24.2650    70.0250    74.3350    82.8100   -21.6490 
  161.6250   409.1140     2.2250    68.5540    24.1200    68.6490    73.8150    81.6220   -21.6600 
  161.7500   408.9170     2.2270    68.5680    24.0000    67.8100    70.1240    76.7790   -21.6730 
  161.8750   408.7900     2.2250    69.7890    24.0810    66.8440    65.0560    70.5220   -21.6730 
  162.0000   409.2050     2.2280    72.2430    24.2530    64.0340    60.4620    65.0180   -21.6550 
  162.1250   410.3730     2.2400    72.5220    24.3230    58.2380    58.1800    62.3350   -21.6030 
  162.2500   411.4130     2.2500    70.7630    24.3100    56.7700    58.7810    63.0080   -21.6000 
  162.3750   411.5360     2.2470    68.2480    24.2960    63.3880    62.4390    67.1490   -21.6150 
  162.5000   410.6350     2.2320    67.8890    24.2940    72.9440    68.7190    74.1770   -21.6550 
  162.6250   409.0810     2.2160    72.3370    24.3200    77.9210    76.5450    82.7350   -21.6920 
  162.7500   407.2270     2.2080    76.6950    24.3770    80.9030    83.7400    90.2820   -21.7400 
  162.8750   405.1110     2.2010    75.8300    24.4310    83.2650    88.6840    94.9720   -21.8300 
  163.0000   403.0080     2.1920    71.3280    24.4550    84.5640    90.7630    96.2860   -21.9360 
  163.1250   401.4230     2.1910    69.5670    24.4650    85.1410    90.3020    94.9410   -22.0390 
  163.2500   400.4290     2.2020    71.4170    24.4780    85.4440    88.7950    92.7470   -22.1280 
  163.3750   399.8480     2.2190    73.8930    24.5000    83.2790    87.1460    90.6520   -22.1980 
  163.5000   398.9430     2.2340    73.0100    24.4940    78.2790    86.2890    89.5790   -22.2530 
  163.6250   395.6450     2.2410    67.7750    24.4300    75.0500    87.3990    90.7510   -22.3370 
  163.7500   389.3840     2.2440    61.6380    24.2100    76.6980    90.5390    94.2020   -22.4050 
  163.8750   382.3840     2.2420    59.0590    23.8960    83.0760    95.2250    99.4310   -22.4280 
  164.0000   379.2630     2.2320    59.7340    23.6970    91.0680   100.0890   104.9260   -22.4360 
  164.1250   384.4540     2.2110    60.2690    23.5410    97.6170   102.6760   107.8180   -22.4590 
  164.2500   394.4290     2.1890    61.1170    23.4110   100.2270   102.0850   106.9780   -22.4480 
  164.3750   404.0230     2.1770    62.7810    23.3540    94.7770    98.9910   103.2450   -22.4460 
  164.5000   408.4100     2.1830    64.8860    23.3500    82.1690    95.2600    98.8790   -22.4420 
  164.6250   402.3130     2.2070    65.4450    23.4020    71.4410    93.3940    96.7180   -22.4140 
  164.7500   387.0690     2.2390    64.3440    23.5140    73.2310    94.3750    97.7210   -22.4140 
  164.8750   369.3210     2.2750    62.2110    23.6280    83.8860    98.2030   101.7910   -22.4600 
  165.0000   360.5410     2.3060    58.9800    23.6970    94.9990   104.1500   108.0560   -22.5210 
  165.1250   370.8340     2.3140    60.4010    23.8340   103.1490   111.0310   115.1110   -22.5880 
  165.2500   390.9690     2.2920    67.9380    24.0290   110.8580   117.4460   121.3860   -22.7260 
  165.3750   408.8300     2.2510    74.1530    24.2090   118.3200   122.9040   126.3370   -22.8720 
  165.5000   417.2770     2.2140    72.7750    24.2970   123.4010   127.5480   130.2070   -22.9970 
  165.6250   417.1020     2.1980    67.3370    24.2750   121.5790   131.5720   132.7350   -23.1620 
  165.7500   415.1550     2.1970    64.2650    24.1930   117.6770   133.9640   133.2150   -23.3170 
  165.8750   413.9800     2.2050    63.7200    24.0560   114.8470   131.4560   131.9060   -23.3950 
  166.0000   413.7950     2.2130    63.9090    23.9910   112.2570   124.6970   126.5150   -23.4670 
  166.1250   414.5840     2.2170    64.8780    23.9390   103.6940   114.2730   117.3490   -23.5260 
  166.2500   416.1470     2.2180    65.1790    23.9440    92.2870   103.1520   107.1370   -23.5030 
  166.3750   417.6180     2.2210    65.3670    24.0590    82.2220    93.3230    97.8510   -23.4670 
  166.5000   417.6940     2.2220    66.2450    24.2480    75.8340    85.9430    90.7560   -23.4300 
  166.6250   415.9050     2.2140    66.8200    24.3290    74.6050    81.8450    86.8100   -23.3710 
  166.7500   413.8600     2.1970    67.4540    24.3520    73.9570    80.3850    85.5070   -23.2960 
  166.8750   412.6460     2.1810    69.3330    24.3750    74.1290    81.2350    86.6050   -23.2670 
  167.0000   412.3800     2.1760    70.7220    24.3960    76.1310    84.0820    89.8290   -23.2350 
  167.1250   412.6440     2.1830    68.7440    24.3670    80.8620    88.9110    95.1680   -23.1940 
  167.2500   412.9360     2.1930    67.2900    24.1570    88.2420    95.1420   101.9690   -23.2070 
  167.3750   413.0100     2.1990    72.4100    23.7400    98.3440   102.4060   109.8110   -23.2390 
  167.5000   412.8190     2.2020    81.5550    23.3790   110.4160   110.1330   118.0840   -23.3080 
  167.6250   412.5450     2.2050    83.9360    23.2450   119.1580   117.3410   125.7660   -23.3520 
  167.7500   412.1840     2.2030    77.6120    23.2440   123.3900   123.1280   131.9400   -23.4030 
  167.8750   411.2850     2.1970    69.3350    23.2470   127.4810   126.8010   135.8800   -23.4760 
  168.0000   409.3500     2.1960    66.1140    23.2380   134.2380   127.9990   137.1960   -23.5580 
  168.1250   406.4870     2.2020    66.6090    23.2180   139.3110   126.5850   135.7300   -23.6590 
  168.2500   404.1800     2.2070    67.4420    23.1340   135.9040   123.8800   132.8590   -23.7780 
  168.3750   403.7080     2.2070    68.9280    23.0280   125.5050   121.0840   129.8210   -23.9100 
  168.5000   404.9400     2.2090    70.6210    22.9820   115.0940   119.3410   127.7920   -24.0220 
  168.6250   405.2900     2.2160    70.1090    23.0750   111.7070   119.8470   128.0000   -24.2060 
  168.7500   402.4220     2.2200    69.0050    23.0640   116.4270   122.5440   130.4110   -24.4180 
  168.8750   396.8190     2.2220    69.0310    22.8260   124.8570   127.0780   134.6770   -24.6120 
  169.0000   391.4590     2.2190    68.4160    22.4910   132.0570   132.7680   140.1280   -24.8270 
  169.1250   390.2340     2.2140    64.6190    22.2560   136.3000   139.0310   146.2120   -25.0370 
  169.2500   392.9060     2.2110    62.6080    22.1420   139.1700   145.6290   152.6800   -25.2300 
  169.3750   397.5490     2.2120    65.1490    22.1760   142.3640   152.8800   159.8310   -25.4030 
  169.5000   402.3040     2.2150    68.7390    22.3800   150.0040   161.2440   168.1170   -25.5830 
  169.6250   406.3790     2.2160    68.6990    22.9520   166.5240   171.0890   177.9100   -25.7360 
  169.7500   409.5520     2.2140    66.8240    23.6930   185.0910   181.5450   188.3540   -25.8460 
  169.8750   411.0060     2.2110    65.0690    24.2780   199.8420   191.3260   198.2240   -25.9280 
