~V
VERS. 2.00: Ver 2.00
~W
STRT.M 115.0000:
STOP.M 241.0000:
STEP.M 0.1250:
NULL. -999.2500:
UWI. DF3064:
~C
DEPT.M :
GR.API :
CALI.CM :
RXO.OHMM :
RI. :
RML.OHMM :
DEN.GM/CC :
SP.MV :
~A
# ...
  148.7500    64.4840    25.0380    41.6090    53.6110    55.5800     2.2790   -34.5140 
  148.8750    72.8360    25.0110    35.8950    55.2220    58.4220     2.2930   -34.6820 
  149.0000    80.9070    25.0800    26.1640    58.5770    63.1680     2.3130   -34.8550 
  149.1250    82.9070    24.8250    32.1200    64.1870    70.3300     2.3230   -35.0190 
  149.2500    78.1200    24.7530    48.9200    71.9050    79.5990     2.3150   -35.1600 
  149.3750    70.0740    24.7430    72.1260    81.2510    90.5970     2.2920   -35.2930 
  149.5000    64.7830    24.7580    91.8800    91.5350   102.8630     2.2690   -35.3980 
  149.6250    64.6620    24.8020   103.0960   102.4310   115.9420     2.2570   -35.4620 
  149.7500    66.5800    24.7990   110.6160   112.9620   128.7590     2.2460   -35.4990 
  149.8750    66.5180    24.7080   125.4890   122.8590   140.9650     2.2300   -35.4990 
  150.0000    62.7300    24.6370   137.8860   132.7950   152.9960     2.2140   -35.4470 
  150.1250    59.1000    24.5090   135.4100   142.9470   165.5000     2.2050   -35.3660 
  150.2500    60.3990    24.4370   166.6680   151.8240   176.7290     2.1990   -35.2490 
  150.3750    64.3560    24.2440   188.7700   158.5420   185.1550     2.1950   -35.0860 
  150.5000    64.9570    23.8480   163.4000   162.1070   189.1590     2.1940   -34.8920 
  150.6250    61.2970    23.3090   118.4930   161.0590   186.8810     2.1960   -34.6540 
  150.7500    58.8390    23.0340    92.9860   156.4500   180.2450     2.1950   -34.4070 
  150.8750    60.5210    22.9910    77.9360   149.5700   171.0830     2.1900   -34.1370 
  151.0000    65.1190    23.3020    67.9250   141.6740   160.9670     2.1930   -33.8610 
  151.1250    67.1180    23.8020    70.5420   134.3220   151.5970     2.2110   -33.5970 
  151.2500    65.2130    24.5760    92.0940   128.0640   143.1880     2.2260   -33.3180 
  151.3750    62.3320    24.9650   117.1210   122.2280   135.4880     2.2180   -33.0760 
  151.5000    61.3310    25.0160   122.3270   116.5120   128.2300     2.1910   -32.8730 
  151.6250    61.2230    25.0080   111.0580   111.3190   121.8580     2.1690   -32.7080 
  151.7500    61.7330    25.0660    97.2630   106.9650   116.5930     2.1700   -32.5500 
  151.8750    62.6800    24.9830    94.0450   103.4960   112.4930     2.1880   -32.3960 
  152.0000    62.3810    25.0940    96.8560   100.8390   109.5770     2.2070   -32.2750 
  152.1250    59.7030    25.0240   102.1360    99.3830   108.2120     2.2140   -32.1410 
  152.2500    58.1370    25.0290   105.7830    99.0680   108.0200     2.2170   -32.0370 
  152.3750    59.2240    25.0590   105.9660    99.4670   108.5470     2.2200   -31.9430 
  152.5000    60.3350    25.0990   108.6980   100.2270   109.4610     2.2210   -31.8360 
  152.6250    59.4010    25.1400   113.5080   101.2000   110.7560     2.2200   -31.7510 
  152.7500    60.1450    25.1480   115.2240   102.5250   112.4670     2.2230   -31.6680 
  152.8750    62.1810    25.1380   113.8340   104.2260   114.5730     2.2290   -31.6180 
  153.0000    61.6150    25.1450   115.2630   106.2460   116.9430     2.2300   -31.5740 
  153.1250    56.3020    25.1450   117.2280   108.4870   119.3800     2.2200   -31.5490 
  153.2500    53.2750    25.1360   120.3230   110.8250   121.6740     2.2010   -31.5460 
  153.3750    55.3130    25.1210   123.6440   113.3830   123.9510     2.1790   -31.5390 
  153.5000    59.6750    25.0790   128.0980   116.2630   126.2590     2.1630   -31.5310 
  153.6250    61.5080    25.0720   125.5250   119.2940   128.4300     2.1670   -31.5250 
  153.7500    61.7920    25.0770   118.8660   122.3960   130.3860     2.1840   -31.5280 
  153.8750    63.2610    25.1150   115.8650   125.1320   131.3720     2.1980   -31.5310 
  154.0000    66.4620    25.1390   122.3830   124.4380   128.2820     2.1960   -31.5370 
  154.1250    67.1220    25.1330   134.4130   116.1050   117.7600     2.1820   -31.5480 
  154.2500    64.2480    25.1510   134.6170   101.2990   101.7200     2.1760   -31.5490 
  154.3750    60.7220    25.1890   121.5760    83.1060    83.1120     2.1820   -31.5600 
  154.5000    61.7160    25.1990   112.2120    65.1780    65.0530     2.1960   -31.5550 
  154.6250    68.6500    25.1810    95.3730    50.8610    50.6540     2.2140   -31.5770 
  154.7500    75.2100    25.1450    64.4400    40.8470    40.7610     2.2380   -31.5980 
  154.8750    78.2980    25.1440    32.0490    34.9390    35.4000     2.2700   -31.6610 
  155.0000    76.5290    25.1320    22.1760    32.9050    34.2030     2.2930   -31.7380 
  155.1250    73.9360    25.1370    29.4920    34.5860    36.8050     2.2930   -31.8280 
  155.2500    74.2910    25.1380    40.8990    38.5010    41.5810     2.2790   -31.9270 
  155.3750    75.3620    25.1260    50.9050    44.1880    47.8450     2.2650   -32.0270 
  155.5000    73.5010    25.1040    55.4600    51.0870    55.0020     2.2600   -32.1900 
  155.6250    70.1810    25.1360    57.1830    58.4670    62.4050     2.2570   -32.3220 
  155.7500    69.9400    25.0850    54.9430    65.1470    69.2220     2.2510   -32.4760 
  155.8750    70.7840    25.1060    57.0900    70.8210    75.3350     2.2420   -32.6120 
  156.0000    68.7970    25.2310    63.3920    75.8050    81.1610     2.2310   -32.7450 
  156.1250    64.5670    25.3120    73.0460    80.3350    86.9620     2.2190   -32.8790 
  156.2500    61.9060    25.3650    83.0280    84.3950    92.5430     2.2070   -33.0190 
  156.3750    61.4800    25.2170    94.4800    87.8580    97.7600     2.1960   -33.1820 
  156.5000    62.6150    25.2160   100.7980    90.6950   102.3420     2.1890   -33.3180 
  156.6250    63.9060    25.2710    99.0920    92.5900   105.8670     2.1930   -33.4720 
  156.7500    65.0920    25.3020   100.6300    94.2470   108.9270     2.2050   -33.6200 
  156.8750    66.5710    25.4000   103.1680    96.0720   111.9080     2.2130   -33.7590 
  157.0000    67.7860    25.4400   104.7460    98.1710   114.8220     2.2110   -33.8920 
  157.1250    68.0600    25.4390   106.9410   100.2920   117.3810     2.2060   -34.0000 
  157.2500    67.8250    25.3980   110.0400   102.2470   119.4730     2.2080   -34.1080 
  157.3750    68.4980    25.3570   110.8140   103.4550   120.3690     2.2130   -34.2070 
  157.5000    69.0870    25.3530   120.2530   103.4380   119.7020     2.2110   -34.3060 
  157.6250    67.4460    25.3520   133.8380   102.0770   117.4080     2.2010   -34.3960 
  157.7500    65.2060    25.2690   128.7520    99.7170   114.0010     2.1920   -34.4740 
  157.8750    64.0340    25.1510   109.5200    96.4920   109.7570     2.1920   -34.5430 
  158.0000    65.1090    25.1350    99.4290    92.8600   105.1410     2.2000   -34.6180 
  158.1250    67.0170    25.1220    97.0350    89.3250   100.6100     2.2100   -34.6830 
  158.2500    65.6720    25.0570   101.8630    85.8600    96.2220     2.2180   -34.7360 
  158.3750    60.9600    24.9930   105.1730    82.8410    92.5080     2.2240   -34.7760 
  158.5000    58.9750    24.9880    96.6240    80.7090    89.8920     2.2280   -34.7880 
  158.6250    62.7210    24.8210    78.6310    79.9220    88.9880     2.2260   -34.8230 
  158.7500    63.5540    24.7120    68.6990    80.4870    89.6820     2.2190   -34.8370 
  158.8750    60.5280    24.6040    75.4480    82.4470    91.9700     2.2170   -34.8510 
  159.0000    59.2450    24.5970    88.2700    85.5230    95.5030     2.2260   -34.8550 
  159.1250    61.7590    24.7880    94.9050    89.2240    99.7150     2.2370   -34.8570 
  159.2500    62.7760    24.8240    94.9410    92.9450   103.8330     2.2380   -34.8950 
  159.3750    62.3900    24.8330    91.7810    96.1460   107.1930     2.2320   -34.9330 
  159.5000    63.0620    24.8460    86.9020    98.3250   109.3210     2.2260   -35.0020 
  159.6250    62.8230    24.9440    89.9220    99.3460   110.1590     2.2180   -35.0190 
  159.7500    61.0890    25.0410    93.2520    99.5990   110.1390     2.2060   -35.0290 
  159.8750    59.9150    25.1230    93.8050    99.2280   109.5100     2.1960   -35.0440 
