~V
VERS. 2.00: Ver 2.00
~W
STRT.M 67.0000:
STOP.M 264.0000:
STEP.M 0.1250:
NULL. -999.2500:
UWI. DF3014:
~C
DEPT.M :
GR.API :
CALI.CM :
RXO.OHMM :
RI. :
RML.OHMM :
DEN.GM/CC :
SP.MV :
~A
# ...
   89.5000    87.9410    23.5830     8.2370     7.4620     8.8140  -999.2500   -25.0890 
   89.6250    93.5310    23.7840     7.0190     7.0850     8.2630  -999.2500   -24.9700 
   89.7500    95.2810    24.0750     5.7270     6.7430     7.8130  -999.2500   -24.9190 
   89.8750    95.6350    24.0950     5.0180     6.4900     7.5620  -999.2500   -24.9400 
   90.0000    94.2960    24.0220     5.1040     6.3600     7.5280  -999.2500   -25.0280 
   90.1250    89.0810    23.8680     5.4650     6.3580     7.6680  -999.2500   -25.2010 
   90.2500    82.8040    23.7950     5.8870     6.4130     7.8660  -999.2500   -25.4430 
   90.3750    79.1810    23.9100     6.2360     6.4730     8.0300  -999.2500   -25.7500 
   90.5000    79.4830    24.0930     6.4480     6.5040     8.1120  -999.2500   -26.1080 
   90.6250    79.3370    24.2860     6.2540     6.5150     8.1210  -999.2500   -26.4770 
   90.7500    76.9020    24.3320     6.2590     6.5720     8.1700  -999.2500   -26.8610 
   90.8750    73.0650    24.0620     6.8310     6.7850     8.4390  -999.2500   -27.2460 
   91.0000    67.8140    23.9300     7.6810     7.2850     9.1730  -999.2500   -27.6270 
   91.1250    61.4530    23.9120     8.8810     8.2980    10.7810  -999.2500   -27.9940 
   91.2500    57.1670    23.9280    11.0400     9.9790    13.4000  -999.2500   -28.3340 
   91.3750    56.8440    24.0830    15.6170    12.4880    17.0880  -999.2500   -28.6930 
   91.5000    58.5860    24.1460    22.2390    15.8100    21.5900  -999.2500   -29.0910 
   91.6250    58.7180    24.2210    30.4210    19.4850    26.0050  -999.2500   -29.5240 
   91.7500    59.0570    24.2210    40.7380    22.4290    29.1340  -999.2500   -29.9910 
   91.8750    59.9110    24.2140    49.8320    23.6020    29.9610  -999.2500   -30.4800 
   92.0000    59.4030    24.0240    51.9370    22.5360    28.1090  -999.2500   -30.9820 
   92.1250    57.1210    24.1060    46.0270    19.7270    24.1480  -999.2500   -31.5060 
   92.2500    55.3560    24.0450    32.6480    16.6040    19.8780  -999.2500   -32.0460 
   92.3750    54.2680    23.9560    19.3640    13.8490    16.2820  -999.2500   -32.5220 
   92.5000    53.8020    23.9000    12.5170    11.7830    13.8060  -999.2500   -32.9100 
   92.6250    56.2410    23.7030    11.8190    10.5380    12.5520  -999.2500   -33.2180 
   92.7500    59.0670    23.6540    11.6900     9.8400    12.0130  -999.2500   -33.4580 
   92.8750    60.7070    23.8620    11.5610     9.5470    11.9130  -999.2500   -33.6630 
   93.0000    62.2640    23.9970    11.2090     9.5570    12.0830  -999.2500   -33.8430 
   93.1250    64.0180    24.4290    11.1700     9.7540    12.3540  -999.2500   -33.9740 
   93.2500    66.6150    25.0500    11.3880     9.9970    12.5890  -999.2500   -34.0780 
   93.3750    70.4860    25.4480    11.5780    10.2270    12.7560  -999.2500   -34.1720 
   93.5000    74.1380    25.6260    11.5240    10.4090    12.8470  -999.2500   -34.2330 
   93.6250    73.6760    25.3430    11.3160    10.4770    12.8320  -999.2500   -34.2420 
   93.7500    69.9720    24.9830    11.3170    10.4290    12.6920  -999.2500   -34.2090 
   93.8750    67.5240    24.5700    11.4640    10.2510    12.4150  -999.2500   -34.1070 
   94.0000    68.7460    24.2030    11.5210     9.9680    12.0520  -999.2500   -33.9460 
   94.1250    70.5300    23.9690    11.2380     9.6510    11.7170  -999.2500   -33.7800 
   94.2500    68.9610    23.9070    10.9700     9.3860    11.4860  -999.2500   -33.6320 
   94.3750    64.4660    23.7640    10.7380     9.2010    11.3840  -999.2500   -33.5300 
   94.5000    61.2360    23.5880    10.6430     9.1120    11.4150  -999.2500   -33.5070 
   94.6250    61.5640    23.5740    10.9820     9.1280    11.5540  -999.2500   -33.5790 
   94.7500    61.1430    23.4400    11.2680     9.2030    11.7080  -999.2500   -33.6690 
   94.8750    58.7070    23.2930    11.4270     9.2880    11.8470  -999.2500   -33.7860 
   95.0000    56.3640    23.2900    11.6050     9.3460    11.9390  -999.2500   -33.9220 
   95.1250    58.7640    23.3340    11.4760     9.3520    11.9600  -999.2500   -34.0380 
   95.2500    63.6780    23.4770    11.3540     9.2960    11.9140  -999.2500   -34.1170 
   95.3750    65.3350    23.6320    11.3010     9.1730    11.8130  -999.2500   -34.1460 
   95.5000    62.9270    23.7830    11.1700     8.9940    11.6520  -999.2500   -34.0870 
   95.6250    61.7370    23.8100    11.0300     8.7860    11.4790  -999.2500   -33.8980 
   95.7500    64.4710    23.8390    10.7900     8.5910    11.3440  -999.2500   -33.6350 
   95.8750    67.5560    23.7240    10.4310     8.4410    11.2730  -999.2500   -33.3180 
   96.0000    68.9980    23.6480    10.0290     8.3440    11.2530  -999.2500   -32.9710 
   96.1250    68.3260    23.6100     9.9020     8.2760    11.2560  -999.2500   -32.6270 
   96.2500    67.6010    23.5640     9.6750     8.1940    11.2110  -999.2500   -32.2840 
   96.3750    67.8530    23.6280     9.4350     8.0840    11.0900  -999.2500   -31.9730 
   96.5000    70.1820    23.8880     9.3210     7.9330    10.8760  -999.2500   -31.7380 
   96.6250    71.6610    24.1230     9.3580     7.7360    10.5860  -999.2500   -31.6010 
   96.7500    69.9090    24.0170     9.2940     7.5650    10.3260  -999.2500   -31.5430 
   96.8750    67.3410    23.9120     8.5370     7.4610    10.1760  -999.2500   -31.5170 
   97.0000    65.9620    23.8900     8.1520     7.4540    10.1710  -999.2500   -31.4940 
   97.1250    66.5300    23.6790     8.7120     7.5760    10.3380  -999.2500   -31.4610 
   97.2500    68.5140    23.6650     9.7600     7.7980    10.6040  -999.2500   -31.4090 
   97.3750    70.6970    23.7620    10.1890     8.0760    10.9110  -999.2500   -31.3020 
   97.5000    71.6840    23.7790    10.3710     8.3630    11.2050  -999.2500   -31.1040 
   97.6250    72.2140    23.7360    10.3990     8.5820    11.3880  -999.2500   -30.8250 
   97.7500    73.7220    23.6820    10.4830     8.6810    11.4130  -999.2500   -30.4880 
   97.8750    71.8060    23.8320    10.5930     8.6450    11.2620  -999.2500   -30.1510 
   98.0000    65.0030    23.9040    10.6070     8.4820    10.9720  -999.2500   -29.7990 
   98.1250    59.7490    23.8590    10.4180     8.1870    10.5500  -999.2500   -29.3730 
   98.2500    60.0770    23.7620    10.0330     7.8260    10.0680  -999.2500   -28.9020 
   98.3750    64.0560    23.6920     9.3020     7.4500     9.5800  -999.2500   -28.3890 
   98.5000    68.7820    23.8770     8.2550     7.1030     9.1450  -999.2500   -27.8830 
   98.6250    74.3540    23.8920     7.2940     6.8260     8.8130  -999.2500   -27.4000 
   98.7500    79.3830    23.8870     6.6180     6.6370     8.5900  -999.2500   -26.9320 
   98.8750    79.9810    23.8220     6.4620     6.5330     8.4570  -999.2500   -26.4500 
   99.0000    77.5640    23.3980     6.9750     6.5090     8.4100  -999.2500   -25.9800 
   99.1250    76.9780    23.2760     7.1080     6.5370     8.3880  -999.2500   -25.5530 
   99.2500    78.1700    23.6410     6.8110     6.5630     8.3570  -999.2500   -25.1840 
   99.3750    76.6580    23.8530     6.1830     6.5450     8.2630  -999.2500   -24.8970 
   99.5000    73.6440    23.9180     5.9000     6.4510     8.0680  -999.2500   -24.6810 
   99.6250    77.1940    23.8360     6.1030     6.2400     7.7450  -999.2500   -24.5310 
   99.7500    85.2340    23.6940     6.0140     5.9330     7.3140  -999.2500   -24.4520 
   99.8750    90.5180    23.8030     5.1430     5.5580     6.8250  -999.2500   -24.4460 
  100.0000    92.3310    23.8880     4.2660     5.1660     6.3420  -999.2500   -24.5040 
  100.1250    96.4020    23.8010     3.8220     4.8330     5.9430  -999.2500   -24.6360 
  100.2500   103.4090    23.6010     3.8580     4.6170     5.7080  -999.2500   -24.8330 
  100.3750   107.9430    23.2270     4.1330     4.5650     5.6920  -999.2500   -25.0760 
  100.5000   106.5710    23.0670     4.4350     4.6930     5.9240  -999.2500   -25.3450 
  100.6250   102.7440    22.9530     4.7300     5.0160     6.3870  -999.2500   -25.6400 
