~V
VERS. 2.00: Ver 2.00
~W
STRT.M 60.0000:
STOP.M 283.0000:
STEP.M 0.1250:
NULL. -999.2500:
UWI. DF3045:
~C
DEPT.M :
DEN.GM/CC :
SP.MV :
AC.US/MT :
GR.API :
CALI.CM :
RXO.OHMM :
RI. :
RML.OHMM :
~A
# ...
   90.0000  -999.2500   -34.2270  -999.2500    69.9260    23.1290    14.6170     9.2200    12.2930 
   90.1250  -999.2500   -34.2700  -999.2500    68.8480    23.1120    14.8220     9.1550    12.1930 
   90.2500  -999.2500   -34.2060  -999.2500    66.8030    23.1300    14.6860     9.1300    12.1970 
   90.3750  -999.2500   -34.0410  -999.2500    65.4170    23.3300    14.3590     9.1500    12.2900 
   90.5000  -999.2500   -33.7570  -999.2500    63.2590    23.6480    13.7560     9.2190    12.4520 
   90.6250  -999.2500   -33.3170  -999.2500    60.9820    23.7260    13.6440     9.2670    12.5460 
   90.7500  -999.2500   -32.7510  -999.2500    60.9930    23.8470    14.3530     9.2070    12.4590 
   90.8750  -999.2500   -32.0840  -999.2500    61.5470    23.8580    15.1030     8.9840    12.1290 
   91.0000  -999.2500   -31.3540  -999.2500    61.8080    23.5690    14.3540     8.5870    11.5470 
   91.1250  -999.2500   -30.5930  -999.2500    67.5170    23.4360    13.1010     8.0120    10.7220 
   91.2500  -999.2500   -29.8530  -999.2500    76.9180    23.4140    12.0640     7.3910     9.8490 
   91.3750  -999.2500   -29.1690  -999.2500    83.5010    23.4340    10.4260     6.8270     9.0990 
   91.5000  -999.2500   -28.5720  -999.2500    84.9460    23.5220     8.1640     6.4140     8.5990 
   91.6250  -999.2500   -28.1160  -999.2500    85.8120    23.6140     6.8460     6.2400     8.4680 
   91.7500  -999.2500   -27.7640  -999.2500    85.5290    23.6980     6.9800     6.2540     8.5990 
   91.8750  -999.2500   -27.5080  -999.2500    81.4810    23.7020     7.3530     6.3860     8.8490 
   92.0000  -999.2500   -27.3220  -999.2500    75.6460    23.7000     7.4950     6.5550     9.0990 
   92.1250  -999.2500   -27.1790  -999.2500    74.3120    23.7110     7.6870     6.6610     9.1690 
   92.2500  -999.2500   -27.0380  -999.2500    77.2880    23.7440     8.0900     6.6230     9.0000 
   92.3750  -999.2500   -26.8930  -999.2500    83.2980    24.0400     8.1500     6.4220     8.6010 
   92.5000  -999.2500   -26.7550  -999.2500    91.4260    24.3550     6.8150     6.1100     8.0650 
   92.6250  -999.2500   -26.6250  -999.2500    98.7330    24.5840     5.4290     5.7650     7.5360 
   92.7500  -999.2500   -26.5350  -999.2500   105.1050    24.6250     4.9970     5.4810     7.1340 
   92.8750  -999.2500   -26.4860  -999.2500   110.7220    24.6710     4.9650     5.2760     6.8900 
   93.0000  -999.2500   -26.5110  -999.2500   112.6100    24.6730     4.7800     5.1460     6.7830 
   93.1250  -999.2500   -26.6200  -999.2500   111.8160    24.6390     4.6310     5.0990     6.8090 
   93.2500  -999.2500   -26.7940  -999.2500   111.0680    24.6420     4.5660     5.0940     6.8870 
   93.3750  -999.2500   -27.0230  -999.2500   110.3600    24.6840     4.5510     5.1030     6.9630 
   93.5000  -999.2500   -27.2910  -999.2500   108.2470    24.6760     4.5330     5.1020     7.0150 
   93.6250  -999.2500   -27.6180  -999.2500   105.5540    24.6460     4.3940     5.0770     7.0390 
   93.7500  -999.2500   -27.9840  -999.2500   104.6210    24.6410     4.2860     5.0190     6.9930 
   93.8750  -999.2500   -28.3910  -999.2500   104.6520    24.6660     4.2740     4.9130     6.8640 
   94.0000  -999.2500   -28.8290  -999.2500   106.1220    24.6720     4.4240     4.7700     6.6710 
   94.1250  -999.2500   -29.3200  -999.2500   109.6600    24.6430     4.6140     4.6300     6.4780 
   94.2500  -999.2500   -29.8780  -999.2500   112.9150    24.6720     4.7260     4.5590     6.3990 
   94.3750  -999.2500   -30.5140  -999.2500   112.9620    24.6940     4.7510     4.6000     6.5010 
   94.5000  -999.2500   -31.2380  -999.2500   106.9350    24.6890     4.7790     4.7970     6.8570 
   94.6250  -999.2500   -32.0550  -999.2500    94.6840    24.6500     5.0830     5.2120     7.5170 
   94.7500  -999.2500   -32.9160  -999.2500    82.1790    24.7180     6.8000     5.7950     8.3670 
   94.8750  -999.2500   -33.7670  -999.2500    74.0850    24.6900    13.8810     6.4810     9.3030 
   95.0000  -999.2500   -34.5690  -999.2500    69.5580    24.4100    21.5190     7.1650    10.1780 
   95.1250  -999.2500   -35.2530  -999.2500    65.2580    24.2860    21.3310     7.6800    10.7550 
   95.2500  -999.2500   -35.7860  -999.2500    62.6320    24.3260    15.4330     7.9440    10.9640 
   95.3750  -999.2500   -36.1350  -999.2500    65.4820    24.5500    12.9320     7.9710    10.8360 
   95.5000  -999.2500   -36.2830  -999.2500    71.5720    24.8190    12.4610     7.8210    10.5010 
   95.6250  -999.2500   -36.1680  -999.2500    72.9220    24.8050    12.1490     7.6030    10.1300 
   95.7500  -999.2500   -35.8340  -999.2500    70.8790    24.5180    11.8640     7.4730     9.9750 
   95.8750  -999.2500   -35.3270  -999.2500    68.4030    24.2160    11.8450     7.5460    10.1690 
   96.0000  -999.2500   -34.6660  -999.2500    66.2890    23.9630    12.1290     7.8710    10.7350 
   96.1250  -999.2500   -33.8520  -999.2500    65.2230    23.6410    12.5540     8.4140    11.5830 
   96.2500  -999.2500   -32.9610  -999.2500    65.8210    23.4140    12.7700     9.0550    12.5110 
   96.3750  -999.2500   -32.0200  -999.2500    66.4850    23.1680    12.7960     9.6410    13.2650 
   96.5000  -999.2500   -31.0430  -999.2500    66.6720    23.1190    12.8020     9.9450    13.5270 
   96.6250  -999.2500   -30.1690  -999.2500    70.8290    23.0860    13.0890     9.7010    12.9640 
   96.7500  -999.2500   -29.7040  -999.2500    77.8250    23.0170    13.2130     9.0300    11.8700 
   96.8750  -999.2500   -29.0010  -999.2500    83.2580    22.8040    11.3680     8.1280    10.5380 
   97.0000  -999.2500   -28.1940  -999.2500    86.4670    22.5340     8.3930     7.1910     9.2710 
   97.1250  -999.2500   -27.5160  -999.2500    88.7050    22.5090     7.0680     6.4530     8.3990 
   97.2500  -999.2500   -26.9740  -999.2500    90.4300    22.6120     6.7310     5.9550     7.8990 
   97.3750  -999.2500   -26.5610  -999.2500    90.7300    22.7100     6.1920     5.6800     7.7150 
   97.5000  -999.2500   -26.2610  -999.2500    91.6430    22.7770     5.7690     5.6160     7.7860 
   97.6250  -999.2500   -26.0760  -999.2500    94.5940    22.8960     5.5190     5.6920     7.9440 
   97.7500  -999.2500   -25.9710  -999.2500    95.2830    23.2270     5.4500     5.7730     7.9900 
   97.8750  -999.2500   -25.9250  -999.2500    91.4720    23.4450     5.5290     5.8000     7.8990 
   98.0000  -999.2500   -25.9130  -999.2500    88.4100    23.4360     5.4270     5.7870     7.7520 
   98.1250  -999.2500   -25.9400  -999.2500    92.1050    23.5200     5.1590     5.7560     7.6210 
   98.2500  -999.2500   -25.9920  -999.2500    94.5000    23.7310     4.8380     5.7580     7.5890 
   98.3750  -999.2500   -26.0760  -999.2500    90.0480    23.8080     4.7080     5.8450     7.7300 
   98.5000  -999.2500   -26.2120  -999.2500    81.4390    23.7770     4.9240     6.0290     8.0150 
   98.6250  -999.2500   -26.3810  -999.2500    74.6660    24.0520     5.5930     6.2760     8.3690 
   98.7500  -999.2500   -26.5560  -999.2500    71.5320    24.2640     6.4600     6.5350     8.7170 
   98.8750  -999.2500   -26.7230  -999.2500    71.3760    24.3510     7.1830     6.7740     9.0000 
   99.0000  -999.2500   -26.8710  -999.2500    73.4630    24.2690     7.7060     6.9610     9.1720 
   99.1250  -999.2500   -26.9730  -999.2500    77.0180    24.2990     8.0910     7.0450     9.2090 
   99.2500  -999.2500   -27.0500  -999.2500    79.9350    24.4010     7.7150     7.0450     9.1590 
   99.3750  -999.2500   -27.1100  -999.2500    81.1150    24.4260     6.8090     6.9760     9.0140 
   99.5000  -999.2500   -27.1450  -999.2500    80.6520    24.2800     6.2310     6.8720     8.8410 
   99.6250  -999.2500   -27.1630  -999.2500    80.1060    24.2890     7.3710     6.7760     8.7280 
   99.7500  -999.2500   -27.1970  -999.2500    80.6210    24.3450     8.7250     6.6980     8.6670 
   99.8750  -999.2500   -27.2530  -999.2500    82.3150    24.2810     8.3390     6.6280     8.6170 
