~V
VERS. 2.00: Ver 2.00
~W
STRT.M 64.0000:
STOP.M 264.0000:
STEP.M 0.1250:
NULL. -999.2500:
UWI. DF3031:
~C
DEPT.M :
DEN.GM/CC :
AC.US/MT :
GR.API :
CALI.CM :
RXO.OHMM :
RI. :
RML.OHMM :
SP.MV :
~A
# ...
  244.0000     2.4120   255.2850    69.1910    25.5080    25.1210    19.2560    23.0260   -12.6970 
  244.1250     2.4320   259.6250    68.1700    25.4970    19.1930    15.3540    17.8470   -12.6220 
  244.2500     2.4340   267.6010    69.4970    25.4840    12.9160    12.0660    13.5890   -12.5100 
  244.3750     2.4130   277.7520    72.0200    25.4900     8.5790     9.6700    10.6000   -12.3670 
  244.5000     2.3790   288.0710    73.7530    25.5210     6.5970     8.1230     8.8070   -12.2170 
  244.6250     2.3460   295.8570    73.4670    25.5220     6.3190     7.3550     8.0730   -12.0580 
  244.7500     2.3290   300.0810    72.7640    25.4520     6.6410     7.0600     7.9370   -11.9330 
  244.8750     2.3220   300.9360    72.6790    25.3420     7.1860     7.0820     8.1490   -11.8310 
  245.0000     2.3160   299.6340    72.5530    25.2600     7.8260     7.2750     8.4900   -11.7490 
  245.1250     2.3080   297.5800    71.1640    25.2430     8.4850     7.5190     8.8000   -11.7020 
  245.2500     2.3030   295.4650    70.2240    25.2500     9.2130     7.7360     9.0300   -11.6790 
  245.3750     2.3040   292.8830    70.8210    25.2730     9.9950     7.9130     9.1990   -11.6750 
  245.5000     2.3120   289.2500    72.6620    25.3190    10.5130     8.0620     9.3470   -11.6900 
  245.6250     2.3240   284.3780    74.1750    25.3680    10.3620     8.1970     9.5130   -11.7310 
  245.7500     2.3440   279.1970    73.5090    25.3920     9.9410     8.3230     9.7010   -11.7760 
  245.8750     2.3680   274.4820    72.0110    25.3940     9.6180     8.4270     9.8880   -11.8290 
  246.0000     2.3860   270.5730    72.0200    25.3900     9.3900     8.4830    10.0360   -11.8770 
  246.1250     2.3880   267.3950    73.7130    25.4050     9.1030     8.4590    10.0960   -11.8990 
  246.2500     2.3730   264.6090    72.6480    25.4490     8.8930     8.3660    10.0600   -11.8930 
  246.3750     2.3610   262.3510    69.7310    25.5050     8.9300     8.2180     9.9360   -11.8790 
  246.5000     2.3610   261.0100    67.7480    25.5430     9.1760     8.0380     9.7480   -11.8470 
  246.6250     2.3660   261.1150    67.2270    25.5620     9.3640     7.8600     9.5340   -11.7860 
  246.7500     2.3640   262.3180    67.3650    25.5850     9.2470     7.7100     9.3460   -11.7070 
  246.8750     2.3570   264.0990    68.4770    25.6090     8.9040     7.6060     9.2220   -11.6020 
  247.0000     2.3590   265.7960    70.6310    25.6220     8.6940     7.5550     9.1860   -11.4850 
  247.1250     2.3690   266.6200    70.5450    25.6260     8.9200     7.5670     9.2520   -11.3590 
  247.2500     2.3780   266.2890    68.5940    25.6220     9.3880     7.6180     9.3690   -11.2440 
  247.3750     2.3790   264.8040    67.6920    25.6000     9.9370     7.6910     9.5010   -11.1250 
  247.5000     2.3760   262.6370    68.9550    25.5690    10.5300     7.7700     9.6190   -11.0090 
  247.6250     2.3770   260.9920    71.4000    25.5520    11.0780     7.8390     9.7050   -10.9040 
  247.7500     2.3780   261.1030    72.8090    25.5490    11.3760     7.8920     9.7660   -10.8120 
  247.8750     2.3790   263.6220    72.1800    25.5510    11.3670     7.9350     9.8170   -10.7520 
  248.0000     2.3860   268.2310    69.7880    25.5470    11.2210     7.9810     9.8800   -10.7200 
  248.1250     2.4070   273.3780    67.0030    25.5270    11.1930     8.0450     9.9730   -10.7280 
  248.2500     2.4270   276.8590    65.1460    25.5010    11.3180     8.1270    10.0970   -10.7590 
  248.3750     2.4280   277.3990    65.6660    25.4860    11.5020     8.2220    10.2420   -10.8110 
  248.5000     2.4170   274.8980    68.4150    25.4860    11.7270     8.3150    10.3800   -10.8700 
  248.6250     2.4100   270.3290    70.8580    25.4890    12.1130     8.3790    10.4640   -10.9340 
  248.7500     2.4060   265.7620    72.4750    25.4890    12.4880     8.4010    10.4780   -10.9890 
  248.8750     2.3950   262.3360    74.5380    25.5000    12.4590     8.3820    10.4340   -11.0280 
  249.0000     2.3820   260.4870    77.7040    25.5280    12.0000     8.3410    10.3700   -11.0530 
  249.1250     2.3750   260.3620    78.2510    25.5690    11.7280     8.3110    10.3440   -11.0560 
  249.2500     2.3820   261.5360    76.1350    25.6050    12.0620     8.3210    10.3930   -11.0420 
  249.3750     2.3980   263.9760    74.0800    25.6250    12.6600     8.3800    10.5180   -11.0040 
  249.5000     2.4240   267.6170    72.8490    25.6340    12.8560     8.4810    10.6890   -10.9580 
  249.6250     2.4510   272.1760    72.8410    25.6540    12.2100     8.6020    10.8570   -10.9050 
  249.7500     2.4640   276.7410    73.8650    25.6850    11.3280     8.7150    10.9880   -10.8430 
  249.8750     2.4630   280.5420    75.2920    25.7130    10.7450     8.8170    11.0850   -10.7810 
  250.0000     2.4580   283.0100    75.1950    25.7240    10.5300     8.9220    11.1860   -10.7200 
  250.1250     2.4600   283.6980    72.6190    25.7340    10.3300     9.0600    11.3480   -10.6640 
  250.2500     2.4720   283.1220    72.0700    25.7670    10.1110     9.2370    11.5710   -10.6100 
  250.3750     2.4880   281.7580    73.5440    25.8130    10.2210     9.4360    11.8180   -10.5870 
  250.5000     2.5090   280.1200    73.7950    25.8390    10.9240     9.6270    12.0300   -10.5960 
  250.6250     2.5310   278.6740    72.0520    25.8140    11.8880     9.7690    12.1480   -10.6340 
  250.7500     2.5420   277.6270    71.9940    25.7740    12.3630     9.8470    12.1710   -10.7050 
  250.8750     2.5370   277.1260    73.7150    25.7390    12.3030     9.8560    12.1100   -10.8070 
  251.0000     2.5230   277.3910    73.2750    25.6890    12.3010     9.7970    11.9750   -10.9320 
  251.1250     2.5060   278.9140    70.5640    25.6180    12.4990     9.6660    11.7620   -11.0720 
  251.2500     2.4920   281.5540    69.8510    25.5650    12.1170     9.4910    11.5050   -11.2140 
  251.3750     2.4840   284.7980    71.4560    25.5480    11.0570     9.2980    11.2390   -11.3260 
  251.5000     2.4860   287.6460    72.7140    25.5490    10.1090     9.1220    11.0120   -11.4080 
  251.6250     2.4910   288.5920    72.0570    25.5490    10.1290     9.0020    10.8770   -11.4540 
  251.7500     2.4900   287.2900    71.8980    25.5440    10.7820     8.9480    10.8300   -11.4700 
  251.8750     2.4860   284.0670    72.1420    25.5890    11.5710     8.9560    10.8490   -11.4400 
  252.0000     2.4830   279.8620    71.2880    25.7390    12.2810     9.0050    10.8990   -11.3720 
  252.1250     2.4760   275.9510    67.9420    25.9450    13.1610     9.0860    10.9670   -11.2820 
  252.2500     2.4670   273.0790    65.9870    26.0740    14.1470     9.1980    11.0720   -11.1890 
  252.3750     2.4660   271.2800    69.1350    26.0970    14.9940     9.3540    11.2430   -11.1010 
  252.5000     2.4760   270.0520    73.8370    26.0960    17.2540     9.5660    11.4960   -11.0020 
  252.6250     2.4900   268.4250    74.8640    26.1740    26.5780     9.8440    11.8280   -10.9100 
  252.7500     2.5050   265.6900    73.5030    26.3300    39.0580    10.1560    12.1880   -10.8130 
  252.8750     2.5260   261.7040    73.5030    26.5210    42.0720    10.4710    12.5310   -10.7310 
  253.0000     2.5490   256.9090    73.5030    26.6770    32.3030    10.7650    12.8400   -10.6620 
  253.1250     2.5540   252.2300    73.5030    26.7450    22.0320    11.0310    13.1280   -10.5990 
  253.2500     2.5380   248.3230    73.5030    26.7500    17.7440    11.2920    13.4360   -10.5390 
  253.3750     2.5300   245.1590    73.5030    26.7230    16.4980    11.5720    13.7830   -10.4790 
  253.5000     2.5430   242.2260    73.5030    26.6980    16.3290    11.8730    14.1560   -10.4270 
  253.6250     2.5590   238.8880    73.5030    26.7090    17.2170    12.1670    14.4940   -10.3730 
  253.7500     2.5520   235.2410    73.5030    26.7590    19.7670    12.4150    14.7470   -10.3180 
  253.8750     2.5450   231.9440    73.5030    26.8040    24.4320    12.6100    14.9230   -10.2450 
