~V
VERS. 2.00: Ver 2.00
~W
STRT.M 56.0000:
STOP.M 270.0000:
STEP.M 0.1250:
NULL. -999.2500:
UWI. DF3053:
~C
DEPT.M :
GR.API :
CALI.CM :
RXO.OHMM :
RI. :
RML.OHMM :
DEN.GM/CC :
SP.MV :
~A
# ...
  258.3750    44.5520    23.5550    11.0430     8.5660    10.4200     2.3960   -32.8220 
  258.5000    45.2610    23.5430    13.2840     8.6340    10.4790     2.3920   -32.9680 
  258.6250    43.9320    23.5140    15.1110     8.4920    10.2290     2.3890   -32.9000 
  258.7500    43.1860    23.4910    13.9850     8.2080     9.8140     2.3940   -32.6790 
  258.8750    43.0520    23.4970    10.2510     7.8770     9.3890     2.4060   -32.4260 
  259.0000    43.0520    23.5280     7.0010     7.5900     9.0700     2.4130   -32.2990 
  259.1250    43.0520    23.5510     6.6210     7.4050     8.9000     2.4080   -32.3200 
  259.2500    43.0520    23.5590     6.8230     7.2820     8.7800     2.3850   -32.4360 
  259.3750    43.0520    23.5380     6.9210     7.1630     8.6110     2.3450   -32.5580 
  259.5000    43.0520    23.4490     6.8370     6.9860     8.3320     2.2910   -32.6100 
  259.6250    43.0520    23.2870     7.3670     6.7200     7.9330     2.2390   -32.6010 
  259.7500    43.0520    23.1760     7.0610     6.4170     7.5030     2.2160   -32.5680 
  259.8750    43.0520    23.2150     6.0700     6.1310     7.1270     2.2260   -32.5290 
  260.0000    43.0520    23.3850     5.4550     5.9040     6.8710     2.2600   -32.4800 
  260.1250    43.0520    23.5910     5.2400     5.7650     6.7730     2.2980   -32.4160 
  260.2500    43.0520    23.7500     5.2790     5.6900     6.7670     2.3220   -32.3520 
  260.3750    43.0520    23.8460     5.5400     5.6560     6.7940     2.3320   -32.2900 
  260.5000    43.0520    23.9050     5.7560     5.6410     6.8100     2.3330   -32.2340 
  260.6250    43.0520    23.9320     5.7450     5.6280     6.8050     2.3320   -32.1790 
  260.7500    43.0520    23.9090     5.6450     5.6120     6.8040     2.3350   -32.1150 
  260.8750    43.0520    23.8340     5.6590     5.5970     6.8160     2.3410   -32.0380 
  261.0000    43.0520    23.7690     5.8150     5.5910     6.8270     2.3460   -31.9520 
  261.1250    43.0520    23.7660     6.0420     5.5980     6.8080     2.3460   -31.8640 
  261.2500    43.0520    23.7750     6.2490     5.6100     6.7650     2.3360   -31.7900 
  261.3750    43.0520    23.7790     6.4200     5.6180     6.7170     2.3220   -31.7460 
  261.5000    43.0520    23.7600     6.4910     5.6180     6.6810     2.3110   -31.7290 
  261.6250    43.0520    23.6900     6.3710     5.6120     6.6780     2.3080   -31.6840 
  261.7500    43.0520    23.6020     6.1820     5.6090     6.7170     2.3160   -31.5530 
  261.8750    43.0520    23.5510     6.0250     5.6160     6.7880     2.3310   -31.3150 
  262.0000    43.0520    23.5470     5.9620     5.6340     6.8650     2.3460   -30.9860 
  262.1250    43.0520    23.5430     5.9360     5.6560     6.9240     2.3550   -30.6480 
  262.2500    43.0520    23.4570     5.8200     5.6740     6.9650     2.3520   -30.3460 
  262.3750    43.0520    23.2540     5.6560     5.6840     6.9830     2.3450   -30.0630 
  262.5000    43.0520    23.0530     5.6430     5.6860     6.9700     2.3380   -29.7300 
  262.6250    43.0520    23.0900     5.7740     5.6860     6.8980     2.3330   -29.3300 
  262.7500    43.0520    23.3240     5.8810     5.6860     6.7870     2.3310   -28.8790 
  262.8750    43.0520    23.5840     5.8900     5.6820     6.6940     2.3290   -28.4250 
  263.0000    43.0520    23.7690     5.6340     5.6670     6.6630     2.3310   -28.0570 
  263.1250    43.0520    23.8920     5.3150     5.6290     6.6510     2.3430   -27.8050 
  263.2500    43.0520    23.9830     5.4180     5.5700     6.5770     2.3630   -27.6550 
  263.3750    43.0520    24.0380     5.7850     5.5020     6.4300     2.3700   -27.5530 
  263.5000    43.0520    24.0630     6.0350     5.4430     6.2740     2.3520   -27.4130 
  263.6250    43.0520    24.0670     6.1160     5.4140     6.2550     2.3120   -27.1850 
  263.7500    43.0520    24.0740     6.1170     5.4110     6.4100     2.2750   -26.8630 
  263.8750    43.0520    24.0960     6.1150     5.4230     6.6560     2.2550   -26.4890 
  264.0000    43.0520    24.1590     6.0580     5.4380     6.8470     2.2530   -26.1130 
  264.1250    43.0520    24.3180     5.9810     5.4520     6.8830     2.2650   -25.7350 
  264.2500    43.0520    24.4780     5.8810     5.4670     6.8290     2.2860   -25.3340 
  264.3750    43.0520    24.4710     5.7120     5.4830     6.7400     2.3080   -24.9080 
  264.5000    43.0520    24.2530     5.6050     5.4940     6.6500     2.3260   -24.4570 
  264.6250    43.0520    24.0020     5.7100     5.4960     6.5850     2.3390   -23.9930 
  264.7500    43.0520    23.8820     5.8240     5.4960     6.5850     2.3540   -23.5240 
  264.8750    43.0520    23.8650     5.8990     5.4960     6.5850     2.3720   -23.0640 
  265.0000    43.0520    23.8680     5.9740     5.4960     6.5850     2.3880   -22.6160 
  265.1250    43.0520    23.8640     6.0780     5.4960     6.5850     2.3920   -22.1740 
  265.2500    43.0520    23.8560     6.1660     5.4960     6.5850     2.3720   -21.7490 
  265.3750    43.0520    23.8530     6.4530     5.4960     6.5850     2.3370   -21.3490 
  265.5000    43.0520    23.8580     7.8170     5.4960     6.5850     2.2970   -20.9480 
  265.6250    43.0520    23.8480    12.0480     5.4960     6.5850     2.2670   -20.5520 
  265.7500    43.0520    23.8240    22.0700     5.4960     6.5850     2.2550   -20.1560 
  265.8750    43.0520    23.8090    34.2630     5.4960     6.5850     2.2560   -19.7320 
  266.0000    43.0520    23.7960    33.6100     5.4960     6.5850     2.2690   -19.2540 
  266.1250    43.0520    23.7090    20.4040     5.4960     6.5850     2.2910   -18.7600 
  266.2500    43.0520    23.5420    13.5500     5.4960     6.5850     2.3120   -18.3070 
  266.3750    43.0520    23.3240    12.3570     5.4960     6.5850     2.3170   -17.9530 
  266.5000    43.0520    23.1180    10.3540     5.4960     6.5850     2.3050   -17.7740 
  266.6250    43.0520    23.0760    11.6160     5.4960     6.5850     2.2860   -17.7480 
  266.7500    43.0520    23.2410    17.1510     5.4960     6.5850     2.2780   -17.8160 
  266.8750    43.0520    23.4830    24.1480     5.4960     6.5850     2.2840   -17.9180 
  267.0000    43.0520    23.6230    24.6790     5.4960     6.5850     2.2990   -18.0110 
  267.1250    43.0520    23.6250    16.7080     5.4960     6.5850     2.3190   -18.0770 
  267.2500    43.0520    23.6180    11.7960     5.4960     6.5850     2.3410   -18.0970 
  267.3750    43.0520    23.6220     9.3260     5.4960     6.5850     2.3590   -18.0970 
  267.5000    43.0520    23.6140     8.3600     5.4960     6.5850     2.3690  -999.2500 
  267.6250    43.0520    23.5840     8.8930     5.4960     6.5850     2.3660  -999.2500 
  267.7500    43.0520    23.5540     9.6730     5.4960     6.5850     2.3510  -999.2500 
  267.8750    43.0520    23.5330     9.7630     5.4960     6.5850     2.3320  -999.2500 
  268.0000    43.0520    23.5210     8.8580     5.4960     6.5850     2.3200  -999.2500 
  268.1250    43.0520    23.4950     8.3020     5.4960     6.5850     2.3230  -999.2500 
  268.2500    43.0520    23.4850     8.4780     5.4960     6.5850     2.3380  -999.2500 
  268.3750    43.0520    23.4060     8.5120     5.4960     6.5850     2.3420  -999.2500 
  268.5000    43.0520    22.4220     7.5380     5.4960     6.5850     2.3140  -999.2500 
  268.6250    43.0520    19.8820     6.3250     5.4960     6.5850     2.2450  -999.2500 
  268.7500    43.0520    17.2480     5.6410     5.4960     6.5850     2.1370  -999.2500 
  268.8750    43.0520    15.8580     5.5390     5.4960     6.5850     2.0340  -999.2500 
  269.0000    43.0520    15.7180     5.5270     5.4960     6.5850     1.9670  -999.2500 
  269.1250    43.0520    15.8100     5.5270     5.4960     6.5850     1.9420  -999.2500 
  269.2500    43.0520    15.7950     5.5270     5.4960     6.5850     1.9440  -999.2500 
  269.3750    43.0520    15.7950     5.5270     5.4960     6.5850     1.9510  -999.2500 
  269.5000    43.0520    15.7950     5.5280     5.4960     6.5850     1.9550  -999.2500 
