~V
VERS. 2.00: Ver 2.00
~W
STRT.M 65.0000:
STOP.M 273.0000:
STEP.M 0.1250:
NULL. -999.2500:
UWI. DF3011:
~C
DEPT.M :
DEN.GM/CC :
GR.API :
RML.OHMM :
RI. :
RXO.OHMM :
CALI.CM :
AC.US/MT :
SP.MV :
~A
# ...
  115.0000  -999.2500   118.8430     4.7460     3.9150     4.5330    24.0540  -999.2500    -4.6200 
  115.1250  -999.2500   114.5810     5.2390     4.1970     4.7790    23.9690  -999.2500    -5.2980 
  115.2500  -999.2500   104.4690     6.1070     4.7030     5.3750    23.9460  -999.2500    -6.0730 
  115.3750  -999.2500    91.2900     7.1830     5.3660     6.3360    23.9610  -999.2500    -6.8710 
  115.5000  -999.2500    80.6610     8.0580     6.0370     7.4760    24.0240  -999.2500    -7.6350 
  115.6250  -999.2500    76.8180     8.4620     6.4630     8.0660    24.1540  -999.2500    -8.2760 
  115.7500  -999.2500    75.3200     8.3320     6.5280     7.8210    24.4490  -999.2500    -8.8380 
  115.8750  -999.2500    74.5070     7.7750     6.2500     7.0900    24.9300  -999.2500    -9.3310 
  116.0000  -999.2500    75.0590     7.0850     5.7800     6.3390    25.4310  -999.2500    -9.7230 
  116.1250  -999.2500    77.3750     6.6190     5.3620     5.9430    25.6400  -999.2500   -10.0100 
  116.2500  -999.2500    78.1240     6.5190     5.1680     6.0510    25.6050  -999.2500   -10.2840 
  116.3750  -999.2500    77.6710     6.8180     5.2800     6.4260    25.3160  -999.2500   -10.5590 
  116.5000  -999.2500    78.0480     7.4900     5.7220     7.0160    24.8210  -999.2500   -10.8520 
  116.6250  -999.2500    78.9290     8.4830     6.5040     7.8140    24.2600  -999.2500   -11.1940 
  116.7500  -999.2500    78.5800     9.5820     7.4630     8.7620    23.8120  -999.2500   -11.5540 
  116.8750  -999.2500    74.8790    10.5920     8.4440     9.6700    23.5110  -999.2500   -11.8870 
  117.0000  -999.2500    68.5000    11.3190     9.2680    10.1980    23.3760  -999.2500   -12.1700 
  117.1250  -999.2500    63.0250    11.5580     9.7200    10.1520    23.3360  -999.2500   -12.3570 
  117.2500  -999.2500    62.3290    11.3800     9.7870     9.7270    23.3280  -999.2500   -12.4240 
  117.3750  -999.2500    63.5160    10.8860     9.5120     9.3100    23.3650  -999.2500   -12.3720 
  117.5000  -999.2500    63.1850    10.2130     8.9920     9.0560    23.4240  -999.2500   -12.2190 
  117.6250  -999.2500    64.4150     9.4770     8.3300     8.6710    23.5170  -999.2500   -11.9980 
  117.7500  -999.2500    69.5240     8.7480     7.6330     8.0200    23.6480  -999.2500   -11.6790 
  117.8750  -999.2500    74.3860     8.0430     6.9400     7.3350    23.7360  -999.2500   -11.2910 
  118.0000  -999.2500    74.7070     7.3730     6.2760     6.8550    23.7400  -999.2500   -10.9250 
  118.1250  -999.2500    75.8760     6.7760     5.6990     6.6060    23.7230  -999.2500   -10.6370 
  118.2500  -999.2500    80.4040     6.3440     5.2630     6.4610    23.7230  -999.2500   -10.4640 
  118.3750  -999.2500    84.6560     6.1810     5.0430     6.2930    23.7430  -999.2500   -10.4570 
  118.5000  -999.2500    86.4590     6.4510     5.1170     6.1330    23.7810  -999.2500   -10.6260 
  118.6250  -999.2500    84.7190     7.2520     5.6010     6.4880    23.8170  -999.2500   -10.9850 
  118.7500  -999.2500    79.7970     8.5130     6.4240     7.0320    23.8490  -999.2500   -11.5170 
  118.8750  -999.2500    72.4970    10.0010     7.4810     7.7530    23.8610  -999.2500   -12.1600 
  119.0000  -999.2500    68.1690    11.2330     8.5860     8.6980    23.8620  -999.2500   -12.8110 
  119.1250  -999.2500    70.0070    11.9590     9.4440     9.4760    23.8610  -999.2500   -13.4190 
  119.2500  -999.2500    73.2880    12.1560     9.9070     9.9300    23.8560  -999.2500   -13.9370 
  119.3750  -999.2500    74.6480    11.9120     9.9650    10.1460    23.8500  -999.2500   -14.3100 
  119.5000  -999.2500    74.2690    11.4110     9.7220    10.0670    23.8430  -999.2500   -14.5260 
  119.6250  -999.2500    73.9610    10.8050     9.2990     9.7740    23.8570  -999.2500   -14.5550 
  119.7500  -999.2500    72.6220    10.1980     8.8240     9.1640    23.8920  -999.2500   -14.4500 
  119.8750  -999.2500    70.1630     9.6460     8.3540     8.6260    23.9430  -999.2500   -14.2440 
  120.0000  -999.2500    69.7390     9.2180     7.9420     8.2910    24.0120  -999.2500   -13.9650 
  120.1250  -999.2500    74.5840     9.0270     7.6820     8.3390    24.0580  -999.2500   -13.6110 
  120.2500  -999.2500    78.3700     9.0750     7.6060     8.6500    23.9930  -999.2500   -13.2140 
  120.3750  -999.2500    73.9910     9.3340     7.7280     9.2210    23.8140  -999.2500   -12.8220 
  120.5000  -999.2500    64.9670     9.7270     8.0180    10.0870    23.6860  -999.2500   -12.4450 
  120.6250  -999.2500    59.2100    10.1350     8.4100    10.7820    23.6510  -999.2500   -12.0830 
  120.7500  -999.2500    57.7550    10.4490     8.7950    11.0880    23.6460  -999.2500   -11.7770 
  120.8750  -999.2500    58.9020    10.6330     9.1090    11.0700    23.6240  -999.2500   -11.5570 
  121.0000  -999.2500    60.4880    10.7070     9.3210    10.8520    23.5950  -999.2500   -11.3830 
  121.1250  -999.2500    61.8670    10.7330     9.4300    10.7480    23.5830  -999.2500   -11.2840 
  121.2500  -999.2500    62.1470    10.7690     9.4900    10.7960    23.5820  -999.2500   -11.2270 
  121.3750  -999.2500    61.3450    10.8150     9.5260    11.0560    23.5860  -999.2500   -11.2120 
  121.5000  -999.2500    59.6280    10.8490     9.5500    11.4320    23.5880  -999.2500   -11.2240 
  121.6250  -999.2500    58.3580    10.8400     9.5510    11.6610    23.5920  -999.2500   -11.2810 
  121.7500  -999.2500    59.5770    10.7870     9.5240    11.6420    23.6150  -999.2500   -11.3250 
  121.8750  -999.2500    61.1970    10.7010     9.4640    11.4500    23.6630  -999.2500   -11.3140 
  122.0000  -999.2500    59.6960    10.5890     9.3760    11.2770    23.6660  -999.2500   -11.2730 
  122.1250  -999.2500    58.2600    10.4480     9.2690    11.1230    23.5630  -999.2500   -11.1710 
  122.2500  -999.2500    60.8370    10.2850     9.1600    10.9740    23.4120  -999.2500   -11.0470 
  122.3750  -999.2500    66.9010    10.1130     9.0560    10.7780    23.3230  -999.2500   -10.8830 
  122.5000  -999.2500    72.3490     9.9550     8.9650    10.5560    23.2980  -999.2500   -10.6930 
  122.6250  -999.2500    71.8940     9.8550     8.8960    10.4110    23.2960  -999.2500   -10.5220 
  122.7500  -999.2500    68.1910     9.8300     8.8590    10.2060    23.3000  -999.2500   -10.3850 
  122.8750  -999.2500    65.7530     9.8860     8.8670    10.0470    23.3420  -999.2500   -10.2890 
  123.0000  -999.2500    67.0120     9.9940     8.9210     9.9820    23.4590  -999.2500   -10.2360 
  123.1250  -999.2500    71.1710    10.0710     8.9950    10.1110    23.6480  -999.2500   -10.2630 
  123.2500  -999.2500    74.1290    10.0270     9.0200    10.3950    23.8150  -999.2500   -10.2940 
  123.3750  -999.2500    73.1420     9.8170     8.9380    10.6950    23.9370  -999.2500   -10.2780 
  123.5000  -999.2500    68.3390     9.4880     8.7360    10.8860    23.9960  -999.2500   -10.2110 
  123.6250  -999.2500    64.2660     9.2520     8.5150    10.7560    23.9940  -999.2500   -10.0370 
  123.7500  -999.2500    63.9990     9.3470     8.4780    10.4340    23.9470  -999.2500    -9.7690 
  123.8750  -999.2500    64.6410     9.8740     8.7620    10.8060    23.8610  -999.2500    -9.3720 
  124.0000  -999.2500    63.4220    10.6990     9.3440    13.2050    23.7950  -999.2500    -8.8740 
  124.1250  -999.2500    61.2810    11.3740     9.9540    17.1520    23.9830  -999.2500    -8.2640 
  124.2500  -999.2500    59.9870    11.4030    10.1760    21.2370    24.4150  -999.2500    -7.6450 
  124.3750  -999.2500    61.5980    10.5280     9.7290    23.9090    24.7840  -999.2500    -7.1030 
  124.5000  -999.2500    67.6680     8.8660     8.6020    19.7090    24.8830  -999.2500    -6.6590 
  124.6250  -999.2500    78.3800     7.0590     7.1280    11.0410    24.9450  -999.2500    -6.3080 
  124.7500  -999.2500    88.2140     5.7330     5.8310     6.2420    25.0980  -999.2500    -5.9780 
  124.8750  -999.2500    93.3620     5.0790     4.9300     5.1110    25.2090  -999.2500    -5.7590 
