~V
VERS. 2.00: Ver 2.00
~W
STRT.M 125.0000:
STOP.M 247.0000:
STEP.M 0.1250:
NULL. -999.2500:
UWI. DF3017:
~C
DEPT.M :
DEN.GM/CC :
GR.API :
RML.OHMM :
RI. :
RXO.OHMM :
CALI.CM :
SP.MV :
~A
# ...
  226.2500     2.3890    64.7030    44.5780    40.9030    46.7060    23.7160   -17.4500 
  226.3750     2.3650    64.8320    40.2100    37.0500    38.7530    23.7190   -17.1780 
  226.5000     2.3440    66.3970    36.5730    33.7220    34.0170    23.6750   -16.9250 
  226.6250     2.3280    69.7340    33.9060    31.1920    31.7160    23.6690   -16.6950 
  226.7500     2.3140    72.8160    31.9680    29.3250    29.6840    23.6670   -16.4730 
  226.8750     2.3070    73.8680    30.5570    27.9800    28.1570    23.6670   -16.2750 
  227.0000     2.3090    73.4900    29.4440    26.9770    27.2400    23.6670   -16.1130 
  227.1250     2.3200    72.8820    28.4730    26.1850    27.4170    23.6850   -15.9440 
  227.2500     2.3360    71.1190    27.6210    25.5390    28.2250    23.7960   -15.7840 
  227.3750     2.3490    69.0700    27.0600    25.1400    27.9930    24.0460   -15.6010 
  227.5000     2.3560    67.7310    27.0310    25.1600    26.5640    24.2080   -15.4420 
  227.6250     2.3630    67.1910    27.7620    25.7830    26.4020    24.3710   -15.2720 
  227.7500     2.3800    65.6810    28.8960    26.7440    26.7700    24.3950   -15.1000 
  227.8750     2.4100    65.0120    29.8960    27.6220    28.1650    24.4000   -14.9140 
  228.0000     2.4450    67.2710    30.1430    27.8980    30.5860    24.4000   -14.7280 
  228.1250     2.4680    68.4960    29.0370    27.0210    33.0600    24.3890   -14.5520 
  228.2500     2.4600    67.0660    26.9660    25.2550    31.4050    24.3260   -14.4070 
  228.3750     2.4260    65.9710    24.5610    23.0960    25.5070    24.2320   -14.3080 
  228.5000     2.3830    68.2170    22.5160    21.1400    20.4900    24.1970   -14.2330 
  228.6250     2.3430    71.8240    21.4360    19.9460    19.0780    24.1450   -14.1850 
  228.7500     2.3210    72.7310    21.2590    19.5330    19.1600    24.0070   -14.1880 
  228.8750     2.3110    71.9050    21.8240    19.8110    19.8450    23.9010   -14.2360 
  229.0000     2.3080    70.7180    22.8900    20.6000    20.8330    23.8700   -14.3000 
  229.1250     2.3080    70.6450    24.2130    21.7030    22.1200    23.8660   -14.3970 
  229.2500     2.3060    70.8890    25.5190    22.8480    23.1050    23.8600   -14.4740 
  229.3750     2.3010    69.8910    26.6320    23.8620    23.9680    23.8220   -14.5480 
  229.5000     2.2950    67.1090    27.3900    24.5940    24.9170    23.8030   -14.6060 
  229.6250     2.2900    66.2400    27.6100    24.8720    26.6190    23.8000   -14.6640 
  229.7500     2.2890    68.8970    27.4330    24.7900    28.1240    23.8000   -14.6820 
  229.8750     2.2930    71.2910    27.0960    24.5130    28.8900    23.8000   -14.6870 
  230.0000     2.3010    70.2460    26.9220    24.2950    27.7480    23.8000   -14.6730 
  230.1250     2.3060    68.3740    27.2970    24.4600    25.6970    23.8000   -14.6290 
  230.2500     2.3030    68.1500    28.2600    25.1030    24.6290    23.8000   -14.5870 
  230.3750     2.2940    67.7910    29.7290    26.2170    26.8890    23.8000   -14.5550 
  230.5000     2.2820    66.4790    31.5320    27.7090    32.1710    23.8000   -14.5510 
  230.6250     2.2710    64.9260    33.5040    29.4720    36.2740    23.8000   -14.5510 
  230.7500     2.2660    62.8240    35.4860    31.3310    38.0980    23.8020   -14.5540 
  230.8750     2.2650    61.5670    37.3700    33.1630    37.4020    23.8520   -14.5710 
  231.0000     2.2660    62.0180    38.9670    34.7840    37.1070    23.8680   -14.6120 
  231.1250     2.2670    62.4880    39.7960    35.7810    38.1930    23.8680   -14.6380 
  231.2500     2.2670    60.5220    39.5870    35.9000    40.8270    23.8680   -14.6390 
  231.3750     2.2690    58.6340    38.2550    35.0220    42.5420    23.8680   -14.5950 
  231.5000     2.2750    59.8640    36.0820    33.3230    41.3180    23.8680   -14.4960 
  231.6250     2.2840    62.1640    33.6330    31.2210    37.0440    23.8680   -14.3600 
  231.7500     2.2940    61.9700    31.4230    29.2070    31.6640    23.8680   -14.2090 
  231.8750     2.3000    60.3670    29.5210    27.4140    26.5850    23.8680   -14.0670 
  232.0000     2.2990    59.8420    27.7470    25.7560    24.1690    23.8680   -13.9590 
  232.1250     2.2950    60.3210    25.8290    24.0470    24.4700    23.8680   -13.8500 
  232.2500     2.2930    61.4390    23.7500    22.2470    24.3270    23.8680   -13.8000 
  232.3750     2.2960    64.0770    21.7460    20.5200    22.2200    23.8680   -13.7630 
  232.5000     2.3050    69.8470    20.2160    19.1740    19.5090    23.8680   -13.7510 
  232.6250     2.3150    76.7280    19.7390    18.7030    17.9610    23.8680   -13.7770 
  232.7500     2.3220    79.5400    20.3430    19.1870    17.8010    23.8640   -13.8270 
  232.8750     2.3240    75.9310    21.8610    20.5430    18.9000    23.8460   -13.8820 
  233.0000     2.3190    70.0830    23.8360    22.4200    21.3760    23.8060   -13.9160 
  233.1250     2.3070    67.2350    25.4910    24.1440    25.7000    23.7870   -13.9630 
  233.2500     2.2920    66.7520    26.2500    25.0940    29.3240    23.7800   -13.9710 
  233.3750     2.2810    66.7670    25.9510    25.0170    30.0440    23.7800   -13.9970 
  233.5000     2.2760    67.5280    24.8720    24.0900    28.0360    23.7800   -14.0990 
  233.6250     2.2790    68.0800    23.6090    22.8170    25.0210    23.7680   -14.2500 
  233.7500     2.2830    66.9510    22.7200    21.7810    22.0610    23.7370   -14.4870 
  233.8750     2.2860    65.4660    22.4300    21.2440    20.5800    23.6960   -14.7920 
  234.0000     2.2880    65.3570    22.8080    21.3110    21.5450    23.6540   -15.2160 
  234.1250     2.2930    66.7350    24.0340    22.1700    23.2860    23.6380   -15.7360 
  234.2500     2.3110    68.8530    26.1620    23.8750    25.3520    23.6330   -16.3360 
  234.3750     2.3400    71.1500    29.4420    26.6570    26.4410    23.6330   -16.9490 
  234.5000     2.3750    72.1760    34.0640    30.7000    29.4070    23.6330   -17.5110 
  234.6250     2.4120    72.9790    40.0410    36.0540    35.1090    23.6330   -18.0210 
  234.7500     2.4470    75.5580    46.3780    41.8490    44.3290    23.6330   -18.4360 
  234.8750     2.4780    80.5110    51.9150    47.0790    57.7690    23.6330   -18.7450 
  235.0000     2.5030    86.4580    55.4880    50.7190    78.1930    23.6330   -18.9030 
  235.1250     2.5160    90.2770    56.0990    51.8160    98.9400    23.6340   -18.9620 
  235.2500     2.5080    90.5570    54.7150    51.0330    90.4340    23.6350   -18.9390 
  235.3750     2.4840    86.3500    52.3540    49.1360    62.3110    23.6370   -18.8750 
  235.5000     2.4510    81.1730    49.8080    46.8330    47.8620    23.6360   -18.7680 
  235.6250     2.4180    79.7800    47.3620    44.4830    46.9700    23.6370   -18.6710 
  235.7500     2.3910    81.0850    44.8510    42.0670    45.4970    23.6360   -18.5420 
  235.8750     2.3690    83.5360    42.0720    39.4330    44.0030    23.6350   -18.3910 
  236.0000     2.3530    85.1740    38.8970    36.4590    42.7150    23.6330   -18.2190 
  236.1250     2.3420    84.5300    35.2700    33.0790    39.9870    23.6330   -18.0450 
  236.2500     2.3400    82.7220    31.4290    29.5020    33.4310    23.6330   -17.8620 
  236.3750     2.3450    82.4260    27.6730    25.9920    28.3280    23.6330   -17.6880 
  236.5000     2.3560    85.3970    24.3820    22.8790    27.1330    23.6330   -17.5480 
  236.6250     2.3670    85.3970    22.0810    20.6190    25.2480    23.6330   -17.3830 
  236.7500     2.3670    85.3970    20.7930    19.2520    21.3980    23.6330   -17.2210 
  236.8750     2.3540    85.3970    20.4270    18.7270    20.1770    23.6330   -17.0680 
  237.0000     2.3290    85.3970    20.7200    18.8500    22.2690    23.6260   -16.9310 
  237.1250     2.2980    85.3970    21.3000    19.3370    26.8220    23.6010   -16.7740 
  237.2500     2.2730    85.3970    21.6930    19.7570    29.8880    23.5640   -16.6260 
  237.3750     2.2620    85.3970    21.6450    19.8170    29.9420    23.5330   -16.4600 
