~V
VERS. 2.00: Ver 2.00
~W
STRT.M 125.0000:
STOP.M 273.0000:
STEP.M 0.1250:
NULL. -999.2500:
UWI. DF3072:
~C
DEPT.M :
DEN.GM/CC :
GR.API :
CALI.CM :
RXO.OHMM :
RI. :
RML.OHMM :
SP.MV :
~A
# ...
  260.0000     2.5030    72.7120    25.3230    16.8690    11.4680    14.3440   -12.4030 
  260.1250     2.4680    74.6900    25.2810    16.3650    11.4700    14.2650   -12.4550 
  260.2500     2.4210    71.1870    25.1750    15.2510    11.3100    13.9290   -12.4910 
  260.3750     2.3830    65.9080    25.0620    14.4790    11.0070    13.3950   -12.5140 
  260.5000     2.3840    64.3090    25.0190    14.3580    10.6070    12.7360   -12.5310 
  260.6250     2.4220    65.0710    25.0380    14.5820    10.1720    12.0440   -12.5280 
  260.7500     2.4550    64.8000    25.0850    14.4970     9.7750    11.4350   -12.5040 
  260.8750     2.4670    64.7020    25.1760    13.8410     9.4630    11.0040   -12.4630 
  261.0000     2.4650    67.2870    25.2720    13.2590     9.2630    10.8090   -12.3950 
  261.1250     2.4630    70.2310    25.2820    14.3040     9.1800    10.8650   -12.3020 
  261.2500     2.4630    70.2930    25.2510    17.1040     9.1440    11.0090   -12.1960 
  261.3750     2.4620    68.3540    25.2390    21.0290     9.1070    11.0730   -12.0940 
  261.5000     2.4580    68.7200    25.2340    25.1090     9.0370    10.9350   -11.9930 
  261.6250     2.4500    73.0850    25.2100    27.1150     8.9380    10.6040   -11.9000 
  261.7500     2.4440    76.9860    25.1850    25.9680     8.8500    10.2860   -11.8210 
  261.8750     2.4450    75.5990    25.1720    23.5660     8.8070    10.1320   -11.7580 
  262.0000     2.4590    70.1880    25.1680    22.9310     8.8120    10.1800   -11.7070 
  262.1250     2.4810    70.1880    25.1860    23.7260     8.8340    10.3090   -11.6790 
  262.2500     2.5000    70.1880    25.2200    22.1210     8.8170    10.3050   -11.6710 
  262.3750     2.5060    70.1880    25.2500    17.6420     8.7280    10.0720   -11.6760 
  262.5000     2.4970    70.1880    25.2640    12.9070     8.5580     9.6560   -11.6820 
  262.6250     2.4820    70.1880    25.2620    10.3940     8.3380     9.2390   -11.6920 
  262.7500     2.4780    70.1880    25.2490     9.4430     8.1320     8.9840   -11.7030 
  262.8750     2.4850    70.1880    25.2340     9.4700     7.9800     8.9290   -11.7070 
  263.0000     2.4900    70.1880    25.2250    10.3350     7.8950     9.0160   -11.7070 
  263.1250     2.4810    70.1880    25.2180    11.6870     7.8690     9.1440   -11.7000 
  263.2500     2.4740    70.1880    25.2130    12.3350     7.8640     9.2280   -11.6820 
  263.3750     2.4770    70.1880    25.2170    11.6970     7.8630     9.2390   -11.6510 
  263.5000     2.4830    70.1880    25.2370    10.3670     7.8600     9.1790   -11.6180 
  263.6250     2.4700    70.1880    25.2530     9.4210     7.8610     9.0790   -11.5860 
  263.7500     2.4450    70.1880    25.2580     8.9470     7.8660     8.9930   -11.5560 
  263.8750     2.4280    70.1880    25.2580     8.6850     7.8730     8.9610   -11.5260 
  264.0000     2.4320    70.1880    25.2580     8.5310     7.8790     8.9940   -11.4940 
  264.1250     2.4490    70.1880    25.2630     8.3240     7.8820     9.0610   -11.4630 
  264.2500     2.4620    70.1880    25.2810     7.8840     7.8830     9.1150   -11.4360 
  264.3750     2.4660    70.1880    25.3090     7.2860     7.8820     9.1440   -11.4100 
  264.5000     2.4610    70.1880    25.3320     6.7790     7.8810     9.1770   -11.3870 
  264.6250     2.4500    70.1880    25.3400     6.5690     7.8790     9.2420   -11.3660 
  264.7500     2.4390    70.1880    25.3400     6.5790     7.8790     9.3060   -11.3470 
  264.8750     2.4320    70.1880    25.3380     6.6890     7.8790     9.3250   -11.3370 
  265.0000     2.4360    70.1880    25.3360     6.7490     7.8790     9.2870   -11.3360 
  265.1250     2.4520    70.1880    25.3380     6.6620     7.8800     9.2240   -11.3450 
  265.2500     2.4650    70.1880    25.3410     6.5820     7.8840     9.1800   -11.3490 
  265.3750     2.4680    70.1880    25.3470     6.6470     7.8900     9.1710   -11.3580 
  265.5000     2.4700    70.1880    25.3550     6.8370     7.8960     9.1850   -11.3700 
  265.6250     2.4830    70.1880    25.3410     7.0560     7.8960     9.1810   -11.3690 
  265.7500     2.4990    70.1880    25.2760     7.2870     7.8910     9.1440   -11.3590 
  265.8750     2.5070    70.1880    25.1690     7.5110     7.8850     9.0960   -11.3470 
  266.0000     2.5120    70.1880    25.0750     7.6870     7.8800     9.0660   -11.3360 
  266.1250     2.5200    70.1880    25.0560     7.8210     7.8830     9.0830   -11.3170 
  266.2500     2.5220    70.1880    25.0860     7.9580     7.8890     9.1300   -11.3080 
  266.3750     2.5100    70.1880    25.1360     8.1030     7.8970     9.1830   -11.2960 
  266.5000     2.4910    70.1880    25.2080     8.3790     7.9030     9.2090   -11.2800 
  266.6250     2.4780    70.1880    25.2690     9.2730     7.9080     9.1970   -11.2760 
  266.7500     2.4750    70.1880    25.2400    10.9520     7.9110     9.1770   -11.2780 
  266.8750     2.4790    70.1880    25.1140    13.1310     7.9120     9.1700   -11.2840 
  267.0000     2.4890    70.1880    24.9930    15.2780     7.9090     9.1830   -11.2890 
  267.1250     2.4960    70.1880    24.9930    16.6970     7.9030     9.2120   -11.3000 
  267.2500     2.4860    70.1880    25.0820    16.6670     7.8970     9.2340   -11.3120 
  267.3750     2.4500    70.1880    25.1970    15.0120     7.8920     9.2350   -11.3320 
  267.5000     2.3980    70.1880    25.2430    12.6720     7.8890     9.2100   -11.3660 
  267.6250     2.3260    70.1880    25.1680    10.6260     7.8870     9.1710   -11.4070 
  267.7500     2.2210    70.1880    24.7230     8.6630     7.8850     9.1360   -11.4470 
  267.8750     2.0980    70.1880    23.0560     6.7590     7.8820     9.1130   -11.4900 
  268.0000     1.9980    70.1880    19.9270     5.4270     7.8800     9.1010   -11.5320 
  268.1250     1.9620    70.1880    16.8090     5.0020     7.8800     9.1010   -11.5870 
  268.2500     1.9600    70.1880    15.2580     4.9540     7.8800     9.1010   -11.6430 
  268.3750     1.9600    70.1880    15.0370     4.9650     7.8800     9.1010   -11.6970 
  268.5000     1.9530    70.1880    15.1230     4.9660     7.8800     9.1010   -11.7330 
  268.6250     1.9500    70.1880    15.1100     4.9650     7.8800     9.1010   -11.7500 
  268.7500     1.9570    70.1880    15.1100     4.9660     7.8800     9.1010   -11.7650 
  268.8750     1.9740    70.1880    15.1100     4.9670     7.8800     9.1010   -11.7640 
  269.0000     1.9900    70.1880    15.1100     4.9680     7.8800     9.1010   -11.7590 
  269.1250     1.9920    70.1880    15.1100     4.9680     7.8800     9.1010   -11.7400 
  269.2500     1.9820    70.1880    15.1100     4.9680     7.8800     9.1010   -11.7090 
  269.3750     1.9710    70.1880    15.1100     4.9680     7.8800     9.1010   -11.6660 
  269.5000     1.9690    70.1880    15.1100     4.9680     7.8800     9.1010   -11.6180 
  269.6250     1.9800    70.1880    15.1100     4.9680     7.8800     9.1010   -11.5800 
  269.7500     1.9910    70.1880    15.1100     4.9690     7.8800     9.1010   -11.5470 
  269.8750     1.9940    70.1880    15.1100     4.9700     7.8800     9.1010   -11.5300 
  270.0000     1.9900    70.1880    15.1100     4.9690     7.8800     9.1010   -11.5240 
  270.1250     1.9820    70.1880    15.1100     4.9680     7.8800     9.1010   -11.5190 
  270.2500     1.9760    70.1880    15.1100     4.9680     7.8800     9.1010   -11.5190 
  270.3750     1.9720    70.1880    15.1100     4.9690     7.8800     9.1010   -11.5190 
  270.5000     1.9690    70.1880    15.1100     4.9700     7.8800     9.1010  -999.2500 
  270.6250     1.9710    70.1880    15.1100     4.9690     7.8800     9.1010  -999.2500 
  270.7500     1.9800    70.1880    15.1100     4.9680     7.8800     9.1010  -999.2500 
  270.8750     1.9920    70.1880    15.1100     4.9680     7.8800     9.1010  -999.2500 
  271.0000     1.9950    70.1880    15.1100     4.9690     7.8800     9.1010  -999.2500 
  271.1250     1.9830    70.1880    15.1100     4.9690     7.8800     9.1010  -999.2500 
