~V
VERS. 2.00: Ver 2.00
~W
STRT.M 56.0000:
STOP.M 260.0000:
STEP.M 0.1250:
NULL. -999.2500:
UWI. DF3033:
~C
DEPT.M :
GR.API :
RML.OHMM :
RI. :
RXO.OHMM :
CALI.CM :
DEN.GM/CC :
SP.MV :
~A
# ...
  134.7500    75.2350     8.3980     7.9100     7.9260    23.9180     2.2050   -27.1610 
  134.8750    72.1490     8.6170     8.2020     8.4300    23.7590     2.2080   -27.2440 
  135.0000    69.0830     8.6900     8.3780     8.9460    23.5090     2.2090   -27.3930 
  135.1250    68.3200     8.6170     8.4110     8.9610    23.5170     2.2040   -27.3830 
  135.2500    70.9190     8.5270     8.3890     8.9090    23.7840     2.1920   -27.3100 
  135.3750    75.4300     8.5230     8.3910     8.7830    24.0090     2.1820   -27.2370 
  135.5000    78.5680     8.6500     8.4690     8.6300    24.0380     2.1800   -27.0750 
  135.6250    78.8670     8.8620     8.6190     8.6640    23.9030     2.1920   -26.9900 
  135.7500    76.7850     9.0170     8.7540     9.3510    23.8370     2.2110   -26.8280 
  135.8750    72.7550     9.0220     8.7930     9.9370    23.8170     2.2290   -26.6110 
  136.0000    69.9380     8.8710     8.7050     9.9710    23.8060     2.2400   -26.3490 
  136.1250    70.9730     8.6780     8.5380     9.6370    23.7920     2.2370   -25.9980 
  136.2500    72.6850     8.6260     8.4340     9.3800    23.8180     2.2280   -25.5830 
  136.3750    71.9000     8.8360     8.5100     9.0020    23.8940     2.2200   -25.0810 
  136.5000    68.2570     9.3270     8.8300     8.6040    23.9260     2.2280   -24.4450 
  136.6250    65.5450    10.0090     9.3790     9.5330    23.8290     2.2610   -23.6620 
  136.7500    64.7270    10.5960     9.9790    10.5410    23.7000     2.3150   -22.8730 
  136.8750    63.6050    10.9340    10.4980    11.8160    23.7420     2.3780   -22.1480 
  137.0000    62.2630    11.1340    10.9060    13.5740    24.0610     2.4390   -21.4480 
  137.1250    62.6250    11.5420    11.3620    15.2490    24.3140     2.4910   -20.9120 
  137.2500    64.1210    12.7230    12.1070    15.9400    24.4080     2.5360   -20.6630 
  137.3750    65.1000    14.7800    13.2520    16.2700    24.4230     2.5750   -20.5430 
  137.5000    66.7600    17.3580    14.6720    18.0730    24.4250     2.5960   -20.7520 
  137.6250    70.1740    19.5800    15.8990    22.7310    24.4310     2.5810   -21.2680 
  137.7500    71.3670    19.7660    16.4200    27.7560    24.4190     2.5290   -22.0000 
  137.8750    70.6170    18.7270    15.9810    27.5770    24.3310     2.4520   -22.8790 
  138.0000    70.2710    16.8630    14.7400    20.9390    24.1200     2.3700   -23.7240 
  138.1250    68.5030    14.9960    13.2330    14.6850    23.8530     2.3070   -24.5300 
  138.2500    65.3340    13.6960    12.0060    12.4080    23.7620     2.2780   -25.0370 
  138.3750    64.6420    12.9890    11.1810    11.9380    23.7490     2.2870   -25.4010 
  138.5000    68.6220    12.6260    10.6400    12.2270    23.7560     2.3260   -25.5070 
  138.6250    73.4500    12.2660    10.1640    12.9860    23.7770     2.3660   -25.4270 
  138.7500    75.4820    11.7060     9.5820    13.7350    23.8070     2.3770   -25.2960 
  138.8750    74.9560    10.9490     8.8800    12.9450    23.8360     2.3520   -25.0550 
  139.0000    73.6960    10.1250     8.1470     9.3020    23.8910     2.3030   -24.9270 
  139.1250    73.9140     9.4480     7.5460     8.3230    24.0000     2.2640   -24.8200 
  139.2500    76.2580     9.0290     7.1630     7.9730    24.0480     2.2490   -24.7560 
  139.3750    79.8110     8.9060     7.0320     8.0940    23.9860     2.2550   -24.8150 
  139.5000    82.8700     9.0740     7.1520     7.6270    23.9110     2.2670   -24.9450 
  139.6250    82.6800     9.5430     7.5260     7.0880    23.8630     2.2660   -24.9980 
  139.7500    79.8060    10.2150     8.0600     7.6720    23.8320     2.2500   -24.9720 
  139.8750    76.0090    10.9880     8.6660     8.6540    23.8200     2.2260   -24.8730 
  140.0000    74.7870    11.6800     9.2030     9.0790    23.8190     2.2060   -24.6280 
  140.1250    76.7330    11.9410     9.4140     9.4130    23.8190     2.2030   -24.1580 
  140.2500    79.4080    11.5980     9.1750     9.3300    23.8170     2.2160   -23.6390 
  140.3750    80.8490    10.6430     8.4790     9.0780    23.8420     2.2360   -22.9320 
  140.5000    83.6170     9.3080     7.4920     8.6910    23.9970     2.2540   -22.1620 
  140.6250    91.0770     8.0760     6.5410     7.7110    24.4130     2.2580   -21.5410 
  140.7500   100.1910     7.3890     5.9390     6.1890    24.7800     2.2510   -20.9350 
  140.8750   104.8270     7.4840     5.8740     5.2600    24.7260     2.2480   -20.5440 
  141.0000   101.7250     8.3810     6.4220     5.5080    24.4190     2.2630   -20.2510 
  141.1250    93.7660     9.9150     7.5700     7.1480    24.1670     2.3100   -20.1370 
  141.2500    86.7700    11.5120     8.9270     9.7650    24.1300     2.3710   -20.0230 
  141.3750    81.3060    12.6690    10.0840    12.7370    24.1370     2.4210   -19.9720 
  141.5000    76.1970    12.9950    10.6350    14.8540    24.1410     2.4400   -20.0010 
  141.6250    74.0380    12.2840    10.2560    12.3380    24.1520     2.4270   -19.7980 
  141.7500    76.5650    11.0260     9.2910     9.0620    24.1880     2.4040   -19.5250 
  141.8750    80.6330     9.6310     8.1070     7.7280    24.2720     2.3850   -19.0280 
  142.0000    84.1430     8.3740     6.9890     7.2900    24.4440     2.3680   -18.4260 
  142.1250    91.0600     7.4450     6.1290     6.5520    24.7080     2.3400   -17.8040 
  142.2500   100.4950     6.9310     5.5870     5.7400    24.9940     2.3000   -17.2640 
  142.3750   106.1760     7.0480     5.4970     5.5050    25.1140     2.2610   -16.8750 
  142.5000   105.0690     8.0430     6.0450     6.0340    24.8740     2.2430   -16.5400 
  142.6250   100.0480    10.1450     7.4740     8.3220    24.6720     2.2700   -16.3380 
  142.7500    92.5200    12.8170     9.4890    12.6620    24.5710     2.3320   -16.2570 
  142.8750    82.5320    15.2980    11.5900    19.5890    24.5120     2.4050   -16.3130 
  143.0000    75.1550    16.6670    13.0490    31.5270    24.4020     2.4590   -16.4980 
  143.1250    74.7750    15.9650    12.9530    36.9070    24.1980     2.4620   -16.8270 
  143.2500    79.0690    13.7980    11.5620    23.3400    23.9300     2.4260   -17.1450 
  143.3750    85.8050    11.1960     9.6270    10.9910    23.7200     2.3750   -17.3890 
  143.5000    93.4440     9.1340     7.9500     6.8620    23.6360     2.3300   -17.5350 
  143.6250    98.3420     8.1660     7.0260     5.6830    23.6300     2.3010   -17.7260 
  143.7500    98.5900     7.9740     6.7140     5.4100    23.6250     2.2880   -17.8560 
  143.8750    95.9390     8.2410     6.8380     5.3930    23.6260     2.2860   -17.9030 
  144.0000    93.6080     8.6650     7.1940     5.6890    23.6150     2.2910   -17.8710 
  144.1250    92.7920     8.9940     7.5730     5.9880    23.6590     2.2990   -17.6130 
  144.2500    93.4190     9.1200     7.8170     6.4420    23.8680     2.3040   -17.3550 
  144.3750    93.2890     9.0200     7.8630     6.7210    24.2410     2.3030   -16.9560 
  144.5000    92.1230     8.7250     7.7100     6.6360    24.5160     2.2970   -16.6080 
  144.6250    92.0700     8.3040     7.4090     6.4260    24.5920     2.2860   -16.2720 
  144.7500    95.6460     7.9000     7.0880     6.1060    24.6010     2.2770   -15.8900 
  144.8750   102.1240     7.6400     6.8480     5.6760    24.6010     2.2730   -15.5590 
  145.0000   107.0720     7.6290     6.7780     5.4610    24.6000     2.2770   -15.2340 
  145.1250   105.4850     7.9740     6.9640     5.5080    24.5980     2.2920   -15.0890 
  145.2500   101.3010     8.5670     7.3410     5.8750    24.5980     2.3160   -14.8930 
  145.3750    97.1420     9.2510     7.8020     6.4590    24.5990     2.3470   -14.8190 
  145.5000    92.8390     9.8050     8.1800     7.2080    24.6010     2.3790   -14.7770 
  145.6250    90.4730     9.9320     8.2420     7.9510    24.5990     2.4000   -14.6530 
  145.7500    93.9010     9.5920     7.9390     7.9520    24.5960     2.4050   -14.6270 
  145.8750    99.8290     8.8860     7.3340     6.9260    24.5840     2.3960   -14.5920 
