~V
VERS. 2.00: Ver 2.00
~W
STRT.M 60.0000:
STOP.M 268.0000:
STEP.M 0.1250:
NULL. -999.2500:
UWI. DF3035:
~C
DEPT.M :
GR.API :
CALI.CM :
RXO.OHMM :
RI. :
RML.OHMM :
SP.MV :
DEN.GM/CC :
AC.US/MT :
~A
# ...
  220.0000    74.7060    25.0280    57.5750    49.5000    50.8110   -24.3980     2.2480   396.7710 
  220.1250    73.8460    25.0210    56.7660    51.2270    52.9350   -24.3950     2.2570   396.5010 
  220.2500    71.4620    25.0100    56.1160    54.1560    56.3130   -24.4730     2.2700   395.4550 
  220.3750    70.0010    25.0130    59.1450    58.4610    61.2190   -24.6310     2.2690   393.8430 
  220.5000    69.8580    25.0160    67.2170    64.4280    68.0040   -24.8420     2.2520   392.4800 
  220.6250    70.8490    25.0090    80.6970    72.3510    77.0020   -25.1080     2.2430   392.8140 
  220.7500    70.8240    25.0250    96.0190    81.2470    87.1110   -25.3950     2.2530   394.9550 
  220.8750    69.8220    25.0730   108.2470    89.8440    96.9060   -25.6950     2.2670   397.8250 
  221.0000    69.9320    25.1150   114.0640    96.6930   104.7430   -25.9730     2.2700   399.7490 
  221.1250    70.2340    25.0890   115.5930   100.1950   108.8280   -26.1720     2.2610   399.3090 
  221.2500    67.4180    25.0400   116.9920   100.6110   109.4670   -26.3130     2.2450   397.4100 
  221.3750    64.0460    25.0440   116.3950    98.3160   107.0650   -26.4030     2.2290   395.5690 
  221.5000    64.5230    25.1110   111.4110    93.9020   102.2570   -26.4470     2.2170   395.2530 
  221.6250    68.0290    25.1780   102.8130    88.0610    95.8700   -26.4440     2.2130   396.2260 
  221.7500    68.1610    25.1920    93.8000    82.0550    89.4050   -26.4220     2.2220   398.3190 
  221.8750    66.1330    25.1700    86.1550    76.8100    83.9340   -26.3960     2.2350   400.0930 
  222.0000    65.0810    25.1380    81.1590    73.0750    80.2600   -26.4000     2.2460   400.9650 
  222.1250    65.1160    25.1130    79.5740    71.6840    79.2680   -26.4370     2.2510   400.5840 
  222.2500    66.8480    25.1020    79.6360    72.4560    80.6960   -26.4880     2.2580   398.3260 
  222.3750    69.3820    25.0950    80.3230    75.2330    84.3340   -26.5230     2.2680   394.4740 
  222.5000    71.2680    25.0750    82.4410    79.5700    89.6570   -26.5460     2.2750   389.6880 
  222.6250    69.9250    25.0590    88.4960    84.7600    95.8360   -26.5380     2.2740   385.0700 
  222.7500    64.4260    25.0620    96.3050    89.7110   101.6190   -26.4920     2.2670   382.1650 
  222.8750    58.8990    25.0750   100.4790    93.6760   106.1470   -26.4050     2.2550   381.3590 
  223.0000    58.6450    25.0730    99.1100    96.2800   109.0620   -26.2680     2.2380   381.9360 
  223.1250    64.7310    25.0680    97.9840    97.6370   110.6280   -26.1340     2.2200   381.9990 
  223.2500    69.2400    25.1000   101.5070    98.6190   111.8640   -25.9990     2.2160   378.7050 
  223.3750    68.7830    25.0900   107.6030    99.6730   113.2350   -25.8900     2.2360   371.7710 
  223.5000    66.2170    24.9370   115.3700   101.0190   114.9450   -25.8070     2.2770   362.7790 
  223.6250    64.9800    24.6850   125.2470   102.9570   117.2870   -25.7470     2.3180   354.5140 
  223.7500    64.1300    24.5440   128.4440   105.5450   120.2740   -25.7090     2.3360   349.8150 
  223.8750    63.0150    24.5890   121.1470   108.5480   123.5730   -25.6960     2.3360   348.2680 
  224.0000    62.6250    24.7330   114.3930   111.1650   126.1770   -25.7090     2.3280   348.8190 
  224.1250    64.6330    24.8130   124.7220   111.4650   125.6760   -25.6950     2.3220   350.9780 
  224.2500    66.2120    24.7740   138.3220   108.1620   120.6450   -25.6600     2.3210   355.7020 
  224.3750    65.3690    24.7260   131.9590   100.9160   110.9940   -25.6020     2.3210   362.9850 
  224.5000    63.4320    24.8110   103.7260    90.8970    98.5370   -25.5340     2.3230   371.7170 
  224.6250    64.3260    25.0020    77.7000    80.4500    86.3740   -25.4520     2.3210   379.6780 
  224.7500    67.8360    25.1150    64.9730    71.8310    76.8500   -25.3670     2.3200   384.0910 
  224.8750    70.5990    25.0920    60.1520    66.1180    70.8610   -25.2660     2.3290   384.9220 
  225.0000    69.7450    25.0100    59.4350    63.5400    68.3490   -25.1490     2.3470   383.3370 
  225.1250    66.8330    24.9510    64.2220    63.9010    68.8740   -25.0600     2.3590   381.2170 
  225.2500    67.4980    24.9370    73.9020    65.6210    70.6650   -24.9790     2.3460   380.7010 
  225.3750    70.6760    24.9510    82.9620    67.4340    72.3580   -24.9100     2.3160   382.5120 
  225.5000    71.3340    24.9760    84.6480    68.0310    72.6130   -24.8420     2.2820   386.4190 
  225.6250    67.8630    25.0260    78.0320    66.0410    70.1420   -24.7660     2.2510   391.4570 
  225.7500    65.3180    25.1160    70.2360    61.9270    65.6090   -24.6820     2.2300   396.2230 
  225.8750    67.1020    25.1270    62.8570    56.7020    60.1630   -24.6040     2.2260   399.7180 
  226.0000    71.9030    24.9770    54.8830    51.6800    55.1940   -24.5600     2.2350   401.5190 
  226.1250    74.6610    24.8190    48.2880    48.2960    52.2160   -24.5550     2.2490   401.6880 
  226.2500    72.7850    24.8500    46.5120    46.9360    51.5710   -24.6180     2.2560   400.8390 
  226.3750    70.2510    25.0170    50.1110    47.6880    53.3370   -24.7510     2.2590   400.3220 
  226.5000    69.9360    25.1520    57.5940    50.3650    57.2990   -24.9790     2.2580   400.9420 
  226.6250    69.7090    25.2090    66.3080    54.5980    63.0020   -25.3700     2.2520   402.7590 
  226.7500    67.4380    25.2510    72.4150    59.1520    68.9560   -25.9010     2.2420   404.8450 
  226.8750    66.7650    25.2630    74.2470    63.0550    73.9670   -26.5500     2.2330   405.7220 
  227.0000    69.6980    25.2420    73.7810    65.7530    77.4050   -27.2930     2.2290   404.6160 
  227.1250    73.0270    25.2130    74.7150    67.2160    79.3850   -28.1110     2.2290   401.8810 
  227.2500    74.3230    25.2060    77.5010    68.1840    80.9140   -28.9110     2.2280   399.1030 
  227.3750    75.1830    25.2160    80.7260    69.0130    82.4190   -29.6130     2.2290   397.7070 
  227.5000    76.5010    25.2290    83.2720    69.6790    83.7990   -30.1320     2.2370   397.7550 
  227.6250    76.6500    25.2280    84.8000    69.7040    84.3530   -30.3590     2.2520   398.4470 
  227.7500    75.7840    25.2150    84.8290    68.8260    83.6970   -30.3120     2.2620   398.9100 
  227.8750    76.3030    25.1970    81.8480    67.0380    81.8310   -30.0090     2.2590   399.0590 
  228.0000    77.8040    25.1630    75.9180    64.6670    79.2320   -29.4830     2.2500   399.2540 
  228.1250    75.9150    25.1190    70.3120    62.3770    76.8270   -28.7780     2.2450   399.7680 
  228.2500    72.4780    25.1020    67.3780    60.8140    75.4520   -27.9950     2.2510   400.4670 
  228.3750    71.6420    25.1300    66.2450    60.3790    75.5930   -27.2320     2.2620   400.9860 
  228.5000    73.0510    25.1640    65.7620    61.2280    77.4030   -26.5540     2.2690   401.1530 
  228.6250    72.5550    25.1480    67.5900    63.2590    80.6800   -26.0180     2.2670   400.8570 
  228.7500    70.6180    25.1200    73.6110    65.5960    84.2290   -25.6230     2.2570   399.8730 
  228.8750    69.7470    25.1100    82.3150    67.4680    86.9830   -25.3470     2.2470   398.3200 
  229.0000    70.7880    25.1020    87.7290    68.3440    88.2580   -25.1580     2.2380   396.2810 
  229.1250    73.0410    25.0650    84.1960    68.2250    88.2400   -24.9920     2.2250   393.6640 
  229.2500    73.1050    24.9720    77.3130    68.2570    88.6570   -24.8210     2.2150   390.2500 
  229.3750    71.0370    24.8250    73.8920    69.8210    91.3260   -24.6130     2.2140   386.5470 
  229.5000    69.3970    24.6980    76.5540    74.3020    97.8990   -24.3720     2.2180   383.2550 
  229.6250    71.0970    24.7550    84.0840    83.4150   110.4910   -24.1180     2.2240   381.0220 
  229.7500    72.9060    24.9180    95.0290    96.4330   128.1920   -23.8470     2.2320   380.4650 
  229.8750    71.7500    24.9960   113.7260   111.5120   148.2840   -23.5630     2.2450   381.4120 
