~V
VERS. 2.00: Ver 2.00
~W
STRT.M 57.0000:
STOP.M 272.0000:
STEP.M 0.1250:
NULL. -999.2500:
UWI. DF3050:
~C
DEPT.M :
SP.MV :
GR.API :
CALI.CM :
RXO.OHMM :
RI. :
RML.OHMM :
DEN.GM/CC :
~A
# ...
  248.2500   -11.8800    75.5710    24.2390   166.2400   115.7700   124.2560     2.4870 
  248.3750   -11.6270    67.8780    24.0700   265.7630    92.7020    92.2540     2.5420 
  248.5000   -11.4010    56.5100    24.1000   279.0860    65.4910    60.4910     2.5590 
  248.6250   -11.1810    47.1530    24.2820   178.2020    41.7730    36.3780     2.5280 
  248.7500   -10.9890    47.3050    24.0170    81.3210    25.7810    21.8690     2.4710 
  248.8750   -10.8280    54.6360    23.8650    39.4270    15.5980    13.2100     2.4060 
  249.0000   -10.6840    63.8570    23.8160    17.8560     9.5870     8.2660     2.3440 
  249.1250   -10.5530    68.3830    23.7870     7.5690     6.4570     5.6320     2.2990 
  249.2500   -10.4340    65.7860    23.8490     4.6930     5.0940     4.5090     2.2710 
  249.3750   -10.3210    62.3700    23.9340     4.3530     4.4760     4.0930     2.2490 
  249.5000   -10.2080    62.9220    23.8910     4.3940     4.3040     4.0720     2.2330 
  249.6250   -10.1570    66.3270    23.7920     4.4770     4.3640     4.2310     2.2280 
  249.7500   -10.1500    65.4390    23.7710     4.3610     4.4950     4.3710     2.2360 
  249.8750   -10.1560    62.1150    23.8000     4.1140     4.5750     4.4020     2.2550 
  250.0000   -10.1720    62.1960    23.8440     3.9200     4.5900     4.3530     2.2780 
  250.1250   -10.1750    64.5810    23.8420     3.8480     4.5550     4.2920     2.2860 
  250.2500   -10.1810    62.6430    23.7100     3.9410     4.4730     4.2320     2.2700 
  250.3750   -10.1930    59.4410    23.7740     3.9410     4.3720     4.1760     2.2440 
  250.5000   -10.2330    60.7400    23.7770     3.8160     4.2640     4.1280     2.2290 
  250.6250   -10.2360    65.4180    23.7980     3.6500     4.1560     4.1000     2.2320 
  250.7500   -10.2100    67.4230    23.8020     3.5620     4.0630     4.0970     2.2370 
  250.8750   -10.2080    68.2110    23.7510     3.6050     3.9880     4.1140     2.2390 
  251.0000   -10.2210    68.4680    23.7170     3.6720     3.9280     4.1440     2.2400 
  251.1250   -10.2540    67.0410    23.7730     3.6560     3.8990     4.1970     2.2460 
  251.2500   -10.3030    64.1650    24.0240     3.5930     3.8990     4.2660     2.2560 
  251.3750   -10.3550    61.6380    23.9760     3.7190     3.9140     4.3680     2.2700 
  251.5000   -10.3840    59.0910    24.0810     3.8220     3.9410     4.4770     2.2780 
  251.6250   -10.4310    57.4240    24.3150     3.7810     3.9750     4.5770     2.2700 
  251.7500   -10.4980    58.3350    24.2380     3.8040     4.0070     4.6720     2.2540 
  251.8750   -10.5620    60.0140    23.9100     3.9520     4.0350     4.7670     2.2420 
  252.0000   -10.6310    60.3800    23.7890     4.0970     4.0600     4.8390     2.2350 
  252.1250   -10.6750    59.6810    23.7760     4.1410     4.0760     4.8810     2.2340 
  252.2500   -10.7100    58.5680    23.7560     4.2240     4.0800     4.9150     2.2390 
  252.3750   -10.7390    57.6540    23.6690     4.2490     4.0820     4.9660     2.2570 
  252.5000   -10.7820    57.1970    23.5350     4.3420     4.0790     5.0230     2.2840 
  252.6250   -10.8150    57.6310    23.4960     4.5930     4.0770     5.0970     2.3060 
  252.7500   -10.8380    60.7370    23.4930     4.9630     4.0710     5.1620     2.3150 
  252.8750   -10.8490    62.9150    23.5070     5.0360     4.0660     5.2390     2.3120 
  253.0000   -10.8180    61.9350    23.4640     4.9200     4.0680     5.3050     2.3020 
  253.1250   -10.7910    58.5850    23.5620     5.3960     4.0760     5.3490     2.2900 
  253.2500   -10.7620    55.8910    23.6480     6.3480     4.0870     5.3490     2.2850 
  253.3750   -10.7330    54.0690    23.7110     6.6650     4.0890     5.2940     2.2880 
  253.5000   -10.6770    52.3140    23.6100     6.0870     4.0830     5.2190     2.2890 
  253.6250   -10.5960    52.6230    23.5850     5.4260     4.0680     5.1310     2.2760 
  253.7500   -10.5100    53.8230    23.6460     5.0540     4.0530     5.0410     2.2560 
  253.8750   -10.4280    53.6860    23.7790     4.7130     4.0370     4.9670     2.2430 
  254.0000   -10.3960    53.7190    23.7800     4.5010     4.0210     4.9260     2.2460 
  254.1250   -10.3880    56.5890    23.6510     4.4150     4.0130     4.9270     2.2610 
  254.2500   -10.4100    60.4360    23.6260     4.2460     4.0180     4.9660     2.2760 
  254.3750   -10.4460    62.4040    23.5260     4.0900     4.0310     5.0310     2.2880 
  254.5000   -10.4460    62.9340    23.4710     4.1310     4.0410     5.0770     2.2970 
  254.6250   -10.4070    62.3550    23.5740     4.3760     4.0450     5.1030     2.2970 
  254.7500   -10.3260    61.3310    23.8150     4.5240     4.0440     5.1170     2.2860 
  254.8750   -10.2750    60.2630    23.9920     4.6500     4.0400     5.1100     2.2700 
  255.0000   -10.2660    61.2120    24.0380     4.6870     4.0330     5.1000     2.2610 
  255.1250   -10.3090    62.7660    24.0970     4.5200     4.0240     5.1080     2.2650 
  255.2500   -10.3870    60.9010    24.0630     4.2510     4.0180     5.1280     2.2800 
  255.3750   -10.4130    56.1980    23.9790     4.0690     4.0140     5.1550     2.3030 
  255.5000   -10.3700    53.2090    23.9590     4.0800     4.0130     5.1880     2.3230 
  255.6250   -10.3520    55.1630    24.0330     4.0470     4.0150     5.2220     2.3300 
  255.7500   -10.4680    59.0740    24.0430     3.9940     4.0120     5.2220     2.3280 
  255.8750   -10.5900    60.9710    23.9640     4.0200     4.0070     5.2170     2.3230 
  256.0000   -10.6380    61.7940    24.0530     4.0650     4.0040     5.1990     2.3170 
  256.1250   -10.6870    61.6090    24.0680     4.0460     3.9990     5.1580     2.3050 
  256.2500   -10.6600    59.8850    23.9160     4.0940     3.9930     5.1100     2.2900 
  256.3750   -10.5840    58.5090    23.8490     4.2560     3.9880     5.0800     2.2790 
  256.5000   -10.6310    60.1740    23.8100     4.3790     3.9790     5.0430     2.2830 
  256.6250   -10.6810    64.0090    23.7950     4.2910     3.9670     4.9970     2.3000 
  256.7500   -10.6370    67.1320    23.8730     4.0960     3.9620     4.9350     2.3140 
  256.8750   -10.6410    69.0650    23.8400     4.0280     3.9630     4.8780     2.3180 
  257.0000   -10.6370    68.3210    23.7980     4.0640     3.9660     4.8250     2.3120 
  257.1250   -10.6080    65.7050    23.8090     4.2390     3.9750     4.7990     2.3000 
  257.2500   -10.6510    64.6080    23.8770     4.2320     3.9900     4.7880     2.2920 
  257.3750   -10.6720    65.3630    24.0340     4.1140     4.0080     4.7990     2.2920 
  257.5000   -10.6290    65.9470    24.0340     4.0400     4.0370     4.8470     2.3000 
  257.6250   -10.6690    64.3530    23.9350     4.0360     4.0700     4.9130     2.3130 
  257.7500   -10.6900    63.2190    23.9460     4.1020     4.1200     5.0100     2.3200 
  257.8750   -10.6260    64.2500    24.0070     4.1510     4.1930     5.1270     2.3160 
  258.0000   -10.6580    66.4350    23.9670     4.3870     4.2870     5.2560     2.3090 
  258.1250   -10.7240    67.5850    23.9740     5.2700     4.3850     5.3840     2.3120 
  258.2500   -10.6630    65.7320    24.0690     6.6830     4.4870     5.5210     2.3250 
  258.3750   -10.6900    62.8540    24.1370     8.0020     4.5780     5.6330     2.3380 
  258.5000   -10.7540    60.7790    24.2350     8.2420     4.6470     5.7090     2.3430 
  258.6250   -10.6870    60.1330    24.2570     7.4210     4.6850     5.7430     2.3340 
  258.7500   -10.7240    60.3810    24.2630     6.5350     4.6880     5.7290     2.3150 
  258.8750   -10.8270    62.1280    24.0670     5.5940     4.6640     5.6680     2.2920 
  259.0000   -10.8810    64.3990    24.0960     4.9520     4.6340     5.5890     2.2730 
  259.1250   -10.8820    64.8770    24.1030     4.8350     4.6030     5.5240     2.2700 
  259.2500   -10.8920    63.2160    24.2260     4.9450     4.5820     5.4820     2.2830 
  259.3750   -10.9040    62.4620    24.0600     4.9910     4.5690     5.4520     2.3020 
