~V
VERS. 2.00: Ver 2.00
~W
STRT.M 60.0000:
STOP.M 277.0000:
STEP.M 0.1250:
NULL. -999.2500:
UWI. DF3048:
~C
DEPT.M :
SP.MV :
GR.API :
RML.OHMM :
RI. :
RXO.OHMM :
CALI.CM :
DEN.GM/CC :
~A
# ...
   71.2500   -19.9520    84.8350     7.5960     7.9690    10.9640    23.4730  -999.2500 
   71.3750   -21.2570    77.4700     7.7400     8.1010    11.6590    23.4800  -999.2500 
   71.5000   -22.6070    71.7310     8.0550     8.4000    11.4260    23.5360  -999.2500 
   71.6250   -23.7260    70.5910     8.7960     9.1030    11.4360    23.7480  -999.2500 
   71.7500   -24.7680    71.2450     9.9030    10.1750    12.4950    24.0290  -999.2500 
   71.8750   -25.5450    70.2720    11.1260    11.4060    14.8550    24.1210  -999.2500 
   72.0000   -26.1170    68.3870    12.0490    12.4100    18.7730    24.1160  -999.2500 
   72.1250   -26.2860    68.4340    12.0980    12.6160    25.4680    24.1000  -999.2500 
   72.2500   -26.1260    70.4280    11.3230    11.9730    29.7060    23.9850  -999.2500 
   72.3750   -25.7280    74.1860    10.1130    10.7510    21.3240    23.9580  -999.2500 
   72.5000   -25.0240    79.4590     8.9830     9.4230    13.3370    23.8720  -999.2500 
   72.6250   -24.2060    85.5160     8.3180     8.4350    10.9020    23.8320  -999.2500 
   72.7500   -23.2480    89.4980     8.0730     7.8620    10.0110    23.7920  -999.2500 
   72.8750   -22.3040    90.8190     8.1360     7.6480     9.6390    23.7780  -999.2500 
   73.0000   -21.3680    91.7610     8.3740     7.6790     9.5890    23.7910  -999.2500 
   73.1250   -20.4100    93.0270     8.6700     7.8420     9.2730    23.8040  -999.2500 
   73.2500   -19.6840    94.6200     8.9370     8.0250     9.0340    23.7170  -999.2500 
   73.3750   -19.0400    94.7820     9.1300     8.1740     9.0290    23.5170  -999.2500 
   73.5000   -18.6890    91.5170     9.2160     8.2560     9.0940    23.3720  -999.2500 
   73.6250   -18.6290    85.5080     9.1730     8.2400     9.2170    23.3280  -999.2500 
   73.7500   -18.7960    80.6380     9.0590     8.1560     9.2200    23.3400  -999.2500 
   73.8750   -19.1130    79.4740     8.9470     8.0490     9.1880    23.4210  -999.2500 
   74.0000   -19.5250    80.6150     8.9080     7.9700     9.0940    23.5980  -999.2500 
   74.1250   -20.0760    81.3120     9.0110     7.9740     8.8950    23.8370  -999.2500 
   74.2500   -20.6540    80.1810     9.2240     8.0570     9.1880    23.9090  -999.2500 
   74.3750   -21.3100    79.0280     9.4920     8.1960     9.9000    23.9130  -999.2500 
   74.5000   -21.9180    79.7220     9.7450     8.3580    10.5670    23.8840  -999.2500 
   74.6250   -22.4170    81.0120     9.9150     8.5100    10.9530    23.7080  -999.2500 
   74.7500   -22.8360    80.5020    10.0060     8.6340    10.9690    23.6250  -999.2500 
   74.8750   -23.2420    78.6140    10.0600     8.7320    10.7870    23.6000  -999.2500 
   75.0000   -23.6210    75.6520    10.1350     8.8160    10.9500    23.6000  -999.2500 
   75.1250   -24.0070    71.9720    10.2800     8.9120    11.4350    23.5990  -999.2500 
   75.2500   -24.3010    70.8370    10.4690     9.0240    11.8910    23.6060  -999.2500 
   75.3750   -24.5220    74.7500    10.6550     9.1380    12.0210    23.6560  -999.2500 
   75.5000   -24.6890    82.7270    10.7860     9.2260    11.9820    23.7510  -999.2500 
   75.6250   -24.8490    88.5150    10.8100     9.2390    11.9720    23.7590  -999.2500 
   75.7500   -25.0090    86.4810    10.7440     9.1760    12.0100    23.5790  -999.2500 
   75.8750   -25.1880    77.4330    10.6220     9.0560    12.1540    23.4030  -999.2500 
   76.0000   -25.3720    67.1350    10.4870     8.9210    12.1730    23.3310  -999.2500 
   76.1250   -25.5130    63.0620    10.3800     8.8180    12.1780    23.3260  -999.2500 
   76.2500   -25.6590    63.2480    10.3160     8.7610    12.2720    23.3230  -999.2500 
   76.3750   -25.7640    64.3530    10.2930     8.7430    12.4380    23.3150  -999.2500 
   76.5000   -25.8420    66.2980    10.2960     8.7470    12.5860    23.3080  -999.2500 
   76.6250   -25.8090    70.1820    10.3110     8.7570    12.3260    23.3050  -999.2500 
   76.7500   -25.7320    74.3510    10.3250     8.7650    12.0910    23.3040  -999.2500 
   76.8750   -25.5510    74.6820    10.3360     8.7750    11.9410    23.3060  -999.2500 
   77.0000   -25.3050    71.7300    10.3420     8.7900    11.8650    23.3090  -999.2500 
   77.1250   -25.0140    70.1130    10.3500     8.8090    11.8420    23.3140  -999.2500 
   77.2500   -24.6760    70.6570    10.3610     8.8240    11.8490    23.3170  -999.2500 
   77.3750   -24.4170    71.8780    10.3770     8.8260    11.9400    23.3090  -999.2500 
   77.5000   -24.1450    71.0380    10.3880     8.8040    11.9970    23.3000  -999.2500 
   77.6250   -23.9900    68.2740    10.3700     8.7410    11.9200    23.2990  -999.2500 
   77.7500   -23.8160    68.3000    10.3000     8.6360    11.7560    23.3020  -999.2500 
   77.8750   -23.6920    71.9470    10.1620     8.4880    11.5650    23.3070  -999.2500 
   78.0000   -23.5780    75.8160     9.9580     8.3070    11.3840    23.3130  -999.2500 
   78.1250   -23.5410    75.5830     9.7270     8.1230    11.0970    23.3290  -999.2500 
   78.2500   -23.5200    74.3250     9.5500     7.9840    10.7590    23.3500  -999.2500 
   78.3750   -23.4710    74.0040     9.5070     7.9450    10.6180    23.3680  -999.2500 
   78.5000   -23.4620    73.9840     9.6580     8.0520    10.8370    23.3770  -999.2500 
   78.6250   -23.4530    73.9520    10.0460     8.3500    11.2170    23.3780  -999.2500 
   78.7500   -23.5020    72.9770    10.5660     8.7690    11.6050    23.3810  -999.2500 
   78.8750   -23.5920    71.8170    11.0960     9.2200    12.0710    23.3880  -999.2500 
   79.0000   -23.6630    72.3750    11.4890     9.5850    12.5470    23.4070  -999.2500 
   79.1250   -23.6920    73.8930    11.5720     9.7160    12.7520    23.4190  -999.2500 
   79.2500   -23.7210    73.3930    11.3620     9.6160    12.7240    23.4190  -999.2500 
   79.3750   -23.7460    69.8650    10.9440     9.3410    12.5880    23.4200  -999.2500 
   79.5000   -23.7850    67.2950    10.4670     9.0000    12.3960    23.4300  -999.2500 
   79.6250   -23.8160    69.4840    10.1070     8.7240    12.1680    23.4440  -999.2500 
   79.7500   -23.8370    73.4070     9.9330     8.5690    11.9050    23.4730  -999.2500 
   79.8750   -23.8170    73.8680     9.9320     8.5340    11.7020    23.5250  -999.2500 
   80.0000   -23.8220    68.3700    10.0410     8.5840    11.6850    23.5650  -999.2500 
   80.1250   -23.8130    61.9540    10.1730     8.6670    11.6890    23.5770  -999.2500 
   80.2500   -23.7400    60.4290    10.2550     8.7310    11.6710    23.5640  -999.2500 
   80.3750   -23.5380    63.6660    10.2660     8.7520    11.5480    23.5760  -999.2500 
   80.5000   -23.1320    67.0870    10.2030     8.7150    11.3380    23.6600  -999.2500 
   80.6250   -22.5920    66.9550    10.0510     8.5920    10.9920    23.7990  -999.2500 
   80.7500   -21.8540    67.2570     9.8100     8.3790    10.4930    23.8850  -999.2500 
   80.8750   -20.9870    71.6640     9.4810     8.0720    10.0020    23.9550  -999.2500 
   81.0000   -19.9710    79.3650     9.0920     7.6920     9.6640    24.0310  -999.2500 
   81.1250   -18.8110    86.6260     8.7250     7.2970     9.5290    24.1520  -999.2500 
   81.2500   -17.6150    95.1750     8.4670     6.9570     8.9020    24.2750  -999.2500 
   81.3750   -16.4550   103.7770     8.3600     6.7140     7.9260    24.3560  -999.2500 
   81.5000   -15.4660   107.5720     8.3720     6.5680     7.4870    24.3290  -999.2500 
   81.6250   -14.6390   106.2700     8.3750     6.4670     7.6370    24.2960  -999.2500 
   81.7500   -14.0110   105.0970     8.2220     6.3230     7.9310    24.2730  -999.2500 
   81.8750   -13.5280   104.7980     7.8510     6.0860     8.1740    24.2370  -999.2500 
   82.0000   -13.2020   102.7820     7.3530     5.7890     8.3050    24.2090  -999.2500 
   82.1250   -13.0950   101.1930     7.1190     5.6650     8.1350    24.2010  -999.2500 
   82.2500   -13.1560   100.9460     7.6100     6.0470     8.3100    24.2020  -999.2500 
   82.3750   -13.3640    97.3280     9.1530     7.2350     9.4150    24.2000  -999.2500 
