~V
VERS. 2.00: Ver 2.00
~W
STRT.M 65.0000:
STOP.M 270.0000:
STEP.M 0.1250:
NULL. -999.2500:
UWI. DF3062:
~C
DEPT.M :
SP.MV :
GR.API :
CALI.CM :
RXO.OHMM :
RI. :
RML.OHMM :
DEN.GM/CC :
~A
# ...
  256.2500   -20.1940    52.3290    23.7450     5.4260     5.7160     8.0850     2.3690 
  256.3750   -20.1510    56.8880    23.7120     4.9780     5.7360     8.0980     2.3750 
  256.5000   -20.1000    59.9760    23.6230     4.4010     5.7430     8.1300     2.3740 
  256.6250   -19.9970    59.0420    23.6900     3.9390     5.7470     8.2130     2.3620 
  256.7500   -19.8430    56.2100    23.8070     3.3630     5.7510     8.3220     2.3490 
  256.8750   -19.6710    54.5900    23.9010     3.1150     5.7660     8.4220     2.3460 
  257.0000   -19.4900    53.6310    23.9740     3.0280     5.7940     8.5030     2.3570 
  257.1250   -19.3030    54.3520    24.0010     2.8430     5.8280     8.5690     2.3770 
  257.2500   -19.1110    56.1030    24.0110     2.4460     5.8670     8.6100     2.3980 
  257.3750   -18.9560    56.5360    24.0010     2.3960     5.9120     8.6140     2.4070 
  257.5000   -18.8670    54.0950    23.9890     2.5680     5.9590     8.6010     2.4060 
  257.6250   -18.7860    51.4170    24.0050     2.6370     5.9950     8.5920     2.4000 
  257.7500   -18.7640    50.2420    24.0980     2.5020     6.0200     8.5890     2.3920 
  257.8750   -18.7730    49.7480    24.0790     2.3140     6.0450     8.6230     2.3810 
  258.0000   -18.7880    50.3700    24.0310     2.2440     6.0750     8.6810     2.3690 
  258.1250   -18.8030    52.5990    23.9920     2.4050     6.1080     8.7680     2.3600 
  258.2500   -18.8340    52.5990    23.9890     2.6060     6.1550     8.8490     2.3540 
  258.3750   -18.8280    52.5990    23.8560     2.8620     6.2160     8.9210     2.3520 
  258.5000   -18.7820    52.5990    23.9360     3.0800     6.2840     8.9760     2.3540 
  258.6250   -18.7540    52.5990    23.8990     3.2430     6.3460     9.0060     2.3580 
  258.7500   -18.7420    52.5990    23.8570     3.3400     6.4010     9.0240     2.3560 
  258.8750   -18.7120    52.5990    23.9430     3.5690     6.4440     9.0400     2.3420 
  259.0000   -18.6900    52.5990    23.9970     3.9310     6.4850     9.0650     2.3260 
  259.1250   -18.6450    52.5990    24.0190     4.0680     6.5260     9.1030     2.3160 
  259.2500   -18.5840    52.5990    24.0360     4.0300     6.5730     9.1590     2.3190 
  259.3750   -18.5040    52.5990    24.0160     3.9190     6.6220     9.2260     2.3310 
  259.5000   -18.3850    52.5990    23.9940     3.7660     6.6750     9.2890     2.3450 
  259.6250   -18.3550    52.5990    24.0060     3.6870     6.7210     9.3410     2.3570 
  259.7500   -18.2940    52.5990    24.0380     3.6690     6.7520     9.3750     2.3660 
  259.8750   -18.2330    52.5990    24.0430     3.4730     6.7630     9.3900     2.3680 
  260.0000   -18.1900    52.5990    24.0270     3.0850     6.7640     9.3880     2.3670 
  260.1250   -18.1630    52.5990    24.0830     3.2730     6.7640     9.3840     2.3600 
  260.2500   -18.1540    52.5990    24.0480     3.9720     6.7640     9.3770     2.3470 
  260.3750   -18.1670    52.5990    24.0380     5.5040     6.7670     9.3640     2.3390 
  260.5000   -18.1780    52.5990    23.9960     7.2830     6.7660     9.3510     2.3500 
  260.6250   -18.1600    52.5990    24.0040     7.9470     6.7640     9.3300     2.3790 
  260.7500   -18.1350    52.5990    24.0830     7.7580     6.7610     9.3150     2.4080 
  260.8750   -18.1570    52.5990    24.1580     7.2960     6.7660     9.3050     2.4180 
  261.0000   -18.1660    52.5990    24.1490     6.7840     6.7830     9.3070     2.4160 
  261.1250   -18.1890    52.5990    24.0140     6.7230     6.8360     9.3430     2.4130 
  261.2500   -18.2020    52.5990    24.0120     6.9710     6.9390     9.4330     2.4120 
  261.3750   -18.1750    52.5990    24.1100     7.1990     7.0890     9.5750     2.4110 
  261.5000   -18.1960    52.5990    24.1420     7.4160     7.2870     9.7670     2.4110 
  261.6250   -18.2020    52.5990    24.0290     7.9290     7.5270    10.0050     2.4170 
  261.7500   -18.2270    52.5990    24.0190     9.4880     7.7830    10.2660     2.4270 
  261.8750   -18.2370    52.5990    23.9530    10.7160     8.0370    10.5220     2.4330 
  262.0000   -18.2510    52.5990    23.7090    11.3450     8.2680    10.7430     2.4280 
  262.1250   -18.2590    52.5990    23.0870    11.5950     8.4470    10.8890     2.4150 
  262.2500   -18.2820    52.5990    22.9720    12.2940     8.5630    10.9600     2.3950 
  262.3750   -18.3180    52.5990    23.2300    12.1010     8.6200    10.9670     2.3730 
  262.5000   -18.3550    52.5990    23.5600    10.8580     8.6240    10.9340     2.3590 
  262.6250   -18.3380    52.5990    23.6760     8.6210     8.5770    10.8590     2.3600 
  262.7500   -18.3370    52.5990    23.6890     6.6450     8.5000    10.7440     2.3720 
  262.8750   -18.3400    52.5990    23.7020     5.8590     8.4090    10.5940     2.3860 
  263.0000   -18.3060    52.5990    23.7390     6.3750     8.3170    10.4360     2.4010 
  263.1250   -18.2980    52.5990    23.7990     7.2550     8.2410    10.2910     2.4160 
  263.2500   -18.2210    52.5990    23.9740     7.7480     8.1830    10.1610     2.4230 
  263.3750   -18.2210    52.5990    24.0240     7.9400     8.1440    10.0540     2.4160 
  263.5000   -18.1720    52.5990    24.0400     8.0880     8.1200     9.9800     2.4130 
  263.6250   -18.1520    52.5990    24.0490     8.2710     8.1130     9.9420     2.4230 
  263.7500   -18.0990    52.5990    24.1120     8.4030     8.1140     9.9470     2.4350 
  263.8750   -18.0410    52.5990    24.2640     8.0900     8.1210     9.9720     2.4300 
  264.0000   -18.0380    52.5990    24.2990     8.2510     8.1330     9.9930     2.4160 
  264.1250   -17.9950    52.5990    24.3270     8.6650     8.1330     9.9930     2.4080 
  264.2500   -17.9890    52.5990    24.3580     9.3690     8.1330     9.9930     2.4120 
  264.3750   -17.9600    52.5990    24.3260    10.2850     8.1330     9.9930     2.4170 
  264.5000   -17.9400    52.5990    24.3150    12.2770     8.1330     9.9930     2.4130 
  264.6250   -17.9140    52.5990    24.3790    13.9350     8.1330     9.9930     2.3990 
  264.7500   -17.9550    52.5990    24.3390    14.8560     8.1330     9.9930     2.3780 
  264.8750   -17.9550    52.5990    24.3390    15.4540     8.1330     9.9930     2.3610 
  265.0000   -17.9650    52.5990    24.3710    16.1860     8.1330     9.9930     2.3540 
  265.1250   -18.0070    52.5990    24.3530    15.8470     8.1330     9.9930     2.3600 
  265.2500   -18.0250    52.5990    24.3760    13.8000     8.1330     9.9930     2.3740 
  265.3750   -18.0710    52.5990    24.3520    12.9580     8.1330     9.9930     2.3930 
  265.5000   -18.0870    52.5990    24.3190    16.4320     8.1330     9.9930     2.4180 
  265.6250   -18.0990    52.5990    24.0880    22.3030     8.1330     9.9930     2.4470 
  265.7500   -18.0990    52.5990    24.0800    26.5900     8.1330     9.9930     2.4700 
  265.8750   -18.0990    52.5990    24.0250    28.2480     8.1330     9.9930     2.4760 
  266.0000  -999.2500    52.5990    24.0190    23.9920     8.1330     9.9930     2.4770 
  266.1250  -999.2500    52.5990    24.0890    18.1910     8.1330     9.9930     2.4840 
  266.2500  -999.2500    52.5990    24.0740    19.1650     8.1330     9.9930     2.4990 
  266.3750  -999.2500    52.5990    23.8190    25.2530     8.1330     9.9930     2.5190 
  266.5000  -999.2500    52.5990    23.8380    25.3060     8.1330     9.9930     2.5400 
  266.6250  -999.2500    52.5990    23.9120    18.2090     8.1330     9.9930     2.5530 
  266.7500  -999.2500    52.5990    23.9440    14.0650     8.1330     9.9930     2.5370 
  266.8750  -999.2500    52.5990    23.8130    10.1840     8.1330     9.9930     2.4830 
  267.0000  -999.2500    52.5990    23.9030     6.1630     8.1330     9.9930     2.4190 
  267.1250  -999.2500    52.5990    23.9030     3.7330     8.1330     9.9930     2.3710 
  267.2500  -999.2500    52.5990    23.8620     3.0350     8.1330     9.9930     2.3450 
  267.3750  -999.2500    52.5990    23.5420     2.9800     8.1330     9.9930     2.3330 
