~V
VERS. 2.00: Ver 2.00
~W
STRT.M 125.0000:
STOP.M 245.0000:
STEP.M 0.1250:
NULL. -999.2500:
UWI. DF3026:
~C
DEPT.M :
SP.MV :
GR.API :
CALI.CM :
RXO.OHMM :
RI. :
RML.OHMM :
DEN.GM/CC :
~A
# ...
  203.7500   -30.9820    54.0170    24.9910    97.9580   122.2130   131.7530     2.2160 
  203.8750   -30.9580    57.3650    24.7390    96.0420   116.6580   125.4170     2.2250 
  204.0000   -30.9330    58.1860    24.5510    91.6640   112.3670   120.7350     2.2350 
  204.1250   -30.9000    56.0090    24.4900    83.2030   110.7030   118.8730     2.2360 
  204.2500   -30.8570    54.7070    24.4810    76.9940   112.0010   119.9920     2.2270 
  204.3750   -30.8190    54.9530    24.4830    77.6080   116.4700   124.2950     2.2160 
  204.5000   -30.7930    56.5230    24.4880    83.9150   123.7800   131.5640     2.2080 
  204.6250   -30.7730    59.3770    24.4900    90.3610   132.9730   141.0840     2.1990 
  204.7500   -30.7740    61.5960    24.4950    93.3950   141.7450   150.5630     2.1930 
  204.8750   -30.7900    60.7980    24.5330    94.9340   148.0090   157.7060     2.1920 
  205.0000   -30.8050    59.2610    24.6580    96.8940   150.2130   160.5310     2.1960 
  205.1250   -30.8280    60.3910    24.8750    99.5910   147.5410   157.7390     2.2060 
  205.2500   -30.8480    60.7340    25.0240   100.8910   142.1600   151.5880     2.2180 
  205.3750   -30.8630    58.4930    25.0820    98.7560   135.9880   144.2570     2.2250 
  205.5000   -30.8720    56.0610    25.0970    93.5530   130.8740   137.9510     2.2240 
  205.6250   -30.8970    55.5180    25.0970    92.1510   128.7950   134.9670     2.2160 
  205.7500   -30.9270    54.4580    25.0900    96.2160   129.9340   135.5350     2.2040 
  205.8750   -30.9620    52.9190    25.0860   102.0500   133.8750   139.2220     2.1920 
  206.0000   -31.0120    53.1540    25.0860   104.4740   139.4650   144.8070     2.1940 
  206.1250   -31.0730    55.6320    25.0860   100.4590   144.9380   150.3390     2.2270 
  206.2500   -31.1370    57.2440    25.0940    94.7960   148.8740   154.1430     2.2800 
  206.3750   -31.2110    56.0830    25.1830    93.7440   150.7430   155.6030     2.3020 
  206.5000   -31.2810    52.7790    25.4420    95.7330   150.5940   154.8330     2.2740 
  206.6250   -31.3420    50.3430    25.9160    92.9280   148.2370   151.7040     2.2220 
  206.7500   -31.4030    49.7780    26.1860    86.8360   143.6360   146.4520     2.1950 
  206.8750   -31.4590    50.2150    26.2620    83.0080   136.3170   139.4160     2.1950 
  207.0000   -31.4940    50.7120    26.2460    82.8910   127.3080   130.9680     2.2040 
  207.1250   -31.5140    50.8500    26.2030    82.9000   118.5970   122.4830     2.2060 
  207.2500   -31.5520    51.4520    26.1840    80.2100   111.7600   115.6570     2.2010 
  207.3750   -31.5900    53.0760    26.1790    76.7360   107.5750   111.4550     2.1970 
  207.5000   -31.6350    53.8800    26.1790    76.8090   106.1000   110.1260     2.1960 
  207.6250   -31.6770    54.5250    26.1790    82.7020   106.6980   111.2080     2.1990 
  207.7500   -31.7050    57.2530    26.1790    88.3860   107.3670   112.6820     2.2000 
  207.8750   -31.7320    59.2710    26.1790    89.3930   106.5240   112.8920     2.1960 
  208.0000   -31.7690    57.0230    26.1790    86.2090   103.2210   110.6800     2.1870 
  208.1250   -31.7950    53.3330    26.1790    82.6830    97.3600   105.6060     2.1810 
  208.2500   -31.8020    54.0480    26.1790    79.2850    90.6120    99.2250     2.1830 
  208.3750   -31.8010    57.3210    26.1790    74.9850    84.2160    92.8270     2.1900 
  208.5000   -31.7810    58.0710    26.1780    70.0850    78.9220    87.2800     2.1940 
  208.6250   -31.7580    57.3840    26.1740    65.9180    75.1170    83.0740     2.1900 
  208.7500   -31.7350    57.5710    26.1680    63.9400    72.3340    79.8620     2.1840 
  208.8750   -31.7170    58.9520    26.1690    64.7420    70.1830    77.3260     2.1840 
  209.0000   -31.6960    60.2180    26.1750    66.5210    68.3190    75.1530     2.1870 
  209.1250   -31.7020    59.4760    26.1790    64.7550    66.7020    73.3130     2.1850 
  209.2500   -31.7320    57.1210    26.1790    60.8170    65.6320    72.0820     2.1780 
  209.3750   -31.7720    54.7450    26.1790    56.9420    65.6450    72.0290     2.1760 
  209.5000   -31.8360    53.0680    26.1790    55.1870    67.3060    73.7900     2.1870 
  209.6250   -31.9140    52.1140    26.1960    58.0360    71.4160    78.2900     2.2030 
  209.7500   -32.0010    51.7330    26.2440    65.9680    77.6970    85.1870     2.2120 
  209.8750   -32.0880    53.1610    26.3120    76.5750    85.7290    93.9430     2.2120 
  210.0000   -32.1710    55.9450    26.3510    85.1760    94.6260   103.5410     2.2080 
  210.1250   -32.2600    56.8170    26.3610    92.9240   102.8190   112.2790     2.2100 
  210.2500   -32.3390    55.0940    26.3510   101.2120   108.9040   118.7350     2.2180 
  210.3750   -32.4140    53.1920    26.2940   105.0670   112.0670   122.0700     2.2220 
  210.5000   -32.4640    52.6630    26.1580   100.2270   111.9570   121.8880     2.2220 
  210.6250   -32.5150    54.4390    26.0440    88.1590   107.6360   117.2000     2.2350 
  210.7500   -32.5470    57.9260    25.9580    79.8870    99.4900   108.5080     2.2800 
  210.8750   -32.5790    60.2560    25.8500    80.3260    88.3070    96.6570     2.3430 
  211.0000   -32.6290    58.7180    25.7320    86.8920    76.1360    83.7080     2.3930 
  211.1250   -32.6940    55.0680    25.6670    80.9890    66.0550    72.8580     2.4020 
  211.2500   -32.7810    53.7380    25.6510    64.3740    59.7510    66.0630     2.3680 
  211.3750   -32.9000    55.4980    25.6330    51.1790    58.0800    64.4850     2.3260 
  211.5000   -33.0740    57.3480    25.5800    52.3220    61.5390    69.0270     2.2990 
  211.6250   -33.2480    58.1520    25.5650    73.5700    71.8020    82.0020     2.2830 
  211.7500   -33.4620    58.5770    25.6480   101.4980    88.8070   102.5630     2.2600 
  211.8750   -33.6840    58.6790    25.8750   122.0540   112.5470   128.5320     2.2290 
  212.0000   -33.9040    58.1510    26.1100   128.0920   139.9070   154.0270     2.2020 
  212.1250   -34.1080    56.3800    26.2050   124.6090   160.5380   168.7360     2.1860 
  212.2500   -34.2760    55.2580    26.2110   119.9310   167.2610   170.3930     2.1750 
  212.3750   -34.4340    55.8460    26.1250   116.2730   159.9510   164.5470     2.1630 
  212.5000   -34.5440    59.9100    25.9130   111.9370   147.9400   154.2260     2.1540 
  212.6250   -34.6270    66.3120    25.6560   107.5320   137.1130   143.9980     2.1580 
  212.7500   -34.7000    69.2560    25.6540   103.5790   129.1990   136.5870     2.1740 
  212.8750   -34.7820    67.0890    25.8340    98.7110   124.9600   132.8300     2.1900 
  213.0000   -34.8550    63.6110    26.0620    90.2880   124.7060   133.0860     2.2000 
  213.1250   -34.9000    63.0090    26.0510    80.5380   128.8550   137.8770     2.2060 
  213.2500   -34.9620    62.7310    25.8590    76.0030   135.7700   145.7040     2.2030 
  213.3750   -34.9970    62.0600    25.6730    80.1730   143.5260   154.6930     2.1920 
  213.5000   -35.0260    62.7390    25.5960    91.9840   148.9120   161.1670     2.1810 
  213.6250   -35.0280    67.6750    25.5850   103.6600   146.2200   157.6160     2.1800 
  213.7500   -34.9870    74.8540    25.5320   106.7560   134.4000   142.6250     2.1940 
  213.8750   -34.8950    78.5490    25.3980    99.5140   116.0810   120.6700     2.2190 
  214.0000   -34.8070    76.1780    25.2580    83.3720    96.5440    98.9580     2.2480 
  214.1250   -34.7180    71.8530    25.1440    63.6350    81.3140    83.2190     2.2640 
  214.2500   -34.6180    68.1990    25.0370    48.8200    71.5190    73.4080     2.2560 
  214.3750   -34.5260    63.9260    24.9950    42.4360    66.4760    68.4590     2.2400 
  214.5000   -34.4470    58.4470    25.0470    43.1280    64.5710    66.7800     2.2430 
  214.6250   -34.4150    54.4780    25.2050    49.3260    63.9570    66.5630     2.2760 
  214.7500   -34.3740    53.0580    25.3750    56.0240    62.9020    65.8130     2.3330 
  214.8750   -34.3460    52.7530    25.5730    54.4880    60.8720    63.7750     2.3860 
