~V
VERS. 2.00: Ver 2.00
~W
STRT.M 85.0000:
STOP.M 235.0000:
STEP.M 0.1250:
NULL. -999.2500:
UWI. DF305:
~C
DEPT.M :
DEN.GM/CC :
SP.MV :
AC.US/MT :
GR.API :
CALI.CM :
RXO.OHMM :
RI. :
RML.OHMM :
~A
   85.0000     2.1860   -36.2280   435.9030    78.2610    24.0540     8.3420     6.0060     8.3110 
   85.1250     2.2280   -36.7070   436.1780    82.9300    24.0950     7.8210     5.8470     7.8570 
   85.2500     2.2660   -37.1400   437.3780    86.7750    24.2110     6.7230     5.5840     7.3040 
   85.3750     2.2860   -37.5460   434.7160    84.6720    24.3030     6.0080     5.3960     6.9930 
   85.5000     2.2800   -37.9180   426.6260    78.8850    24.3380     6.4170     5.3910     7.0920 
   85.6250     2.2510   -38.2650   417.9230    75.1980    24.3030     8.0340     5.6100     7.6230 
   85.7500     2.2240   -38.5950   415.0230    73.1550    24.2320     8.9140     5.9390     8.3040 
   85.8750     2.2100   -38.9010   418.5560    69.2380    24.1840     8.5260     6.2620     8.8750 
   86.0000     2.2080   -39.1440   424.6860    64.4410    24.2150     7.7670     6.4830     9.1560 
   86.1250     2.2060   -39.2260   429.1030    63.5700    24.2410     7.4520     6.5550     9.1320 
   86.2500     2.2030   -39.1470   431.3430    67.2160    24.2050     7.4970     6.5600     9.0420 
   86.3750     2.2080   -38.8840   431.9080    72.8630    24.0080     7.6910     6.5570     9.0150 
   86.5000     2.2230   -38.4850   430.8370    77.7220    23.7410     7.9990     6.5560     9.0440 
   86.6250     2.2430   -37.9650   428.7340    80.2400    23.6400     8.4580     6.4940     8.9750 
   86.7500     2.2670   -37.4170   427.8450    83.9210    23.7020     8.7250     6.3090     8.6740 
   86.8750     2.2980   -36.9160   429.4120    91.0850    23.8820     8.2380     5.9800     8.1140 
   87.0000     2.3320   -36.5090   432.7540    98.6390    24.0700     7.0590     5.5480     7.3880 
   87.1250     2.3560   -36.3030   435.9670   102.6810    24.2070     5.9300     5.1190     6.7100 
   87.2500     2.3590   -36.2890   438.0090   103.5920    24.3450     5.2940     4.8100     6.2680 
   87.3750     2.3400   -36.4810   438.5290    99.4290    24.4470     5.0860     4.6930     6.1650 
   87.5000     2.3090   -36.8380   437.0980    88.7570    24.4370     5.2310     4.8040     6.4350 
   87.6250     2.2780   -37.3200   433.5300    77.7140    24.3060     5.6770     5.1720     7.0990 
   87.7500     2.2500   -37.8290   429.7610    72.3430    24.1930     6.4150     5.6970     7.9740 
   87.8750     2.2270   -38.2790   428.0480    71.7210    24.0260     7.3700     6.2440     8.8220 
   88.0000     2.2130   -38.6190   430.0030    73.8510    23.7780     8.2910     6.6280     9.3240 
   88.1250     2.2240   -38.7840   435.5770    79.3620    23.4650     8.7960     6.6700     9.1920 
   88.2500     2.2600   -38.7990   440.6660    85.2200    23.3430     8.7540     6.4670     8.6860 
   88.3750     2.3120   -38.6950   440.6290    89.2570    23.3130     8.1220     6.1770     8.1390 
   88.5000     2.3570   -38.5210   433.0600    89.5860    23.2760     7.1850     5.9480     7.8230 
   88.6250     2.3590   -38.3230   421.1450    84.5330    23.1880     6.7840     5.8770     7.8730 
   88.7500     2.3220   -38.1340   413.7410    80.0150    23.0880     7.0170     5.9030     8.0910 
   88.8750     2.2750   -37.9820   415.4040    79.0820    22.9880     7.2610     5.9240     8.2280 
   89.0000     2.2470   -37.8690   424.3980    78.9520    22.9060     7.2860     5.8450     8.0780 
   89.1250     2.2470   -37.7900   434.2980    79.0740    22.8820     7.2760     5.6400     7.6230 
   89.2500     2.2540   -37.7290   440.0350    82.4420    22.9300     7.0420     5.4550     7.2130 
   89.3750     2.2620   -37.6400   440.3110    86.9350    23.0680     6.4990     5.4540     7.1780 
   89.5000     2.2810   -37.4910   434.5030    87.3470    23.2660     6.0890     5.7480     7.6940 
   89.6250     2.3150   -37.2690   421.1630    84.7290    23.3860     6.6480     6.3520     8.7540 
   89.7500     2.3510   -37.0120   405.7900    84.3740    23.4360     8.2500     6.9870     9.8490 
   89.8750     2.3770   -36.7590   397.4800    86.6720    23.4840    10.2570     7.3100    10.3320 
   90.0000     2.3880   -36.5690   404.0360    90.1470    23.6700    10.5750     7.0580     9.7220 
   90.1250     2.3850   -36.4570   424.5370    94.7380    24.2060     8.1300     6.2580     8.1920 
   90.2500     2.3690   -36.4140   444.2570    98.2200    25.1870     5.5660     5.3830     6.7000 
   90.3750     2.3440   -36.4810   454.8130    98.8600    26.2070     4.3990     4.7100     5.6980 
   90.5000     2.3210   -36.6610   456.4560    96.9010    26.5780     4.2180     4.3480     5.2830 
   90.6250     2.3050   -36.9860   454.4690    95.3640    26.1570     4.4860     4.3290     5.4130 
   90.7500     2.2970   -37.4200   452.7740    93.0230    25.5350     4.8240     4.5040     5.7910 
   90.8750     2.2920   -37.9330   451.1890    91.9440    25.1480     5.0420     4.7530     6.1960 
   91.0000     2.2910   -38.4730   448.9310    94.4710    25.0110     5.0720     4.9740     6.4650 
   91.1250     2.2900   -39.0200   445.5980    98.4010    24.9950     5.0010     5.1140     6.5300 
   91.2500     2.2880   -39.5340   441.6580    96.4100    24.9430     5.0100     5.2010     6.5050 
   91.3750     2.2830   -39.9430   437.5920    89.7050    24.8340     5.1090     5.2800     6.4890 
   91.5000     2.2740   -40.1870   433.8750    86.4930    24.6490     5.3180     5.3930     6.5530 
   91.6250     2.2540   -40.1330   430.9450    88.0000    24.3810     5.6740     5.5910     6.7720 
   91.7500     2.2280   -39.7420   428.6180    86.6060    24.0740     6.0300     5.8860     7.1570 
   91.8750     2.2040   -38.9650   426.6630    82.2870    23.8780     6.3090     6.2650     7.7080 
   92.0000     2.1950   -37.8080   425.3420    79.7260    23.7750     6.5380     6.6780     8.3640 
   92.1250     2.2120   -36.2950   425.5200    83.7350    23.6510     6.7110     7.0020     8.9330 
   92.2500     2.2510   -34.6080   425.8410    88.3390    23.5480     6.7560     7.1150     9.1810 
   92.3750     2.3010   -32.8390   423.7070    91.4910    23.5950     6.5190     6.9460     8.9640 
   92.5000     2.3430   -31.0980   418.5530    93.1650    23.8970     6.0620     6.5200     8.3280 
   92.6250     2.3570   -29.5770   415.1220    96.0730    24.4150     5.5860     5.9450     7.4910 
   92.7500     2.3460   -28.3860   417.8280   103.2860    24.8710     5.3050     5.3850     6.7220 
   92.8750     2.3260   -27.5890   425.5890   110.1030    25.1270     5.1710     4.9450     6.1620 
   93.0000     2.3090   -27.1940   433.6270   110.4540    25.2230     5.1670     4.7200     5.9260 
   93.1250     2.3190   -27.2080   434.9550   103.6020    25.2620     5.3370     4.8850     6.2590 
   93.2500     2.3640   -27.4770   423.9790    96.0640    25.2610     5.7400     5.5000     7.2590 
   93.3750     2.4400   -27.9760   396.0000    87.8360    25.1990     6.9250     6.6520     9.0790 
   93.5000     2.5080   -28.6580   353.6730    78.6990    25.1060    10.1240     8.3520    11.7780 
   93.6250     2.5120   -29.4800   315.2750    77.6500    25.0400    16.1920    10.3740    15.0370 
   93.7500     2.4570   -30.3660   302.1920    82.4300    24.9550    19.8490    11.9760    17.5110 
   93.8750     2.3720   -31.2660   321.0030    85.2030    24.7930    17.6180    12.4970    17.9160 
   94.0000     2.2920   -32.1410   361.4110    83.5600    24.5650    12.4020    11.8690    16.2470 
   94.1250     2.2370   -32.9450   402.5840    83.4010    24.2560     9.6420    10.6380    13.8470 
   94.2500     2.2050   -33.6690   430.8980    83.8190    24.0150     8.8330     9.5120    11.9630 
   94.3750     2.1910   -34.3020   445.5190    83.4410    23.8920     8.6660     8.7180    10.8420 
   94.5000     2.1890   -34.8490   451.0670    83.5150    23.8450     8.5520     8.2670    10.3660 
   94.6250     2.1980   -35.2810   452.0010    88.2820    23.8270     8.4220     8.1090    10.3560 
   94.7500     2.2110   -35.6090   451.3410    94.1850    23.8180     8.3400     8.1050    10.5450 
   94.8750     2.2200   -35.7860   449.8470    95.3370    23.8160     8.3550     8.1940    10.8300 
