~V
VERS. 2.00: Ver 2.00
~W
STRT.M 140.0000:
STOP.M 272.0000:
STEP.M 0.1250:
NULL. -999.2500:
UWI. DF3077:
~C
DEPT.M :
GR.API :
CALI.CM :
RXO.OHMM :
RI. :
RML.OHMM :
DEN.GM/CC :
SP.MV :
~A
# ...
  196.2500    56.7510    25.5370   112.1230   136.7520   143.5900     2.2440   -15.9790 
  196.3750    60.1510    25.4980   114.8970   136.9240   143.7700     2.2440   -15.9580 
  196.5000    62.5170    25.3940   108.6920   134.0820   140.7860     2.2480   -15.8850 
  196.6250    61.1560    25.3940    96.6690   129.8410   136.3330     2.2540   -15.7760 
  196.7500    60.4850    25.4830    85.8330   125.9150   132.2110     2.2650   -15.6740 
  196.8750    62.0120    25.5560    83.7130   122.9180   129.0640     2.2750   -15.5990 
  197.0000    63.6400    25.5230    89.5370   121.4500   127.5230     2.2750   -15.5310 
  197.1250    64.3910    25.5170    95.2570   121.8060   127.8960     2.2670   -15.5410 
  197.2500    64.1480    25.5320    99.2300   123.0020   129.1520     2.2610   -15.5950 
  197.3750    62.5590    25.5450   102.1620   124.8310   131.0720     2.2590   -15.6800 
  197.5000    61.2680    25.4150   100.5670   127.4100   133.7810     2.2560   -15.8480 
  197.6250    61.4610    25.4400    91.7890   130.9280   137.4740     2.2520   -16.0460 
  197.7500    61.5920    25.4760    88.1610   134.4870   141.2120     2.2520   -16.2350 
  197.8750    61.4230    25.4670    95.1590   137.5150   144.3900     2.2530   -16.3880 
  198.0000    60.9150    25.4730   107.1180   138.6800   145.6140     2.2500   -16.4700 
  198.1250    58.8230    25.4600   109.4180   135.9080   142.7030     2.2440   -16.4660 
  198.2500    57.8080    25.4190   106.5960   129.4050   135.8760     2.2440   -16.4340 
  198.3750    57.4910    25.3810   100.3540   119.4190   125.3900     2.2470   -16.3510 
  198.5000    55.9060    25.3840    93.9380   106.5530   111.8810     2.2420   -16.2320 
  198.6250    55.6310    25.3850    89.0390    92.3240    96.9400     2.2230   -16.1120 
  198.7500    61.8200    25.3920    79.8040    79.1190    83.0750     2.2120   -15.9670 
  198.8750    71.0490    25.3510    67.8330    68.1620    71.5700     2.2260   -15.8450 
  199.0000    76.4480    25.2150    57.5490    59.7300    62.7160     2.2690   -15.7810 
  199.1250    76.0420    25.2110    49.6620    54.2650    56.9780     2.3160   -15.7410 
  199.2500    71.0600    25.4050    43.6900    51.2140    53.7750     2.3390   -15.7560 
  199.3750    64.5190    25.3650    38.6540    50.2440    52.7560     2.3340   -15.8540 
  199.5000    61.9630    25.2870    35.8480    51.0980    53.6530     2.3140   -15.9820 
  199.6250    64.8320    25.2330    38.8550    53.4290    56.1000     2.2950   -16.1280 
  199.7500    64.6940    25.2630    44.2790    56.1720    58.9810     2.2820   -16.3080 
  199.8750    59.6190    25.2810    50.5960    58.5090    61.4350     2.2730   -16.4790 
  200.0000    56.8890    25.3870    53.4590    59.7830    62.7720     2.2680   -16.6470 
  200.1250    61.3770    25.3760    50.9130    59.4670    62.4410     2.2710   -16.7750 
  200.2500    68.2460    25.3830    48.2390    57.8310    60.7220     2.2810   -16.8450 
  200.3750    73.7660    25.3950    48.2160    55.3550    58.1220     2.2900   -16.8510 
  200.5000    76.1450    25.4640    48.5270    52.7240    55.3600     2.2940   -16.8180 
  200.6250    75.8130    25.4720    44.4060    50.6500    53.1820     2.2860   -16.7840 
  200.7500    73.8090    25.4530    40.0600    49.4630    51.9360     2.2730   -16.6810 
  200.8750    70.2170    25.4340    37.7380    49.1810    51.6410     2.2620   -16.5310 
  201.0000    67.3510    25.4530    38.3490    49.7830    52.2720     2.2560   -16.3660 
  201.1250    67.2030    25.0700    40.1260    51.2250    53.7860     2.2520   -16.2030 
  201.2500    66.5930    24.8090    44.4440    53.2200    55.8810     2.2450   -16.0610 
  201.3750    63.6160    24.8580    50.9790    55.7570    58.5450     2.2380   -15.9560 
  201.5000    60.3510    25.0170    53.2690    58.9500    61.8970     2.2360   -15.9090 
  201.6250    60.2910    25.2590    49.1220    62.9820    66.1320     2.2350   -15.8630 
  201.7500    61.6110    25.4680    49.4420    67.6830    71.0680     2.2260   -15.8750 
  201.8750    60.7790    25.6750    56.4250    72.9300    76.5770     2.2210   -15.9290 
  202.0000    58.3250    25.4570    66.6720    78.2630    82.1760     2.1870   -15.9640 
  202.1250    57.4630    25.4830    77.1330    82.4230    86.5440     2.1750   -15.9700 
  202.2500    60.7050    25.6050    88.3900    84.6890    88.9240     2.1810   -15.9640 
  202.3750    66.8380    25.5770    86.8340    84.7070    88.9430     2.1980   -15.8890 
  202.5000    71.3280    25.5080    73.8130    82.3910    86.5110     2.2090   -15.7080 
  202.6250    71.4250    25.4760    67.9080    78.0140    81.9150     2.2060   -15.4730 
  202.7500    68.2270    25.4270    69.8440    73.1970    76.8570     2.2020   -15.2040 
  202.8750    64.8850    25.3790    67.3950    68.9730    72.4220     2.2050   -14.9130 
  203.0000    63.4160    25.3400    57.8490    65.7920    69.0810     2.2140   -14.6280 
  203.1250    63.3160    25.1920    53.8910    64.1240    67.3300     2.2190   -14.3820 
  203.2500    64.7780    25.1960    55.2200    63.7850    66.9740     2.2170   -14.1370 
  203.3750    66.5010    25.1030    56.7040    64.8520    68.0940     2.2100   -13.9420 
  203.5000    67.3200    24.9480    54.9350    67.5030    70.8780     2.2020   -13.7680 
  203.6250    65.8550    24.8930    55.5220    72.6310    76.2630     2.1940   -13.5770 
  203.7500    65.4630    24.8880    55.6240    80.1700    84.1780     2.1980   -13.4110 
  203.8750    67.1420    24.9010    52.1210    89.2000    93.6600     2.2290   -13.2360 
  204.0000    67.0180    24.9720    48.2590    97.9530   102.8500     2.2970   -13.0970 
  204.1250    63.3330    24.9660    60.0570   102.7580   107.8960     2.4020   -12.9690 
  204.2500    59.4850    24.7990    79.5450    99.3820   104.3510     2.5120   -12.7890 
  204.3750    58.6910    24.6720    95.4150    85.3220    89.5880     2.6000   -12.5220 
  204.5000    60.1570    24.6820   119.6300    64.5760    67.8050     2.6480   -12.2180 
  204.6250    60.0050    24.8590   130.9930    44.7070    46.9420     2.6570   -11.8660 
  204.7500    57.5980    24.8850   104.3110    29.3210    30.9810     2.6610   -11.4470 
  204.8750    54.9220    24.8800    51.7510    18.8470    19.9490     2.6640   -11.0180 
  205.0000    55.0230    24.8800    17.6890    12.4230    12.9890     2.6540   -10.5470 
  205.1250    58.2260    24.7200     8.1630     8.9920     9.3640     2.6170   -10.0800 
  205.2500    61.6620    24.6840     6.4870     7.1080     7.5340     2.5640    -9.6960 
  205.3750    62.8630    24.6820     6.3440     6.2690     6.8950     2.5070    -9.3850 
  205.5000    61.5730    24.6410     6.2320     6.1020     6.9810     2.4580    -9.1750 
  205.6250    59.4600    24.6230     6.0640     6.3320     7.4930     2.4250    -9.0980 
  205.7500    58.4100    24.5260     5.9950     6.6420     8.0820     2.4040    -9.1200 
  205.8750    58.1860    24.5260     5.8810     6.8840     8.5210     2.3830    -9.2420 
  206.0000    57.2780    24.5610     5.7920     6.9720     8.6430     2.3530    -9.4250 
  206.1250    55.4770    24.5920     5.8210     6.9340     8.6280     2.3250    -9.6430 
  206.2500    52.9880    24.6490     5.8810     6.8530     8.6060     2.3110    -9.8580 
  206.3750    49.7820    24.6520     5.9370     6.7480     8.5650     2.3090   -10.1090 
  206.5000    45.7540    24.6340     5.8970     6.6680     8.5130     2.3100   -10.3460 
  206.6250    42.3950    24.6270     5.7770     6.6730     8.5380     2.3110   -10.5760 
  206.7500    41.6570    24.6110     5.7080     6.7520     8.6440     2.3200   -10.7820 
  206.8750    41.4890    24.6150     5.7610     6.9150     8.8690     2.3370   -10.9150 
  207.0000    40.4170    24.6080     5.9290     7.1630     9.2160     2.3550   -11.0410 
  207.1250    40.2580    24.5140     6.2240     7.4910     9.6160     2.3640   -11.1810 
  207.2500    43.0410    24.4090     6.4790     7.8550    10.0360     2.3700   -11.3400 
  207.3750    48.8580    24.4100     6.7060     8.2210    10.4930     2.3850   -11.5210 
