~V
VERS. 2.00: Ver 2.00
~W
STRT.M 120.0000:
STOP.M 278.0000:
STEP.M 0.1250:
NULL. -999.2500:
UWI. DF3047:
~C
DEPT.M :
DEN.GM/CC :
SP.MV :
AC.US/MT :
GR.API :
CALI.CM :
RXO.OHMM :
RI. :
RML.OHMM :
~A
# ...
  220.0000     2.2380   -17.3590   370.9470    70.8060    26.5060    48.4090    50.4830    56.8130 
  220.1250     2.2320   -17.4060   371.3410    71.9750    26.4330    52.8400    50.1240    57.1300 
  220.2500     2.2150   -17.4820   371.4290    71.2520    26.4500    62.9170    52.7970    60.6980 
  220.3750     2.1960   -17.5880   371.1340    69.6220    26.5580    69.7290    57.9310    66.9750 
  220.5000     2.1870   -17.7290   370.9970    67.4140    26.6570    71.1750    64.7120    75.0890 
  220.6250     2.1920   -17.8890   371.3930    66.4810    26.6810    73.2380    72.2190    83.9540 
  220.7500     2.1990   -18.0690   372.0060    66.4220    26.7250    77.9190    79.7200    92.6970 
  220.8750     2.1990   -18.2440   372.4560    65.4370    26.8340    83.1740    87.1600   101.3720 
  221.0000     2.1950   -18.3990   372.6040    64.4840    26.9350    89.6660    94.3420   109.8820 
  221.1250     2.1970   -18.5320   372.6890    64.5960    26.9320    99.4440    99.8270   116.3440 
  221.2500     2.2030   -18.6420   373.0820    66.5420    26.8950   107.4170   102.0520   118.5410 
  221.3750     2.2090   -18.7330   373.9820    68.5270    26.8770   105.9420   100.2420   115.5480 
  221.5000     2.2100   -18.8050   375.4500    69.4410    26.8590    93.6200    95.2870   109.0460 
  221.6250     2.2120   -18.8620   377.4540    69.9540    26.7980    79.7610    89.6600   102.6770 
  221.7500     2.2150   -18.9220   379.5870    71.3300    26.7240    74.8740    86.0790    99.3480 
  221.8750     2.2130   -18.9770   381.5050    72.7440    26.6790    80.7070    85.9990   100.3890 
  222.0000     2.2020   -19.0430   382.9910    71.6560    26.6760    93.3340    90.0590   106.2450 
  222.1250     2.1910   -19.1050   383.4930    68.2180    26.7050   106.0790    98.7590   117.3970 
  222.2500     2.1980   -19.1890   381.9210    65.1030    26.7480   115.6930   110.2410   131.6100 
  222.3750     2.2320   -19.2850   376.5960    63.7200    26.8080   124.2130   122.4110   146.1360 
  222.5000     2.2830   -19.3720   366.5820    63.9430    26.8350   134.9830   132.5840   157.3760 
  222.6250     2.3260   -19.4610   353.1200    65.0380    26.6880   145.2150   137.3680   160.8410 
  222.7500     2.3410   -19.5130   341.1040    65.9450    26.4420   145.2860   136.5670   157.1730 
  222.8750     2.3260   -19.5490   334.5320    67.0560    26.2490   133.8450   131.3320   148.8300 
  223.0000     2.2970   -19.5660   335.1920    68.2920    26.2120   120.2900   124.1790   139.4770 
  223.1250     2.2650   -19.5710   342.5470    68.9000    26.3250   113.2650   118.2680   132.8100 
  223.2500     2.2360   -19.5480   352.3690    69.5250    26.4780   109.8240   115.1570   129.6950 
  223.3750     2.2110   -19.5170   362.2670    71.2820    26.6250   109.5400   114.9120   129.6610 
  223.5000     2.1950   -19.4930   371.0110    73.1610    26.7280   116.7130   116.4760   131.1450 
  223.6250     2.1970   -19.4500   377.8710    72.0560    26.8190   132.7790   117.7040   131.4450 
  223.7500     2.2090   -19.4220   382.9480    68.9310    26.9020   143.5320   116.6550   128.6310 
  223.8750     2.2170   -19.3910   386.2490    66.0840    26.8410   138.5340   112.6170   122.2970 
  224.0000     2.2160   -19.3580   388.0250    64.7730    26.4980   121.6710   106.0700   113.5250 
  224.1250     2.2140   -19.3280   388.6920    63.8340    25.9620   105.6170    98.2980   104.1690 
  224.2500     2.2170   -19.2830   389.0550    62.5530    25.5640    94.3420    90.8160    95.6840 
  224.3750     2.2220   -19.2270   389.4810    62.4950    25.4010    86.1200    84.1150    88.3440 
  224.5000     2.2260   -19.1600   389.9890    64.0810    25.3760    80.5730    78.1650    81.9120 
  224.6250     2.2330   -19.0870   390.2310    65.9770    25.4320    77.9230    72.9220    76.2930 
  224.7500     2.2460   -18.9920   389.9890    67.6040    25.5630    74.5780    68.3810    71.4730 
  224.8750     2.2570   -18.9020   389.3950    69.3110    25.6820    68.8940    64.7850    67.7180 
  225.0000     2.2570   -18.8230   388.8730    70.4550    25.7020    63.6600    62.3420    65.2310 
  225.1250     2.2460   -18.7470   388.8600    71.3420    25.6630    62.9290    61.2280    64.1410 
  225.2500     2.2340   -18.6990   389.0590    72.7540    25.6480    64.3290    60.9110    63.8070 
  225.3750     2.2270   -18.6680   388.8300    74.0180    25.6370    65.0590    60.9280    63.6550 
  225.5000     2.2230   -18.6480   387.6100    74.4230    25.5840    64.8960    60.8420    63.1900 
  225.6250     2.2150   -18.6280   385.2470    73.3390    25.5510    64.7260    60.3070    62.1260 
  225.7500     2.2040   -18.6280   382.6070    72.5370    25.6200    63.8350    59.4440    60.7980 
  225.8750     2.1940   -18.6180   380.5400    71.5520    25.7480    61.9390    58.5490    59.6320 
  226.0000     2.1930   -18.5820   379.6880    70.6550    25.8540    59.9110    57.9200    58.9540 
  226.1250     2.2010   -18.5390   380.4510    69.9500    25.9240    58.6120    57.6940    58.8690 
  226.2500     2.2110   -18.4830   382.2320    69.0500    25.9930    57.7750    57.6200    59.0130 
  226.3750     2.2150   -18.4130   384.3460    69.2890    26.0500    57.1470    57.4040    59.0250 
  226.5000     2.2120   -18.3370   385.9120    70.0290    26.0610    56.7360    56.7330    58.5060 
  226.6250     2.2090   -18.2630   385.9770    70.2170    25.9960    56.8180    55.2350    56.9100 
  226.7500     2.2150   -18.1940   384.8990    69.9990    25.8690    56.7970    53.1080    54.4460 
  226.8750     2.2270   -18.1440   383.5640    68.8920    25.7080    55.3870    50.8650    51.8640 
  227.0000     2.2380   -18.1210   382.7520    67.5890    25.5610    51.8320    49.3260    50.3370 
  227.1250     2.2480   -18.1310   382.1720    67.4170    25.4650    48.1310    49.8570    51.5810 
  227.2500     2.2540   -18.1770   380.5290    67.8020    25.4570    49.2630    53.1750    56.1860 
  227.3750     2.2500   -18.2650   377.3660    66.1340    25.6870    60.5370    59.9730    64.6500 
  227.5000     2.2310   -18.3840   373.8630    63.5180    26.1980    84.1830    70.3530    76.9660 
  227.6250     2.2070   -18.5220   372.8240    62.8560    26.7440   110.8420    82.9850    91.8420 
  227.7500     2.1910   -18.6590   375.0440    62.7130    27.0130   124.3800    93.5120   104.3000 
  227.8750     2.1860   -18.7870   379.2280    62.4490    27.0180   122.2800    97.6000   108.6360 
  228.0000     2.1890   -18.9190   382.8850    62.6780    26.9410   111.6410    93.2890   102.3420 
  228.1250     2.1970   -19.0220   383.6970    62.6390    26.8780    96.8990    82.4490    88.9960 
  228.2500     2.2100   -19.1160   382.4790    63.2890    26.8200    80.0670    71.0320    76.2620 
  228.3750     2.2290   -19.1970   381.0230    66.5470    26.7740    64.1910    62.1480    67.2520 
  228.5000     2.2480   -19.2590   380.8830    70.6250    26.7500    53.1170    57.0580    62.7920 
  228.6250     2.2520   -19.3310   382.6270    69.7130    26.7520    51.4510    56.5550    63.4420 
  228.7500     2.2410   -19.3930   385.0610    65.0200    26.7750    59.5380    59.5940    67.9610 
  228.8750     2.2200   -19.4210   387.0400    60.9710    26.8180    75.7980    65.3890    75.5080 
  229.0000     2.2020   -19.3940   387.7180    61.2430    26.8640    92.5920    72.5440    84.5140 
  229.1250     2.1950   -19.3270   386.8060    64.1390    26.8800    98.6380    78.6320    91.9400 
  229.2500     2.1950   -19.2080   385.3920    64.9860    26.8840    96.9020    81.8740    95.5590 
  229.3750     2.2000   -19.0450   384.3790    63.9300    26.8980    94.6750    81.9890    95.2520 
  229.5000     2.2080   -18.8640   383.9810    63.3030    26.9180    92.8770    80.0310    92.7080 
  229.6250     2.2170   -18.6730   383.3980    64.7480    26.9160    86.8400    77.6130    90.1200 
  229.7500     2.2240   -18.5070   381.7250    66.3480    26.8840    79.2620    75.9100    88.6690 
  229.8750     2.2280   -18.3950   378.8750    66.5880    26.8450    76.0070    75.1660    88.4510 
