~V
VERS. 2.00: Ver 2.00
~W
STRT.M 105.0000:
STOP.M 269.0000:
STEP.M 0.1250:
NULL. -999.2500:
UWI. DF304:
~C
DEPT.M :
GR.API :
CALI.CM :
RXO.OHMM :
RI. :
RML.OHMM :
SP.MV :
DEN.GM/CC :
AC.US/MT :
~A
# ...
  225.0000    61.8480    24.6920    75.4220   102.3150   118.4360   -17.4400     2.2570   377.9240 
  225.1250    62.3090    24.6870    83.4140   110.2330   126.8600   -17.5270     2.2560   381.5470 
  225.2500    65.0420    24.6850    99.1830   123.4980   141.6630   -17.5920     2.2620   383.7830 
  225.3750    65.5060    24.6850   119.6580   139.2030   159.7360   -17.6670     2.2670   383.7950 
  225.5000    64.9690    24.6760   136.0030   153.2990   175.9070   -17.7510     2.2670   381.5040 
  225.6250    66.2450    24.6490   136.9560   161.5550   184.1090   -17.7980     2.2600   377.9610 
  225.7500    66.7150    24.6100   126.8730   165.0410   185.8650   -17.8550     2.2510   375.2250 
  225.8750    65.0540    24.5770   115.2650   166.4170   185.0990   -17.8970     2.2450   374.1520 
  226.0000    62.8530    24.5220   111.9050   167.9660   184.9610   -17.9220     2.2450   374.4370 
  226.1250    60.7370    24.3850   118.2550   169.0710   184.7290   -17.9430     2.2530   375.3490 
  226.2500    63.4060    24.2490   126.0900   166.1500   179.6800   -17.9550     2.2660   376.4200 
  226.3750    71.0500    24.1600   126.1330   156.5200   166.6420   -17.9450     2.2750   377.4760 
  226.5000    75.3670    24.1260   114.9820   141.2210   147.7470   -17.9100     2.2770   378.2570 
  226.6250    73.6450    24.1090    96.5520   125.1620   129.6220   -17.8680     2.2740   378.9840 
  226.7500    74.4330    24.0750    78.5130   113.0890   116.7970   -17.8060     2.2720   380.1190 
  226.8750    76.5000    24.0760    67.4210   106.6280   110.2610   -17.7210     2.2710   381.2680 
  227.0000    71.3480    24.1770    71.2820   105.3800   109.2800   -17.6290     2.2750   381.2800 
  227.1250    63.0820    24.4130    87.8030   107.8670   112.2920   -17.5410     2.2840   379.1720 
  227.2500    62.1920    24.5960    97.1900   111.1770   116.0350   -17.4640     2.2880   376.1850 
  227.3750    65.6160    24.6800    92.5850   113.8750   118.6880   -17.3830     2.2840   373.7950 
  227.5000    67.0940    24.6980    86.3380   115.5990   119.7870   -17.3180     2.2760   372.8980 
  227.6250    64.8760    24.6900    90.2760   117.2160   120.5120   -17.2650     2.2690   373.4630 
  227.7500    60.1820    24.6900    97.3730   120.2670   122.8690   -17.2260     2.2670   374.2040 
  227.8750    56.5710    24.6890   103.2050   125.7330   128.0010   -17.2250     2.2700   374.3770 
  228.0000    58.6820    24.6510   106.1360   133.6840   135.9630   -17.2330     2.2750   374.1470 
  228.1250    64.2810    24.5460   111.1070   143.4230   145.9630   -17.2720     2.2810   374.5820 
  228.2500    68.8640    24.4580   121.9020   153.0190   155.9540   -17.3240     2.2860   375.9500 
  228.3750    70.7900    24.4710   137.7330   160.1160   163.4180   -17.4030     2.2880   377.4050 
  228.5000    69.6430    24.6190   150.5880   161.4860   164.6070   -17.4760     2.2850   377.6580 
  228.6250    64.5440    24.8470   151.8090   153.2870   155.0730   -17.5370     2.2840   375.2780 
  228.7500    59.5600    25.0280   140.9410   138.5040   138.6800   -17.5890     2.2910   370.7730 
  228.8750    59.0390    25.1170   122.0460   121.7510   121.0190   -17.6270     2.3060   365.6310 
  229.0000    62.3530    25.1800   102.0040   107.7960   107.0500   -17.6590     2.3170   361.7930 
  229.1250    65.2360    25.2210    89.1660   100.9070   100.6120   -17.6460     2.3160   360.6170 
  229.2500    66.0100    25.2500    89.3640   100.9470   101.1000   -17.6050     2.3050   361.3940 
  229.3750    65.0240    25.2630    99.5440   107.1480   107.7270   -17.5630     2.2910   363.8940 
  229.5000    63.4900    25.2720   114.7030   117.7340   118.7980   -17.5310     2.2800   367.9590 
  229.6250    60.9050    25.2770   128.9680   129.7460   131.2250   -17.5010     2.2830   372.0740 
  229.7500    59.1200    25.2770   134.5310   139.3850   140.7930   -17.4700     2.2930   373.9740 
  229.8750    58.3530    25.2810   131.4490   144.6130   145.2330   -17.4400     2.2930   373.2070 
  230.0000    58.4000    25.3010   127.0470   145.2790   144.6550   -17.4090     2.2700   371.3330 
  230.1250    59.6360    25.3580   128.8780   141.9570   140.1560   -17.3880     2.2350   370.6040 
  230.2500    62.1970    25.4100   131.6910   136.0270   133.3110   -17.3670     2.2190   371.2930 
  230.3750    65.2190    25.4470   129.3180   127.8740   124.4850   -17.3320     2.2360   372.7460 
  230.5000    65.7270    25.4590   119.0600   118.2300   114.4000   -17.2870     2.2770   374.5380 
  230.6250    65.2340    25.4570   104.3010   108.3900   104.4100   -17.2290     2.3180   376.5880 
  230.7500    65.7450    25.4300    90.0320    99.6460    95.7370   -17.1870     2.3430   378.5190 
  230.8750    66.4180    25.3090    78.0040    92.4800    88.8100   -17.1490     2.3510   379.9260 
  231.0000    66.0090    25.0230    71.6740    86.7060    83.3860   -17.1230     2.3420   380.7580 
  231.1250    64.7510    24.8030    72.9590    81.9330    79.0040   -17.0970     2.3220   381.1530 
  231.2500    67.9810    24.7130    74.2390    77.8250    75.2300   -17.1010     2.3020   381.2500 
  231.3750    74.7130    24.6790    70.5310    74.6780    72.3230   -17.1110     2.2890   381.0930 
  231.5000    78.8290    24.6270    63.4060    73.0210    70.8320   -17.1170     2.2810   380.7670 
  231.6250    74.8400    24.6280    60.5990    73.8870    71.8640   -17.1350     2.2710   380.2800 
  231.7500    67.7190    24.7180    67.0970    77.3850    75.5770   -17.1230     2.2630   379.5760 
  231.8750    63.3980    24.8780    80.8460    83.5080    81.9580   -17.0830     2.2580   378.7480 
  232.0000    63.7940    25.0000    93.7690    91.8110    90.5220   -17.0190     2.2550   378.0890 
  232.1250    66.0310    25.0270   101.2780   101.6090   100.5330   -16.9490     2.2570   377.6580 
  232.2500    66.8620    24.9940   109.6720   111.6140   110.7020   -16.8540     2.2680   376.7020 
  232.3750    64.9470    24.9530   121.4830   120.8490   120.0830   -16.7280     2.2870   374.5240 
  232.5000    61.4660    24.9350   132.1900   128.2290   127.6400   -16.5980     2.3020   371.4500 
  232.6250    60.5900    24.9270   135.6050   131.0740   130.6670   -16.4610     2.3020   368.9950 
  232.7500    62.7320    24.9080   133.0600   127.3080   126.8900   -16.3270     2.2980   367.7740 
  232.8750    65.3050    24.8930   126.0540   115.8790   115.1660   -16.1830     2.2970   366.9870 
  233.0000    67.6730    24.8960   115.2560    98.7820    97.6800   -16.0310     2.3030   365.1850 
  233.1250    69.8480    24.9080    96.1730    80.7720    79.4020   -15.8720     2.3190   360.2660 
  233.2500    70.2470    24.8950    70.3390    65.9740    64.3980   -15.7040     2.3460   351.3370 
  233.3750    69.3490    24.8820    48.0200    55.6080    53.8460   -15.5690     2.3830   338.7310 
  233.5000    70.2310    24.8790    36.7620    49.3760    47.5040   -15.4390     2.4190   325.3990 
  233.6250    74.1740    24.8830    36.5270    46.7730    44.9360   -15.3340     2.4450   316.1130 
  233.7500    78.3260    24.8840    39.0400    46.2760    44.5170   -15.2440     2.4610   310.4590 
  233.8750    81.9180    24.8820    39.7810    47.1200    45.3340   -15.1770     2.4720   305.0110 
  234.0000    84.3890    24.8770    38.3130    48.5980    46.5610   -15.1040     2.4780   298.2510 
  234.1250    82.5880    24.8560    40.4810    50.0120    47.4750   -15.0260     2.4740   294.5390 
  234.2500    79.6610    24.8170    48.0390    50.9360    47.8230   -14.9210     2.4530   297.4560 
  234.3750    79.3070    24.7880    52.9520    51.2860    47.6620   -14.7650     2.4220   304.8310 
  234.5000    81.1390    24.7800    49.9550    51.1790    47.2050   -14.5790     2.3990   310.9790 
  234.6250    82.8120    24.7630    41.9640    50.8320    46.7460   -14.3700     2.3910   312.1850 
  234.7500    80.9880    24.7120    38.7460    50.5390    46.5540   -14.1430     2.3830   311.8690 
  234.8750    77.6660    24.6620    39.0990    50.4970    46.8180   -13.9200     2.3680   313.1740 
