~V
VERS. 2.00: Ver 2.00
~W
STRT.M 65.0000:
STOP.M 267.0000:
STEP.M 0.1250:
NULL. -999.2500:
UWI. DF3007:
~C
DEPT.M :
GR.API :
RML.OHMM :
RI. :
RXO.OHMM :
CALI.CM :
DEN.GM/CC :
SP.MV :
~A
# ...
   76.2500    69.2480    11.6550    10.1760    11.0780    23.8050  -999.2500   -31.5830 
   76.3750    70.7960    11.5650    10.0550    10.9770    24.3210  -999.2500   -31.9150 
   76.5000    69.1120    11.6000     9.9910    10.6870    24.7100  -999.2500   -32.1720 
   76.6250    68.3710    11.7000     9.9660    10.4180    24.8640  -999.2500   -32.2620 
   76.7500    69.8640    11.8120     9.9630    10.2850    24.9100  -999.2500   -32.3910 
   76.8750    70.6200    11.9150     9.9760    10.3070    24.9380  -999.2500   -32.4430 
   77.0000    68.9160    12.0060    10.0000    10.3640    24.9840  -999.2500   -32.4830 
   77.1250    66.8790    12.0940    10.0260    10.3970    24.9860  -999.2500   -32.5580 
   77.2500    66.7930    12.1910    10.0500    10.4700    24.9460  -999.2500   -32.5800 
   77.3750    68.2040    12.2960    10.0710    10.5500    24.8860  -999.2500   -32.6670 
   77.5000    67.6130    12.3890    10.0810    10.5560    24.7960  -999.2500   -32.7270 
   77.6250    63.1180    12.4330    10.0630    10.4770    24.6110  -999.2500   -32.9190 
   77.7500    61.8720    12.4140    10.0090    10.4770    24.2720  -999.2500   -33.0540 
   77.8750    66.9950    12.3450     9.9230    10.6630    23.8190  -999.2500   -33.2560 
   78.0000    74.5330    12.2640     9.8220    10.9290    23.3580  -999.2500   -33.4290 
   78.1250    78.3200    12.2330     9.7420    11.0820    23.0850  -999.2500   -33.6650 
   78.2500    77.3700    12.2790     9.7050    10.8820    22.9810  -999.2500   -33.9140 
   78.3750    73.3530    12.3930     9.7150    10.7080    22.9460  -999.2500   -34.1670 
   78.5000    68.9090    12.5380     9.7570    10.9720    22.9170  -999.2500   -34.4600 
   78.6250    66.6790    12.6470     9.7970    11.3410    22.9020  -999.2500   -34.6270 
   78.7500    65.5440    12.6800     9.8030    11.5930    22.8930  -999.2500   -34.8420 
   78.8750    63.7140    12.6300     9.7620    11.7280    22.8870  -999.2500   -34.9330 
   79.0000    63.7420    12.5210     9.6810    11.7960    22.8720  -999.2500   -35.0710 
   79.1250    67.2690    12.4050     9.5840    11.6410    22.8540  -999.2500   -35.1380 
   79.2500    70.8260    12.3340     9.5060    11.6020    22.8420  -999.2500   -35.1350 
   79.3750    71.2120    12.3260     9.4670    11.6370    22.8580  -999.2500   -35.1320 
   79.5000    69.6720    12.3720     9.4720    11.6770    22.9120  -999.2500   -35.0100 
   79.6250    68.9520    12.4410     9.5100    11.6200    22.9600  -999.2500   -35.0080 
   79.7500    69.9090    12.4910     9.5500    11.5400    22.9490  -999.2500   -35.0310 
   79.8750    72.5510    12.4950     9.5680    11.6090    22.9190  -999.2500   -35.1780 
   80.0000    74.4720    12.4470     9.5530    11.8520    22.9190  -999.2500   -35.4370 
   80.1250    72.3580    12.3580     9.5020    11.8190    22.9850  -999.2500   -35.6610 
   80.2500    68.7550    12.2660     9.4400    11.7900    23.1440  -999.2500   -35.9620 
   80.3750    66.7720    12.2040     9.3900    11.5910    23.3970  -999.2500   -36.1850 
   80.5000    67.7970    12.1990     9.3720    11.1530    23.5250  -999.2500   -36.4380 
   80.6250    69.2060    12.2820     9.4090    10.8840    23.4660  -999.2500   -36.4710 
   80.7500    69.2640    12.4330     9.4910    11.0550    23.2640  -999.2500   -36.3920 
   80.8750    67.2500    12.6150     9.5970    11.5160    23.1130  -999.2500   -36.1160 
   81.0000    64.8310    12.7660     9.6910    11.8700    23.0490  -999.2500   -35.6510 
   81.1250    65.7970    12.7850     9.7060    11.8920    22.9870  -999.2500   -35.0360 
   81.2500    69.4150    12.6330     9.6120    11.8300    22.9390  -999.2500   -34.3720 
   81.3750    73.1870    12.3230     9.4080    11.6730    22.9450  -999.2500   -33.7170 
   81.5000    75.7580    11.9330     9.1390    11.3100    22.9930  -999.2500   -33.0630 
   81.6250    78.2200    11.6060     8.8980    11.1100    23.0850  -999.2500   -32.6190 
   81.7500    80.1050    11.4500     8.7660    10.6100    23.2040  -999.2500   -32.1900 
   81.8750    79.3340    11.5130     8.7860     9.8510    23.2770  -999.2500   -31.9350 
   82.0000    76.3410    11.7710     8.9610     9.8760    23.2740  -999.2500   -31.6770 
   82.1250    73.4410    12.1390     9.2490    10.3460    23.2580  -999.2500   -31.4570 
   82.2500    72.0730    12.4580     9.5340    10.7270    23.2520  -999.2500   -31.1770 
   82.3750    72.2620    12.5950     9.7100    10.7430    23.2520  -999.2500   -30.7450 
   82.5000    73.2800    12.4470     9.6810    10.4370    23.2610  -999.2500   -30.2120 
   82.6250    72.4490    11.9340     9.3580     9.8330    23.2770  -999.2500   -29.4550 
   82.7500    71.5110    11.2050     8.8310     9.0820    23.3160  -999.2500   -28.6160 
   82.8750    75.3130    10.4350     8.2120     8.6060    23.4210  -999.2500   -27.6670 
   83.0000    84.3500     9.8060     7.6300     8.1590    23.6400  -999.2500   -26.6720 
   83.1250    93.1790     9.4910     7.2190     7.5250    23.8880  -999.2500   -25.8620 
   83.2500    98.8430     9.4360     6.9810     6.8260    24.0750  -999.2500   -25.0850 
   83.3750   101.6700     9.5180     6.8730     6.7850    24.1660  -999.2500   -24.5380 
   83.5000   101.7020     9.5750     6.8110     7.1260    24.1860  -999.2500   -24.1210 
   83.6250    99.5420     9.4370     6.6960     7.3240    24.1980  -999.2500   -23.9060 
   83.7500    99.7510     9.1130     6.4980     7.0230    24.2470  -999.2500   -23.8770 
   83.8750   103.4450     8.7110     6.2550     6.3830    24.2840  -999.2500   -24.0130 
   84.0000   107.3310     8.3990     6.0540     6.0270    24.2930  -999.2500   -24.3650 
   84.1250   108.4330     8.3770     6.0220     6.1220    24.2760  -999.2500   -24.7830 
   84.2500   106.7000     8.6600     6.1950     6.4650    24.2060  -999.2500   -25.3940 
   84.3750   102.3030     9.2070     6.5710     7.0890    24.0580  -999.2500   -25.9990 
   84.5000    95.1170     9.9280     7.1100     8.0750    23.8580  -999.2500   -26.6780 
   84.6250    86.9080    10.7020     7.7370     9.1420    23.6970  -999.2500   -27.2520 
   84.7500    82.3430    11.3970     8.3270     9.6390    23.5820  -999.2500   -27.8080 
   84.8750    82.2230    11.9010     8.7780    10.4740    23.5390  -999.2500   -28.2120 
   85.0000    85.8690    12.1070     8.9920    11.5460    23.5460  -999.2500   -28.4550 
   85.1250    89.6290    11.8780     8.8570    13.2210    23.5870  -999.2500   -28.4850 
   85.2500    89.8240    11.2950     8.4360    14.3960    23.6330  -999.2500   -28.2740 
   85.3750    88.9550    10.4850     7.8230    12.5170    23.7070  -999.2500   -28.0500 
   85.5000    92.8430     9.6500     7.1610     9.5100    23.8610  -999.2500   -27.7400 
   85.6250   103.2920     9.0820     6.6530     7.6820    24.0630  -999.2500   -27.6170 
   85.7500   110.5860     8.9160     6.4050     6.9890    24.1690  -999.2500   -27.5790 
   85.8750   108.7320     9.1850     6.4630     6.8740    24.1660  -999.2500   -27.6270 
   86.0000   100.0390     9.8040     6.8010     7.2200    24.0680  -999.2500   -27.8200 
   86.1250    89.3650    10.5660     7.3250     8.1300    23.9280  -999.2500   -28.0010 
   86.2500    81.0430    11.1500     7.8140     9.0990    23.8380  -999.2500   -28.1890 
   86.3750    77.8820    11.3330     8.0890     9.5500    23.8100  -999.2500   -28.2210 
   86.5000    80.2680    11.0380     8.0450     9.3960    23.8090  -999.2500   -28.1070 
   86.6250    86.0270    10.3550     7.6740     8.9970    23.8150  -999.2500   -27.7570 
   86.7500    91.8700     9.6290     7.1970     8.2780    23.8410  -999.2500   -27.2120 
   86.8750    97.4350     9.0940     6.7840     7.3750    23.8840  -999.2500   -26.6590 
   87.0000   102.2900     8.8660     6.5440     6.8060    23.9300  -999.2500   -26.0310 
   87.1250   103.6360     8.9650     6.5280     6.9890    23.9790  -999.2500   -25.5480 
   87.2500   103.2150     9.2200     6.6490     7.4030    24.0360  -999.2500   -25.1560 
   87.3750   101.2920     9.4890     6.8210     7.7540    24.0530  -999.2500   -24.9140 
