~V
VERS. 2.00: Ver 2.00
~W
STRT.M 54.0000:
STOP.M 250.0000:
STEP.M 0.1250:
NULL. -999.2500:
UWI. DF3016:
~C
DEPT.M :
GR.API :
RML.OHMM :
RI. :
RXO.OHMM :
CALI.CM :
DEN.GM/CC :
SP.MV :
~A
# ...
  132.7500   107.8090     7.3360     6.4150     6.6450    24.3490     2.2990   -16.9310 
  132.8750   109.0450     7.3010     6.3470     6.5410    24.3600     2.3020   -16.9230 
  133.0000   104.3530     7.2930     6.3100     6.5770    24.3490     2.3100   -16.9620 
  133.1250   101.1350     7.2930     6.2960     6.6110    24.3380     2.3240   -17.0270 
  133.2500   103.7610     7.2800     6.2830     6.5480    24.3180     2.3390   -17.1020 
  133.3750   108.4920     7.2400     6.2590     6.3970    24.2680     2.3500   -17.1630 
  133.5000   111.7530     7.1680     6.2230     6.3340    24.2140     2.3540   -17.2610 
  133.6250   113.4120     7.0790     6.1850     6.3000    24.2110     2.3490   -17.3580 
  133.7500   113.4600     7.0100     6.1710     6.1780    24.2360     2.3380   -17.4530 
  133.8750   111.3440     7.0080     6.2130     6.2100    24.2280     2.3270   -17.5660 
  134.0000   107.3190     7.1140     6.3400     6.3890    24.1690     2.3180   -17.6510 
  134.1250   104.7360     7.3630     6.5820     6.6610    24.0330     2.3120   -17.7990 
  134.2500   103.5620     7.6870     6.8870     6.8250    23.9140     2.3080   -17.8410 
  134.3750   100.5690     7.9910     7.1820     6.8930    23.7810     2.3060   -17.8680 
  134.5000    95.4740     8.1610     7.3730     7.1340    23.6300     2.3050   -17.7790 
  134.6250    92.5950     8.0590     7.3310     7.4510    23.5710     2.3070   -17.6390 
  134.7500    94.6290     7.7160     7.0650     7.3650    23.5920     2.3120   -17.4350 
  134.8750   100.1320     7.2060     6.6290     6.7930    23.7190     2.3160   -17.1890 
  135.0000   107.5080     6.6530     6.1230     5.9850    23.9630     2.3190   -16.9370 
  135.1250   114.2910     6.2110     5.6800     5.4470    24.2640     2.3170   -16.6530 
  135.2500   117.9760     5.9510     5.3800     5.1190    24.5090     2.3140   -16.4430 
  135.3750   119.1490     5.9000     5.2630     5.0190    24.6130     2.3140   -16.2920 
  135.5000   118.8110     6.0390     5.3340     5.0850    24.6310     2.3210   -16.2780 
  135.6250   115.8330     6.3410     5.5940     5.3020    24.6110     2.3310   -16.4050 
  135.7500   110.8110     6.7160     5.9700     5.6170    24.5560     2.3360   -16.6630 
  135.8750   105.7290     7.1110     6.4090     6.1660    24.4600     2.3280   -16.9890 
  136.0000   102.7880     7.4850     6.8610     6.7550    24.2790     2.3070   -17.3830 
  136.1250    99.2870     7.8170     7.2790     7.1650    24.0120     2.2810   -17.7900 
  136.2500    93.5980     8.1110     7.6440     7.4000    23.6930     2.2610   -18.2340 
  136.3750    88.6290     8.3570     7.9370     7.5920    23.4450     2.2510   -18.6370 
  136.5000    86.9190     8.5370     8.1430     7.8390    23.2560     2.2510   -18.9450 
  136.6250    87.9560     8.6140     8.2280     8.2030    23.1780     2.2510   -19.0800 
  136.7500    88.5110     8.6270     8.2250     8.6610    23.1440     2.2440   -19.0760 
  136.8750    87.8280     8.6580     8.2000     8.9240    23.1600     2.2320   -18.9360 
  137.0000    86.3060     8.8330     8.2580     9.1030    23.2110     2.2230   -18.6160 
  137.1250    83.7680     9.2680     8.5370     9.4830    23.3190     2.2340   -18.2170 
  137.2500    81.7020     9.8800     9.0420    10.2710    23.4330     2.2710   -17.6790 
  137.3750    80.1370    10.6420     9.7460    11.8790    23.6000     2.3330   -17.1720 
  137.5000    77.6930    11.4830    10.6080    14.6910    23.8790     2.4090   -16.6440 
  137.6250    73.3430    12.6710    11.6390    18.5800    24.2080     2.4800   -16.2200 
  137.7500    68.3360    14.1940    12.8610    20.9470    24.4370     2.5310   -15.8050 
  137.8750    64.2410    16.2610    14.3470    19.3690    24.5050     2.5610   -15.4540 
  138.0000    61.9890    18.8490    16.1360    19.3440    24.4850     2.5780   -15.1790 
  138.1250    60.8580    20.9260    18.1560    24.0570    24.4450     2.5900   -14.9930 
  138.2500    58.3150    22.7980    20.1040    26.2050    24.4520     2.6000   -14.8620 
  138.3750    53.8110    24.1260    21.6790    25.8160    24.5120     2.6030   -14.7120 
  138.5000    50.3560    24.7190    22.6410    25.4910    24.5840     2.5990   -14.5750 
  138.6250    51.0810    24.5720    22.8720    26.0390    24.5990     2.5900   -14.4060 
  138.7500    53.8760    24.1570    22.7350    26.1700    24.5810     2.5820   -14.2390 
  138.8750    55.8860    23.8120    22.5380    25.8260    24.5620     2.5770   -14.0780 
  139.0000    56.7190    23.7290    22.4900    25.1640    24.5380     2.5750   -13.9710 
  139.1250    58.7840    23.9750    22.7030    24.3720    24.5240     2.5760   -13.8320 
  139.2500    61.8400    24.3940    23.0910    24.7880    24.5210     2.5790   -13.7330 
  139.3750    63.9630    24.8390    23.5450    25.7970    24.5360     2.5840   -13.6520 
  139.5000    63.8280    25.1810    23.9470    26.4510    24.5690     2.5890   -13.6230 
  139.6250    62.5070    25.3120    24.1810    27.3640    24.6030     2.5890   -13.6540 
  139.7500    62.0330    25.2550    24.2360    27.6130    24.6200     2.5810   -13.7630 
  139.8750    62.3100    25.0220    24.1130    26.9450    24.6220     2.5690   -13.8960 
  140.0000    65.0520    24.6140    23.8120    26.2420    24.6190     2.5550   -14.0440 
  140.1250    69.0750    23.9950    23.2950    25.2620    24.6200     2.5440   -14.2430 
  140.2500    71.0900    23.2250    22.6160    24.5440    24.6200     2.5370   -14.4070 
  140.3750    70.5900    22.3790    21.8380    23.5260    24.6110     2.5330   -14.5810 
  140.5000    69.5170    21.5460    21.0440    22.4150    24.5680     2.5310   -14.6730 
  140.6250    68.4260    20.8050    20.3180    20.9300    24.4380     2.5330   -14.7640 
  140.7500    66.5970    20.1550    19.6800    20.4200    24.3030     2.5380   -14.8100 
  140.8750    65.5510    19.5800    19.1390    20.3800    24.2470     2.5460   -14.8560 
  141.0000    65.9660    19.1180    18.7200    20.5900    24.2570     2.5520   -14.8320 
  141.1250    66.8810    18.8990    18.5530    19.9800    24.3070     2.5470   -14.7660 
  141.2500    68.6350    19.0840    18.7430    19.2200    24.3780     2.5280   -14.6700 
  141.3750    70.5450    19.7680    19.3790    18.8140    24.4460     2.5030   -14.5690 
  141.5000    71.5080    21.0000    20.4220    19.6540    24.5370     2.4820   -14.5390 
  141.6250    69.4950    22.4870    21.6170    21.5680    24.6200     2.4820   -14.5460 
  141.7500    66.6460    23.8560    22.4860    23.9330    24.6400     2.5030   -14.5630 
  141.8750    63.9710    24.7760    22.6350    26.1820    24.6010     2.5340   -14.5840 
  142.0000    61.5540    24.8830    21.8790    26.7800    24.5380     2.5590   -14.6360 
  142.1250    62.2000    24.2530    20.3190    24.0980    24.5120     2.5640   -14.6770 
  142.2500    66.1980    23.3590    18.5750    20.0270    24.4770     2.5550   -14.7770 
  142.3750    70.7340    22.2220    17.0650    17.0860    24.3870     2.5440   -14.8760 
  142.5000    71.2950    21.0930    16.0160    15.4480    24.2240     2.5400   -14.9780 
  142.6250    66.3910    19.9270    15.5330    14.3700    24.0840     2.5470   -14.9890 
  142.7500    62.4130    19.0150    15.4040    14.5240    24.0030     2.5560   -14.9690 
  142.8750    61.7500    18.0330    15.4710    14.8690    23.9440     2.5600   -14.9080 
  143.0000    62.9730    17.0120    15.5950    14.6410    23.8750     2.5550   -14.8680 
  143.1250    63.5820    17.0600    15.6830    15.1520    23.8360     2.5400   -14.8280 
  143.2500    62.8310    17.0600    15.7320    16.0810    23.8780     2.5240   -14.7610 
  143.3750    63.3090    17.0990    15.7970    16.2680    24.0060     2.5110   -14.7450 
  143.5000    65.5860    17.2880    15.9670    16.2300    24.1680     2.5050   -14.6850 
  143.6250    66.0350    17.7810    16.3720    16.8260    24.3290     2.5030   -14.6820 
  143.7500    64.5150    18.5620    17.0190    17.2260    24.3370     2.5010   -14.6730 
  143.8750    62.9830    19.5520    17.8580    17.2330    24.2280     2.4970   -14.6960 
