~V
VERS. 2.00: Ver 2.00
~W
STRT.M 120.0000:
STOP.M 233.0000:
STEP.M 0.1250:
NULL. -999.2500:
UWI. DF3066:
~C
DEPT.M :
GR.API :
RML.OHMM :
RI. :
RXO.OHMM :
CALI.CM :
DEN.GM/CC :
SP.MV :
~A
# ...
  210.0000    72.4720    34.3880    33.2960    45.2370    23.8320     2.4490   -16.9620 
  210.1250    69.6700    24.3660    24.3160    39.3400    23.8610     2.5040   -16.6230 
  210.2500    74.3490    17.1380    17.5200    27.1990    23.8340     2.5170   -16.3910 
  210.3750    84.3700    12.7340    13.1750    15.6500    23.7900     2.4950   -16.3010 
  210.5000    94.0760    10.5020    10.8170     9.8880    23.7010     2.4550   -16.2290 
  210.6250    97.2600     9.8360     9.9630     8.3930    23.4680     2.4210   -16.2930 
  210.7500    94.2620     9.8610     9.8540     8.4470    23.3750     2.4020   -16.4550 
  210.8750    86.8240    10.1730    10.1320     8.6580    23.4470     2.3980   -16.6310 
  211.0000    80.5840    10.4830    10.5030     8.7630    23.5990     2.4000   -16.8760 
  211.1250    84.9150    10.5770    10.6980     8.8610    23.8570     2.4000   -17.1840 
  211.2500    97.2850    10.4320    10.6420     8.9160    23.9570     2.3970   -17.5020 
  211.3750   109.2850    10.1070    10.3750     8.8080    23.9170     2.3930   -17.7460 
  211.5000   116.0790     9.7400    10.0120     8.7450    23.7950     2.3890   -18.1030 
  211.6250   119.7740     9.6040     9.7620     8.6890    23.6070     2.3890   -18.5200 
  211.7500   122.1560     9.9490     9.8360     8.8940    23.5680     2.3910   -18.9640 
  211.8750   122.3210    11.0110    10.4460     9.5260    23.6360     2.3910   -19.6090 
  212.0000   120.8380    12.9680    11.7840    11.0700    23.7000     2.3840   -20.2580 
  212.1250   116.4170    16.0450    14.1210    13.9910    23.6700     2.3680   -20.9010 
  212.2500   108.0480    19.9430    17.2570    18.4290    23.7010     2.3490   -21.6670 
  212.3750    97.6170    24.3200    20.9150    24.7290    23.7930     2.3300   -22.3830 
  212.5000    91.4340    28.6790    24.6410    30.6370    23.8950     2.3180   -22.9920 
  212.6250    90.9780    32.3110    27.7840    33.3010    23.9730     2.3120   -23.6570 
  212.7500    90.4940    34.8920    30.0280    32.9370    23.9520     2.3100   -24.1940 
  212.8750    87.3590    36.2970    31.2620    33.7370    23.8760     2.3070   -24.6310 
  213.0000    82.1570    36.5940    31.5450    36.1320    23.7830     2.3040   -25.0730 
  213.1250    79.7960    35.9340    30.9840    36.6180    23.7830     2.3020   -25.3740 
  213.2500    81.0780    34.9730    30.1030    34.7220    23.8480     2.3010   -25.6840 
  213.3750    83.8940    34.3770    29.4330    31.5110    23.9080     2.3030   -26.0440 
  213.5000    85.2460    34.8900    29.6020    29.0970    23.8950     2.3040   -26.4280 
  213.6250    84.5940    37.5010    31.4960    28.6700    23.8510     2.3020   -26.7640 
  213.7500    83.2000    42.1760    35.1920    30.8610    23.7330     2.2970   -27.1480 
  213.8750    80.3960    48.5810    40.5000    37.0880    23.5210     2.2920   -27.5510 
  214.0000    77.1070    55.8190    46.7320    46.8730    23.3960     2.2880   -27.8690 
  214.1250    75.7890    62.3040    52.6140    55.7640    23.4420     2.2870   -28.2910 
  214.2500    76.3980    66.8100    57.0290    60.7160    23.5220     2.2900   -28.6440 
  214.3750    76.6700    68.8910    59.4860    61.9580    23.6830     2.2940   -28.9140 
  214.5000    75.2940    68.9220    60.1440    60.1610    23.8580     2.2980   -29.1690 
  214.6250    73.7230    67.6570    59.4650    56.7200    23.9260     2.2990   -29.4040 
  214.7500    72.3190    65.9820    58.2470    54.2350    23.9150     2.2960   -29.5590 
  214.8750    70.1430    64.1320    56.7970    53.4070    23.8560     2.2860   -29.6830 
  215.0000    67.8610    62.2690    55.3360    52.8970    23.7770     2.2720   -29.8340 
  215.1250    67.9330    60.8250    54.2410    50.5100    23.8550     2.2580   -29.8400 
  215.2500    70.3320    60.2550    53.8480    47.3020    23.9260     2.2500   -29.8950 
  215.3750    71.8900    60.9200    54.4310    46.0580    23.9370     2.2530   -30.0140 
  215.5000    71.3790    62.9110    56.0880    48.3450    23.8500     2.2670   -30.0110 
  215.6250    72.2020    66.0920    58.7890    48.2850    23.8050     2.2910   -29.9970 
  215.7500    72.7680    69.6820    61.9480    49.2450    23.8610     2.3170   -29.9960 
  215.8750    71.2370    73.0750    65.0720    51.4840    23.9530     2.3370   -29.9580 
  216.0000    68.4280    75.7730    67.7030    52.9380    23.8180     2.3480   -29.9620 
  216.1250    66.3560    77.3350    69.3860    54.4760    23.6710     2.3430   -29.9740 
  216.2500    65.9260    78.0120    70.2440    55.8140    23.6830     2.3280   -29.9590 
  216.3750    67.0680    78.1590    70.5110    58.4010    23.7810     2.3070   -29.9070 
  216.5000    69.0030    78.2160    70.4920    60.4460    23.8360     2.2870   -29.9130 
  216.6250    71.3730    78.4930    70.3880    60.3110    23.8070     2.2750   -29.8960 
  216.7500    74.7890    78.7750    70.1990    58.6110    23.7620     2.2700   -29.8890 
  216.8750    78.0680    78.6580    69.8310    57.8040    23.7460     2.2700   -29.8860 
  217.0000    77.6900    77.8890    69.2900    59.0280    23.7490     2.2710   -29.7910 
  217.1250    74.5290    76.5530    68.7680    61.7500    23.7300     2.2720   -29.8260 
  217.2500    73.9900    75.2440    68.5080    59.2090    23.7730     2.2720   -29.7520 
  217.3750    74.6780    74.4360    68.6340    54.0020    23.8160     2.2700   -29.6260 
  217.5000    73.6570    74.4170    69.1340    51.0160    23.8230     2.2670   -29.5530 
  217.6250    72.3350    75.3110    69.8950    53.9140    23.8090     2.2640   -29.3560 
  217.7500    73.3250    76.7420    70.7030    58.1370    23.8390     2.2620   -29.1660 
  217.8750    75.0820    78.4640    71.4950    59.4420    23.8750     2.2600   -28.9610 
  218.0000    74.7990    80.2830    72.3240    56.7990    23.9290     2.2590   -28.7110 
  218.1250    74.7160    82.1710    73.3920    54.7210    24.0610     2.2600   -28.4130 
  218.2500    76.0180    84.3570    74.8820    54.7550    24.1800     2.2630   -28.1070 
  218.3750    76.5720    87.1290    76.9050    55.9030    24.0670     2.2660   -27.7360 
  218.5000    74.4440    90.5630    79.4080    56.8460    23.8530     2.2680   -27.3250 
  218.6250    70.3870    94.4380    82.1840    58.1940    23.7420     2.2670   -26.9420 
  218.7500    68.8710    98.1650    84.8670    61.9860    23.7200     2.2630   -26.4680 
  218.8750    69.5350   101.1940    87.1240    66.9150    23.7420     2.2580   -25.9930 
  219.0000    70.0740   102.9710    88.5390    70.2810    23.7890     2.2530   -25.5070 
  219.1250    69.4400   102.4850    88.3440    71.0390    23.7740     2.2520   -24.8920 
  219.2500    69.6840    99.4100    86.3220    70.9040    23.7260     2.2530   -24.2950 
  219.3750    70.7890    93.7760    82.3710    70.0400    23.7420     2.2570   -23.6710 
  219.5000    71.4110    85.9530    76.8130    69.4280    23.7970     2.2600   -22.9860 
  219.6250    74.2400    77.8100    70.4210    67.4120    23.8360     2.2630   -22.2690 
  219.7500    77.2060    70.4170    64.3350    62.3520    23.8550     2.2710   -21.5730 
  219.8750    77.6260    64.7330    59.1110    53.6080    23.8620     2.2900   -20.7760 
  220.0000    75.2830    60.5970    54.7920    44.3010    23.8630     2.3250   -20.0260 
  220.1250    72.8310    54.5870    50.9570    39.0220    23.8630     2.3750   -19.3560 
  220.2500    71.2670    48.8190    46.8990    36.9780    23.8630     2.4260   -18.6160 
  220.3750    69.8350    42.9850    42.3050    35.7290    23.8630     2.4600   -18.0770 
  220.5000    69.4700    37.1590    37.2400    34.2190    23.8600     2.4680   -17.5780 
  220.6250    70.0610    31.8380    32.1380    31.6040    23.8530     2.4430   -17.1000 
  220.7500    70.4420    27.3970    27.4970    25.9410    23.8600     2.4020   -16.7630 
  220.8750    70.8970    24.0280    23.5790    20.1340    23.8660     2.3590   -16.4630 
  221.0000    71.0630    21.7070    20.4850    17.0710    23.8220     2.3240   -16.2110 
  221.1250    71.0630    20.3770    18.3540    16.1500    23.6810     2.3030   -16.0660 
