~V
VERS. 2.00: Ver 2.00
~W
STRT.M 56.0000:
STOP.M 260.0000:
STEP.M 0.1250:
NULL. -999.2500:
UWI. DF3033:
~C
DEPT.M :
GR.API :
RML.OHMM :
RI. :
RXO.OHMM :
CALI.CM :
DEN.GM/CC :
SP.MV :
~A
# ...
  202.2500    52.4310     6.9780     6.6720     4.8090    23.5820     2.4970   -16.9800 
  202.3750    48.9230     7.2840     6.9800     4.6560    23.5780     2.4720   -17.0440 
  202.5000    46.8680     7.5700     7.3690     4.6290    23.5690     2.4510   -17.2120 
  202.6250    47.8390     7.7540     7.6790     4.7920    23.5780     2.4390   -17.4410 
  202.7500    50.9350     7.8610     7.8740     5.0130    23.5820     2.4360   -17.7550 
  202.8750    53.7910     7.9320     7.9700     5.3060    23.5840     2.4410   -18.1520 
  203.0000    55.2060     8.0000     7.9990     5.6560    23.5840     2.4490   -18.6520 
  203.1250    56.7910     8.1070     7.9940     5.9640    23.5860     2.4560   -19.2600 
  203.2500    59.9090     8.2800     7.9970     6.1310    23.6010     2.4610   -19.9520 
  203.3750    65.3690     8.5330     8.0300     6.3640    23.6360     2.4620   -20.6680 
  203.5000    73.2910     8.8640     8.1060     6.8600    23.6680     2.4570   -21.5210 
  203.6250    85.3180     9.2530     8.2200     7.6000    23.6850     2.4480   -22.3560 
  203.7500    98.2410     9.6410     8.3450     8.4840    23.7040     2.4360   -23.2090 
  203.8750   107.3250     9.9920     8.4620     9.1780    23.7340     2.4250   -24.0390 
  204.0000   113.3790    10.2910     8.5680     9.6470    23.7530     2.4180   -24.8530 
  204.1250   117.0950    10.5560     8.6820    10.3550    23.7570     2.4120   -25.6350 
  204.2500   116.4620    10.8520     8.8360    10.9510    23.7610     2.4030   -26.3490 
  204.3750   110.0880    11.2390     9.0580    11.5660    23.7800     2.3930   -27.0580 
  204.5000   100.8180    11.7420     9.3620    12.9010    23.8020     2.3850   -27.6060 
  204.6250    95.9850    12.3250     9.7250    14.6660    23.8180     2.3920   -28.1260 
  204.7500    97.5700    12.8450    10.0610    15.8130    23.8370     2.4200   -28.4880 
  204.8750   102.5580    13.1600    10.2770    15.7930    23.8690     2.4610   -28.7670 
  205.0000   104.5430    13.1860    10.3040    14.3020    23.9210     2.5000   -28.9430 
  205.1250   103.0140    12.9500    10.1240    13.1640    23.9530     2.5100   -29.0220 
  205.2500   103.2430    12.6810     9.8810    12.0890    24.0200     2.4910   -29.0650 
  205.3750   104.4320    12.5570     9.6980    10.7580    24.1960     2.4560   -29.0890 
  205.5000   102.7090    12.6660     9.6570     9.9350    24.4920     2.4260   -29.1690 
  205.6250    98.7820    12.9650     9.7810    10.5530    24.5510     2.4160   -29.3030 
  205.7500    95.9640    13.2510     9.9670    12.3450    24.4520     2.4240   -29.5100 
  205.8750    94.1560    13.3860    10.1310    13.2850    24.3860     2.4350   -29.7730 
  206.0000    94.4170    13.3370    10.2310    12.4420    24.3670     2.4400   -30.0900 
  206.1250    97.0020    13.2500    10.3170    11.3750    24.3410     2.4310   -30.4440 
  206.2500    97.9320    13.3940    10.5260    11.3220    24.3020     2.4170   -30.7160 
  206.3750    95.9350    13.9570    10.9770    12.1220    24.2600     2.4050   -30.8680 
  206.5000    92.1280    14.9450    11.6940    13.2820    24.1870     2.4030   -30.7430 
  206.6250    89.0220    16.0930    12.5270    14.4480    24.0930     2.4180   -30.3270 
  206.7500    87.8170    16.8970    13.1310    15.5060    24.0410     2.4450   -29.6230 
  206.8750    88.8770    16.9580    13.2030    16.1320    24.0420     2.4770   -28.5860 
  207.0000    91.2340    16.1080    12.5860    16.1310    24.1100     2.5050   -27.2580 
  207.1250    90.4370    14.4520    11.3150    14.7920    24.1770     2.5170   -25.5720 
  207.2500    85.7330    12.6010     9.8470    12.3350    24.1860     2.5110   -23.8430 
  207.3750    77.9470    10.9730     8.5000     9.2410    24.1180     2.4890   -22.0410 
  207.5000    70.3410     9.8080     7.4730     6.9400    23.9500     2.4570   -20.4350 
  207.6250    69.0390     9.2480     6.8990     5.9550    23.7630     2.4230   -19.0230 
  207.7500    71.7440     9.1300     6.6910     5.6070    23.6330     2.3950   -17.9230 
  207.8750    74.5040     9.3420     6.7930     5.4630    23.6030     2.3760   -17.1110 
  208.0000    75.6200     9.7540     7.1330     5.4640    23.6740     2.3690   -16.5590 
  208.1250    79.5150    10.2150     7.6240     5.6920    23.8970     2.3740   -16.2580 
  208.2500    86.0200    10.5750     8.1240     6.1710    24.1750     2.3860   -16.0800 
  208.3750    91.0830    10.7490     8.5270     6.7820    24.3820     2.4000   -16.0060 
  208.5000    92.7900    10.7150     8.7590     7.3850    24.4860     2.4130   -16.0030 
  208.6250    92.1080    10.5050     8.7700     7.6180    24.4570     2.4240   -16.0160 
  208.7500    91.2770    10.2540     8.6420     7.5860    24.3440     2.4310   -16.0090 
  208.8750    90.7920    10.0640     8.4580     7.3750    24.2280     2.4330   -15.9940 
  209.0000    92.7190    10.0000     8.2970     7.0610    24.2180     2.4300   -16.0220 
  209.1250    97.1070    10.0930     8.2120     7.0020    24.3500     2.4230   -16.1030 
  209.2500    99.7380    10.2460     8.1760     7.0670    24.4920     2.4150   -16.2230 
  209.3750    98.8560    10.3440     8.1340     7.3230    24.5580     2.4100   -16.3760 
  209.5000    96.8610    10.2720     8.0230     7.5880    24.5680     2.4110   -16.5340 
  209.6250    97.5750     9.9450     7.7860     7.6750    24.5640     2.4150   -16.7310 
  209.7500    98.2570     9.4840     7.4770     7.5870    24.5620     2.4170   -16.9280 
  209.8750    99.0910     9.0670     7.1910     7.3180    24.5680     2.4170   -17.2030 
  210.0000   100.7710     8.8830     7.0470     6.7960    24.5710     2.4130   -17.4320 
  210.1250   101.1800     9.1200     7.1870     6.7550    24.5770     2.4070   -17.7780 
  210.2500    98.9120     9.7120     7.6140     7.3890    24.6000     2.3990   -18.0910 
  210.3750    94.9540    10.5620     8.3040     8.9120    24.6510     2.3880   -18.4720 
  210.5000    90.9950    11.5320     9.1900    11.2100    24.7280     2.3760   -18.8540 
  210.6250    87.9410    12.4690    10.1660    12.8000    24.7730     2.3640   -19.2380 
  210.7500    87.1320    13.2760    11.1000    13.3410    24.8000     2.3560   -19.6870 
  210.8750    87.9430    13.9190    11.9150    13.8500    24.8100     2.3540   -20.0990 
  211.0000    87.9180    14.4070    12.5830    14.7740    24.8160     2.3570   -20.5320 
  211.1250    86.1820    14.7820    13.1110    15.7430    24.8150     2.3660   -20.8500 
  211.2500    84.5820    15.1520    13.5930    16.4480    24.8120     2.3750   -21.2070 
  211.3750    84.3430    15.6090    14.1100    17.1690    24.8110     2.3810   -21.5130 
  211.5000    85.0940    16.2370    14.7420    17.9150    24.8190     2.3810   -21.8260 
  211.6250    86.3780    17.1580    15.6050    18.4650    24.8180     2.3730   -22.1180 
  211.7500    88.3070    18.3640    16.7190    18.7680    24.8050     2.3610   -22.3720 
  211.8750    90.1120    19.8090    18.0620    19.5560    24.7850     2.3480   -22.5810 
  212.0000    90.3460    21.3440    19.5250    20.9060    24.7780     2.3370   -22.7900 
  212.1250    88.4630    22.6430    20.8550    22.3240    24.7890     2.3310   -22.9930 
  212.2500    85.4050    23.4110    21.7850    23.7990    24.7960     2.3300   -23.2390 
  212.3750    83.6040    23.5330    22.1570    25.9080    24.8030     2.3320   -23.5080 
  212.5000    83.8700    23.2000    22.0580    27.5930    24.8140     2.3360   -23.8280 
  212.6250    83.9720    22.9530    22.0430    27.6490    24.8110     2.3350   -24.1790 
  212.7500    80.5740    23.9620    23.0530    26.5850    24.8060     2.3250   -24.5820 
  212.8750    74.7930    27.2930    26.1860    25.3800    24.8200     2.3070   -25.0530 
  213.0000    71.4570    34.6260    32.5760    27.7190    24.8500     2.2830   -25.5740 
  213.1250    72.9050    47.0970    43.6480    38.4760    24.8280     2.2610   -26.1790 
  213.2500    74.3220    64.2090    58.2560    60.6360    24.7270     2.2440   -26.6940 
  213.3750    73.1800    83.7900    74.6280    87.6690    24.5280     2.2360   -27.2770 
