~V
VERS. 2.00: Ver 2.00
~W
STRT.M 60.0000:
STOP.M 258.0000:
STEP.M 0.1250:
NULL. -999.2500:
UWI. DF3032:
~C
DEPT.M :
GR.API :
RML.OHMM :
RI. :
RXO.OHMM :
CALI.CM :
DEN.GM/CC :
SP.MV :
~A
# ...
  138.7500    77.8220    10.8380     8.9260    10.0450    23.3720     2.2990   -17.7760 
  138.8750    83.7730     9.7900     8.0590     9.3560    23.6920     2.3180   -16.6660 
  139.0000    91.9670     8.7420     7.1820     8.2240    24.2460     2.3250   -15.5330 
  139.1250    98.8410     7.9600     6.4940     6.5950    24.7310     2.3160   -14.4930 
  139.2500   101.4390     7.5400     6.0720     5.7720    24.9550     2.3020   -13.5990 
  139.3750   100.7420     7.4780     5.9320     5.8090    24.9750     2.2930   -12.8100 
  139.5000    97.8990     7.6770     6.0200     6.2330    24.9210     2.3010   -12.2070 
  139.6250    91.9590     7.9750     6.2480     7.0030    24.8550     2.3300   -11.9860 
  139.7500    87.6570     8.2190     6.4880     7.9770    24.8190     2.3630   -11.9320 
  139.8750    88.7770     8.3700     6.6890     8.5930    24.7920     2.3850   -11.9800 
  140.0000    92.3080     8.4560     6.8460     7.6690    24.7780     2.3890   -12.2920 
  140.1250    93.9930     8.5170     6.9770     7.3450    24.8620     2.3820   -12.8300 
  140.2500    94.6610     8.5490     7.0890     7.7120    24.8870     2.3810   -13.3300 
  140.3750    93.0660     8.5330     7.1670     8.7760    24.7450     2.3880   -13.8760 
  140.5000    89.5870     8.4970     7.2200     9.8200    24.4890     2.3940   -14.6000 
  140.6250    87.2100     8.6170     7.3540     8.7040    24.1500     2.3820   -15.2480 
  140.7500    86.9240     9.0780     7.7110     7.7940    23.8820     2.3510   -15.7170 
  140.8750    84.2180     9.9530     8.3820     8.0250    23.7960     2.3100   -16.1350 
  141.0000    78.9730    11.1040     9.3080     9.2310    23.8720     2.2780   -16.4180 
  141.1250    76.7910    12.0880    10.1900    11.2540    24.0030     2.2790   -16.2980 
  141.2500    77.0000    12.4530    10.6300    13.4150    24.2040     2.3130   -15.8780 
  141.3750    78.2930    11.9790    10.3760    15.8560    24.4890     2.3680   -15.2980 
  141.5000    82.3930    10.7900     9.4620    16.4090    24.7420     2.4210   -14.5690 
  141.6250    90.6720     9.3560     8.2410    11.3760    24.8970     2.4420   -13.7910 
  141.7500    98.6360     8.2360     7.2110     7.2990    24.9470     2.4300   -13.0400 
  141.8750   102.0490     7.6360     6.5760     6.0740    24.9130     2.4000   -12.2850 
  142.0000   101.4810     7.5270     6.3550     6.0530    24.8350     2.3690   -11.6270 
  142.1250    99.3760     7.7540     6.4820     6.1790    24.7680     2.3510   -11.2880 
  142.2500    98.0370     8.0250     6.7300     6.3130    24.7560     2.3400   -11.1420 
  142.3750    97.4260     8.1790     6.9480     6.3330    24.8200     2.3330   -11.0410 
  142.5000    97.8830     8.1470     7.0390     6.3150    24.9450     2.3260   -10.9990 
  142.6250    98.1690     7.9300     6.9650     6.0470    25.0300     2.3210   -10.9360 
  142.7500   100.3310     7.6330     6.7960     5.8180    25.0560     2.3180   -10.8670 
  142.8750   104.0940     7.3240     6.5870     5.6440    25.0420     2.3190   -10.9080 
  143.0000   107.7360     7.0640     6.3890     5.5800    25.0080     2.3220   -10.9740 
  143.1250   106.6240     6.9200     6.2620     5.6460    24.9860     2.3230   -10.8730 
  143.2500   102.7620     6.9120     6.2320     5.6300    24.9380     2.3220   -10.8490 
  143.3750   101.4220     7.0460     6.3150     5.6190    24.8310     2.3210   -10.9850 
  143.5000   104.2310     7.2890     6.5020     5.6790    24.7050     2.3210   -11.0170 
  143.6250   106.3220     7.5590     6.7440     6.0270    24.5670     2.3240   -11.0170 
  143.7500   104.8580     7.7450     6.9450     6.4170    24.4880     2.3310   -11.1390 
  143.8750   101.0240     7.7800     7.0340     6.7690    24.5400     2.3390   -11.1470 
  144.0000    98.5780     7.6600     6.9810     6.7680    24.6800     2.3470   -10.9920 
  144.1250   102.2330     7.4550     6.8140     6.6140    24.8400     2.3480   -10.9540 
  144.2500   107.9820     7.3090     6.6520     6.3000    24.9400     2.3410   -10.9680 
  144.3750   107.6200     7.3200     6.5950     6.1180    24.9130     2.3250   -10.8440 
  144.5000    99.8190     7.5410     6.7140     6.4560    24.8260     2.3100   -10.7180 
  144.6250    91.9620     8.0000     7.0780     7.2860    24.7690     2.3080   -10.6930 
  144.7500    88.4120     8.6250     7.6450     8.3650    24.7500     2.3230   -10.6630 
  144.8750    86.8190     9.3900     8.3960     9.5980    24.7230     2.3560   -10.6410 
  145.0000    87.2570    10.3120     9.3260    10.6830    24.6390     2.4010   -10.6140 
  145.1250    88.6520    11.5040    10.5070    12.0800    24.5070     2.4520   -10.5700 
  145.2500    86.0930    13.0140    11.9650    13.9690    24.4040     2.5030   -10.5350 
  145.3750    77.5750    14.8560    13.7220    15.9640    24.3660     2.5480   -10.4950 
  145.5000    66.1740    16.9390    15.7190    19.2410    24.3620     2.5850   -10.4370 
  145.6250    57.9890    19.0040    17.7490    22.9630    24.3630     2.6090   -10.3930 
  145.7500    56.0270    20.7110    19.4840    25.1400    24.3670     2.6220   -10.2910 
  145.8750    56.6660    21.7990    20.6590    24.5740    24.3730     2.6260   -10.1560 
  146.0000    55.2560    22.1570    21.1390    23.5140    24.3870     2.6240   -10.1560 
  146.1250    51.5120    21.8280    20.9280    22.0660    24.4140     2.6180   -10.2080 
  146.2500    50.7760    21.2670    20.4360    21.4220    24.4180     2.6100   -10.0950 
  146.3750    55.0100    20.8150    19.9830    20.3700    24.3710     2.6040   -10.0100 
  146.5000    60.7030    20.6900    19.7900    19.3650    24.2930     2.6030   -10.0590 
  146.6250    61.7240    20.9810    19.9940    19.3880    24.2750     2.6100    -9.9580 
  146.7500    58.9160    21.5070    20.4790    20.8050    24.3710     2.6190    -9.8080 
  146.8750    57.2530    22.1130    21.1330    23.0280    24.5160     2.6230    -9.8140 
  147.0000    59.2920    22.6800    21.8440    24.3510    24.6000     2.6190    -9.8080 
  147.1250    61.8890    23.1520    22.5310    23.7190    24.6160     2.6070    -9.6390 
  147.2500    61.6200    23.5650    23.1670    23.9580    24.6170     2.5970    -9.5920 
  147.3750    58.4000    23.9280    23.7230    24.5040    24.6190     2.5930    -9.6310 
  147.5000    54.1300    24.1770    24.1170    25.3780    24.6230     2.5960    -9.5460 
  147.6250    51.7890    24.0870    24.1190    25.5540    24.6190     2.6040    -9.4970 
  147.7500    52.7390    23.5170    23.6150    24.8860    24.6170     2.6080    -9.6070 
  147.8750    56.1420    22.4360    22.5790    23.8150    24.6160     2.6060    -9.6940 
  148.0000    59.5770    21.0090    21.1790    22.6480    24.6160     2.5970    -9.7050 
  148.1250    61.4740    19.6490    19.7940    21.0030    24.6160     2.5820    -9.7290 
  148.2500    63.5250    18.7660    18.8120    18.7220    24.6240     2.5690    -9.7660 
  148.3750    66.3650    18.5690    18.4350    17.2350    24.6490     2.5630    -9.8480 
  148.5000    68.6520    19.0410    18.6820    17.7340    24.6950     2.5670    -9.9790 
  148.6250    66.6970    19.9790    19.4370    19.9310    24.7170     2.5800   -10.1100 
  148.7500    62.5880    20.9450    20.3180    22.7650    24.7230     2.5960   -10.2290 
  148.8750    60.2770    21.6850    21.0630    24.1940    24.7230     2.6100   -10.2710 
  149.0000    62.0750    22.1090    21.5280    24.5070    24.7230     2.6170   -10.3090 
  149.1250    65.6970    22.2760    21.7100    24.1200    24.7030     2.6120   -10.5240 
  149.2500    67.2460    22.4000    21.8170    23.0790    24.6610     2.5960   -10.6990 
  149.3750    65.9620    22.5680    21.9800    22.6520    24.6430     2.5740   -10.6830 
  149.5000    63.3760    22.7380    22.2130    23.9050    24.6890     2.5500   -10.7180 
  149.6250    62.1330    22.7280    22.3760    23.5370    24.7480     2.5340   -10.8110 
  149.7500    62.6640    22.4340    22.3090    22.4250    24.7520     2.5260   -10.7330 
  149.8750    63.9060    21.8510    21.9390    21.7760    24.7330     2.5220   -10.7150 
