~V
VERS. 2.00: Ver 2.00
~W
STRT.M 60.0000:
STOP.M 254.0000:
STEP.M 0.1250:
NULL. -999.2500:
UWI. DF3029:
~C
DEPT.M :
SP.MV :
GR.API :
RML.OHMM :
RI. :
RXO.OHMM :
CALI.CM :
DEN.GM/CC :
~A
   60.0000   103.2350  -999.2500  -999.2500  -999.2500  -999.2500  -999.2500  -999.2500 
   60.1250   102.6200  -999.2500  -999.2500  -999.2500  -999.2500  -999.2500  -999.2500 
   60.2500   102.0080  -999.2500  -999.2500  -999.2500  -999.2500  -999.2500  -999.2500 
   60.3750   101.4190  -999.2500  -999.2500  -999.2500  -999.2500  -999.2500  -999.2500 
   60.5000   100.9030  -999.2500  -999.2500  -999.2500  -999.2500  -999.2500  -999.2500 
   60.6250   100.5020  -999.2500  -999.2500  -999.2500  -999.2500  -999.2500  -999.2500 
   60.7500   100.2130  -999.2500  -999.2500  -999.2500  -999.2500  -999.2500  -999.2500 
   60.8750   100.0170  -999.2500  -999.2500  -999.2500  -999.2500  -999.2500  -999.2500 
   61.0000    99.8590  -999.2500  -999.2500  -999.2500  -999.2500  -999.2500  -999.2500 
   61.1250    99.7010  -999.2500  -999.2500  -999.2500  -999.2500  -999.2500  -999.2500 
   61.2500    99.5510  -999.2500  -999.2500  -999.2500  -999.2500  -999.2500  -999.2500 
   61.3750    99.3830  -999.2500  -999.2500  -999.2500  -999.2500  -999.2500  -999.2500 
   61.5000    99.1510  -999.2500  -999.2500  -999.2500  -999.2500  -999.2500  -999.2500 
   61.6250    98.7520  -999.2500  -999.2500  -999.2500  -999.2500  -999.2500  -999.2500 
   61.7500    98.2050  -999.2500  -999.2500  -999.2500  -999.2500  -999.2500  -999.2500 
   61.8750    97.5720  -999.2500  -999.2500  -999.2500  -999.2500  -999.2500  -999.2500 
   62.0000    96.9240  -999.2500  -999.2500  -999.2500  -999.2500  -999.2500  -999.2500 
   62.1250    96.3320  -999.2500  -999.2500  -999.2500  -999.2500  -999.2500  -999.2500 
   62.2500    95.7760  -999.2500  -999.2500  -999.2500  -999.2500  -999.2500  -999.2500 
   62.3750    95.2480  -999.2500  -999.2500  -999.2500  -999.2500  -999.2500  -999.2500 
   62.5000    94.7200  -999.2500  -999.2500  -999.2500  -999.2500  -999.2500  -999.2500 
   62.6250    94.1680  -999.2500  -999.2500  -999.2500  -999.2500  -999.2500  -999.2500 
   62.7500    93.5850  -999.2500  -999.2500  -999.2500  -999.2500  -999.2500  -999.2500 
   62.8750    92.9150     0.0000     0.0000     0.0000     0.0000     0.0000  -999.2500 
   63.0000    92.1200     0.0000     0.0000     0.0000     0.0000     0.0000  -999.2500 
   63.1250    91.2370     0.0000     0.0000     0.0000     0.0000     0.0000  -999.2500 
   63.2500    90.3070     0.0000     0.0000     0.0000     0.0000     0.0000  -999.2500 
   63.3750    89.3690     0.0000     0.0000     0.0000     0.0000     0.0000  -999.2500 
   63.5000    88.4520     0.0000     0.0000     0.0000     0.0000     0.0000  -999.2500 
   63.6250    87.6460    14.8880     2.5060     0.5610     0.1340     6.2690  -999.2500 
   63.7500    86.9750    58.8560     9.9910     2.2460     0.5370    25.0780  -999.2500 
   63.8750    86.5140    57.5520     9.8750     2.2450     0.5390    25.0880  -999.2500 
   64.0000    86.3030    56.6050     9.6480     2.2400     0.5480    25.1080  -999.2500 
   64.1250    86.3980    53.6880     9.2630     2.2230     0.5700    25.1440  -999.2500 
   64.2500    86.7340    50.6630     8.8210     2.1920     0.5910    25.1600  -999.2500 
   64.3750    87.2660    50.1210     8.4490     2.1540     0.5930    25.1640  -999.2500 
   64.5000    87.9390    51.3030     8.2290     2.1210     0.5790    25.1640  -999.2500 
   64.6250    88.7100    52.5300     8.1130     2.1040     0.5640    25.1640  -999.2500 
   64.7500    89.5690    52.0530     7.9210     2.0980     0.5560    25.1640  -999.2500 
   64.8750    90.5470    50.5110     7.5610     2.0930     0.5380    25.1640  -999.2500 
   65.0000    91.6200    49.9660     7.0710     2.0810     0.5130    25.1640  -999.2500 
   65.1250    92.7500    51.0390     6.6380     2.0620     0.4760    25.1600  -999.2500 
   65.2500    93.7160    51.9260     6.4200     2.0410     0.4710    25.1260  -999.2500 
   65.3750    94.4940    50.8710     6.4270     2.0130     0.5080    25.0180  -999.2500 
   65.5000    95.0620    50.6620     6.5310     1.9580     0.6030    24.8150  -999.2500 
   65.6250    95.1640    53.6210     6.4650     1.8350     0.7460    24.4830  -999.2500 
   65.7500    94.7420    56.2570     6.0060     1.6250     0.9170    24.0830  -999.2500 
   65.8750    93.4220    56.5290     5.0300     1.3270     1.1230    23.7030  -999.2500 
   66.0000    91.0150    55.2880     3.6160     0.9650     1.3570    23.4400  -999.2500 
   66.1250    87.0800    54.8880     2.1950     0.6170     1.5640    23.2420  -999.2500 
   66.2500    81.6400    56.1350     1.1920     0.3530     1.7050    23.0880  -999.2500 
   66.3750    74.5760    59.0660     0.6570     0.1930     1.8160    22.9880  -999.2500 
   66.5000    65.7100    61.6320     0.4810     0.1280     2.0390    22.9960  -999.2500 
   66.6250    55.1420    60.5130     0.5990     0.1840     2.6290    23.1800  -999.2500 
   66.7500    43.5730    58.8230     0.9220     0.3970     3.7750    23.7170  -999.2500 
   66.8750    31.7200    59.4290     1.4360     0.8410     5.8010    25.0480  -999.2500 
   67.0000    20.2090    60.9360     2.1230     1.5900     8.2660    27.4150  -999.2500 
   67.1250     9.4740    59.6380     2.9650     2.7210     9.4620    29.5620  -999.2500 
   67.2500    -0.0240    58.3780     3.8720     4.0920     9.5740    29.5150  -999.2500 
   67.3750    -8.1820    60.1860     4.7670     5.5350     9.7650    27.6320  -999.2500 
   67.5000   -14.7030    64.5100     5.5740     6.8510    10.4980    25.8300  -999.2500 
   67.6250   -19.4350    68.7470     6.1880     7.8100    12.1850    25.1660  -999.2500 
   67.7500   -23.0190    71.2930     6.5800     8.3730    13.9540    25.0630  -999.2500 
   67.8750   -25.8030    71.0870     6.7400     8.5560    13.7470    25.0900  -999.2500 
   68.0000   -28.3140    69.6630     6.7180     8.4620    12.0440    25.1030  -999.2500 
   68.1250   -30.5270    70.2100     6.6120     8.2500    10.7980    25.0140  -999.2500 
   68.2500   -32.6570    70.7050     6.5350     8.0780    10.1450    24.8620  -999.2500 
   68.3750   -34.5720    70.2850     6.5290     7.9950     9.8260    24.7230  -999.2500 
   68.5000   -36.2550    70.2100     6.5880     7.9870    10.2240    24.5780  -999.2500 
   68.6250   -37.7850    69.8840     6.6790     8.0100    10.6970    24.4280  -999.2500 
   68.7500   -39.0500    68.7020     6.7630     8.0190    10.8650    24.3660  -999.2500 
   68.8750   -40.1500    66.9270     6.8280     7.9980    10.9030    24.3530  -999.2500 
   69.0000   -41.0950    65.9850     6.8770     7.9520    10.9570    24.3530  -999.2500 
   69.1250   -41.8390    66.5760     6.9200     7.8920    10.9270    24.3530  -999.2500 
   69.2500   -42.3740    68.4430     6.9670     7.8360    10.7970    24.3480  -999.2500 
   69.3750   -42.8440    69.4330     7.0190     7.7900    10.6980    24.3250  -999.2500 
   69.5000   -43.2310    68.8420     7.0730     7.7590    10.7990    24.2660  -999.2500 
   69.6250   -43.5650    68.5340     7.1270     7.7490    10.9800    24.1920  -999.2500 
   69.7500   -43.9210    67.6380     7.1780     7.7530    11.0990    24.0380  -999.2500 
   69.8750   -44.2630    65.0550     7.2210     7.7640    11.1090    23.7490  -999.2500 
   70.0000   -44.5130    62.5590     7.2520     7.7720    11.0810    23.3760  -999.2500 
   70.1250   -44.7190    64.2950     7.2700     7.7600    11.0650    23.1470  -999.2500 
   70.2500   -44.9770    68.9620     7.2840     7.7250    11.0070    23.0730  -999.2500 
   70.3750   -45.1380    73.3850     7.2940     7.6710    10.8570    23.0700  -999.2500 
   70.5000   -45.3800    74.1720     7.2970     7.6060    10.6400    23.0900  -999.2500 
   70.6250   -45.4740    70.7090     7.2830     7.5440    10.3610    23.1710  -999.2500 
   70.7500   -45.5320    67.2780     7.2520     7.4920    10.2280    23.3330  -999.2500 
   70.8750   -45.5810    65.0520     7.2110     7.4490    10.2740    23.5890  -999.2500 
   71.0000   -45.5080    63.9430     7.1680     7.4080    10.4910    23.8090  -999.2500 
   71.1250   -45.4630    64.4650     7.1360     7.3610    10.5140    23.8430  -999.2500 
