~V
VERS. 2.00: Ver 2.00
~W
STRT.M 65.0000:
STOP.M 252.0000:
STEP.M 0.1250:
NULL. -999.2500:
UWI. DF3012:
~C
DEPT.M :
GR.API :
RML.OHMM :
RI. :
RXO.OHMM :
CALI.CM :
DEN.GM/CC :
SP.MV :
~A
# ...
  110.0000    83.0280    10.7550     8.3750    10.8580    23.6300     2.2150   -29.8280 
  110.1250    79.1910    10.9150     8.5600    11.1350    23.5700     2.1950   -30.6030 
  110.2500    77.2970    10.9800     8.6720    11.2160    23.5690     2.1760   -31.2070 
  110.3750    78.8350    11.0160     8.7490    10.9430    23.5670     2.1590   -31.7060 
  110.5000    81.7440    11.0540     8.8180    10.5490    23.5220     2.1460   -32.0800 
  110.6250    83.5580    11.0860     8.8670    10.1190    23.4410     2.1390   -32.2860 
  110.7500    84.8260    11.0880     8.8750     9.7980    23.3760     2.1330   -32.3420 
  110.8750    86.1710    11.0570     8.8340     9.7210    23.3080     2.1280   -32.3580 
  111.0000    85.7670    11.0110     8.7580     9.8300    23.2080     2.1260   -32.2750 
  111.1250    81.5140    11.0010     8.6920    10.1730    23.1200     2.1430   -32.0710 
  111.2500    80.0580    11.0720     8.6840    11.0170    23.0510     2.1830   -32.0430 
  111.3750    82.9640    11.2380     8.7580    12.6640    23.0160     2.2410   -32.1400 
  111.5000    86.1250    11.4770     8.9100    15.7050    22.9840     2.2920   -32.1900 
  111.6250    84.4380    11.7240     9.1050    20.5620    22.9650     2.3010   -32.3820 
  111.7500    79.5150    11.8980     9.2770    22.5440    22.9410     2.2690   -32.7300 
  111.8750    77.2060    11.9440     9.3790    18.0060    22.9150     2.2130   -33.0050 
  112.0000    77.4500    11.8460     9.3830    13.3180    22.9370     2.1600   -33.2880 
  112.1250    76.1330    11.6170     9.2830    11.8550    23.0630     2.1300   -33.6870 
  112.2500    73.1000    11.3470     9.1370    11.2780    23.2190     2.1220   -33.8840 
  112.3750    69.7280    11.1160     9.0010    10.5190    23.3060     2.1290   -33.9710 
  112.5000    68.2550    10.9970     8.9340     9.8460    23.3170     2.1440   -34.0510 
  112.6250    69.1850    11.0600     8.9990     9.6510    23.2830     2.1630   -33.8210 
  112.7500    71.8940    11.2590     9.1740     9.7820    23.2540     2.1780   -33.4380 
  112.8750    74.1950    11.5020     9.4020    10.1300    23.2220     2.1870   -33.0460 
  113.0000    73.9890    11.6480     9.5780    10.7590    23.2530     2.1860   -32.4520 
  113.1250    72.2250    11.4950     9.5350    11.4080    23.4460     2.1790   -31.5080 
  113.2500    71.0090    11.0210     9.2270    11.4980    23.7680     2.1730   -30.4960 
  113.3750    73.2740    10.3000     8.6870    10.8620    24.0890     2.1770   -29.3240 
  113.5000    80.8500     9.5040     8.0350     9.6620    24.3510     2.1930   -27.9110 
  113.6250    90.9110     8.8630     7.4460     8.1730    24.5430     2.2170   -26.4880 
  113.7500    97.8380     8.4760     7.0260     6.8980    24.6470     2.2400   -25.1800 
  113.8750   100.2480     8.3280     6.7930     6.3010    24.6350     2.2560   -23.9820 
  114.0000    99.6830     8.3210     6.7020     6.3680    24.5780     2.2620   -22.8640 
  114.1250    98.0610     8.3080     6.6730     6.5260    24.5890     2.2640   -21.9910 
  114.2500    98.5590     8.1880     6.6120     6.3720    24.6420     2.2710   -21.3320 
  114.3750   100.7380     7.9500     6.4860     6.0460    24.6670     2.2850   -20.8190 
  114.5000   101.1950     7.6570     6.3120     5.7730    24.6520     2.3050   -20.5500 
  114.6250   102.9130     7.4250     6.1590     5.6030    24.6420     2.3250   -20.5490 
  114.7500   108.1260     7.3270     6.0880     5.4430    24.6530     2.3370   -20.4930 
  114.8750   110.8660     7.3780     6.1280     5.3540    24.6690     2.3370   -20.4180 
  115.0000   107.2980     7.5460     6.2720     5.4540    24.6310     2.3250   -20.5380 
  115.1250   104.3260     7.7680     6.4870     5.7620    24.5170     2.3060   -20.6590 
  115.2500   105.7770     7.9590     6.7030     6.0430    24.4050     2.2870   -20.7520 
  115.3750   106.4910     8.0670     6.8670     6.1480    24.3020     2.2700   -20.9460 
  115.5000   103.0360     8.0710     6.9480     6.1180    24.1910     2.2570   -21.0810 
  115.6250    99.3280     7.9810     6.9380     6.0820    24.0120     2.2540   -21.1230 
  115.7500   100.4980     7.8690     6.8850     6.0890    23.7130     2.2640   -21.1940 
  115.8750   105.6290     7.7820     6.8230     6.1000    23.4010     2.2860   -21.1290 
  116.0000   108.5080     7.7270     6.7600     6.0070    23.2310     2.3180   -20.9350 
  116.1250   104.0350     7.6600     6.6660     5.9280    23.3740     2.3500   -20.8400 
  116.2500    98.9060     7.5230     6.5080     6.0040    23.7720     2.3720   -20.6210 
  116.3750    99.2460     7.2950     6.2680     6.0380    24.2740     2.3820   -20.2680 
  116.5000   102.5590     6.9990     5.9640     5.7690    24.6490     2.3840   -20.0070 
  116.6250   104.7080     6.6980     5.6460     5.3370    24.8180     2.3810   -19.7570 
  116.7500   106.2400     6.4460     5.3680     5.1090    24.8800     2.3760   -19.4210 
  116.8750   107.2770     6.2550     5.1600     5.1120    24.8720     2.3690   -19.1860 
  117.0000   107.0910     6.1320     5.0420     5.3480    24.7690     2.3580   -19.1280 
  117.1250   101.3750     6.1630     5.0770     5.9620    24.5310     2.3390   -19.1340 
  117.2500    92.8910     6.5000     5.3540     6.7070    24.3440     2.3200   -19.2780 
  117.3750    86.1810     7.3920     6.0540     7.4420    24.3150     2.3160   -19.6640 
  117.5000    82.0510     9.0630     7.3810     8.5740    24.3580     2.3440   -20.1420 
  117.6250    77.5770    11.6340     9.5410    11.4670    24.4190     2.4150   -20.6330 
  117.7500    72.1550    14.5380    12.1720    16.5260    24.4940     2.5000   -21.4050 
  117.8750    70.2130    17.0520    14.7110    23.8120    24.5790     2.5590   -22.3780 
  118.0000    72.6080    18.3900    16.4200    31.8350    24.5870     2.5540   -23.2850 
  118.1250    72.9630    17.8420    16.4650    30.9680    24.4180     2.4710   -24.2520 
  118.2500    69.0370    16.0700    15.2300    22.2900    24.0680     2.3640   -25.3540 
  118.3750    65.2540    13.9430    13.4400    15.4880    23.6850     2.2720   -26.3140 
  118.5000    66.1050    12.2290    11.8120    12.3390    23.4760     2.2140   -27.1970 
  118.6250    69.5890    11.3820    10.8100    11.5120    23.4230     2.1970   -28.1370 
  118.7500    70.4320    11.1730    10.3510    11.3720    23.4010     2.1970   -28.8180 
  118.8750    69.5180    11.3580    10.2950    11.4440    23.3570     2.1980   -29.2920 
  119.0000    69.7890    11.7030    10.4750    11.5450    23.3370     2.1930   -29.7420 
  119.1250    72.8680    12.0300    10.7410    11.5900    23.4340     2.1850   -29.9250 
  119.2500    76.5220    12.2620    10.9760    11.7420    23.5900     2.1820   -29.8860 
  119.3750    77.0810    12.3830    11.1380    12.0860    23.7010     2.1880   -29.8600 
  119.5000    74.3470    12.4060    11.2190    12.5450    23.7530     2.2020   -29.7300 
  119.6250    72.2270    12.3470    11.2150    12.8810    23.7920     2.2160   -29.4370 
  119.7500    73.5330    12.2540    11.1600    12.9390    23.7970     2.2240   -29.2780 
  119.8750    76.1480    12.1570    11.0730    12.7350    23.7520     2.2230   -29.1610 
  120.0000    76.5210    12.0730    10.9690    12.3280    23.6470     2.2170   -28.8940 
  120.1250    74.5100    11.9980    10.8510    11.7830    23.5720     2.2090   -28.6040 
  120.2500    71.0420    11.9080    10.7130    11.1800    23.5450     2.2030   -28.4150 
  120.3750    67.8460    11.7840    10.5470    10.6140    23.5330     2.2030   -28.1980 
  120.5000    67.1210    11.6240    10.3540    10.1760    23.4970     2.2080   -27.9360 
  120.6250    69.4410    11.4600    10.1550     9.8930    23.4180     2.2160   -27.7110 
  120.7500    71.7460    11.3420     9.9890     9.6480    23.3600     2.2260   -27.4780 
  120.8750    72.3710    11.2990     9.8830     9.3770    23.3380     2.2330   -27.1800 
  121.0000    73.2460    11.3340     9.8470     9.2210    23.3360     2.2370   -27.0080 
  121.1250    75.5180    11.4250     9.8730     9.5520    23.3360     2.2390   -27.0580 
