~V
VERS. 2.00: Ver 2.00
~W
STRT.M 60.0000:
STOP.M 238.0000:
STEP.M 0.1250:
NULL. -999.2500:
UWI. DF308:
~C
DEPT.M :
DEN.GM/CC :
SP.MV :
AC.US/MT :
GR.API :
CALI.CM :
RXO.OHMM :
RI. :
RML.OHMM :
~A
# ...
  170.0000     2.4320   -24.0100   419.0790    93.6520    24.1140    16.6950    12.9500    16.1630 
  170.1250     2.4450   -24.0830   408.0080    91.3610    23.9760    17.9120    14.2690    18.1730 
  170.2500     2.4870   -24.1800   384.9690    82.2840    23.8910    19.8220    16.2900    21.0400 
  170.3750     2.5460   -24.2730   353.9520    73.9160    24.0030    24.8070    18.9140    24.4650 
  170.5000     2.5940   -24.3450   328.3010    70.7320    24.1500    34.2720    21.6610    27.6640 
  170.6250     2.6050   -24.4460   326.1840    71.5950    24.1920    42.4050    23.2580    29.0060 
  170.7500     2.5870   -24.5400   345.4690    73.2040    24.1650    39.3890    22.8570    27.8040 
  170.8750     2.5610   -24.6070   375.0960    77.5520    24.1360    28.6880    20.6180    24.4780 
  171.0000     2.5370   -24.6680   401.2630    84.0040    24.1570    19.7880    17.5610    20.3500 
  171.1250     2.5110   -24.7030   414.5120    88.4790    24.1890    15.8390    14.8030    16.8790 
  171.2500     2.4800   -24.7290   420.0800    91.2710    24.1900    13.8610    12.7610    14.5340 
  171.3750     2.4580   -24.7550   425.9480    93.1220    24.1580    12.6460    11.4430    13.2360 
  171.5000     2.4610   -24.7720   433.9850    95.5360    24.1200    11.8390    10.7080    12.6820 
  171.6250     2.4830   -24.7580   441.2620    99.8260    24.1050    11.2620    10.4080    12.5590 
  171.7500     2.4960   -24.7170   445.2720   105.5420    24.0920    10.8790    10.2980    12.5390 
  171.8750     2.4950   -24.6620   446.4930   110.0100    24.0080    10.7080    10.2700    12.5080 
  172.0000     2.4890   -24.5770   446.7290   110.9730    23.8600    10.6060    10.2620    12.4230 
  172.1250     2.4860   -24.4690   446.2030   110.0520    23.8370    10.4300    10.2500    12.2770 
  172.2500     2.4800   -24.3450   443.7180   110.2440    23.9160    10.3660    10.2520    12.1320 
  172.3750     2.4710   -24.2030   438.8800   110.0010    24.0340    10.5950    10.3240    12.0850 
  172.5000     2.4640   -24.0580   431.8230   105.7040    24.1010    11.0630    10.5390    12.2540 
  172.6250     2.4680   -23.9010   421.4070    98.7150    24.0950    11.5100    10.9730    12.7520 
  172.7500     2.4850   -23.7630   409.2090    91.7220    24.0740    12.0890    11.5510    13.4600 
  172.8750     2.5110   -23.6330   400.4920    88.5520    24.0750    13.1590    12.1450    14.1990 
  173.0000     2.5340   -23.5340   401.3870    91.1570    24.1000    14.0800    12.5750    14.7350 
  173.1250     2.5350   -23.4650   412.8800    98.3470    24.1630    13.6710    12.6230    14.8140 
  173.2500     2.5160   -23.4060   425.2580   103.6160    24.2300    12.4800    12.3320    14.5210 
  173.3750     2.4910   -23.3740   432.4910   103.8710    24.3410    11.7610    11.8280    14.0320 
  173.5000     2.4800   -23.3510   434.0710   103.6790    24.4130    11.7170    11.2790    13.5540 
  173.6250     2.4850   -23.3290   432.3970   105.7360    24.3250    11.7490    10.8440    13.2600 
  173.7500     2.4870   -23.3110   429.7160   107.5150    24.2100    11.5600    10.5620    13.1400 
  173.8750     2.4830   -23.2930   426.8590   107.9710    24.2510    11.3980    10.4390    13.1740 
  174.0000     2.4840   -23.2840   424.6570   107.5430    24.3020    11.6350    10.5190    13.4370 
  174.1250     2.4890   -23.2940   423.3190   106.2190    24.2160    12.5520    11.0350    14.3120 
  174.2500     2.4710   -23.3170   422.0130   101.2990    24.1110    13.9870    12.1950    16.1390 
  174.3750     2.4210   -23.3450   420.6760    92.5350    24.0430    17.3420    14.3250    19.3490 
  174.5000     2.3590   -23.3690   419.6690    84.0250    24.0630    26.8350    17.8380    24.3500 
  174.6250     2.3240   -23.4030   416.9620    79.1200    24.1760    40.8010    23.4110    31.6430 
  174.7500     2.3310   -23.4480   407.2840    77.0620    24.3080    49.6760    30.5180    40.2410 
  174.8750     2.3800   -23.4900   386.1050    75.3450    24.3550    50.5360    37.7770    48.2450 
  175.0000     2.4630   -23.5150   354.9070    73.0710    24.3000    49.5450    42.7340    52.7360 
  175.1250     2.5550   -23.5220   326.2400    71.2130    24.1460    49.7130    42.4360    50.6950 
  175.2500     2.6210   -23.5190   314.7700    71.3330    23.9910    47.0940    38.2530    44.5010 
  175.3750     2.6430   -23.5060   324.3570    74.1940    23.8990    40.1680    32.5970    37.2160 
  175.5000     2.6330   -23.5090   345.2460    78.4330    23.8000    31.0490    27.5750    31.2120 
  175.6250     2.6190   -23.5230   356.0260    81.6080    23.7310    23.2800    24.7120    28.3250 
  175.7500     2.6190   -23.5340   344.8830    81.4790    23.7620    20.1350    24.2530    28.7690 
  175.8750     2.6420   -23.5490   313.5840    76.0520    23.8510    22.3960    26.4830    32.7010 
  176.0000     2.6890   -23.5640   273.1940    67.2670    23.8660    31.9440    31.4260    39.7240 
  176.1250     2.7480   -23.5480   241.5650    62.0610    23.7750    64.9970    37.8950    47.4460 
  176.2500     2.7810   -23.4730   230.9030    60.3020    23.6870   102.3050    41.6110    50.3760 
  176.3750     2.7640   -23.3340   245.0470    57.8730    23.6050   100.5220    39.0610    45.1530 
  176.5000     2.6950   -23.1130   277.7750    53.0530    23.5390    59.0280    31.4520    34.6290 
  176.6250     2.5970   -22.8280   314.5890    50.6360    23.5200    27.6720    23.4990    24.9280 
  176.7500     2.5070   -22.5300   344.0400    52.3390    23.5550    16.2840    17.6800    18.3060 
  176.8750     2.4500   -22.2470   366.5200    54.8110    23.6520    11.8780    13.9580    14.3760 
  177.0000     2.4340   -21.9780   386.5950    54.6590    23.7410    10.2000    11.7640    12.3050 
  177.1250     2.4420   -21.7750   404.5850    51.4780    23.7740     9.6210    10.6750    11.4630 
  177.2500     2.4420   -21.6370   416.0190    48.7600    23.8260     9.1830    10.1420    11.1420 
  177.3750     2.4270   -21.5710   418.0140    48.0630    23.8760     8.8470     9.9560    11.0880 
  177.5000     2.4060   -21.5820   411.8100    48.5520    23.8420     8.7950     9.9910    11.1790 
  177.6250     2.3940   -21.6630   400.9810    48.6540    23.7830     9.2540    10.1850    11.3800 
  177.7500     2.3930   -21.7590   389.7420    48.3510    23.6830    10.1130    10.4580    11.6520 
  177.8750     2.4010   -21.8460   379.5140    47.2830    23.5680    10.8300    10.7620    11.9670 
  178.0000     2.4170   -21.9360   370.8140    44.5160    23.4830    10.9820    11.0460    12.2820 
  178.1250     2.4340   -22.0150   365.1070    42.1590    23.4950    10.6600    11.2300    12.5230 
  178.2500     2.4430   -22.1120   364.5050    43.8150    23.5670    10.4890    11.2560    12.6270 
  178.3750     2.4430   -22.2190   370.8120    48.5310    23.5650    10.4160    11.0900    12.5490 
  178.5000     2.4330   -22.3440   381.9620    50.7200    23.4850    10.1910    10.7630    12.3190 
  178.6250     2.4150   -22.4660   389.3290    48.0720    23.4280     9.5660    10.3860    12.0610 
  178.7500     2.3990   -22.5940   386.2590    45.0160    23.4820     9.0560    10.1010    11.9310 
  178.8750     2.3940   -22.7320   374.6420    42.2020    23.6220     9.3220     9.9870    12.0170 
  179.0000     2.4020   -22.8630   363.4880    39.1990    23.7670    10.7600    10.0630    12.3180 
  179.1250     2.4110   -22.9680   362.9770    39.6390    23.8590    12.9260    10.2800    12.7300 
  179.2500     2.4040   -23.0240   370.2180    43.2260    23.8560    14.5980    10.5090    13.0840 
  179.3750     2.3840   -23.0530   376.9360    46.8350    23.8030    15.1240    10.6920    13.3270 
  179.5000     2.3720   -23.0460   375.2820    49.0660    23.7160    14.4760    10.8430    13.5120 
  179.6250     2.3840   -23.0180   361.6250    50.5280    23.8020    13.4330    11.0260    13.7600 
  179.7500     2.4110   -22.9670   344.4800    49.7570    23.9050    13.1440    11.2600    14.0990 
  179.8750     2.4360   -22.9060   334.0690    47.5110    23.9380    14.1400    11.4910    14.4380 
