~V
VERS. 2.00: Ver 2.00
~W
STRT.M 65.0000:
STOP.M 273.0000:
STEP.M 0.1250:
NULL. -999.2500:
UWI. DF3011:
~C
DEPT.M :
DEN.GM/CC :
GR.API :
RML.OHMM :
RI. :
RXO.OHMM :
CALI.CM :
AC.US/MT :
SP.MV :
~A
# ...
   95.0000  -999.2500    60.1170    10.6660     9.0460    10.9920    24.2890  -999.2500   -19.4030 
   95.1250  -999.2500    57.8430    10.8300     9.2540    11.4590    24.2590  -999.2500   -19.0310 
   95.2500  -999.2500    56.8120    11.0600     9.4900    12.0470    24.2730  -999.2500   -18.5700 
   95.3750  -999.2500    57.3840    11.3650     9.7560    12.7020    24.3230  -999.2500   -17.9950 
   95.5000  -999.2500    58.8560    11.7390    10.0500    13.4540    24.3940  -999.2500   -17.2670 
   95.6250  -999.2500    60.2350    12.1110    10.3220    13.7090    24.4030  -999.2500   -16.3530 
   95.7500  -999.2500    61.1850    12.3110    10.4600    13.1340    24.3680  -999.2500   -15.3290 
   95.8750  -999.2500    61.2040    12.1430    10.3160    11.9540    24.3290  -999.2500   -14.2550 
   96.0000  -999.2500    61.7980    11.4660     9.7730    10.8340    24.3160  -999.2500   -13.1590 
   96.1250  -999.2500    65.3090    10.2530     8.7750     9.7080    24.3030  -999.2500   -12.1050 
   96.2500  -999.2500    69.0720     8.8480     7.5740     8.3240    24.3520  -999.2500   -11.1510 
   96.3750  -999.2500    72.0490     7.5460     6.3990     6.8030    24.6240  -999.2500   -10.3670 
   96.5000  -999.2500    76.5350     6.5500     5.4350     5.5450    25.0990  -999.2500    -9.8270 
   96.6250  -999.2500    86.2100     5.9980     4.8370     5.2140    25.3300  -999.2500    -9.5790 
   96.7500  -999.2500    95.5410     5.8150     4.5680     5.3940    25.2260  -999.2500    -9.5340 
   96.8750  -999.2500    98.3860     5.9790     4.6130     5.7630    25.0580  -999.2500    -9.6530 
   97.0000  -999.2500    94.2200     6.4680     4.9440     6.0280    24.9050  -999.2500    -9.8880 
   97.1250  -999.2500    87.5640     7.2480     5.5250     6.4430    24.5870  -999.2500   -10.1500 
   97.2500  -999.2500    81.7290     8.0990     6.1840     7.0490    24.1180  -999.2500   -10.3090 
   97.3750  -999.2500    77.6470     8.7860     6.7480     7.8390    23.7970  -999.2500   -10.2660 
   97.5000  -999.2500    77.0750     9.0650     7.0350     8.5310    23.8540  -999.2500    -9.9670 
   97.6250  -999.2500    79.1570     8.6960     6.8470     8.6450    24.0910  -999.2500    -9.4850 
   97.7500  -999.2500    82.9460     7.8640     6.2820     7.9040    24.1730  -999.2500    -8.9660 
   97.8750  -999.2500    89.9020     6.8330     5.5010     6.5680    24.0070  -999.2500    -8.4840 
   98.0000  -999.2500    97.7280     5.8890     4.7130     5.4170    23.6760  -999.2500    -8.0990 
   98.1250  -999.2500   100.6030     5.3050     4.1470     5.1090    23.4060  -999.2500    -7.8870 
   98.2500  -999.2500   100.0950     5.1850     3.9290     5.2270    23.2490  -999.2500    -7.9250 
   98.3750  -999.2500    99.6990     5.7010     4.2120     5.8600    23.0760  -999.2500    -8.2340 
   98.5000  -999.2500    96.9760     7.0290     5.1580     7.4740    22.8920  -999.2500    -8.8130 
   98.6250  -999.2500    86.0720     9.3430     6.9610    11.5880    22.9930  -999.2500    -9.6220 
   98.7500  -999.2500    73.0100    12.1560     9.2920    17.9930    23.4010  -999.2500   -10.5470 
   98.8750  -999.2500    63.5070    14.7350    11.6470    25.3630    24.1260  -999.2500   -11.4900 
   99.0000  -999.2500    62.0350    16.1950    13.3310    32.0910    24.8820  -999.2500   -12.3900 
   99.1250  -999.2500    65.4210    15.5320    13.5150    32.2310    25.0370  -999.2500   -13.2370 
   99.2500  -999.2500    67.9390    13.5520    12.4950    24.6790    24.7020  -999.2500   -13.9920 
   99.3750  -999.2500    69.4280    11.3040    10.9400    15.7560    24.2630  -999.2500   -14.6610 
   99.5000  -999.2500    71.2030     9.5740     9.5190    11.2210    24.0500  -999.2500   -15.2160 
   99.6250  -999.2500    71.8010     8.9880     8.6420    10.2170    24.0300  -999.2500   -15.6460 
   99.7500  -999.2500    68.9210     8.9000     8.2180    10.0800    24.0260  -999.2500   -15.9640 
   99.8750  -999.2500    66.3450     9.0550     8.0910    10.1090    23.9850  -999.2500   -16.2080 
  100.0000  -999.2500    66.3560     9.2060     8.0690    10.1840    23.9130  -999.2500   -16.4000 
  100.1250  -999.2500    69.3580     9.1490     7.9750    10.2670    23.8840  -999.2500   -16.5510 
  100.2500  -999.2500    73.1430     8.9040     7.7680    10.2960    23.9100  -999.2500   -16.6990 
  100.3750  -999.2500    75.7490     8.5860     7.5050    10.3020    24.0230  -999.2500   -16.8650 
  100.5000  -999.2500    75.8510     8.3380     7.2880    10.1880    24.1720  -999.2500   -17.0780 
  100.6250  -999.2500    75.0230     8.2950     7.2340     9.9870    24.2690  -999.2500   -17.2930 
  100.7500  -999.2500    76.5910     8.4520     7.3590     9.8500    24.2320  -999.2500   -17.4680 
  100.8750  -999.2500    77.6730     8.7640     7.6410     9.7940    24.1410  -999.2500   -17.5890 
  101.0000  -999.2500    74.9790     9.1540     8.0250     9.7150    24.0610  -999.2500   -17.6330 
  101.1250  -999.2500    70.1250     9.5380     8.4330     9.7000    23.9800  -999.2500   -17.5490 
  101.2500  -999.2500    66.4450     9.8530     8.7830     9.8060    23.9120  -999.2500   -17.3060 
  101.3750  -999.2500    64.9050    10.0640     9.0080     9.9090    23.9320  -999.2500   -16.8530 
  101.5000  -999.2500    63.9990    10.1280     9.0390     9.9840    24.0590  -999.2500   -16.1800 
  101.6250  -999.2500    64.4500     9.9170     8.7630     9.9930    24.2170  -999.2500   -15.2690 
  101.7500  -999.2500    67.9360     9.3960     8.2050     9.7630    24.3200  -999.2500   -14.2180 
  101.8750  -999.2500    73.5940     8.6010     7.4300     9.1580    24.4840  -999.2500   -13.1030 
  102.0000  -999.2500    78.8930     7.6910     6.5710     8.1530    24.7890  -999.2500   -12.0540 
  102.1250  -999.2500    82.4710     6.9390     5.8270     7.0010    25.0640  -999.2500   -11.2010 
  102.2500  -999.2500    88.2880     6.5050     5.3250     6.1590    25.1260  -999.2500   -10.5590 
  102.3750  -999.2500    94.2000     6.4450     5.1340     5.9770    25.0250  -999.2500   -10.1820 
  102.5000  -999.2500    94.3630     6.7290     5.2620     6.3470    24.8490  -999.2500   -10.0950 
  102.6250  -999.2500    87.8120     7.2970     5.6970     7.0300    24.6130  -999.2500   -10.3100 
  102.7500  -999.2500    82.2800     7.9630     6.2770     7.9520    24.3160  -999.2500   -10.6870 
  102.8750  -999.2500    80.4480     8.5740     6.8640     8.9330    24.0220  -999.2500   -11.1010 
  103.0000  -999.2500    78.3720     8.9950     7.3280     9.7420    23.8250  -999.2500   -11.4140 
  103.1250  -999.2500    75.3270     9.1110     7.5530    10.0700    23.6580  -999.2500   -11.4910 
  103.2500  -999.2500    73.6920     9.0130     7.5850     9.9650    23.4170  -999.2500   -11.3460 
  103.3750  -999.2500    73.0240     8.8170     7.5080     9.6610    23.2320  -999.2500   -10.9540 
  103.5000  -999.2500    72.5090     8.6660     7.4330     9.3420    23.3420  -999.2500   -10.3450 
  103.6250  -999.2500    73.7320     8.7320     7.5020     9.1410    23.4970  -999.2500    -9.5900 
  103.7500  -999.2500    76.4730     9.0480     7.7480     9.1460    23.5880  -999.2500    -8.7430 
  103.8750  -999.2500    77.6740     9.5340     8.1230     9.4700    23.5670  -999.2500    -7.8090 
  104.0000  -999.2500    77.6460     9.9720     8.4860    10.0760    23.4910  -999.2500    -6.8480 
  104.1250  -999.2500    80.2270     9.9930     8.5780    10.6350    23.4910  -999.2500    -5.9360 
  104.2500  -999.2500    84.6830     9.4090     8.2650    10.6170    23.6120  -999.2500    -5.0930 
  104.3750  -999.2500    88.9150     8.2810     7.5380     9.3820    23.9010  -999.2500    -4.3430 
  104.5000  -999.2500    93.3890     6.9100     6.5510     7.3020    24.4280  -999.2500    -3.6560 
  104.6250  -999.2500   101.1390     5.7260     5.5770     5.8850    24.9400  -999.2500    -3.0430 
  104.7500  -999.2500   109.3800     5.0990     4.8280     5.1620    25.2890  -999.2500    -2.5670 
  104.8750  -999.2500   115.3640     4.8350     4.3750     4.7480    25.5470  -999.2500    -2.2780 
