~V
VERS. 2.00: Ver 2.00
~W
STRT.M 65.0000:
STOP.M 273.0000:
STEP.M 0.1250:
NULL. -999.2500:
UWI. DF3011:
~C
DEPT.M :
DEN.GM/CC :
GR.API :
RML.OHMM :
RI. :
RXO.OHMM :
CALI.CM :
AC.US/MT :
SP.MV :
~A
# ...
  185.0000     1.9790    52.9190     4.7870     4.3400     4.2750    29.1610   402.7750    -2.4290 
  185.1250     1.8960    49.6540     4.7880     4.3410     4.2710    31.8540   406.5280    -2.1300 
  185.2500     1.8400    46.6780     4.8210     4.3720     4.2460    35.4430   408.0950    -1.8860 
  185.3750     1.8280    43.9870     4.8590     4.4090     4.2130    38.7320   408.6020    -1.7290 
  185.5000     1.8600    41.8610     4.9020     4.4500     4.1860    40.7340   409.8730    -1.6300 
  185.6250     1.9290    40.7900     4.9420     4.4880     4.1650    40.7050   410.7110    -1.5880 
  185.7500     2.0030    40.6710     4.9670     4.5130     4.1560    39.4290   408.5410    -1.6170 
  185.8750     2.0590    40.6680     4.9780     4.5200     4.1490    38.5560   404.7890    -1.7010 
  186.0000     2.0820    40.0250     4.9810     4.5190     4.1910    38.5670   403.9510    -1.8310 
  186.1250     2.0840    38.6810     5.0030     4.5400     4.2940    39.1850   407.3010    -2.0550 
  186.2500     2.0960    39.9700     5.0580     4.6050     4.4550    38.9920   408.7020    -2.3740 
  186.3750     2.1320    45.7440     5.1540     4.7240     4.6740    37.5300   403.1520    -2.7390 
  186.5000     2.1860    52.4110     5.2710     4.8860     4.9060    35.2850   391.2530    -3.1430 
  186.6250     2.2380    57.4900     5.4260     5.0720     5.0900    33.4800   381.3420    -3.6650 
  186.7500     2.2750    63.3460     5.6260     5.2540     5.2720    32.2230   380.7390    -4.2940 
  186.8750     2.2980    72.7100     5.8900     5.4220     5.4880    30.7970   388.4640    -5.0280 
  187.0000     2.3140    84.6840     6.1640     5.5900     5.7310    29.6690   397.2430    -5.8840 
  187.1250     2.3190    96.6060     6.4930     5.7980     6.0660    29.5880   402.9840    -6.8820 
  187.2500     2.3160   104.4480     6.8880     6.0710     6.6400    29.4240   408.1170    -7.9590 
  187.3750     2.3100   104.7420     7.3290     6.4120     7.5570    28.2540   411.0600    -9.1050 
  187.5000     2.3130    99.7150     7.7720     6.7920     8.7880    26.9910   407.5160   -10.2840 
  187.6250     2.3350    97.4130     8.1280     7.1380    10.0920    26.1640   397.0880   -11.4180 
  187.7500     2.3640    97.2710     8.3400     7.3800    11.0240    25.8850   387.7070   -12.4880 
  187.8750     2.3850    95.5250     8.3830     7.4790    11.1520    25.8660   385.7270   -13.4930 
  188.0000     2.3880    94.0840     8.2810     7.4380    10.7550    25.9230   392.5980   -14.4290 
  188.1250     2.3760    98.5240     8.1060     7.2980    10.1180    25.8430   404.7710   -15.2540 
  188.2500     2.3610   102.9170     7.9610     7.1500     9.7140    25.7150   414.7540   -15.9360 
  188.3750     2.3480   100.9080     7.8970     7.0490     9.5550    25.6670   421.1530   -16.4350 
  188.5000     2.3410    94.6870     7.9270     7.0230     9.4810    25.6540   424.6410   -16.7720 
  188.6250     2.3440    92.0530     8.0560     7.0870     9.4960    25.5770   424.2120   -16.9850 
  188.7500     2.3540    92.2150     8.2640     7.2250     9.5070    25.4360   420.1390   -17.1050 
  188.8750     2.3690    91.3480     8.5530     7.4380     9.5080    25.3170   413.8190   -17.1520 
  189.0000     2.3860    90.1050     8.9250     7.7300     9.5950    25.2630   407.6380   -17.1330 
  189.1250     2.4020    93.0070     9.3530     8.0990    10.2520    25.2550   403.3270   -17.0750 
  189.2500     2.4160    95.8260     9.7490     8.4920    11.6110    25.2550   399.4880   -16.9830 
  189.3750     2.4230    95.7060    10.0320     8.8450    13.2000    25.2570   395.0160   -16.8590 
  189.5000     2.4220    93.9460    10.1490     9.0930    14.3270    25.2620   391.3920   -16.7170 
  189.6250     2.4090    95.5730    10.0720     9.1670    14.3270    25.2610   389.3070   -16.5150 
  189.7500     2.3920   100.5900     9.8890     9.0920    13.5610    25.2710   388.0910   -16.2320 
  189.8750     2.3800   104.3450     9.6550     8.9010    12.7160    25.3350   388.3770   -15.8770 
  190.0000     2.3790   104.9450     9.3920     8.6260    12.0880    25.4950   390.8000   -15.4480 
  190.1250     2.3900   104.9240     9.0620     8.2630    11.7180    25.5780   393.4770   -14.8700 
  190.2500     2.4010   107.5290     8.6220     7.8150    11.0590    25.6150   394.9090   -14.1660 
  190.3750     2.4000   109.5010     8.0580     7.2830     9.9750    25.6670   398.0170   -13.3480 
  190.5000     2.3800   104.7410     7.4220     6.7070     8.6240    25.9110   405.9730   -12.4080 
  190.6250     2.3420    94.3980     6.8700     6.1940     7.2110    26.6120   419.7970   -11.3340 
  190.7500     2.3080    85.5850     6.5480     5.8530     6.0430    27.6050   434.2000   -10.2570 
  190.8750     2.2940    79.2480     6.5560     5.7580     5.3850    28.2130   442.8590    -9.2530 
  191.0000     2.3070    75.6500     6.8790     5.9150     5.3650    28.1390   438.8670    -8.3500 
  191.1250     2.3470    77.3850     7.3860     6.2580     5.7840    27.9080   419.2990    -7.5990 
  191.2500     2.3880    81.6150     7.7940     6.5920     6.2420    27.9380   396.3780    -6.9700 
  191.3750     2.4120    84.5120     7.8970     6.7640     6.5270    28.1230   381.9000    -6.4380 
  191.5000     2.4100    83.1990     7.5640     6.6760     6.4810    28.3290   381.3550    -5.9570 
  191.6250     2.3890    76.0410     6.9060     6.3150     6.0080    29.3680   392.3250    -5.5370 
  191.7500     2.3680    62.5710     6.2650     5.8570     5.4060    30.8530   406.5980    -5.1030 
  191.8750     2.3560    49.1250     5.8850     5.4360     4.9760    31.6220   416.4050    -4.6130 
  192.0000     2.3520    43.4920     5.6680     5.1330     4.7880    31.8350   414.9660    -4.0650 
  192.1250     2.3480    45.0890     5.6150     4.9930     4.7720    32.4250   404.4540    -3.4880 
  192.2500     2.3430    46.7360     5.6470     4.9670     4.8020    32.9690   396.0430    -2.9540 
  192.3750     2.3370    47.3350     5.7240     5.0210     4.8440    32.8200   392.8860    -2.5530 
  192.5000     2.3340    50.3660     5.8340     5.1310     4.9300    31.3830   390.7050    -2.3190 
  192.6250     2.3280    58.4790     5.9940     5.2900     5.0880    28.9800   385.7380    -2.2250 
  192.7500     2.3120    68.0180     6.1990     5.4810     5.3350    26.8270   382.4170    -2.1790 
  192.8750     2.2860    75.8500     6.4250     5.6850     5.6370    25.8760   384.3010    -2.1290 
  193.0000     2.2600    80.3540     6.6370     5.8730     5.9060    25.6780   390.8770    -2.0810 
  193.1250     2.2530    83.4460     6.7780     6.0070     6.2040    25.6500   394.8630    -2.0580 
  193.2500     2.2700    87.0410     6.8390     6.0770     6.3870    25.6150   389.3950    -2.0750 
  193.3750     2.3070    91.1570     6.8210     6.0860     6.4120    25.6210   376.9720    -2.1100 
  193.5000     2.3520    93.7610     6.7450     6.0460     6.3820    25.5410   366.6000    -2.1610 
  193.6250     2.3870    95.7410     6.5980     5.9610     6.3870    25.4930   366.2600    -2.2630 
  193.7500     2.4040    98.1250     6.4130     5.8390     6.5320    25.4680   370.6060    -2.4230 
  193.8750     2.4060    97.3120     6.2330     5.6910     6.7020    25.4630   373.9740    -2.6150 
  194.0000     2.3970    91.9510     6.0840     5.5510     6.6940    25.4590   376.1970    -2.8380 
  194.1250     2.3860    91.3450     6.0370     5.5060     6.6040    25.4590   379.2410    -3.1420 
  194.2500     2.3780    98.8070     6.1830     5.6440     6.8150    25.4590   382.2840    -3.5160 
  194.3750     2.3750   105.4850     6.5930     6.0310     7.6940    25.4590   382.2440    -3.9210 
  194.5000     2.3750   102.4760     7.2710     6.6710     9.2280    25.4590   377.2960    -4.3700 
  194.6250     2.3720    90.9650     8.1320     7.4830    11.1570    25.4590   368.2960    -4.8890 
  194.7500     2.3650    79.7540     8.9530     8.2580    12.8630    25.4590   359.1070    -5.4630 
  194.8750     2.3520    73.4600     9.5630     8.8330    13.8210    25.4590   353.5710    -6.1230 
