~V
VERS. 2.00: Ver 2.00
~W
STRT.M 60.0000:
STOP.M 282.0000:
STEP.M 0.1250:
NULL. -999.2500:
UWI. DF3058:
~C
DEPT.M :
GR.API :
RML.OHMM :
RI. :
RXO.OHMM :
CALI.CM :
DEN.GM/CC :
SP.MV :
~A
# ...
  172.5000    78.9160    24.7060    23.0270    22.8710    24.4220     2.3520   -21.2520 
  172.6250    77.1870    27.0810    25.0400    25.0560    24.4240     2.3530   -21.2680 
  172.7500    75.2970    30.7020    28.3240    29.2410    24.4250     2.3460   -21.2890 
  172.8750    73.0270    35.2180    32.6310    35.2210    24.4250     2.3320   -21.3200 
  173.0000    70.7210    40.0580    37.4550    41.8760    24.4250     2.3130   -21.3620 
  173.1250    69.4680    44.4170    41.9870    47.2550    24.4230     2.2970   -21.4020 
  173.2500    69.6760    47.8900    45.6460    50.5450    24.4210     2.2870   -21.4450 
  173.3750    70.8880    50.5630    48.3490    52.2580    24.4280     2.2830   -21.4780 
  173.5000    72.5070    52.9720    50.5110    54.1060    24.4610     2.2820   -21.4900 
  173.6250    74.0460    56.0030    52.9410    57.2840    24.4790     2.2800   -21.4860 
  173.7500    74.3510    60.0440    56.1470    61.9710    24.4860     2.2770   -21.4630 
  173.8750    73.4810    64.9530    60.1100    68.2260    24.4860     2.2720   -21.4350 
  174.0000    71.6760    70.0550    64.3110    75.4330    24.4860     2.2690   -21.3740 
  174.1250    69.0130    73.9480    67.5640    79.8270    24.4860     2.2680   -21.3070 
  174.2500    67.0150    75.5710    68.8960    79.3250    24.4860     2.2680   -21.2280 
  174.3750    68.4930    74.3540    67.7530    75.0170    24.4860     2.2690   -21.1070 
  174.5000    72.8910    70.5330    64.2730    69.4660    24.4860     2.2730   -20.9900 
  174.6250    75.1580    65.1620    59.3050    63.0930    24.4860     2.2830   -20.8750 
  174.7500    74.0500    60.3450    54.6110    56.3430    24.4860     2.2980   -20.7520 
  174.8750    72.0880    57.6540    51.5330    50.8310    24.4860     2.3150   -20.6050 
  175.0000    70.7120    58.2390    51.2070    48.9760    24.4860     2.3280   -20.4710 
  175.1250    67.9910    63.7700    55.3320    54.5760    24.4860     2.3300   -20.3230 
  175.2500    63.7210    73.7370    64.0200    65.8480    24.4860     2.3180   -20.1350 
  175.3750    60.0060    87.8790    77.2990    82.7260    24.4860     2.2970   -19.9520 
  175.5000    58.3020   105.1320    94.2260   104.8080    24.4860     2.2740   -19.7690 
  175.6250    58.5560   123.2030   112.5250   122.5410    24.4860     2.2560   -19.6030 
  175.7500    59.0270   140.0330   128.7460   137.2910    24.4860     2.2450   -19.4490 
  175.8750    58.8420   151.8950   140.4410   143.7840    24.4860     2.2410   -19.3270 
  176.0000    58.3500   157.5410   146.4040   144.9230    24.4860     2.2410   -19.2380 
  176.1250    58.3410   156.6070   146.1720   147.1870    24.4860     2.2440   -19.1820 
  176.2500    59.3810   152.0230   142.3130   146.9360    24.4860     2.2460   -19.1990 
  176.3750    60.5930   146.0590   136.8150   142.0140    24.4860     2.2490   -19.2890 
  176.5000    59.8750   140.9560   131.7120   132.6860    24.4860     2.2510   -19.4520 
  176.6250    57.4090   138.9980   129.1860   120.5090    24.4860     2.2530   -19.6590 
  176.7500    57.0690   140.2020   129.5670   115.3690    24.4860     2.2520   -19.8910 
  176.8750    60.1550   143.5900   132.2150   120.6360    24.4860     2.2480   -20.0770 
  177.0000    62.6010   147.2660   135.5610   130.3050    24.4860     2.2430   -20.2150 
  177.1250    60.7360   148.6270   137.2630   135.7910    24.4860     2.2410   -20.3280 
  177.2500    58.6380   146.9600   136.3390   133.1340    24.4860     2.2440   -20.3860 
  177.3750    59.5820   143.2440   133.3200   125.0650    24.4880     2.2520   -20.3890 
  177.5000    63.3160   139.9540   130.1590   115.3200    24.4920     2.2600   -20.3310 
  177.6250    66.8120   140.9020   130.1920   111.1260    24.4960     2.2640   -20.2210 
  177.7500    66.6790   147.4260   134.9690   113.7570    24.5020     2.2600   -20.0840 
  177.8750    63.0020   159.3760   144.6440   124.6440    24.5140     2.2490   -19.9830 
  178.0000    58.2750   174.9670   157.8690   141.2800    24.5340     2.2320   -19.9160 
  178.1250    54.6970   190.7820   171.9430   158.8560    24.5590     2.2180   -19.8470 
  178.2500    51.0420   203.1920   183.7340   167.7730    24.5710     2.2110   -19.7970 
  178.3750    48.4240   210.2550   191.5000   164.4880    24.5360     2.2110   -19.7230 
  178.5000    50.3510   211.8620   194.8980   158.0510    24.4280     2.2130   -19.6470 
  178.6250    56.8230   209.0580   194.4840   154.2050    24.3610     2.2110   -19.5680 
  178.7500    62.2430   204.2860   192.1740   158.8440    24.2670     2.2040   -19.4850 
  178.8750    63.5630   198.1240   188.4150   162.7490    24.0970     2.1980   -19.3710 
  179.0000    61.5410   190.1610   182.7720   157.0990    23.9870     2.1960   -19.2440 
  179.1250    63.2130   178.7460   173.5990   142.7070    24.0270     2.2030   -19.0980 
  179.2500    66.9690   163.1990   160.2660   127.9230    23.9600     2.2130   -18.9270 
  179.3750    67.4250   143.2790   142.4680   115.6020    23.6490     2.2230   -18.7970 
  179.5000    63.9490   120.3330   121.2500   102.7990    23.3810     2.2330   -18.6650 
  179.6250    61.1790    98.0140    99.6300    88.2960    23.2760     2.2450   -18.5100 
  179.7500    61.0670    80.0040    81.3040    71.2450    23.2100     2.2630   -18.3680 
  179.8750    61.3820    68.1870    68.4650    54.1310    23.2250     2.2830   -18.2590 
  180.0000    64.3900    63.0590    62.0040    43.3260    23.3780     2.3000   -18.1340 
  180.1250    69.4670    65.3750    62.9630    44.1950    23.5470     2.3030   -18.0420 
  180.2500    71.7100    73.4660    69.8320    50.5750    23.6520     2.2940   -17.9870 
  180.3750    70.7250    86.5890    81.9390    56.2480    23.5930     2.2790   -17.9410 
  180.5000    68.4940   103.6080    98.1610    58.0280    23.3500     2.2640   -17.9320 
  180.6250    66.9530   122.7920   116.7020    58.7240    23.1370     2.2520   -17.9930 
  180.7500    65.2260   141.1630   134.4570    62.8100    22.9970     2.2430   -18.0910 
  180.8750    64.3650   156.3060   149.0010    72.0020    23.1340     2.2380   -18.2110 
  181.0000    63.3790   166.2590   158.4380    86.9590    23.4830     2.2360   -18.3900 
  181.1250    61.4980   168.8480   160.6850   104.3760    23.9650     2.2380   -18.5870 
  181.2500    61.9810   165.6630   157.2310   119.0980    24.1900     2.2420   -18.7740 
  181.3750    65.2640   158.7110   149.9110   125.8150    24.3130     2.2480   -18.9440 
  181.5000    67.4130   150.5460   141.1600   124.2340    24.3650     2.2530   -19.0730 
  181.6250    64.0510   143.5430   133.3870   118.2120    24.3850     2.2560   -19.1510 
  181.7500    61.5720   138.6000   127.6660   111.9050    24.4070     2.2580   -19.1960 
  181.8750    62.8360   135.9130   124.2990   108.3850    24.4330     2.2580   -19.2120 
  182.0000    63.8520   135.2750   123.1490   107.9560    24.4540     2.2560   -19.1890 
  182.1250    61.6020   136.2090   123.8640   112.0300    24.4640     2.2530   -19.1280 
  182.2500    60.8360   137.3500   125.1310   116.7040    24.4410     2.2490   -19.0640 
  182.3750    63.1570   137.5040   125.8230   118.6050    24.3670     2.2450   -19.0000 
  182.5000    64.2750   135.6280   124.9160   115.1630    24.2980     2.2430   -18.9510 
  182.6250    64.1250   130.8230   121.4550   104.4370    24.2680     2.2440   -18.8890 
  182.7500    65.0640   124.0890   116.1290    95.7590    24.2150     2.2480   -18.8290 
  182.8750    66.6040   116.8080   110.0390    92.9100    24.1130     2.2520   -18.7740 
  183.0000    67.1230   110.6730   104.6640    91.0670    23.9840     2.2560   -18.7130 
  183.1250    66.8110   107.5410   101.7620    86.9870    23.9290     2.2580   -18.6520 
  183.2500    66.9180   107.1870   101.3800    84.1930    23.9050     2.2590   -18.5880 
  183.3750    67.5460   108.5700   102.7370    86.1690    23.8870     2.2600   -18.5100 
  183.5000    69.0090   109.9230   104.2980    89.7870    23.8850     2.2630   -18.4390 
  183.6250    69.6550   108.8430   103.8270    91.6150    23.9770     2.2670   -18.3900 
