~V
VERS. 2.00: Ver 2.00
~W
STRT.M 130.0000:
STOP.M 280.0000:
STEP.M 0.1250:
NULL. -999.2500:
UWI. DF3042:
~C
DEPT.M :
DEN.GM/CC :
GR.API :
RML.OHMM :
RI. :
RXO.OHMM :
CALI.CM :
SP.MV :
~A
# ...
  141.2500     2.3620   103.7650     6.2570     5.2330     6.5560    24.0970   -11.5080 
  141.3750     2.3830   102.4300     6.3340     5.0050     6.4480    24.0490   -11.8040 
  141.5000     2.4220    99.5270     6.6630     5.1430     6.8000    24.0070   -12.1580 
  141.6250     2.4530    96.1000     7.0800     5.5240     7.6050    23.9570   -12.7120 
  141.7500     2.4510    92.5860     7.5620     6.0370     9.0690    23.9290   -13.3580 
  141.8750     2.4090    91.0880     8.2330     6.7100    10.7350    23.8760   -14.1540 
  142.0000     2.3350    91.6720     9.2530     7.6270    10.1660    23.7520   -15.1120 
  142.1250     2.2570    89.3020    10.7350     8.9020    10.4430    23.5470   -16.0540 
  142.2500     2.1960    80.9380    12.4100    10.3830    12.8300    23.3860   -17.0040 
  142.3750     2.1580    72.3300    13.9180    11.8110    16.7170    23.3220   -17.8910 
  142.5000     2.1430    69.7830    14.8690    12.8400    20.6250    23.3000   -18.6280 
  142.6250     2.1450    72.8960    14.8960    13.0630    19.9480    23.2560   -19.1380 
  142.7500     2.1550    73.4360    14.2360    12.5930    16.9910    23.1880   -19.4300 
  142.8750     2.1660    70.1650    13.1870    11.6640    14.0000    23.1500   -19.4080 
  143.0000     2.1780    69.4060    12.0370    10.5570    12.3670    23.1460   -19.0920 
  143.1250     2.1970    76.0490    10.9780     9.4870    11.5840    23.2330   -18.5240 
  143.2500     2.2230    85.1620    10.0630     8.5510    10.7150    23.4060   -17.7760 
  143.3750     2.2550    90.2550     9.3300     7.7960     9.4690    23.5780   -16.9140 
  143.5000     2.2850    90.6250     8.8170     7.2560     8.0770    23.6550   -16.0770 
  143.6250     2.3010    91.7270     8.5740     6.9740     7.4730    23.6010   -15.3560 
  143.7500     2.3040    95.1770     8.5160     6.8780     7.3740    23.5640   -14.6730 
  143.8750     2.2990    97.6050     8.5540     6.9010     7.5850    23.5610   -14.1810 
  144.0000     2.2950    95.9120     8.5920     6.9650     7.7470    23.5720   -13.7510 
  144.1250     2.2960    91.6300     8.5410     6.9900     7.8220    23.5830   -13.4140 
  144.2500     2.3030    90.6620     8.4030     6.9470     7.7520    23.5840   -13.2480 
  144.3750     2.3090    93.0780     8.2170     6.8520     7.4860    23.5850   -13.0770 
  144.5000     2.3120    97.6670     8.0370     6.7410     7.2170    23.5840   -13.0130 
  144.6250     2.3060   101.5520     7.9120     6.6580     7.1390    23.5630   -12.8810 
  144.7500     2.2960   101.5270     7.8470     6.6190     7.1690    23.4950   -12.8330 
  144.8750     2.2830    99.0980     7.8400     6.6270     7.2680    23.3890   -12.8160 
  145.0000     2.2730    97.7420     7.8800     6.6730     7.4040    23.3340   -12.7560 
  145.1250     2.2690    98.6380     7.9540     6.7450     7.6140    23.3920   -12.8570 
  145.2500     2.2720    97.9660     8.0300     6.8150     7.7590    23.4850   -12.8970 
  145.3750     2.2790    95.0040     8.0810     6.8590     8.0350    23.5560   -12.8720 
  145.5000     2.2850    95.1660     8.0770     6.8540     8.3160    23.5980   -12.8110 
  145.6250     2.2840   100.8650     7.9860     6.7820     8.4000    23.6360   -12.7200 
  145.7500     2.2810   106.0390     7.8290     6.6640     8.0410    23.6500   -12.5430 
  145.8750     2.2810   107.6010     7.6380     6.5280     7.5260    23.6530   -12.3840 
  146.0000     2.2890   106.6360     7.4590     6.4100     7.1980    23.6530   -12.2680 
  146.1250     2.3100   106.1130     7.3550     6.3570     7.1660    23.6530   -12.0590 
  146.2500     2.3370   106.7370     7.3600     6.3950     7.1780    23.6530   -11.9350 
  146.3750     2.3650   107.9230     7.5010     6.5490     7.3080    23.6530   -11.8850 
  146.5000     2.3930   105.9440     7.7950     6.8390     7.6830    23.6530   -11.8410 
  146.6250     2.4240    96.9130     8.2730     7.3050     8.2250    23.6430   -11.7750 
  146.7500     2.4610    89.2110     8.8920     7.9090     9.0590    23.6220   -11.7890 
  146.8750     2.5010    86.9990     9.5860     8.5970    10.2050    23.6100   -11.7340 
  147.0000     2.5360    85.4200    10.2180     9.2520    11.4430    23.6260   -11.6820 
  147.1250     2.5520    78.9190    10.5450     9.6650    12.6750    23.6400   -11.7310 
  147.2500     2.5420    73.8730    10.5050     9.7580    13.6710    23.6480   -11.6790 
  147.3750     2.5130    73.5550    10.2030     9.5900    13.9880    23.6530   -11.6820 
  147.5000     2.4820    75.3810     9.9190     9.3710    15.1440    23.6650   -11.6150 
  147.6250     2.4730    78.2470    10.1320     9.4820    13.6840    23.6920   -11.5860 
  147.7500     2.4910    79.3580    11.0710    10.1680    12.0330    23.7210   -11.5480 
  147.8750     2.5300    74.5550    12.7810    11.5450    12.8410    23.7320   -11.4460 
  148.0000     2.5760    65.5020    15.0820    13.5530    16.1350    23.7320   -11.3890 
  148.1250     2.6070    61.1960    17.5690    15.9320    18.9560    23.7340   -11.2520 
  148.2500     2.6180    61.2790    19.6900    18.1430    21.1230    23.7510   -11.1690 
  148.3750     2.6160    58.2700    21.1040    19.7840    22.5610    23.7900   -11.0600 
  148.5000     2.6080    51.9350    21.7420    20.6820    22.5550    23.8190   -10.9680 
  148.6250     2.6030    49.0740    21.7990    20.9290    22.2150    23.8290   -11.0030 
  148.7500     2.6030    50.1740    21.7280    20.9670    21.9820    23.8290   -10.9890 
  148.8750     2.6060    51.1340    21.7200    21.0220    21.8800    23.8290   -11.0170 
  149.0000     2.6070    49.3960    21.8300    21.1840    21.9050    23.8290   -11.1140 
  149.1250     2.6010    47.3430    22.0360    21.4540    22.2680    23.8290   -11.2240 
  149.2500     2.5900    47.8100    22.2680    21.7440    22.2550    23.8240   -11.2820 
  149.3750     2.5810    50.9030    22.4950    22.0020    22.1630    23.8040   -11.4090 
  149.5000     2.5800    54.0470    22.7130    22.2100    22.2900    23.7610   -11.5420 
  149.6250     2.5880    53.7140    22.9420    22.3870    22.2090    23.7420   -11.5950 
  149.7500     2.6000    50.9650    23.2060    22.5770    22.3400    23.7370   -11.7220 
  149.8750     2.6090    47.9310    23.5220    22.8100    22.5010    23.7360   -11.8530 
  150.0000     2.6130    45.8870    23.8880    23.0920    22.7740    23.7340   -11.9570 
  150.1250     2.6100    45.7560    24.2730    23.3990    23.6340    23.7170   -12.0530 
  150.2500     2.6030    48.9570    24.6260    23.6750    24.2090    23.6710   -12.2220 
  150.3750     2.5930    53.8180    24.9270    23.8900    24.5390    23.6000   -12.3180 
  150.5000     2.5800    57.0820    25.1980    24.0430    24.5790    23.5260   -12.4760 
  150.6250     2.5600    56.0550    25.4680    24.1550    24.8000    23.4500   -12.6240 
  150.7500     2.5390    55.3070    25.7080    24.2240    24.6080    23.4460   -12.7070 
  150.8750     2.5200    57.4370    25.8010    24.1750    24.1990    23.4790   -12.8510 
  151.0000     2.5100    60.4950    25.5700    23.8790    24.0850    23.5180   -12.8600 
  151.1250     2.5100    60.0930    24.7820    23.1500    24.4620    23.5580   -12.9390 
  151.2500     2.5160    57.6340    23.5710    22.0770    23.6570    23.5480   -12.9610 
  151.3750     2.5230    58.4520    22.2130    20.8680    21.4370    23.4750   -12.9870 
  151.5000     2.5260    63.6250    21.0880    19.8260    19.1500    23.3580   -12.9940 
  151.6250     2.5260    66.5910    20.6440    19.3370    17.6380    23.3000   -12.9320 
  151.7500     2.5230    64.4480    20.8810    19.4460    16.9280    23.2800   -12.9360 
  151.8750     2.5200    61.3610    21.6120    20.0410    17.4780    23.3150   -12.8720 
  152.0000     2.5180    60.7060    22.4640    20.8290    18.8560    23.3460   -12.8480 
  152.1250     2.5170    62.5730    22.9030    21.3490    20.0110    23.3730   -12.8230 
  152.2500     2.5170    65.4050    22.6920    21.3190    20.4230    23.3780   -12.7720 
  152.3750     2.5160    67.0440    21.8640    20.7010    20.2590    23.3860   -12.7330 
