~V
VERS. 2.00: Ver 2.00
~W
STRT.M 60.0000:
STOP.M 277.0000:
STEP.M 0.1250:
NULL. -999.2500:
UWI. DF3044:
~C
DEPT.M :
GR.API :
CALI.CM :
RXO.OHMM :
RI. :
RML.OHMM :
DEN.GM/CC :
SP.MV :
~A
# ...
  127.5000    57.9550    22.9770     8.8010     9.7020    11.6570     2.2030   -26.6080 
  127.6250    57.4800    22.9430     8.8720     9.6750    11.7080     2.2120   -26.5760 
  127.7500    57.9480    22.8610     8.8810     9.6210    11.7270     2.2230   -26.5170 
  127.8750    56.4640    22.7620     8.7990     9.5640    11.7010     2.2240   -26.4210 
  128.0000    56.0040    22.6830     8.7230     9.5130    11.6250     2.2130   -26.3210 
  128.1250    63.3740    22.6570     8.7350     9.4390    11.4950     2.1970   -26.1960 
  128.2500    71.0530    22.6520     8.6540     9.3200    11.3250     2.1880   -26.0470 
  128.3750    70.1330    22.6540     8.4460     9.1770    11.1360     2.1890   -25.8560 
  128.5000    63.1420    22.6580     8.2110     9.0620    10.9540     2.1920   -25.6320 
  128.6250    60.0530    22.6310     8.0000     9.0220    10.8290     2.1920   -25.3790 
  128.7500    60.6420    22.5060     7.7840     9.0380    10.7790     2.1940   -25.1230 
  128.8750    59.1780    22.2670     7.5990     9.0820    10.7870     2.2000   -24.8670 
  129.0000    56.1180    22.0700     7.5200     9.1270    10.8070     2.2060   -24.5830 
  129.1250    56.1190    22.0020     7.6390     9.1370    10.7630     2.2010   -24.2720 
  129.2500    58.3040    21.9950     7.8310     9.0520    10.5940     2.1930   -23.9700 
  129.3750    60.0900    22.0020     7.9410     8.8060    10.2470     2.1940   -23.6590 
  129.5000    62.2230    22.0360     7.8590     8.3770     9.7020     2.2120   -23.3450 
  129.6250    67.3590    22.1400     7.4990     7.7840     8.9530     2.2500   -23.0170 
  129.7500    73.5780    22.2850     7.0430     7.1160     8.0900     2.2940   -22.6580 
  129.8750    76.0730    22.4910     6.6910     6.4220     7.2090     2.3290   -22.3000 
  130.0000    73.0720    22.7900     6.4830     5.7520     6.4160     2.3460   -21.9480 
  130.1250    69.1620    23.1840     6.4260     5.1960     5.8200     2.3410   -21.6490 
  130.2500    71.3930    23.5040     6.0370     4.8140     5.4340     2.3260   -21.3810 
  130.3750    76.7920    23.7200     5.5310     4.6300     5.2560     2.3180   -21.1440 
  130.5000    80.3940    23.8060     5.3180     4.6040     5.2460     2.3300   -20.9470 
  130.6250    85.7620    23.7970     5.3530     4.6610     5.3430     2.3600   -20.8180 
  130.7500    91.9480    23.7540     5.7240     4.7300     5.4550     2.3890   -20.7640 
  130.8750    92.9720    23.7220     6.2330     4.7950     5.5310     2.4030   -20.7480 
  131.0000    87.5640    23.7030     6.3570     4.8430     5.5350     2.3950   -20.7520 
  131.1250    81.5000    23.6930     6.0150     4.8420     5.4590     2.3670   -20.7510 
  131.2500    77.1600    23.6940     5.6370     4.7870     5.3500     2.3380   -20.7490 
  131.3750    75.7100    23.7080     5.6020     4.6930     5.2370     2.3210   -20.7660 
  131.5000    80.2300    23.7350     5.6660     4.6050     5.1440     2.3230   -20.7950 
  131.6250    84.1170    23.7470     5.6340     4.5840     5.1100     2.3430   -20.8250 
  131.7500    80.6900    23.7380     5.5460     4.6220     5.1400     2.3690   -20.8590 
  131.8750    75.2170    23.7240     5.4380     4.6910     5.2190     2.3860   -20.9020 
  132.0000    74.4360    23.7130     5.4350     4.7720     5.3200     2.3880   -20.9780 
  132.1250    75.7490    23.7020     5.7540     4.8500     5.3960     2.3810   -21.0850 
  132.2500    77.5430    23.6970     5.9810     4.8880     5.3950     2.3720   -21.2010 
  132.3750    80.8920    23.7000     5.7930     4.8450     5.2980     2.3590   -21.3530 
  132.5000    86.4450    23.7070     5.4430     4.7230     5.1380     2.3460   -21.5390 
  132.6250    94.9170    23.7160     5.2880     4.5870     4.9910     2.3420   -21.7500 
  132.7500    98.8220    23.7230     5.3160     4.5100     4.9080     2.3410   -21.9450 
  132.8750    93.0170    23.7320     5.2640     4.5040     4.8940     2.3360   -22.1450 
  133.0000    83.4530    23.7470     5.2160     4.5040     4.9030     2.3250   -22.3440 
  133.1250    82.3320    23.7640     5.2550     4.3960     4.8330     2.3190   -22.5640 
  133.2500    85.1610    23.7850     5.2080     4.1750     4.6410     2.3200   -22.8170 
  133.3750    84.7320    23.8110     4.9690     3.9130     4.3660     2.3250   -23.1020 
  133.5000    83.7190    23.8350     4.6520     3.6950     4.1040     2.3350   -23.4360 
  133.6250    86.7240    23.8580     4.3680     3.5870     3.9830     2.3430   -23.8480 
  133.7500    89.1760    23.8670     4.2990     3.5880     4.0440     2.3320   -24.3450 
  133.8750    86.3340    23.8460     4.5410     3.7210     4.3020     2.2980   -24.8930 
  134.0000    79.5800    23.7950     5.1490     4.0240     4.7530     2.2600   -25.4550 
  134.1250    73.7220    23.7080     5.8110     4.5520     5.4170     2.2460   -26.0120 
  134.2500    70.4980    23.6120     6.2790     5.2470     6.2650     2.2540   -26.5560 
  134.3750    67.2760    23.5700     6.8420     6.0540     7.2890     2.2670   -27.0460 
  134.5000    64.5160    23.5510     7.9670     6.9260     8.4420     2.2730   -27.4560 
  134.6250    67.5710    23.4440     9.1380     7.8130     9.5730     2.2680   -27.7470 
  134.7500    72.2340    23.2300     9.7270     8.6230    10.4760     2.2600   -27.9590 
  134.8750    71.7930    23.0270     9.6890     9.2290    11.0050     2.2490   -28.1030 
  135.0000    66.5190    22.9680     9.4270     9.5250    11.1340     2.2360   -28.2250 
  135.1250    62.2670    23.0200     9.1830     9.4870    10.9630     2.2190   -28.3220 
  135.2500    59.4390    23.1300     9.0200     9.3190    10.7290     2.2040   -28.3800 
  135.3750    56.1820    23.2470     8.9070     9.1570    10.5350     2.1930   -28.4380 
  135.5000    54.6920    23.3160     8.8080     9.0630    10.4160     2.1820   -28.5050 
  135.6250    57.0800    23.3530     8.7460     9.0300    10.4020     2.1710   -28.5860 
  135.7500    58.5410    23.3890     8.6990     9.0340    10.4880     2.1690   -28.6490 
  135.8750    56.7400    23.4320     8.6260     9.0900    10.6680     2.1810   -28.7070 
  136.0000    54.1940    23.5010     8.5020     9.2160    10.9050     2.2000   -28.7370 
  136.1250    55.1660    23.5450     8.4500     9.3870    11.1240     2.2050   -28.7310 
  136.2500    58.0480    23.5580     8.5810     9.5150    11.2540     2.1970   -28.7280 
  136.3750    60.5010    23.5570     8.8180     9.5510    11.2700     2.1920   -28.7070 
  136.5000    61.6320    23.5560     9.0180     9.5060    11.1810     2.1990   -28.6520 
  136.6250    62.7720    23.5670     9.0640     9.4360    11.0190     2.2050   -28.5860 
  136.7500    63.8380    23.5860     9.0520     9.3730    10.8500     2.1980   -28.5390 
  136.8750    63.9310    23.6130     9.0840     9.3080    10.7180     2.1840   -28.4960 
  137.0000    63.2360    23.6210     9.1440     9.2350    10.6550     2.1780   -28.4500 
  137.1250    61.8540    23.5920     9.1680     9.1910    10.6790     2.1900   -28.4230 
  137.2500    61.0880    23.5500     9.1470     9.2170    10.7550     2.2010   -28.4110 
  137.3750    61.8620    23.5310     9.0770     9.2990    10.8400     2.1970   -28.4080 
  137.5000    63.0220    23.5280     8.9340     9.3750    10.8920     2.1790   -28.4320 
  137.6250    61.2440    23.5280     8.8400     9.3690    10.8910     2.1680   -28.4530 
  137.7500    57.2360    23.5280     8.9040     9.3070    10.8710     2.1730   -28.4660 
  137.8750    56.8180    23.5280     9.0260     9.2540    10.8610     2.1870   -28.4730 
  138.0000    65.5840    23.5280     9.0670     9.2540    10.8710     2.1950   -28.5110 
  138.1250    75.3170    23.5280     9.0110     9.2930    10.8960     2.1970   -28.5620 
  138.2500    74.6840    23.5290     8.9600     9.3110    10.9190     2.1990   -28.6030 
  138.3750    65.5240    23.5330     8.9600     9.2900    10.9400     2.2040   -28.6580 
  138.5000    58.4630    23.5370     8.9590     9.2520    10.9610     2.2000   -28.7130 
  138.6250    58.3770    23.5440     8.9250     9.2340    10.9790     2.1830   -28.7940 
