~V
VERS. 2.00: Ver 2.00
~W
STRT.M 140.0000:
STOP.M 272.0000:
STEP.M 0.1250:
NULL. -999.2500:
UWI. DF3077:
~C
DEPT.M :
GR.API :
CALI.CM :
RXO.OHMM :
RI. :
RML.OHMM :
DEN.GM/CC :
SP.MV :
~A
# ...
  252.5000    75.0710    24.9900    13.9090     8.5750     9.0910     2.3350   -20.1120 
  252.6250    77.5600    24.9730    10.6700     8.5520     9.1220     2.3330   -20.1830 
  252.7500    77.5950    24.9880     7.7980     8.7140     9.2950     2.3360   -20.2800 
  252.8750    80.3420    25.0290     7.7430     9.0230     9.5820     2.3380   -20.4120 
  253.0000    85.6820    24.9790     9.2620     9.4480     9.9650     2.3340   -20.5940 
  253.1250    87.2160    25.1300    10.5250     9.9010    10.3510     2.3300   -20.8070 
  253.2500    85.9430    25.5170    11.2090    10.2670    10.6320     2.3260   -21.0240 
  253.3750    85.8580    25.8900    11.7430    10.4650    10.7390     2.3180   -21.2450 
  253.5000    85.8180    25.7410    11.8960    10.5310    10.7490     2.3080   -21.4110 
  253.6250    84.9750    25.8280    11.4820    10.5940    10.8320     2.2990   -21.5150 
  253.7500    86.6110    25.9200    11.6820    10.7740    11.1150     2.2870   -21.5970 
  253.8750    89.3140    25.8280    12.0300    11.0880    11.5850     2.2690   -21.6570 
  254.0000    89.2770    25.5990    12.3580    11.5060    12.1560     2.2480   -21.6980 
  254.1250    86.3340    25.6040    13.6540    11.9400    12.7430     2.2360   -21.7530 
  254.2500    85.4360    25.7710    16.6200    12.3000    13.2280     2.2400   -21.8530 
  254.3750    86.8380    25.9660    19.2320    12.5270    13.5490     2.2550   -21.9720 
  254.5000    87.7930    26.0220    18.2920    12.5920    13.6790     2.2710   -22.1190 
  254.6250    87.4880    25.9460    16.2400    12.5530    13.6660     2.2760   -22.2710 
  254.7500    86.4030    25.9440    14.7870    12.5610    13.6930     2.2720   -22.3690 
  254.8750    87.6390    26.0120    13.6660    12.7240    13.9300     2.2680   -22.3980 
  255.0000    92.7000    26.0360    12.6160    13.1420    14.4960     2.2660   -22.3750 
  255.1250    95.2580    25.9940    13.3460    13.9140    15.4900     2.2660   -22.3180 
  255.2500    91.8920    25.8950    15.0290    14.9550    16.7950     2.2630   -22.2530 
  255.3750    88.4030    25.9470    16.9190    16.1630    18.2280     2.2600   -22.1960 
  255.5000    89.9080    26.0040    19.6380    17.3840    19.5560     2.2580   -22.1370 
  255.6250    93.0610    25.7740    22.5630    18.3570    20.4240     2.2520   -22.0300 
  255.7500    95.2760    25.7270    24.4380    18.8900    20.6540     2.2440   -21.8810 
  255.8750    97.7810    25.8320    24.8890    18.8300    20.1270     2.2410   -21.6810 
  256.0000    99.7580    25.8070    25.3370    18.1110    18.8730     2.2420   -21.4230 
  256.1250    97.7140    25.6050    28.0490    16.6670    16.9480     2.2420   -21.1200 
  256.2500    93.9250    25.6170    31.7280    14.8090    14.7240     2.2360   -20.7710 
  256.3750    90.3220    25.6470    30.4440    12.7900    12.4870     2.2280   -20.3660 
  256.5000    86.3170    25.5950    24.4820    10.8630    10.5110     2.2260   -19.9350 
  256.6250    81.7830    25.5570    19.6080     9.2560     8.9740     2.2390   -19.4940 
  256.7500    75.9090    25.5070    13.6470     7.9990     7.8780     2.2600   -19.0750 
  256.8750    67.7070    25.5440     9.0990     7.1010     7.2080     2.2780   -18.7100 
  257.0000    59.6590    25.5540     7.4750     6.5300     6.8970     2.2990   -18.4040 
  257.1250    52.8420    25.4860     6.8710     6.2700     6.8870     2.3320   -18.2190 
  257.2500    46.7340    25.4400     6.1360     6.2020     7.0260     2.3710   -18.1350 
  257.3750    42.8120    25.3530     5.7170     6.2420     7.2350     2.4020   -18.0650 
  257.5000    42.2340    25.3300     5.6740     6.3390     7.4440     2.4250   -18.0260 
  257.6250    45.8490    25.4060     5.6660     6.4590     7.6140     2.4390   -18.1720 
  257.7500    49.8100    25.4810     5.7130     6.5990     7.7580     2.4430   -18.4460 
  257.8750    52.3240    25.5340     5.7990     6.7640     7.8780     2.4330   -18.7940 
  258.0000    53.8770    25.4790     5.8650     6.9610     8.0080     2.4150   -19.1850 
  258.1250    56.9780    25.4730     5.9030     7.1930     8.1880     2.3930   -19.6280 
  258.2500    62.1520    25.4940     6.0690     7.4580     8.4110     2.3690   -20.0630 
  258.3750    68.1100    25.5220     6.2450     7.7660     8.6690     2.3460   -20.5020 
  258.5000    74.3200    25.4280     6.3200     8.1120     8.9730     2.3270   -20.9960 
  258.6250    80.0450    25.4320     6.7800     8.4740     9.3060     2.3100   -21.4160 
  258.7500    82.9100    25.4800     8.1210     8.8390     9.6490     2.2900   -21.8230 
  258.8750    84.9560    25.4300     9.9370     9.2110    10.0120     2.2700   -22.2030 
  259.0000    87.9010    25.3910    11.0640     9.6210    10.4350     2.2610   -22.5640 
  259.1250    89.2920    25.4430    10.8550    10.1300    10.9740     2.2710   -22.7500 
  259.2500    86.0160    25.6250    10.6700    10.8100    11.7430     2.2830   -22.8630 
  259.3750    82.6440    25.7620    10.7530    11.7110    12.8080     2.2880   -23.0260 
  259.5000    84.2250    25.8510    10.6560    12.8420    14.1290     2.2890   -23.1740 
  259.6250    88.8400    25.8600    11.4530    14.1470    15.5790     2.2930   -23.2640 
  259.7500    90.5740    25.8480    14.3590    15.3860    16.8450     2.2990   -23.2990 
  259.8750    89.9190    25.8070    18.3710    16.2950    17.6320     2.3040   -23.2980 
  260.0000    89.6970    25.8170    20.8510    16.5660    17.6510     2.3100   -23.2470 
  260.1250    89.7800    25.6320    21.8700    15.9430    16.7190     2.3160   -23.2270 
  260.2500    88.4280    25.5250    23.5330    14.6850    15.1640     2.3150   -23.1890 
  260.3750    89.4430    25.5480    24.1500    13.0610    13.2890     2.3070   -23.0550 
  260.5000    93.9530    25.5780    22.2270    11.3990    11.4790     2.3050   -22.8630 
  260.6250    98.0390    25.5670    18.8520     9.9860    10.0400     2.3220   -22.6890 
  260.7500    97.2450    25.4040    15.7830     8.8850     8.9860     2.3480   -22.5520 
  260.8750    95.8590    25.3880    12.1960     8.1080     8.3050     2.3650   -22.5010 
  261.0000    95.8590    25.4590     9.2130     7.6580     7.9740     2.3570   -22.5640 
  261.1250    95.8590    25.4510     8.0280     7.5540     7.9650     2.3320   -22.7300 
  261.2500    95.8590    25.4290     7.7410     7.6790     8.1690     2.3120   -22.8960 
  261.3750    95.8590    25.4140     8.0140     7.9950     8.5280     2.3040   -23.1590 
  261.5000    95.8590    25.5850     8.7090     8.4520     8.9810     2.3020   -23.5090 
  261.6250    95.8590    25.6360     9.5210     9.0060     9.4520     2.2950   -23.9610 
  261.7500    95.8590    25.6100    10.2810     9.5770     9.8990     2.2860   -24.3790 
  261.8750    95.8590    25.5820    10.9870    10.0810    10.2540     2.2780   -24.7510 
  262.0000    95.8590    25.6100    11.8390    10.4290    10.4500     2.2690   -25.0410 
  262.1250    95.8590    25.7900    12.5430    10.5680    10.4910     2.2640   -25.2280 
  262.2500    95.8590    25.8480    13.1400    10.5500    10.4280     2.2700   -25.4040 
  262.3750    95.8590    25.8730    14.0710    10.4630    10.3410     2.2830   -25.5470 
  262.5000    95.8590    25.8220    15.2510    10.4730    10.4190     2.2920   -25.6510 
  262.6250    95.8590    25.8810    13.4400    10.8070    10.9140     2.2900   -25.6870 
  262.7500    95.8590    25.9260    11.7080    11.4980    11.7810     2.2870   -25.6600 
  262.8750    95.8590    25.8140    12.8260    12.4720    12.8580     2.2870   -25.5910 
  263.0000    95.8590    25.7070    17.6170    13.5340    13.9040     2.2850   -25.5590 
  263.1250    95.8590    25.9830    22.1900    14.2910    14.5400     2.2700   -25.5320 
  263.2500    95.8590    25.9370    23.8520    14.5080    14.6030     2.2430   -25.5130 
  263.3750    95.8590    25.8070    22.5050    14.0430    13.9930     2.2190   -25.4680 
  263.5000    95.8590    25.8110    20.5820    12.9240    12.7570     2.2180   -25.3940 
  263.6250    95.8590    25.8030    20.3280    11.4500    11.2330     2.2420   -25.3140 
