~V
VERS. 2.00: Ver 2.00
~W
STRT.M 67.0000:
STOP.M 264.0000:
STEP.M 0.1250:
NULL. -999.2500:
UWI. DF3014:
~C
DEPT.M :
GR.API :
CALI.CM :
RXO.OHMM :
RI. :
RML.OHMM :
DEN.GM/CC :
SP.MV :
~A
# ...
  202.0000    66.5540    23.7560    20.1480    20.9300    25.0920     2.2850   -25.1320 
  202.1250    70.2180    23.7770    18.3740    20.5020    24.7720     2.3030   -25.1300 
  202.2500    77.0760    23.8430    18.1380    21.1070    25.8780     2.3120   -25.1840 
  202.3750    80.7280    23.8420    18.4540    22.8870    28.4410     2.3000   -25.3010 
  202.5000    78.1160    23.7770    19.0170    25.7940    32.1690     2.2760   -25.4550 
  202.6250    72.9090    23.8000    23.4020    29.5760    36.3950     2.2580   -25.6340 
  202.7500    68.7310    23.8410    32.1740    33.2640    39.8480     2.2540   -25.7910 
  202.8750    65.5060    23.8480    43.4110    35.7300    41.3900     2.2590   -25.9480 
  203.0000    65.4790    23.7870    51.9210    35.8150    40.1860     2.2720   -26.1080 
  203.1250    71.1620    23.7770    49.8700    33.1740    36.2330     2.3020   -26.2850 
  203.2500    77.7040    23.8050    39.0870    29.5130    31.3970     2.3400   -26.5110 
  203.3750    79.7920    23.6320    26.9640    26.0800    27.1240     2.3720   -26.7500 
  203.5000    76.6530    23.5070    19.8820    23.7780    24.5320     2.3890   -26.9740 
  203.6250    75.2810    23.4880    16.8070    23.3680    24.5340     2.3850   -27.2030 
  203.7500    78.5700    23.5350    18.1420    24.9760    27.0890     2.3680   -27.4230 
  203.8750    80.4600    23.5170    22.4130    28.8280    32.0530     2.3470   -27.6240 
  204.0000    76.3090    23.3920    34.8850    35.1270    39.2620     2.3250   -27.8400 
  204.1250    69.4000    23.4000    49.9310    44.3480    48.7890     2.3040   -28.1330 
  204.2500    65.4370    23.6170    60.9300    55.4710    59.5730     2.2850   -28.4350 
  204.3750    63.7160    23.7980    63.9720    67.3640    70.6730     2.2690   -28.7510 
  204.5000    61.5700    23.6870    64.4340    78.5620    80.9580     2.2580   -29.0790 
  204.6250    59.7050    23.7090    76.3460    87.3090    88.9960     2.2470   -29.3330 
  204.7500    59.7270    23.6880    86.6300    93.2830    94.7260     2.2350   -29.5300 
  204.8750    63.0910    23.5560    88.0460    96.7600    98.5750     2.2300   -29.7270 
  205.0000    67.3650    23.4650    85.5340    98.9170   101.6280     2.2380   -29.9750 
  205.1250    66.6430    23.4840    84.0300   100.2020   103.9140     2.2530   -30.2330 
  205.2500    62.8950    23.5710    81.6490   100.8610   105.5130     2.2580   -30.4730 
  205.3750    61.0160    23.7870    81.9410   101.1080   106.4810     2.2480   -30.6570 
  205.5000    63.5230    24.0200    82.8990   101.2840   107.0380     2.2300   -30.7740 
  205.6250    66.3350    23.9970    84.2290   101.8250   107.7880     2.2230   -30.8570 
  205.7500    65.9620    23.9010    86.2150   103.1680   109.2180     2.2320   -30.9390 
  205.8750    65.1030    23.8530    84.6630   105.7140   111.9270     2.2480   -31.0540 
  206.0000    64.4220    23.8200    79.9230   109.9050   116.5140     2.2560   -31.1710 
  206.1250    64.5690    23.8020    77.6070   116.6710   123.8660     2.2440   -31.3070 
  206.2500    64.9250    23.7010    81.8790   125.2550   133.2050     2.2240   -31.4490 
  206.3750    64.6850    23.6270    96.8450   134.4540   143.1450     2.2050   -31.5490 
  206.5000    64.0790    23.8590   116.0230   142.8130   152.0830     2.1940   -31.6410 
  206.6250    63.9840    24.0760   123.6200   148.3020   157.6230     2.1920   -31.7320 
  206.7500    65.3140    24.1200   118.7760   150.1780   159.1460     2.1930   -31.8660 
  206.8750    67.3850    23.9420   110.2940   148.8680   157.2510     2.1970   -32.0140 
  207.0000    68.2910    23.7190   102.8400   145.9210   153.8810     2.2050   -32.1900 
  207.1250    65.9540    23.7440    92.2730   143.6030   151.5160     2.2160   -32.3670 
  207.2500    63.1070    23.8390    89.0520   143.8040   152.0720     2.2270   -32.4640 
  207.3750    63.4240    23.8500    94.8520   147.2770   156.2720     2.2360   -32.4980 
  207.5000    65.7420    23.7930   103.6460   153.7180   163.5740     2.2370   -32.5130 
  207.6250    65.6960    23.8130   110.6170   162.2190   172.7720     2.2300   -32.5560 
  207.7500    64.3450    23.8480   116.4530   170.8990   181.9960     2.2240   -32.6290 
  207.8750    63.8170    23.8700   124.3650   178.7690   190.1950     2.2240   -32.7480 
  208.0000    62.8600    23.9080   128.2630   184.9440   196.5230     2.2270   -32.8730 
  208.1250    61.7190    23.7650   122.5060   188.8970   200.4160     2.2210   -32.8670 
  208.2500    60.9220    23.4860   115.6180   191.7550   203.3170     2.2090   -32.8180 
  208.3750    59.3290    23.5640   112.7410   194.2180   205.7220     2.1980   -32.8150 
  208.5000    58.1680    24.0140   115.1320   195.7760   207.0580     2.1930   -32.8550 
  208.6250    60.5640    24.3660   119.1730   194.2920   204.7850     2.1930   -32.9580 
  208.7500    63.4050    24.4390   123.6090   188.3120   197.2160     2.1980   -33.0800 
  208.8750    63.0000    24.2800   125.0580   177.3600   183.9080     2.2080   -33.1750 
  209.0000    58.8800    24.1940   122.4210   162.2680   166.5390     2.2220   -33.1660 
  209.1250    53.7500    24.1810   115.0330   145.7670   148.7070     2.2360   -33.1290 
  209.2500    53.0500    24.1930   103.2170   131.2030   133.9790     2.2470   -33.1290 
  209.3750    58.1830    24.3210    86.7430   120.7390   124.3780     2.2510   -33.1200 
  209.5000    64.8100    24.1570    70.3800   115.8510   120.9070     2.2450   -33.1170 
  209.6250    65.0690    24.1200    65.4690   117.3130   123.7510     2.2280   -33.1290 
  209.7500    62.2570    24.1610    73.5060   122.3130   129.9430     2.2130   -33.1570 
  209.8750    60.5980    24.1690    93.8040   128.6610   137.3330     2.2090   -33.1470 
  210.0000    60.9870    24.1670   118.2100   134.1890   143.4680     2.2170   -33.1170 
  210.1250    61.0330    24.1270   122.6540   136.1650   145.2980     2.2250   -33.0830 
  210.2500    60.1060    24.1650   113.0730   134.3570   142.8400     2.2230   -33.0650 
  210.3750    58.8620    24.1450    95.2300   129.8900   137.5670     2.2160   -33.1290 
  210.5000    59.3580    23.9730    79.0350   124.1000   131.1160     2.2160   -33.2330 
  210.6250    61.5990    23.8990    79.6770   118.3900   125.1490     2.2310   -33.3260 
  210.7500    64.6850    23.8690    87.7790   113.5980   120.2600     2.2430   -33.3330 
  210.8750    66.5430    23.8380    88.1490   109.5700   116.2060     2.2400   -33.2860 
  211.0000    65.5480    23.7270    82.9060   106.0010   112.5390     2.2300   -33.2450 
  211.1250    63.8320    23.5020    78.5810   102.5960   109.0600     2.2250   -33.2650 
  211.2500    62.7510    23.2670    68.9390    98.7900   105.1460     2.2200   -33.3550 
  211.3750    61.8420    23.1980    59.5060    94.3340   100.5290     2.2110   -33.4910 
  211.5000    60.1340    22.9850    53.9240    89.3250    95.2800     2.2090   -33.5990 
  211.6250    58.8460    22.9360    55.0580    84.1200    89.7230     2.2300   -33.5960 
  211.7500    58.4510    22.9270    54.7160    79.1120    84.2540     2.2540   -33.5500 
  211.8750    57.3770    22.9680    51.3470    74.7330    79.4550     2.2580   -33.5180 
  212.0000    57.5780    23.1730    46.9030    71.3870    75.9840     2.2410   -33.5560 
  212.1250    61.1220    23.6670    43.9980    69.9680    74.8460     2.2280   -33.6980 
  212.2500    65.4570    23.8350    42.9380    70.4970    75.8530     2.2310   -33.8310 
  212.3750    67.0020    23.8600    45.4830    72.4840    78.3860     2.2390   -33.8760 
  212.5000    64.7660    23.8820    58.2060    75.1680    81.5680     2.2370   -33.8550 
  212.6250    62.3690    23.8730    71.9100    77.4880    84.2070     2.2330   -33.8230 
  212.7500    63.1600    23.8250    74.3550    78.5740    85.4520     2.2420   -33.8310 
  212.8750    66.4520    23.6360    65.4970    78.1610    84.9870     2.2610   -33.9070 
  213.0000    68.5250    23.3030    57.0370    76.4990    83.0340     2.2750   -34.0320 
  213.1250    65.9980    23.4870    54.1860    73.8900    80.0490     2.2800   -34.1250 
