~V
VERS. 2.00: Ver 2.00
~W
STRT.M 56.0000:
STOP.M 296.0000:
STEP.M 0.1250:
NULL. -999.2500:
UWI. DF301:
~C
DEPT.M :
DEN.GM/CC :
SP.MV :
AC.US/MT :
GR.API :
CALI.CM :
RXO.OHMM :
RI. :
RML.OHMM :
~A
# ...
  136.0000     2.4400    -5.3530   362.2810    90.9130    23.9800    11.6610     7.1290     7.7980 
  136.1250     2.4230    -5.6360   364.2210    88.9630    23.9490     9.7470     7.1820     7.6700 
  136.2500     2.3680    -5.8680   381.3660    81.7910    23.8890     7.5120     6.6790     7.0320 
  136.3750     2.3180    -5.9530   402.3720    75.8620    23.8100     6.9460     6.0070     6.2900 
  136.5000     2.3020    -5.9420   420.2220    75.7600    23.7680     6.5930     5.3840     5.6640 
  136.6250     2.3170    -5.8890   432.3960    79.3700    23.8410     6.0010     4.9150     5.2270 
  136.7500     2.3420    -5.9210   439.1460    83.1800    24.1430     5.4430     4.6400     4.9830 
  136.8750     2.3620    -6.0630   442.7240    88.3790    24.4570     5.3070     4.5110     4.8870 
  137.0000     2.3720    -6.3410   443.5160    94.4390    24.6340     5.5630     4.5290     4.9700 
  137.1250     2.3700    -6.7550   441.6470    97.2650    24.6480     6.2250     4.7280     5.2840 
  137.2500     2.3580    -7.4260   436.9460    93.1260    24.5210     7.0400     5.1670     5.8900 
  137.3750     2.3460    -8.2650   430.1450    85.4250    24.3380     8.0840     5.7910     6.6810 
  137.5000     2.3330    -9.2440   422.1780    76.2640    24.1480     9.3480     6.5260     7.5180 
  137.6250     2.3160   -10.2600   415.2400    68.8450    23.9490    10.5500     7.2380     8.2090 
  137.7500     2.2910   -11.0980   413.0010    65.3850    23.8170    10.7720     7.6760     8.4970 
  137.8750     2.2620   -11.6630   415.9060    64.9380    23.7050    10.3400     7.7290     8.3800 
  138.0000     2.2410   -11.8240   421.8750    65.8160    23.6220     9.8570     7.4380     7.9730 
  138.1250     2.2410   -11.6040   426.2550    68.0260    23.6070     9.3740     6.9840     7.4900 
  138.2500     2.2740   -10.9270   422.2610    72.6610    23.6930     8.3690     6.5960     7.1660 
  138.3750     2.3290   -10.0620   409.5100    78.0490    23.9450     7.4460     6.3890     7.0630 
  138.5000     2.3890    -9.0860   391.9070    83.1950    24.2810     7.3770     6.3660     7.1310 
  138.6250     2.4270    -8.0930   376.8310    86.9730    24.4970     8.4180     6.4360     7.2350 
  138.7500     2.4200    -7.1910   373.3980    86.9720    24.3970     8.9130     6.4330     7.1960 
  138.8750     2.3800    -6.3670   381.7120    84.3090    24.1180     8.2750     6.2760     6.9720 
  139.0000     2.3360    -5.7370   397.3510    81.4280    23.8910     7.1420     5.9950     6.6210 
  139.1250     2.3140    -5.2870   413.2400    80.4760    23.8850     6.3060     5.6780     6.2540 
  139.2500     2.3250    -5.0980   422.7400    83.1010    24.0830     5.9960     5.4260     5.9830 
  139.3750     2.3440    -4.9570   426.3710    87.9270    24.2720     5.9990     5.2600     5.8170 
  139.5000     2.3580    -4.8220   427.1870    93.1860    24.3370     6.1550     5.1570     5.7250 
  139.6250     2.3590    -4.6470   428.3580    96.3060    24.2680     6.1200     5.0800     5.6690 
  139.7500     2.3520    -4.5160   431.1700    97.3390    24.2250     5.7780     5.0210     5.6360 
  139.8750     2.3450    -4.4560   433.8440    99.7120    24.3270     5.5040     4.9980     5.6340 
  140.0000     2.3420    -4.4350   434.3190   101.5710    24.4490     5.5760     5.0210     5.6690 
  140.1250     2.3410    -4.4080   431.7240    97.8130    24.5680     5.9860     5.0840     5.7330 
  140.2500     2.3410    -4.3290   426.9160    89.5340    24.6550     6.2110     5.1600     5.7940 
  140.3750     2.3440    -4.2200   421.9810    84.0050    24.6970     6.1270     5.2220     5.8270 
  140.5000     2.3520    -4.1220   417.3840    85.5180    24.6790     5.8930     5.2600     5.8220 
  140.6250     2.3640    -4.0390   412.6410    92.2970    24.6460     5.7070     5.2750     5.7960 
  140.7500     2.3750    -3.9450   407.6210    97.6630    24.6160     5.8310     5.2980     5.8010 
  140.8750     2.3740    -3.8970   403.1410    98.2250    24.5670     6.2060     5.3770     5.8820 
  141.0000     2.3570    -3.8480   399.5650    94.3780    24.4790     6.5840     5.5340     6.0530 
  141.1250     2.3400    -3.8650   396.4490    90.7260    24.3710     6.9340     5.7560     6.2840 
  141.2500     2.3510    -3.9020   393.3570    89.3890    24.3760     7.8830     5.9770     6.4760 
  141.3750     2.3780    -4.0200   391.6740    89.6620    24.4810     9.3980     6.0990     6.5280 
  141.5000     2.3870    -4.1670   393.6440    90.6280    24.5050     9.5240     6.0550     6.3960 
  141.6250     2.3640    -4.3370   400.3110    90.4100    24.4060     7.7970     5.8510     6.1170 
  141.7500     2.3300    -4.5470   410.0450    89.1330    24.2410     6.4600     5.5860     5.8160 
  141.8750     2.3190    -4.6890   418.4320    88.6550    24.1510     6.0510     5.3860     5.6260 
  142.0000     2.3310    -4.8460   423.2250    90.5670    24.1850     6.0690     5.3170     5.6070 
  142.1250     2.3440    -4.9700   424.7240    94.4790    24.1980     6.2050     5.4000     5.7590 
  142.2500     2.3430    -5.1090   424.6990    98.1390    24.1320     6.4500     5.6150     6.0270 
  142.3750     2.3320    -5.1970   424.6710    97.1990    24.0120     6.7770     5.8500     6.2820 
  142.5000     2.3170    -5.2500   424.4970    91.9300    23.9220     6.7760     6.0080     6.4250 
  142.6250     2.3020    -5.2550   423.9320    88.7620    23.8840     6.4240     6.0180     6.3870 
  142.7500     2.2970    -5.2030   423.5970    92.5840    23.9530     6.2280     5.8110     6.1150 
  142.8750     2.3070    -5.1550   424.6770    97.5210    24.0770     6.0790     5.4390     5.6790 
  143.0000     2.3270    -5.0620   427.8860    99.1120    24.0880     5.8340     4.9690     5.1590 
  143.1250     2.3480    -4.9570   432.7010    99.3310    24.0440     5.4590     4.5060     4.6680 
  143.2500     2.3670    -4.8700   436.0930   101.0260    24.0740     5.1650     4.2150     4.4020 
  143.3750     2.3830    -4.8280   433.4870   103.6160    24.2010     5.1340     4.2100     4.5020 
  143.5000     2.3870    -4.8490   420.8450   104.0630    24.3580     5.6710     4.6070     5.1100 
  143.6250     2.3840    -5.0220   397.0870   100.1910    24.4020     7.2180     5.5040     6.2920 
  143.7500     2.3970    -5.2630   367.0990    93.6160    24.2820    11.1770     7.0090     8.0580 
  143.8750     2.4280    -5.6360   343.2470    88.1950    24.1860    15.3030     8.7670     9.9810 
  144.0000     2.4450    -6.1650   335.0870    85.0820    24.1990    16.9020    10.1750    11.4280 
  144.1250     2.4130    -6.7940   346.1330    82.6750    24.1630    15.2600    10.6360    11.8140 
  144.2500     2.3370    -7.4500   372.4850    82.1230    24.0290    12.2550    10.0450    11.0180 
  144.3750     2.2650    -8.0870   400.5690    82.5820    23.9120    10.2880     9.1540     9.9170 
  144.5000     2.2170    -8.6560   423.6640    81.4390    23.8400     9.4760     8.3970     9.0910 
  144.6250     2.1930    -9.0890   437.4380    79.1130    23.8030     9.4360     7.9460     8.7120 
  144.7500     2.1850    -9.4790   443.3520    77.6760    23.7750     9.6510     7.8320     8.7420 
  144.8750     2.1820    -9.7070   445.8920    78.1360    23.7360     9.7600     7.8890     8.9320 
  145.0000     2.1780    -9.8040   446.3980    78.0000    23.7090     9.6970     8.0000     9.1320 
  145.1250     2.1640    -9.8200   445.0330    77.0640    23.6930     9.5130     8.0840     9.2520 
  145.2500     2.1420    -9.8020   441.8540    76.5620    23.6820     9.3650     8.1000     9.2600 
  145.3750     2.1230    -9.7940   438.2850    75.8610    23.6250     9.3540     8.0720     9.2060 
  145.5000     2.1210    -9.8050   435.6350    75.4300    23.4540     9.4970     8.0270     9.1340 
  145.6250     2.1310    -9.8780   434.7650    75.6310    23.1600     9.6170     8.0020     9.0900 
  145.7500     2.1380    -9.9560   436.0760    77.1710    23.0260     9.5320     8.0510     9.1420 
  145.8750     2.1410   -10.1400   438.7910    78.8170    23.2220     9.4910     8.1970     9.3130 
