~V
VERS. 2.00: Ver 2.00
~W
STRT.M 120.0000:
STOP.M 271.0000:
STEP.M 0.1250:
NULL. -999.2500:
UWI. DF3037:
~C
DEPT.M :
GR.API :
RML.OHMM :
RI. :
RXO.OHMM :
CALI.CM :
SP.MV :
DEN.GM/CC :
AC.US/MT :
~A
# ...
  150.0000    59.1740    20.5230    17.7750    20.8650    24.5210   -17.9920     2.5640   267.1800 
  150.1250    56.9700    22.9690    20.2540    24.1970    24.4230   -17.8550     2.5810   257.7450 
  150.2500    54.7050    24.3570    21.9560    24.4250    24.3950   -17.6650     2.5870   253.7460 
  150.3750    52.8370    24.5920    22.6280    23.7070    24.4890   -17.5400     2.5890   253.5380 
  150.5000    52.3180    23.9880    22.4250    23.4400    24.7070   -17.4550     2.5890   255.4240 
  150.6250    53.2610    23.0560    21.7340    23.5290    24.9680   -17.3450     2.5910   258.5090 
  150.7500    53.3920    22.2690    21.0410    22.9010    25.1480   -17.3020     2.5950   261.9080 
  150.8750    52.4950    21.8190    20.5640    21.5730    25.1960   -17.2460     2.5990   264.8840 
  151.0000    51.3740    21.8050    20.4330    21.0710    25.1930   -17.2840     2.6010   266.7370 
  151.1250    52.5060    22.3530    20.7960    21.6120    25.2660   -17.2840     2.5980   266.6680 
  151.2500    53.7750    23.3140    21.5620    21.8050    25.4220   -17.2530     2.5920   264.7580 
  151.3750    54.6620    24.4920    22.5910    22.0750    25.5420   -17.2230     2.5910   261.1010 
  151.5000    56.7020    25.5900    23.6460    22.9290    25.5410   -17.0760     2.5990   256.2880 
  151.6250    58.3810    26.2190    24.3810    26.7950    25.4750   -17.0430     2.6150   251.8580 
  151.7500    57.5410    26.2930    24.6480    31.0070    25.4470   -16.9330     2.6290   249.4940 
  151.8750    56.6780    25.8940    24.4520    31.1560    25.4630   -16.8640     2.6330   249.9730 
  152.0000    58.7450    25.2380    23.9450    27.5370    25.4800   -16.8080     2.6260   252.8060 
  152.1250    62.5320    24.5740    23.3370    24.7650    25.4830   -16.7650     2.6160   256.4530 
  152.2500    64.2090    24.0120    22.7850    22.8890    25.4890   -16.8570     2.6110   259.3430 
  152.3750    63.7580    23.5220    22.3010    22.2810    25.5050   -16.8750     2.6110   261.1850 
  152.5000    62.1120    23.0330    21.8420    22.6570    25.5410   -16.9730     2.6150   262.4560 
  152.6250    60.7610    22.5270    21.3820    22.6930    25.5600   -16.9990     2.6190   263.8540 
  152.7500    61.1230    22.1100    20.9890    22.0300    25.5660   -17.0890     2.6210   265.4500 
  152.8750    62.9180    21.9310    20.7820    20.7630    25.5620   -17.1650     2.6190   266.7490 
  153.0000    63.8740    22.1040    20.8700    20.3500    25.5560   -17.2840     2.6180   267.1100 
  153.1250    60.8130    22.6770    21.3230    20.6710    25.5590   -17.3510     2.6210   265.9530 
  153.2500    57.1140    23.4120    21.9560    21.5250    25.5910   -17.4060     2.6280   263.8280 
  153.3750    56.6890    24.0370    22.5420    23.7160    25.6170   -17.5300     2.6350   261.5640 
  153.5000    58.9210    24.2760    22.8280    25.4780    25.6380   -17.5650     2.6400   260.2160 
  153.6250    59.7170    23.8730    22.5590    25.3850    25.6940   -17.6870     2.6360   261.1440 
  153.7500    59.7150    22.9960    21.8430    24.4330    25.7730   -17.7480     2.6250   264.3710 
  153.8750    62.0440    21.8920    20.8760    22.9980    25.8440   -17.7860     2.6080   269.4570 
  154.0000    64.1950    20.8680    19.9240    20.0350    25.9470   -17.8330     2.5850   275.5070 
  154.1250    62.6610    20.2770    19.3050    18.4020    26.0390   -17.8330     2.5580   281.3470 
  154.2500    60.0010    20.2140    19.1380    17.8580    26.0240   -17.7630     2.5350   285.8650 
  154.3750    59.6720    20.6820    19.4540    18.3600    25.9800   -17.7250     2.5250   288.0510 
  154.5000    61.3900    21.5550    20.1730    19.1890    25.9770   -17.8030     2.5320   287.1330 
  154.6250    60.7150    22.5550    21.0700    20.8520    26.1760   -17.8740     2.5580   282.7200 
  154.7500    58.6060    23.2240    21.7440    22.5350    26.2670   -17.9310     2.5900   276.8380 
  154.8750    57.8490    23.2260    21.8700    23.5300    26.3110   -18.0150     2.6150   271.7710 
  155.0000    60.4330    22.3630    21.2750    23.4440    26.3070   -17.9800     2.6270   269.7640 
  155.1250    65.1740    20.7470    19.9690    22.7530    26.2550   -18.0480     2.6210   272.4930 
  155.2500    66.9730    18.8650    18.4180    20.8860    26.2110   -18.0960     2.6060   278.0260 
  155.3750    64.5390    17.1780    16.9850    17.5990    26.2000   -18.0930     2.5850   283.9180 
  155.5000    61.8080    16.1500    15.9300    14.5230    26.1680   -18.0650     2.5650   287.9380 
  155.6250    62.2830    15.8240    15.4480    14.2060    26.0090   -18.0120     2.5490   288.9150 
  155.7500    63.3470    15.9640    15.4140    15.2180    25.8260   -18.0040     2.5380   288.4770 
  155.8750    61.0100    16.3940    15.6990    15.9340    25.7420   -17.9370     2.5300   288.2550 
  156.0000    57.4570    16.9050    16.1230    16.4450    25.7280   -17.9740     2.5240   289.1560 
  156.1250    56.8690    17.2610    16.4700    16.4200    25.6440   -17.8960     2.5180   291.0440 
  156.2500    57.7660    17.3880    16.6290    16.7520    25.3180   -17.8700     2.5130   293.0610 
  156.3750    58.5130    17.3310    16.6090    17.5880    24.8370   -17.7980     2.5090   294.9730 
  156.5000    59.7320    17.2150    16.4990    17.7080    24.5780   -17.7540     2.5060   296.7950 
  156.6250    62.9630    17.2180    16.4410    16.3830    24.5600   -17.7720     2.5070   298.0460 
  156.7500    65.2730    17.4230    16.5210    15.4120    24.4840   -17.7660     2.5140   297.9720 
  156.8750    63.6940    17.8240    16.7540    15.6380    24.3330   -17.8190     2.5230   296.1540 
  157.0000    59.4480    18.3350    17.0860    16.3130    24.2760   -17.7600     2.5310   293.0700 
  157.1250    55.4210    18.8050    17.4100    16.7220    24.3480   -17.8350     2.5330   290.2700 
  157.2500    54.7800    19.1150    17.6230    17.2350    24.3180   -17.9580     2.5260   289.2410 
  157.3750    57.6130    19.2180    17.6820    17.6240    24.2260   -18.1320     2.5130   290.5270 
  157.5000    62.3240    19.1460    17.6050    17.6310    24.1390   -18.3400     2.4950   293.7430 
  157.6250    66.0610    18.9860    17.4600    17.2430    24.1030   -18.3930     2.4810   297.8270 
  157.7500    68.5140    18.8620    17.3450    16.7560    24.0660   -18.4530     2.4720   301.3890 
  157.8750    71.0290    18.8440    17.3160    16.4140    24.0970   -18.5120     2.4690   303.6780 
  158.0000    73.9090    18.9540    17.3920    16.5280    24.2910   -18.6570     2.4660   304.4530 
  158.1250    76.8390    19.1700    17.5610    16.9290    24.6260   -18.8420     2.4600   303.7470 
  158.2500    77.4840    19.3950    17.7460    17.4570    24.8830   -18.9650     2.4530   302.2720 
  158.3750    74.5490    19.5450    17.8800    17.9140    24.9480   -19.1620     2.4520   300.5370 
  158.5000    70.5840    19.5500    17.8980    18.3030    24.8220   -19.3040     2.4620   299.0050 
  158.6250    70.0390    19.3370    17.7250    17.8380    24.6860   -19.5220     2.4790   298.1840 
  158.7500    71.7520    18.9360    17.3730    17.1190    24.5830   -19.6920     2.4930   298.1760 
  158.8750    73.6080    18.3760    16.8600    16.2630    24.5050   -19.8570     2.4930   298.9270 
  159.0000    74.0460    17.7100    16.2310    15.5240    24.5590   -19.9690     2.4770   300.1910 
  159.1250    72.5090    17.0220    15.5630    14.9040    24.8020   -19.9880     2.4530   301.5140 
  159.2500    70.7270    16.4300    14.9660    14.3460    25.0520   -20.0000     2.4370   302.4060 
  159.3750    70.8420    16.0380    14.5360    13.9920    25.0900   -19.9160     2.4370   302.6300 
  159.5000    72.7670    15.9210    14.3400    13.5290    24.8950   -19.8350     2.4510   302.1770 
  159.6250    72.7430    16.1390    14.4430    13.3930    24.5630   -19.6920     2.4680   301.2580 
  159.7500    71.8520    16.5700    14.7520    13.6540    24.3490   -19.6550     2.4760   300.2730 
  159.8750    71.2450    17.0990    15.1780    14.2980    24.2860   -19.5500     2.4760   299.4130 
