~V
VERS. 2.00: Ver 2.00
~W
STRT.M 64.0000:
STOP.M 257.0000:
STEP.M 0.1250:
NULL. -999.2500:
UWI. DF3069:
~C
DEPT.M :
GR.API :
CALI.CM :
RXO.OHMM :
RI. :
RML.OHMM :
DEN.GM/CC :
SP.MV :
~A
# ...
  165.2500    60.0720    24.2450    83.5130   106.5220   117.1440     2.2660   -43.1540 
  165.3750    60.3280    24.2220    99.2060   114.3040   125.6460     2.2590   -43.3730 
  165.5000    63.7990    24.1660   115.6420   117.1130   128.5690     2.2550   -43.4990 
  165.6250    67.1910    24.1910   114.1270   114.0460   125.0860     2.2540   -43.5110 
  165.7500    69.0590    24.2660    98.0770   107.8530   118.5640     2.2590   -43.5300 
  165.8750    70.3100    24.2770    79.4960   101.4700   112.5310     2.2700   -43.6210 
  166.0000    70.4030    24.1800    69.2570    97.4570   109.6050     2.2810   -43.7920 
  166.1250    68.4440    24.2110    66.7800    97.7850   111.6640     2.2890   -43.9120 
  166.2500    65.5980    24.3030    68.8060   101.6470   117.6690     2.2910   -43.8770 
  166.3750    62.5400    24.3270    81.2780   108.4210   126.8490     2.2830   -43.7050 
  166.5000    60.2570    24.1880    92.6170   116.8270   137.6450     2.2570   -43.5170 
  166.6250    61.8060    24.2040   105.7770   124.7750   147.4500     2.2220   -43.4110 
  166.7500    65.3660    24.2670   125.0540   130.5430   154.1210     2.1990   -43.3650 
  166.8750    67.3190    24.2730   144.7470   133.2470   156.5100     2.1970   -43.2600 
  167.0000    67.9860    24.2510   147.9900   132.7240   154.7160     2.2120   -43.0170 
  167.1250    68.8110    24.2640   134.7430   129.5510   149.8290     2.2320   -42.6330 
  167.2500    67.7720    24.3000   124.6160   124.7930   143.1450     2.2480   -42.2790 
  167.3750    65.5060    24.3360   119.8840   118.4870   134.6960     2.2550   -42.0530 
  167.5000    64.1910    24.2650   116.6030   110.8760   124.9230     2.2550   -41.8950 
  167.6250    66.0470    24.2650   108.9400   102.3360   114.4520     2.2510   -41.7120 
  167.7500    68.9530    24.2640   101.6010    93.3760   103.7880     2.2520   -41.4310 
  167.8750    72.2250    24.3150    91.4060    84.6200    93.6490     2.2630   -41.0770 
  168.0000    75.2690    24.3080    77.0780    76.9860    85.1070     2.2790   -40.7420 
  168.1250    74.7680    24.2550    66.0790    71.6100    79.3680     2.2910   -40.5600 
  168.2500    71.9960    24.2690    64.0100    68.1740    75.8900     2.2960   -40.4890 
  168.3750    68.9650    24.2650    63.1010    66.1660    74.0570     2.2940   -40.4260 
  168.5000    66.7230    24.2750    59.1620    64.9120    73.0860     2.2870   -40.3330 
  168.6250    66.3870    24.2530    60.7910    64.1060    72.5920     2.2720   -40.1820 
  168.7500    67.6320    24.2570    73.4770    63.3770    72.2470     2.2610   -40.0250 
  168.8750    70.2280    24.2770    85.6460    62.6710    72.0920     2.2640   -39.9600 
  169.0000    71.8900    24.2520    77.8000    62.4390    72.7800     2.2800   -40.0160 
  169.1250    70.8520    24.2560    56.7570    63.9230    75.5950     2.2960   -40.1010 
  169.2500    69.9780    24.2450    48.2870    67.3580    80.7080     2.3010   -40.1010 
  169.3750    70.0920    24.2390    61.4140    72.7150    88.0630     2.2900   -40.0050 
  169.5000    70.2940    24.2810    83.8560    79.6770    97.2750     2.2680   -39.8390 
  169.6250    72.4840    24.2520   100.3420    87.9010   108.0950     2.2480   -39.7490 
  169.7500    75.5630    24.2670   102.5550    96.6700   119.3990     2.2380   -39.7840 
  169.8750    75.2980    24.2570   101.9330   105.4890   130.5220     2.2320   -39.8600 
  170.0000    69.5320    24.2200   101.3470   113.6790   140.5280     2.2220   -39.9000 
  170.1250    63.8380    24.1740   102.5780   119.0280   146.3420     2.2130   -39.8300 
  170.2500    62.9050    24.1180   109.6230   120.0180   146.1920     2.2120   -39.7200 
  170.3750    63.7810    24.1930   127.3590   116.1300   139.5360     2.2160   -39.6470 
  170.5000    63.7370    24.1270   147.1830   106.9100   126.2240     2.2180   -39.7110 
  170.6250    64.2990    23.9710   146.2250    92.6080   107.4880     2.2270   -39.8420 
  170.7500    68.4310    23.9560   125.4550    76.9380    88.1400     2.2520   -39.8880 
  170.8750    74.8640    23.9460    91.5110    62.9000    71.5460     2.2870   -39.8380 
  171.0000    79.8600    24.0270    58.3330    51.9560    59.0020     2.3190   -39.7050 
  171.1250    80.3680    24.0180    41.4220    45.1260    51.5550     2.3330   -39.6320 
  171.2500    78.7320    23.9520    38.8020    41.4790    47.7580     2.3340   -39.6650 
  171.3750    75.2890    24.0140    37.7310    39.8690    46.1630     2.3250   -39.7670 
  171.5000    71.4460    24.0000    36.7300    39.3120    45.6220     2.3110   -39.8330 
  171.6250    71.8320    24.0070    40.3290    39.1640    45.3410     2.2990   -39.8030 
  171.7500    76.0180    23.9460    45.5420    38.7850    44.5990     2.2940   -39.7350 
  171.8750    79.5080    23.9380    46.5940    37.8960    43.2250     2.2960   -39.6820 
  172.0000    79.7320    24.0200    44.5070    36.7070    41.6470     2.3020   -39.6870 
  172.1250    79.0350    23.9870    39.2390    35.8190    40.6560     2.3080   -39.7700 
  172.2500    79.5370    23.9680    34.4010    35.6210    40.7410     2.3170   -39.8730 
  172.3750    79.0360    23.9630    33.1950    36.4380    42.2990     2.3240   -39.9200 
  172.5000    78.0200    24.0580    36.8810    38.5060    45.5430     2.3150   -39.9000 
  172.6250    79.2860    24.1030    43.3440    41.9540    50.4100     2.2820   -39.8760 
  172.7500    81.4610    24.0360    46.4690    46.2180    56.1690     2.2460   -39.9520 
  172.8750    81.7180    24.1300    47.3740    50.7770    62.1030     2.2280   -40.1520 
  173.0000    81.1510    24.1030    54.0180    54.9450    67.3130     2.2270   -40.4060 
  173.1250    81.3060    24.1990    64.9290    57.6750    70.5460     2.2310   -40.5570 
  173.2500    79.2020    24.2480    69.3760    58.5270    71.4980     2.2380   -40.5960 
  173.3750    75.0610    24.2300    64.8060    57.4930    70.2220     2.2580   -40.6240 
  173.5000    74.0620    24.2000    55.4560    55.0070    67.2810     2.2850   -40.7110 
  173.6250    78.4760    24.0180    47.5310    51.6460    63.2970     2.2980   -40.9280 
  173.7500    81.9700    24.0540    42.8330    48.3270    59.3770     2.2910   -41.1720 
  173.8750    81.8790    24.0080    43.3530    45.6730    56.3370     2.2790   -41.3340 
  174.0000    81.8390    23.9470    43.7520    44.0770    54.7590     2.2740   -41.4070 
  174.1250    82.3250    23.9480    39.2890    43.9410    55.1720     2.2760   -41.4860 
  174.2500    80.4090    24.0050    36.9980    45.0900    57.1450     2.2770   -41.6390 
  174.3750    76.8220    24.0820    40.1770    47.2080    60.1630     2.2770   -41.8870 
  174.5000    73.6290    23.9610    50.0810    49.8300    63.6140     2.2770   -42.2000 
  174.6250    71.9040    23.9340    61.2160    52.5170    66.8810     2.2780   -42.4320 
  174.7500    69.7530    23.9750    70.0360    54.8750    69.3590     2.2790   -42.5600 
  174.8750    68.8190    24.0260    77.4380    56.4730    70.5470     2.2820   -42.6600 
  175.0000    69.4230    24.0670    76.3050    57.1200    70.4090     2.2830   -42.8100 
  175.1250    70.0090    23.9500    64.8070    57.0650    69.4360     2.2770   -42.9240 
  175.2500    71.1810    23.9350    54.1770    56.9400    68.5680     2.2640   -43.1090 
  175.3750    73.5780    23.9680    52.4290    57.2780    68.5160     2.2530   -43.4030 
  175.5000    77.7630    23.9420    56.0760    58.4440    69.5770     2.2520   -43.6580 
  175.6250    80.2850    24.0040    55.3040    60.6640    71.8720     2.2630   -43.8150 
  175.7500    78.7640    23.9170    48.9970    63.3710    74.5500     2.2750   -43.9290 
  175.8750    74.0140    23.7450    44.3210    65.3370    76.0800     2.2790   -44.0660 
  176.0000    68.8560    23.7540    46.0680    65.0850    74.8440     2.2710   -44.2740 
  176.1250    68.4110    23.5270    55.1450    61.2270    69.6840     2.2490   -44.5380 
  176.2500    72.0030    23.3650    62.8380    54.9630    62.0240     2.2320   -44.7740 
  176.3750    77.2610    23.3260    58.2780    47.9350    53.6600     2.2350   -44.9420 
