~V
VERS. 2.00: Ver 2.00
~W
STRT.M 110.0000:
STOP.M 266.0000:
STEP.M 0.1250:
NULL. -999.2500:
UWI. DF309:
~C
DEPT.M :
DEN.GM/CC :
SP.MV :
AC.US/MT :
GR.API :
CALI.CM :
RXO.OHMM :
RI. :
RML.OHMM :
~A
# ...
  210.0000     2.2160   -26.8740   400.0600    60.4990    24.9660    69.5150   102.0850   118.1040 
  210.1250     2.2160   -26.8790   401.1870    62.0110    24.9350    67.8950   102.5370   117.7850 
  210.2500     2.2110   -26.8770   402.1920    64.5950    24.8840    65.9470   102.3590   116.4610 
  210.3750     2.2020   -26.8700   402.8870    66.5380    24.8360    62.9920   100.7120   113.1180 
  210.5000     2.1960   -26.8410   403.2260    66.2260    24.7980    59.2200    96.9250   107.0940 
  210.6250     2.1990   -26.8110   403.0570    63.3210    24.7490    54.8890    90.6150    98.3340 
  210.7500     2.2060   -26.8050   402.2690    61.2090    24.6680    50.7260    82.9050    88.4630 
  210.8750     2.2110   -26.8290   400.8050    62.8910    24.5260    46.8210    74.8130    78.7550 
  211.0000     2.2130   -26.8630   398.9380    67.9290    24.3000    43.5780    67.2980    70.1970 
  211.1250     2.2130   -26.9220   397.2020    71.7380    24.1040    41.3460    61.3920    63.7620 
  211.2500     2.2170   -27.0360   395.8330    73.1680    23.8910    40.0600    57.4210    59.5560 
  211.3750     2.2300   -27.1780   394.7510    73.3270    23.7270    39.0620    55.7360    57.8500 
  211.5000     2.2440   -27.3570   394.0970    72.4350    23.6520    38.1370    56.6160    58.8870 
  211.6250     2.2490   -27.5610   394.7910    70.4360    23.6400    38.5650    60.7670    63.4080 
  211.7500     2.2470   -27.7930   397.1860    68.2870    23.6440    41.9080    67.7760    71.0240 
  211.8750     2.2420   -28.0250   400.7180    66.6760    23.6610    48.3090    77.2290    81.4000 
  212.0000     2.2340   -28.2520   403.8860    64.8400    23.7000    54.9540    88.0170    93.4050 
  212.1250     2.2230   -28.4630   404.9780    62.5130    23.7290    57.6920    98.1090   104.6740 
  212.2500     2.2150   -28.6250   404.4710    61.2740    23.7810    58.8130   106.0160   113.3190 
  212.3750     2.2110   -28.7500   403.6400    61.6590    23.8870    61.3880   111.5060   119.1000 
  212.5000     2.2080   -28.8610   403.5570    61.7370    24.0120    64.5630   115.3500   123.0940 
  212.6250     2.2020   -28.9340   404.3510    61.9450    24.0900    63.6010   118.7290   126.8050 
  212.7500     2.1950   -28.9570   405.0800    62.8730    24.0710    60.7730   122.4880   131.0920 
  212.8750     2.1930   -28.9600   405.4430    61.9880    23.9730    60.5010   126.5850   135.7900 
  213.0000     2.2010   -28.9550   406.2790    58.2640    23.8790    64.4480   130.2980   139.9730 
  213.1250     2.2130   -28.9110   409.1830    56.1670    23.9130    70.4010   131.8380   141.4110 
  213.2500     2.2140   -28.8610   413.2480    57.8170    24.1710    75.4340   130.2570   138.9760 
  213.3750     2.2030   -28.8080   415.8470    59.7680    24.6520    78.5760   125.5260   132.8070 
  213.5000     2.1860   -28.7290   414.7360    60.3520    25.0730    79.1090   118.7360   124.4400 
  213.6250     2.1820   -28.6590   410.1280    59.3640    25.2250    77.4280   111.7620   116.2260 
  213.7500     2.1970   -28.5760   405.7190    58.3990    25.2470    77.8330   106.1670   109.8250 
  213.8750     2.2170   -28.4670   403.6080    58.0970    25.2480    82.1550   102.4250   105.6330 
  214.0000     2.2280   -28.3340   403.6870    58.3760    25.2510    86.7710   100.2020   103.1710 
  214.1250     2.2220   -28.2200   404.3860    60.2580    25.2570    85.0940    98.6770   101.4190 
  214.2500     2.2140   -28.1150   404.3660    63.6690    25.2610    80.8860    96.8450    99.2170 
  214.3750     2.2150   -28.0010   403.2990    66.2210    25.2600    77.8540    94.2880    96.1360 
  214.5000     2.2210   -27.8840   401.2590    64.9990    25.2570    75.4790    91.1080    92.3780 
  214.6250     2.2260   -27.7710   398.4230    64.1170    25.2530    72.7070    87.8810    88.6840 
  214.7500     2.2300   -27.6950   394.9820    66.0170    25.2510    69.7080    85.2180    85.7310 
  214.8750     2.2350   -27.6710   390.9140    66.8190    25.2490    68.8260    83.4180    83.8220 
  215.0000     2.2390   -27.6750   386.9020    64.4660    25.2470    69.6300    82.5740    83.0210 
  215.1250     2.2410   -27.7080   384.8770    62.7440    25.2500    70.4520    82.6310    83.2490 
  215.2500     2.2390   -27.7660   385.1350    63.5460    25.2540    71.1940    82.9750    83.8310 
  215.3750     2.2370   -27.8440   386.3600    64.5570    25.2530    73.5300    83.1030    84.2100 
  215.5000     2.2350   -27.9330   386.9560    67.5580    25.2500    76.9530    82.7280    84.0440 
  215.6250     2.2380   -28.0320   386.2820    75.2400    25.2470    77.9180    81.9860    83.4160 
  215.7500     2.2470   -28.1230   384.9200    80.0880    25.2470    75.1200    81.5260    83.0110 
  215.8750     2.2580   -28.1600   382.9550    76.4670    25.2470    70.6720    81.9680    83.4960 
  216.0000     2.2660   -28.1970   380.3190    67.1920    25.2490    69.0570    83.7660    85.3620 
  216.1250     2.2630   -28.2060   377.6100    62.7970    25.2500    72.9890    87.1460    88.8330 
  216.2500     2.2580   -28.1720   375.8950    62.5580    25.2510    79.4940    91.0710    92.8030 
  216.3750     2.2600   -28.1340   375.6530    62.2350    25.2490    84.7670    94.0850    95.6840 
  216.5000     2.2700   -28.0930   376.9530    63.6270    25.2470    86.5790    94.5230    95.6460 
  216.6250     2.2800   -28.0200   380.2850    67.9430    25.2470    84.3740    90.7760    91.0120 
  216.7500     2.2740   -27.9090   385.3790    69.1790    25.2470    77.8430    84.0790    83.3370 
  216.8750     2.2530   -27.8140   391.2460    66.4660    25.2340    67.8560    76.0210    74.4750 
  217.0000     2.2280   -27.7140   396.2190    65.1160    25.1700    56.9750    68.1850    66.1200 
  217.1250     2.2180   -27.6440   398.6420    67.0900    25.0080    49.0080    61.8660    59.5770 
  217.2500     2.2220   -27.5980   399.1230    71.8880    24.8350    44.6630    57.1400    54.8180 
  217.3750     2.2290   -27.5570   398.8650    79.5220    24.7020    43.1110    53.8590    51.6380 
  217.5000     2.2330   -27.5330   398.8310    84.8330    24.6430    43.5700    51.7700    49.7170 
  217.6250     2.2380   -27.5500   397.7830    80.0920    24.6950    44.6540    50.8170    48.9260 
  217.7500     2.2550   -27.6310   393.1520    71.5180    24.8000    44.7340    50.7910    49.0210 
  217.8750     2.2760   -27.7580   384.6900    67.0480    24.8340    43.5770    51.7890    50.1050 
  218.0000     2.2870   -27.9170   376.1580    66.9100    24.7820    43.2740    53.9560    52.3560 
  218.1250     2.2810   -28.1060   374.2420    69.2750    24.6090    44.5390    57.6480    56.1600 
  218.2500     2.2680   -28.3180   378.9650    72.2460    24.3890    48.6840    62.6380    61.3080 
  218.3750     2.2560   -28.5580   385.8660    72.0730    24.1830    56.0610    68.6980    67.6020 
  218.5000     2.2490   -28.8170   389.8510    71.7840    24.2010    65.7310    75.3730    74.6380 
  218.6250     2.2480   -29.0900   388.7770    76.3790    24.5560    75.1190    82.0240    81.8520 
  218.7500     2.2510   -29.3440   386.6330    84.2170    24.9950    84.2060    88.1190    88.7130 
  218.8750     2.2530   -29.5780   386.7880    85.2890    25.2150    92.0170    93.3250    94.9130 
  219.0000     2.2510   -29.7940   389.7390    74.8250    25.2610    94.7110    97.3790   100.1950 
  219.1250     2.2510   -29.9550   392.6710    63.8330    25.2530    93.3090    99.8730   104.0810 
  219.2500     2.2520   -30.0880   393.8340    61.4070    25.2330    91.6890   101.1260   106.6780 
  219.3750     2.2440   -30.1840   395.0960    65.0180    25.1620    91.6420   101.5870   108.3030 
  219.5000     2.2220   -30.2670   398.5310    65.7470    24.9850    89.4580   101.8810   109.5830 
  219.6250     2.2050   -30.3190   401.3460    62.5370    24.8260    82.8610   102.6600   111.2540 
  219.7500     2.2120   -30.3520   397.8610    60.3030    24.7170    75.7490   104.1020   113.5760 
  219.8750     2.2380   -30.3600   386.8190    59.6240    24.6580    71.9180   106.1340   116.4700 
