~V
VERS. 2.00: Ver 2.00
~W
STRT.M 125.0000:
STOP.M 273.0000:
STEP.M 0.1250:
NULL. -999.2500:
UWI. DF3072:
~C
DEPT.M :
DEN.GM/CC :
GR.API :
CALI.CM :
RXO.OHMM :
RI. :
RML.OHMM :
SP.MV :
~A
# ...
  192.5000     2.2010    57.1540    26.9830   276.7930   297.7900   357.1810   -29.6970 
  192.6250     2.2050    57.4450    27.0090   260.1390   292.7460   346.7820   -28.8500 
  192.7500     2.2080    60.2440    26.8930   253.5980   277.4840   322.0250   -28.0420 
  192.8750     2.2120    61.8490    26.5200   241.5290   251.2200   281.0090   -27.2690 
  193.0000     2.2210    61.3410    25.9580   218.9100   214.2560   227.2600   -26.5410 
  193.1250     2.2380    61.9490    25.5810   189.6300   171.6480   174.4330   -25.8200 
  193.2500     2.2550    65.0050    25.6190   150.4020   133.2820   133.7410   -25.0980 
  193.3750     2.2700    68.3360    25.9320   103.4830   104.8000   107.3960   -24.3800 
  193.5000     2.2810    67.7660    26.2120    65.8630    88.1880    93.8110   -23.6510 
  193.6250     2.2880    62.0640    26.2710    56.2100    84.8750    92.3570   -22.9510 
  193.7500     2.2950    57.5060    26.2020    70.9330    91.0870    99.4980   -22.3120 
  193.8750     2.3070    56.4620    26.1060   116.0540   103.9860   113.2140   -21.7210 
  194.0000     2.3230    57.2180    26.0220   191.2850   118.9150   128.9740   -21.1870 
  194.1250     2.3180    58.8300    26.0220   227.1310   128.0830   137.4110   -20.6930 
  194.2500     2.2770    60.7640    26.1120   188.4340   128.9920   136.3350   -20.2110 
  194.3750     2.2170    61.2570    26.0880   125.4590   126.0460   131.9740   -19.7330 
  194.5000     2.1730    59.6660    25.7310    98.6080   126.5670   131.5420   -19.2270 
  194.6250     2.1910    57.5300    25.1560   107.7830   132.8950   134.6920   -18.6550 
  194.7500     2.2720    55.3730    24.7900   136.1870   133.5660   127.4060   -18.0140 
  194.8750     2.4020    53.8800    24.7390   204.2840   115.4990    99.8550   -17.3160 
  195.0000     2.5310    54.5570    24.8160   276.7840    80.3830    63.4490   -16.5790 
  195.1250     2.5840    56.8790    24.8230   215.5300    47.2620    37.1490   -15.8580 
  195.2500     2.5660    59.4880    24.8700    91.5350    26.0620    21.6500   -15.1660 
  195.3750     2.5290    61.1850    25.0920    23.5480    14.8850    13.2080   -14.5380 
  195.5000     2.5180    60.6940    25.4290    11.0330     9.5680     8.7600   -13.9960 
  195.6250     2.5260    59.4620    25.6470     8.9490     7.1930     6.6750   -13.5270 
  195.7500     2.5230    61.7300    25.7010     7.4320     5.8850     5.6240   -13.1400 
  195.8750     2.5090    65.9700    25.6680     5.8350     5.1980     5.1390   -12.8360 
  196.0000     2.4970    67.2100    25.5900     4.8340     4.8770     4.9200   -12.5780 
  196.1250     2.5000    65.2790    25.4970     4.5290     4.7770     4.8260   -12.3700 
  196.2500     2.5010    64.0440    25.4840     4.3900     4.8040     4.8210   -12.1860 
  196.3750     2.4850    64.5070    25.5540     4.4330     4.9400     4.9140   -12.0070 
  196.5000     2.4520    65.8940    25.6140     4.7270     5.1540     5.0790   -11.8530 
  196.6250     2.4290    65.2940    25.5810     5.2060     5.3930     5.2830   -11.7280 
  196.7500     2.4230    61.7280    25.4820     5.6760     5.5970     5.4900   -11.6200 
  196.8750     2.4260    56.6230    25.3590     5.9240     5.7260     5.6650   -11.5220 
  197.0000     2.4260    53.9410    25.2400     5.8060     5.7640     5.7760   -11.4300 
  197.1250     2.4230    53.6010    25.1570     5.4720     5.7200     5.8090   -11.3440 
  197.2500     2.4170    53.1920    25.1270     5.2990     5.6460     5.8080   -11.2590 
  197.3750     2.4100    52.2430    25.1360     5.3710     5.5720     5.8150   -11.1700 
  197.5000     2.4090    51.5910    25.1580     5.5410     5.5160     5.8590   -11.0750 
  197.6250     2.4250    51.9930    25.1850     5.6540     5.4860     5.9510   -10.9910 
  197.7500     2.4490    53.1020    25.2280     5.7230     5.4750     6.0620   -10.9130 
  197.8750     2.4640    52.6870    25.2790     5.7970     5.4770     6.1700   -10.8480 
  198.0000     2.4620    49.8930    25.3150     5.8870     5.4840     6.2580   -10.7890 
  198.1250     2.4550    47.0570    25.3230     5.9660     5.4930     6.3240   -10.7400 
  198.2500     2.4550    45.9260    25.3200     6.0120     5.5120     6.4000   -10.7120 
  198.3750     2.4630    47.4870    25.3110     6.0330     5.5580     6.5360   -10.6940 
  198.5000     2.4670    51.5280    25.2890     6.0850     5.6550     6.7870   -10.6950 
  198.6250     2.4620    56.8880    25.2550     6.2980     5.8260     7.1910   -10.7340 
  198.7500     2.4610    62.8670    25.2460     6.7450     6.0390     7.6530   -10.8110 
  198.8750     2.4710    69.9480    25.2900     7.4460     6.2400     8.0450   -10.9420 
  199.0000     2.4890    79.4590    25.3870     8.2300     6.3720     8.2550   -11.1650 
  199.1250     2.4970    88.4970    25.4950     8.5900     6.3950     8.2440   -11.5120 
  199.2500     2.4920    95.7050    25.5690     8.4140     6.3670     8.1710   -11.9980 
  199.3750     2.4800   102.0410    25.5900     8.2310     6.3590     8.1900   -12.6400 
  199.5000     2.4640   105.6690    25.5670     8.7250     6.4330     8.4110   -13.4280 
  199.6250     2.4500   102.6720    25.5310     9.9550     6.6460     8.9040   -14.3740 
  199.7500     2.4430    95.6780    25.5030    11.0200     6.9770     9.5740   -15.4120 
  199.8750     2.4450    89.4070    25.4920    11.5160     7.3920    10.3320   -16.4970 
  200.0000     2.4440    85.9220    25.4790    11.7540     7.8370    11.0760   -17.5790 
  200.1250     2.4280    84.9890    25.4000    12.3600     8.2380    11.7130   -18.5990 
  200.2500     2.4070    86.0190    25.2650    13.2160     8.5570    12.2300   -19.5190 
  200.3750     2.3920    88.8970    25.1460    13.7380     8.7770    12.6230   -20.3020 
  200.5000     2.3880    92.7410    25.0990    13.5970     8.8950    12.8700   -20.9220 
  200.6250     2.3920    94.1930    25.0450    13.1880     8.8910    12.9050   -21.3590 
  200.7500     2.3970    91.8730    24.9180    13.1070     8.7940    12.7440   -21.6560 
  200.8750     2.4040    88.1260    24.8050    13.3290     8.6460    12.4480   -21.8100 
  201.0000     2.4140    86.9120    24.8340    13.6460     8.5360    12.1990   -21.8440 
  201.1250     2.4210    88.1240    24.9770    14.2220     8.6790    12.4400   -21.7300 
  201.2500     2.4200    87.8100    25.0070    15.5780     9.2990    13.6040   -21.4880 
  201.3750     2.4220    85.3180    24.8720    18.4920    10.7000    16.1720   -21.1560 
  201.5000     2.4490    79.5770    24.7690    24.2810    13.2080    20.6020   -20.7380 
  201.6250     2.5130    72.3150    24.9470    36.8320    17.1490    27.2830   -20.2420 
  201.7500     2.5920    69.0350    25.2550    54.7980    21.5210    34.2130   -19.7240 
  201.8750     2.6610    72.3410    25.4790    64.8100    24.3500    37.5240   -19.2000 
  202.0000     2.6970    79.6680    25.5550    55.5910    23.7390    34.2870   -18.6670 
  202.1250     2.6790    87.4170    25.5670    35.1580    19.8260    26.5870   -18.1420 
  202.2500     2.6180    93.5900    25.5710    21.5840    15.4160    19.4750   -17.5980 
  202.3750     2.5350    98.0660    25.5700    14.7700    11.7760    14.3380   -17.0280 
  202.5000     2.4660   100.0860    25.5700    11.0460     9.2030    11.0780   -16.4470 
  202.6250     2.4430    97.5160    25.5600     8.8550     7.6850     9.4120   -15.8540 
  202.7500     2.4540    91.5210    25.5420     7.6930     6.8500     8.7130   -15.2580 
  202.8750     2.4760    85.6300    25.5430     7.5430     6.5490     8.7560   -14.6780 
  203.0000     2.4930    84.0480    25.5950     8.1790     6.6500     9.3410   -14.1330 
  203.1250     2.4980    87.2720    25.7150     9.1590     6.9950    10.1500   -13.6400 
  203.2500     2.4940    88.1320    25.8550     9.8490     7.3020    10.6740   -13.1930 
  203.3750     2.4810    81.4770    26.0540     9.7840     7.3720    10.5720   -12.7890 
  203.5000     2.4610    69.4760    26.5020     8.8490     7.1290     9.8190   -12.4290 
  203.6250     2.4420    61.2930    27.0180     7.5090     6.6500     8.7380   -12.1020 
