~V
VERS. 2.00: Ver 2.00
~W
STRT.M 57.0000:
STOP.M 272.0000:
STEP.M 0.1250:
NULL. -999.2500:
UWI. DF3055:
~C
DEPT.M :
SP.MV :
GR.API :
RML.OHMM :
RI. :
RXO.OHMM :
CALI.CM :
DEN.GM/CC :
~A
# ...
  203.2500   -13.3120    60.6840     6.7710     6.0550     6.0990    24.0610     2.4120 
  203.3750   -13.6840    66.7480     7.1370     6.4020     6.8300    24.4210     2.4080 
  203.5000   -14.0390    71.9000     7.4410     6.7000     7.6320    24.6880     2.4000 
  203.6250   -14.3660    73.3280     7.7010     6.9590     8.2430    24.7640     2.3880 
  203.7500   -14.7210    75.4750     7.9730     7.2240     8.6210    24.7000     2.3750 
  203.8750   -15.0950    80.9610     8.3200     7.5430     9.1620    24.6040     2.3630 
  204.0000   -15.4600    86.3970     8.7700     7.9390    10.1780    24.4660     2.3490 
  204.1250   -15.8370    88.2740     9.3010     8.4020    11.7100    24.2720     2.3340 
  204.2500   -16.1840    84.8040     9.8220     8.8730    13.5820    24.0510     2.3180 
  204.3750   -16.4700    79.1560    10.2180     9.2650    15.1470    23.8770     2.3070 
  204.5000   -16.7090    74.6670    10.4200     9.5180    16.0300    23.7990     2.3030 
  204.6250   -16.9000    74.5730    10.4580     9.6210    16.3420    23.7600     2.3070 
  204.7500   -16.9830    77.3410    10.4090     9.6160    16.1490    23.6900     2.3180 
  204.8750   -16.9740    78.5740    10.4850     9.6100    15.6410    23.5700     2.3340 
  205.0000   -16.8920    78.0990    10.6510     9.6420    15.0640    23.4360     2.3540 
  205.1250   -16.7490    76.7060    10.7440     9.6780    14.7470    23.4060     2.3750 
  205.2500   -16.5660    75.7630    10.6470     9.5880    14.9050    23.5470     2.3950 
  205.3750   -16.3620    79.0210    10.2960     9.2970    14.8650    23.8020     2.4080 
  205.5000   -16.1480    89.4800     9.7230     8.8120    13.9600    24.0600     2.4130 
  205.6250   -15.9810   103.1520     9.0590     8.2420    11.9020    24.2210     2.4100 
  205.7500   -15.8730   108.1750     8.5440     7.7800     9.8160    24.2560     2.4000 
  205.8750   -15.8190   106.0270     8.2850     7.5390     9.5950    24.2420     2.3880 
  206.0000   -15.8260   103.4850     8.3100     7.5480    10.8560    24.2240     2.3750 
  206.1250   -15.8600   100.8510     8.5830     7.7640    12.6690    24.2160     2.3610 
  206.2500   -15.8870    93.5240     8.9560     8.1160    14.3110    24.2140     2.3490 
  206.3750   -15.9360    85.3870     9.3320     8.4990    15.1540    24.2120     2.3390 
  206.5000   -15.9900    83.1450     9.6770     8.8840    15.5710    24.2010     2.3340 
  206.6250   -15.9770    88.5010    10.0560     9.3190    15.8810    24.1620     2.3380 
  206.7500   -15.8680    94.2680    10.7140     9.9770    16.1580    24.0630     2.3560 
  206.8750   -15.6630    93.6020    11.8590    10.9930    16.5650    23.8650     2.3880 
  207.0000   -15.3610    88.3810    13.5930    12.4390    17.3300    23.5700     2.4330 
  207.1250   -14.9950    87.0800    15.7640    14.2150    19.1380    23.3280     2.4870 
  207.2500   -14.5600    95.2110    17.7420    15.8550    22.4630    23.3320     2.5340 
  207.3750   -14.0770   105.5600    18.6800    16.6980    25.4280    23.5470     2.5630 
  207.5000   -13.5660   111.7680    17.9780    16.2040    26.1990    23.8720     2.5660 
  207.6250   -13.0730   110.7380    15.6480    14.2610    24.6970    24.1870     2.5440 
  207.7500   -12.5810   100.1250    12.4670    11.4280    18.8500    24.3590     2.5050 
  207.8750   -12.1400    84.3140     9.6160     8.8080    11.6730    24.3650     2.4650 
  208.0000   -11.7590    68.7780     7.5400     6.8650     6.6550    24.2840     2.4330 
  208.1250   -11.4510    59.7620     6.2590     5.6490     4.8540    24.1900     2.4130 
  208.2500   -11.2130    62.2410     5.6870     5.0910     4.6890    24.1530     2.4010 
  208.3750   -11.0580    69.6820     5.5150     4.9060     4.8380    24.1440     2.3920 
  208.5000   -10.9940    77.4310     5.5830     4.9520     4.9890    24.1490     2.3850 
  208.6250   -10.9760    86.4070     5.7640     5.1110     5.1280    24.1660     2.3790 
  208.7500   -11.0690    96.2430     5.9600     5.2940     5.2560    24.2020     2.3740 
  208.8750   -11.2080   101.4360     6.1290     5.4540     5.4130    24.2800     2.3670 
  209.0000   -11.3880    99.7640     6.2720     5.5950     5.6270    24.4020     2.3550 
  209.1250   -11.5560    96.7710     6.4000     5.7260     5.8590    24.4840     2.3400 
  209.2500   -11.7690    97.1050     6.5160     5.8570     6.0480    24.5090     2.3310 
  209.3750   -11.9900    95.5670     6.6160     5.9730     6.2720    24.5090     2.3330 
  209.5000   -12.1930    90.6050     6.6880     6.0430     6.5330    24.5070     2.3450 
  209.6250   -12.4360    88.2670     6.7170     6.0510     6.7270    24.5010     2.3600 
  209.7500   -12.6820    94.6800     6.6870     5.9870     6.7730    24.4820     2.3650 
  209.8750   -12.9310   102.3330     6.6110     5.8940     6.6930    24.4360     2.3580 
  210.0000   -13.1940   103.4850     6.5030     5.8060     6.4680    24.3510     2.3440 
  210.1250   -13.4990    98.6970     6.3920     5.7180     6.1570    24.2420     2.3290 
  210.2500   -13.8090    92.7970     6.3260     5.6700     5.9450    24.1630     2.3200 
  210.3750   -14.1380    89.5800     6.3450     5.6950     5.8930    24.1200     2.3180 
  210.5000   -14.5070    90.2650     6.4770     5.8190     6.1430    24.0760     2.3190 
  210.6250   -14.8920    93.7920     6.7310     6.0520     6.8610    24.0050     2.3160 
  210.7500   -15.2780    96.5500     7.0970     6.3960     8.0850    23.9190     2.3040 
  210.8750   -15.6740    96.1400     7.5170     6.8060     9.5270    23.9170     2.2890 
  211.0000   -16.0640    94.3350     7.9670     7.2680    10.7800    24.0490     2.2780 
  211.1250   -16.4190    94.5420     8.4660     7.8020    11.4660    24.2600     2.2790 
  211.2500   -16.7590    96.2160     9.1400     8.5290    11.9670    24.3690     2.2980 
  211.3750   -17.0810    96.0810    10.1430     9.5840    13.5770    24.3860     2.3270 
  211.5000   -17.3810    92.6070    11.6810    11.1460    16.8400    24.3500     2.3520 
  211.6250   -17.6400    87.0300    13.9880    13.4110    21.8310    24.2920     2.3570 
  211.7500   -17.8980    79.7910    17.4970    16.7420    28.1230    24.2720     2.3260 
  211.8750   -18.1470    72.5820    22.1990    21.1220    35.4760    24.2920     2.2730 
  212.0000   -18.3870    69.2380    28.0660    26.5250    43.4530    24.3540     2.2140 
  212.1250   -18.6360    70.7070    34.8750    32.7690    52.5050    24.4650     2.1680 
  212.2500   -18.8670    70.7620    42.2410    39.5490    65.8860    24.6400     2.1490 
  212.3750   -19.0940    68.4250    49.5420    46.3250    75.0020    24.8020     2.1540 
  212.5000   -19.3040    68.1420    56.4280    52.7610    76.9940    24.8820     2.1740 
  212.6250   -19.4920    70.3820    62.8590    58.6960    73.9960    24.9020     2.1990 
  212.7500   -19.6600    68.8410    68.7720    64.0780    76.5800    24.9020     2.2240 
  212.8750   -19.8130    63.4840    74.2760    69.0620    84.0080    24.9020     2.2430 
  213.0000   -19.9430    58.8020    79.0300    73.5890    90.8320    24.9020     2.2540 
  213.1250   -20.0420    58.9270    82.8090    77.3930    91.6720    24.9020     2.2570 
  213.2500   -20.1610    61.3610    84.6000    79.8640    87.8160    24.9020     2.2550 
  213.3750   -20.2590    61.7330    85.0430    81.0330    84.2250    24.9020     2.2540 
  213.5000   -20.3480    59.0860    85.3490    81.2020    80.6440    24.9020     2.2570 
  213.6250   -20.4270    57.2700    85.8440    80.9270    77.8470    24.9020     2.2630 
  213.7500   -20.4720    58.0010    86.1220    80.7430    77.1720    24.9020     2.2700 
  213.8750   -20.5130    58.0060    86.3780    80.7700    79.4010    24.9020     2.2740 
  214.0000   -20.5640    58.4140    86.5880    80.8150    83.2330    24.9020     2.2720 
  214.1250   -20.6240    60.3980    86.5830    80.6280    85.8640    24.9020     2.2660 
  214.2500   -20.6420    60.9990    85.8100    80.0810    86.3710    24.9020     2.2560 
  214.3750   -20.6640    60.0640    85.0550    79.4870    85.1250    24.9020     2.2430 
