~V
VERS. 2.00: Ver 2.00
~W
STRT.M 61.0000:
STOP.M 318.0000:
STEP.M 0.1250:
NULL. -999.2500:
UWI. DF302:
~C
DEPT.M :
DEN.GM/CC :
SP.MV :
AC.US/MT :
GR.API :
CALI.CM :
RXO.OHMM :
RI. :
RML.OHMM :
~A
# ...
  211.0000     2.5100   -16.6610   269.7330    56.1790    24.7950    14.9010    11.4640    14.1110 
  211.1250     2.4880   -16.7360   268.9000    57.3000    24.7260    14.9990    11.5940    14.2370 
  211.2500     2.4710   -16.8080   273.3120    56.2890    24.6250    14.5400    11.6200    14.2260 
  211.3750     2.4650   -16.8630   279.6350    53.9200    24.5000    13.8670    11.5900    14.1680 
  211.5000     2.4610   -16.9040   284.4730    53.3330    24.3140    13.4610    11.5670    14.1650 
  211.6250     2.4510   -16.9000   285.3510    54.8670    24.1090    13.7880    11.6150    14.3020 
  211.7500     2.4450   -16.8680   282.5380    55.8910    24.1070    14.4480    11.7270    14.5350 
  211.8750     2.4510   -16.8100   277.4310    57.7090    24.3120    14.6200    11.8570    14.7710 
  212.0000     2.4630   -16.7540   272.4580    60.3890    24.4050    13.9520    11.9390    14.9090 
  212.1250     2.4620   -16.7020   270.7040    63.7230    24.1640    13.0900    11.9290    14.8900 
  212.2500     2.4550   -16.6560   272.8310    66.3720    23.9330    12.6320    11.8780    14.8070 
  212.3750     2.4590   -16.6170   277.6830    68.5810    23.9500    12.4020    11.8670    14.7830 
  212.5000     2.4810   -16.5920   282.8240    69.4370    24.0750    12.2510    11.9790    14.9490 
  212.6250     2.5040   -16.5890   285.4180    69.8950    24.0110    12.5290    12.3030    15.4460 
  212.7500     2.5080   -16.6030   285.3570    71.5070    23.8650    13.3980    12.8170    16.2170 
  212.8750     2.4970   -16.6390   283.9320    73.2550    23.8320    14.6070    13.4530    17.1240 
  213.0000     2.4900   -16.6820   282.7280    75.0670    23.9340    15.9490    14.0740    17.9170 
  213.1250     2.4950   -16.7270   284.6880    76.7490    23.9830    17.4550    14.4560    18.2550 
  213.2500     2.4940   -16.7820   291.5700    76.9380    23.9200    18.3900    14.5440    18.1360 
  213.3750     2.4760   -16.8440   302.5680    74.9530    23.8450    17.6850    14.4290    17.7750 
  213.5000     2.4530   -16.9340   313.9440    71.4650    23.8690    15.6390    14.3280    17.5480 
  213.6250     2.4460   -17.0610   319.9500    67.3300    24.0030    14.5350    14.5140    17.8750 
  213.7500     2.4440   -17.2090   319.4260    64.3130    24.0300    15.6250    15.0390    18.7420 
  213.8750     2.4410   -17.3700   314.5800    65.8440    23.8690    18.1460    15.8250    19.9480 
  214.0000     2.4430   -17.5490   309.5560    72.8830    23.7510    20.0990    16.6750    21.1130 
  214.1250     2.4490   -17.7370   309.6600    79.2810    24.0080    19.4760    17.2190    21.6540 
  214.2500     2.4480   -17.9270   316.0230    81.9760    24.4340    17.5670    17.2630    21.4050 
  214.3750     2.4430   -18.1070   326.6180    83.4380    24.7220    16.3850    16.8440    20.5310 
  214.5000     2.4500   -18.2660   337.5750    84.9730    24.8160    16.6440    16.1830    19.4180 
  214.6250     2.4710   -18.3880   343.1870    85.4170    24.8140    17.3270    15.5830    18.5060 
  214.7500     2.4820   -18.4730   341.0200    84.5770    24.8010    17.5240    15.2520    18.0450 
  214.8750     2.4760   -18.5270   332.6820    83.4810    24.7910    17.5380    15.3010    18.1540 
  215.0000     2.4600   -18.5440   322.7980    82.2710    24.8010    17.8980    15.7500    18.8080 
  215.1250     2.4430   -18.5220   317.2160    81.6560    24.8660    18.8800    16.5320    19.8280 
  215.2500     2.4320   -18.4730   317.1660    82.9920    24.9390    20.4790    17.3520    20.7700 
  215.3750     2.4360   -18.4050   320.6720    85.8420    24.9450    22.0770    17.9330    21.2670 
  215.5000     2.4540   -18.3300   324.8640    87.9750    24.8660    22.1860    18.0790    21.1410 
  215.6250     2.4700   -18.2770   326.4340    86.7980    24.7720    20.2240    17.7850    20.5390 
  215.7500     2.4680   -18.2600   325.6080    83.3310    24.7340    18.5750    17.3830    19.9700 
  215.8750     2.4490   -18.2840   324.9570    80.8220    24.7360    18.6860    17.0790    19.6810 
  216.0000     2.4290   -18.3770   326.8200    80.3840    24.7410    20.1120    16.9300    19.6570 
  216.1250     2.4230   -18.5880   331.7070    81.0830    24.7100    21.2130    16.8760    19.6990 
  216.2500     2.4260   -18.9260   336.3620    81.6680    24.6290    21.0180    16.8430    19.6840 
  216.3750     2.4180   -19.4070   338.6600    81.7750    24.5660    19.8420    16.9280    19.8090 
  216.5000     2.3920   -20.0300   339.4140    79.9480    24.5660    18.9500    17.4060    20.5500 
  216.6250     2.3550   -20.8010   342.8250    76.2830    24.5400    20.6360    18.9100    22.8310 
  216.7500     2.3210   -21.6840   351.7590    72.4420    24.3550    26.2470    21.8920    27.0890 
  216.8750     2.2860   -22.6500   365.4690    67.1680    24.0070    36.5260    26.8790    33.7740 
  217.0000     2.2490   -23.6510   380.5300    60.8410    23.6120    49.9320    34.1820    43.0630 
  217.1250     2.2170   -24.6600   392.8020    57.1710    23.3220    60.4260    43.5820    54.5160 
  217.2500     2.1930   -25.6340   402.2490    57.3170    23.1720    65.5240    52.9250    65.4950 
  217.3750     2.1740   -26.5500   410.9520    57.8780    23.1360    68.5350    59.9840    73.1830 
  217.5000     2.1610   -27.3870   421.0020    56.0650    23.1780    72.2510    63.5050    76.1870 
  217.6250     2.1550   -28.1460   432.7500    53.4610    23.3190    69.9510    63.8350    75.5430 
  217.7500     2.1490   -28.8470   443.4370    53.1110    23.5300    57.9610    63.4570    74.6270 
  217.8750     2.1440   -29.5070   450.4870    55.2860    23.7380    42.4050    64.0960    75.4430 
  218.0000     2.1450   -30.1370   452.8520    57.7760    23.8570    32.7870    67.1000    79.3050 
  218.1250     2.1590   -30.7410   450.5840    59.5910    23.8440    35.5430    73.9260    87.6280 
  218.2500     2.1740   -31.3170   445.9880    61.4460    23.7830    50.9560    84.0340    99.7180 
  218.3750     2.1750   -31.8680   440.2430    63.7170    23.6950    78.6660    96.3950   114.4440 
  218.5000     2.1610   -32.3870   433.8460    64.3040    23.5530   108.2210   108.9650   129.2890 
  218.6250     2.1550   -32.8460   427.0470    62.1370    23.3770   121.1580   118.3530   139.7200 
  218.7500     2.1680   -33.2390   421.0650    60.5560    23.3200   120.3210   123.1160   143.9890 
  218.8750     2.1880   -33.5640   417.5180    59.5270    23.4890   115.1300   123.4760   142.8170 
  219.0000     2.1990   -33.8220   417.6850    57.6410    23.8230   107.1830   120.8300   138.3580 
  219.1250     2.1980   -34.0000   421.1350    55.9900    24.0810    94.9450   116.8920   132.9640 
  219.2500     2.1990   -34.1290   424.4110    57.0670    24.1270    83.9440   113.4780   128.6590 
  219.3750     2.1980   -34.2170   424.9130    59.1990    24.0310    78.1190   111.4140   126.2030 
  219.5000     2.1900   -34.2700   421.6000    59.3940    23.9390    76.2200   110.8470   125.5280 
  219.6250     2.1730   -34.2830   416.4590    58.2150    23.9150    71.5470   111.5860   126.1790 
  219.7500     2.1610   -34.2790   413.6900    56.1530    23.9020    60.2120   112.9050   127.2470 
  219.8750     2.1610   -34.2550   414.9780    53.2680    23.8750    45.1590   114.3790   128.3160 
  220.0000     2.1740   -34.2100   419.3820    50.8880    23.8610    33.5460   115.7290   129.2140 
  220.1250     2.1880   -34.1470   424.1430    52.3740    24.0080    33.5540   116.5740   129.5160 
  220.2500     2.1860   -34.0610   427.5590    55.2300    24.3530    46.9410   116.1790   128.1470 
  220.3750     2.1710   -33.9580   429.5980    56.2210    24.7810    69.6270   113.3190   123.5000 
  220.5000     2.1610   -33.8340   430.8950    55.2280    25.1260    84.8960   107.0740   114.7110 
  220.6250     2.1770   -33.7010   432.2910    54.8290    25.1860    77.4820    97.5460   102.7800 
  220.7500     2.2060   -33.5680   433.0930    56.3640    24.8950    61.7530    87.4540    91.3000 
  220.8750     2.2300   -33.4470   432.0930    59.0490    24.3980    52.4250    79.1500    82.7050 
