~V
VERS. 2.00: Ver 2.00
~W
STRT.M 125.0000:
STOP.M 254.0000:
STEP.M 0.1250:
NULL. -999.2500:
UWI. DF3068:
~C
DEPT.M :
SP.MV :
GR.API :
CALI.CM :
RXO.OHMM :
RI. :
RML.OHMM :
DEN.GM/CC :
~A
# ...
  181.2500   -22.7670    59.6230    25.9560   326.9490   354.1560   319.8660     2.1730 
  181.3750   -22.4920    61.3420    25.9340   300.0030   271.9280   228.6760     2.1780 
  181.5000   -22.2350    59.6370    25.9250   234.4230   191.0420   155.7660     2.1840 
  181.6250   -21.9110    58.2890    25.9270   134.8850   134.7390   113.5680     2.2000 
  181.7500   -21.4920    61.6250    25.9080    68.5000   101.0740    90.6730     2.2260 
  181.8750   -21.0200    66.4280    25.8480    46.3990    85.0030    80.8220     2.2660 
  182.0000   -20.5760    67.4790    25.7020    49.6020    81.1540    79.7860     2.3270 
  182.1250   -20.1810    64.1220    25.4790    94.4180    84.2950    83.6640     2.4180 
  182.2500   -19.7560    60.2460    25.2840   197.9850    85.0910    83.5750     2.5130 
  182.3750   -19.2570    58.8390    25.1480   246.4500    75.7600    71.4230     2.5760 
  182.5000   -18.6990    58.2950    25.0420   168.2160    55.7170    49.5020     2.5870 
  182.6250   -18.1700    58.4820    24.9520    68.4770    34.8150    30.1510     2.5690 
  182.7500   -17.7470    62.3660    24.8310    26.0270    20.2900    17.7680     2.5570 
  182.8750   -17.4410    69.0720    24.5960    10.9610    11.9010    10.7760     2.5500 
  183.0000   -17.1920    74.9550    24.3000     5.0460     7.5370     7.1070     2.5360 
  183.1250   -16.9260    76.1310    24.1260     4.4660     5.6060     5.5100     2.5220 
  183.2500   -16.6530    73.8780    24.0060     4.4120     4.6870     4.8180     2.5130 
  183.3750   -16.4200    71.0410    23.9530     4.4010     4.3430     4.6200     2.4920 
  183.5000   -16.2720    69.0680    24.0380     4.2780     4.3350     4.6760     2.4470 
  183.6250   -16.2310    68.0420    24.1800     4.1850     4.5180     4.8450     2.3930 
  183.7500   -16.2560    66.8520    24.1830     4.1780     4.7460     5.0190     2.3530 
  183.8750   -16.3220    63.9310    24.1150     4.2360     4.9510     5.1530     2.3360 
  184.0000   -16.4130    59.5090    24.0960     4.3330     5.0990     5.2190     2.3340 
  184.1250   -16.5250    56.7690    23.9140     4.3780     5.1510     5.1910     2.3350 
  184.2500   -16.6270    58.9710    23.5390     4.4100     5.1200     5.0960     2.3280 
  184.3750   -16.7050    62.5420    23.3090     4.4110     5.0240     4.9740     2.3160 
  184.5000   -16.7690    63.0420    23.5180     4.3860     4.8910     4.8770     2.3100 
  184.6250   -16.8830    61.1210    24.0030     4.3210     4.7580     4.8610     2.3120 
  184.7500   -17.0860    59.3480    24.1760     4.2810     4.6520     4.9340     2.3010 
  184.8750   -17.3690    57.2340    23.9030     4.3330     4.5870     5.0940     2.2680 
  185.0000   -17.6700    55.8650    23.6750     4.4600     4.5750     5.3210     2.2330 
  185.1250   -17.9120    55.5420    24.1530     4.5850     4.6280     5.5870     2.2260 
  185.2500   -18.1120    55.4370    24.9490     4.8010     4.7320     5.8650     2.2490 
  185.3750   -18.3450    56.9240    25.4400     5.1170     4.8860     6.1580     2.2830 
  185.5000   -18.6780    62.7080    25.4580     5.3680     5.0880     6.4870     2.3100 
  185.6250   -19.1270    72.7120    25.4600     5.4260     5.3480     6.8820     2.3210 
  185.7500   -19.5990    81.3670    25.6270     5.6590     5.6460     7.3300     2.3320 
  185.8750   -20.0350    86.8220    25.6780     6.2720     5.9500     7.7840     2.3560 
  186.0000   -20.4430    91.5190    25.4580     6.9800     6.2110     8.1730     2.3820 
  186.1250   -20.8950    96.3790    25.1790     7.3370     6.3750     8.4310     2.3840 
  186.2500   -21.4340    99.9320    25.1260     7.4720     6.4660     8.5960     2.3650 
  186.3750   -22.0340   102.3760    25.2900     7.2940     6.5280     8.7320     2.3440 
  186.5000   -22.6290   105.2610    25.4310     6.6950     6.6150     8.9070     2.3320 
  186.6250   -23.1510   108.1210    25.2480     6.6040     6.7730     9.1730     2.3350 
  186.7500   -23.6090   108.9250    24.8630     7.0830     6.9790     9.4900     2.3570 
  186.8750   -24.0350   106.6400    24.6240     7.5180     7.1730     9.7910     2.3950 
  187.0000   -24.4510   101.2600    24.6390     7.6890     7.2910    10.0110     2.4340 
  187.1250   -24.8520    95.5010    24.6470     7.9110     7.2840    10.1060     2.4530 
  187.2500   -25.2140    94.1660    24.5100     7.9470     7.2040    10.1210     2.4590 
  187.3750   -25.5160    96.2730    24.3080     7.8740     7.1090    10.1060     2.4580 
  187.5000   -25.7460    98.0550    24.0410     8.1060     7.0500    10.1060     2.4520 
  187.6250   -25.9100    98.3420    23.6510     8.2160     7.0610    10.1640     2.4370 
  187.7500   -26.0340    99.0150    23.2680     8.6620     7.1550    10.3330     2.4220 
  187.8750   -26.1330    99.6850    23.1410     9.2750     7.3730    10.7100     2.4120 
  188.0000   -26.2180   100.0480    23.4020     9.6170     7.7750    11.3990     2.4060 
  188.1250   -26.2670    99.5380    23.7800    11.0060     8.4500    12.5220     2.4000 
  188.2500   -26.2320    97.3260    23.8660    12.8160     9.3540    13.9630     2.4010 
  188.3750   -26.0830    93.7750    23.6860    16.2560    10.3960    15.5170     2.4180 
  188.5000   -25.8310    90.9100    23.5090    18.5330    11.3710    16.8100     2.4450 
  188.6250   -25.5170    88.5220    23.4420    18.5150    11.8920    17.2360     2.4650 
  188.7500   -25.1860    86.2920    23.4730    16.1030    11.8040    16.6860     2.4740 
  188.8750   -24.8120    86.4750    23.7780    13.8290    11.1280    15.3270     2.4760 
  189.0000   -24.3210    91.9520    24.3650    11.6930    10.0450    13.5420     2.4690 
  189.1250   -23.6120   101.5700    24.9700    10.3360     8.8070    11.7740     2.4420 
  189.2500   -22.7490   109.6770    25.4010     9.1820     7.6670    10.3040     2.4080 
  189.3750   -21.8310   110.7630    25.6660     8.0780     6.7510     9.2420     2.3840 
  189.5000   -20.9590   104.0080    25.7590     6.7630     6.1320     8.6350     2.3820 
  189.6250   -20.1900    94.9750    25.6930     5.9230     5.9010     8.5590     2.4100 
  189.7500   -19.4840    90.3440    25.6740     5.9470     5.9750     8.8390     2.4520 
  189.8750   -18.7930    89.6830    25.7530     6.2410     6.2550     9.2770     2.4880 
  190.0000   -18.0900    90.3450    25.8520     6.5050     6.5750     9.6030     2.4990 
  190.1250   -17.4080    91.7670    25.8760     7.0760     6.6890     9.4860     2.4790 
  190.2500   -16.8030    90.9680    25.7520     7.1010     6.5060     8.9410     2.4500 
  190.3750   -16.3150    84.4160    25.3710     6.0970     6.0840     8.1610     2.4250 
  190.5000   -15.9410    73.5230    24.7840     4.7860     5.5810     7.4140     2.4120 
  190.6250   -15.6550    64.6420    24.2960     4.1520     5.1720     6.9160     2.4130 
  190.7500   -15.3990    60.3830    24.0780     4.1770     4.9160     6.6520     2.4240 
  190.8750   -15.1660    57.1750    24.0420     4.2830     4.8100     6.5610     2.4340 
  191.0000   -14.9620    54.2620    24.0520     4.2890     4.8200     6.5670     2.4320 
  191.1250   -14.8070    53.1770    24.0510     4.2600     4.8930     6.6060     2.4200 
  191.2500   -14.7040    54.3020    24.0520     4.3000     4.9690     6.6430     2.4160 
  191.3750   -14.6780    56.4240    24.0570     4.4030     5.0320     6.6840     2.4230 
  191.5000   -14.7500    58.1280    24.0610     4.5990     5.0810     6.7410     2.4320 
  191.6250   -14.9320    62.7480    24.0570     4.8430     5.1220     6.8110     2.4330 
  191.7500   -15.1560    70.4870    24.0480     4.9580     5.1600     6.8780     2.4300 
  191.8750   -15.3630    77.9870    24.0020     4.9220     5.2020     6.9310     2.4300 
  192.0000   -15.5230    83.3840    23.8860     4.8360     5.2530     6.9690     2.4410 
  192.1250   -15.6710    87.5100    23.8620     4.9220     5.3230     6.9950     2.4690 
  192.2500   -15.8750    89.3380    24.0710     5.0920     5.4100     7.0190     2.4960 
  192.3750   -16.1500    87.0190    24.4440     5.2140     5.5040     7.0440     2.5100 
