~V
VERS. 2.00: Ver 2.00
~W
STRT.M 140.0000:
STOP.M 286.0000:
STEP.M 0.1250:
NULL. -999.2500:
UWI. DF3059:
~C
DEPT.M :
SP.MV :
GR.API :
RML.OHMM :
RI. :
RXO.OHMM :
CALI.CM :
DEN.GM/CC :
~A
# ...
  196.2500   -31.1800    63.1820   146.0950   125.6030   100.6140    25.6930     2.2290 
  196.3750   -31.2770    64.9450   143.0180   124.5160   111.0170    25.7640     2.2220 
  196.5000   -31.3960    66.5750   133.8550   118.1730   117.9080    25.7180     2.2280 
  196.6250   -31.4420    68.5550   120.9990   107.9440   106.6750    25.5850     2.2500 
  196.7500   -31.4640    71.1590   109.5480    98.0860    85.1140    25.4250     2.2800 
  196.8750   -31.4940    72.7630   102.0850    91.0970    64.8650    25.2860     2.3070 
  197.0000   -31.5610    73.0530    98.8190    87.6030    54.1320    25.1880     2.3190 
  197.1250   -31.6650    72.2330    98.4220    86.8390    55.6890    25.1350     2.3100 
  197.2500   -31.7900    70.3160    98.5100    86.7590    66.0620    25.0940     2.2910 
  197.3750   -31.9010    69.4680    98.3800    86.5910    77.6450    25.0780     2.2750 
  197.5000   -32.0560    71.6330    98.7650    86.7200    81.2740    25.0760     2.2680 
  197.6250   -32.2570    74.1280   102.3910    89.2240    72.4700    25.0760     2.2680 
  197.7500   -32.5100    72.5240   111.2070    95.8310    63.0890    25.0760     2.2680 
  197.8750   -32.7730    68.8200   126.0810   107.4540    62.7300    25.0760     2.2630 
  198.0000   -33.0260    67.9320   145.8950   123.3220    72.7910    25.0760     2.2540 
  198.1250   -33.3250    70.0200   166.9420   140.4080    90.6650    25.0600     2.2460 
  198.2500   -33.4990    69.6810   183.8340   154.1170   101.3800    25.0100     2.2440 
  198.3750   -33.7280    67.2340   192.9490   161.3630    92.7650    24.9210     2.2460 
  198.5000   -33.8320    66.2790   193.4470   161.3680    72.9200    24.7690     2.2490 
  198.6250   -33.9540    66.6320   187.3230   155.6390    50.0740    24.4860     2.2500 
  198.7500   -34.0210    65.9540   180.0870   148.7430    33.4990    23.9620     2.2460 
  198.8750   -34.0560    64.9580   175.0130   143.4540    26.0930    23.3940     2.2380 
  199.0000   -34.0820    65.8480   174.3390   141.6590    28.0200    23.4120     2.2260 
  199.1250   -34.0220    67.3510   180.8930   145.6260    39.7310    24.2040     2.2120 
  199.2500   -34.0640    68.2550   194.6240   155.3090    61.2120    25.1440     2.1990 
  199.3750   -34.0130    69.0930   214.9320   170.2970    92.2140    25.7030     2.1880 
  199.5000   -34.0390    68.8270   239.2090   188.6690   126.8490    25.8200     2.1790 
  199.6250   -34.0010    65.8190   261.7260   206.1980   161.5510    25.7960     2.1730 
  199.7500   -33.9780    61.6550   276.5160   218.2600   187.5770    25.7880     2.1690 
  199.8750   -33.9510    59.2360   280.1990   222.1500   196.0280    25.7890     2.1680 
  200.0000   -33.8740    61.2650   273.2980   217.9690   192.7340    25.7890     2.1730 
  200.1250   -33.7800    65.5620   259.7150   208.2930   182.6990    25.7890     2.1920 
  200.2500   -33.6610    66.2660   245.6320   197.9190   170.2240    25.7920     2.2290 
  200.3750   -33.5920    63.2990   233.0560   188.7080   155.9790    25.8050     2.2800 
  200.5000   -33.5020    62.2130   221.6000   180.6550   149.8700    25.8300     2.3300 
  200.6250   -33.4580    65.5750   209.7240   172.6380   153.1820    25.8550     2.3510 
  200.7500   -33.2950    67.3160   196.7020   163.8020   158.4950    25.8650     2.3400 
  200.8750   -33.1590    65.0510   182.9300   154.1830   152.9020    25.8670     2.3060 
  201.0000   -33.0260    63.9010   169.3760   144.3620   132.5690    25.8670     2.2690 
  201.1250   -33.0110    67.6880   157.0990   135.1290   117.6420    25.8670     2.2480 
  201.2500   -32.9500    70.6640   146.0300   126.6420   110.6410    25.8670     2.2410 
  201.3750   -32.9890    70.6350   135.8230   118.7300   107.0770    25.8670     2.2430 
  201.5000   -33.0570    69.6530   126.2230   111.2100   100.0020    25.8670     2.2460 
  201.6250   -33.0690    68.7610   117.5220   104.2480    92.8730    25.8670     2.2490 
  201.7500   -33.2580    66.8710   110.1340    98.1740    84.1590    25.8670     2.2510 
  201.8750   -33.4520    66.1190   104.6040    93.4660    75.5750    25.8670     2.2520 
  202.0000   -33.6790    68.5500   101.3630    90.5480    73.2780    25.8670     2.2510 
  202.1250   -33.7650    71.6790   101.2040    90.1530    77.8090    25.8670     2.2470 
  202.2500   -33.8440    71.4410   103.9930    92.2150    82.1130    25.8670     2.2400 
  202.3750   -33.7810    68.3100   109.8240    96.8360    84.5160    25.8670     2.2310 
  202.5000   -33.7280    66.4700   118.3060   103.7140    86.9690    25.8670     2.2230 
  202.6250   -33.7830    69.3990   128.1600   111.8300    92.1920    25.8670     2.2250 
  202.7500   -33.7250    71.8530   136.7890   119.0040   102.2770    25.8670     2.2390 
  202.8750   -33.6620    69.5840   142.0670   123.3970   114.6340    25.8670     2.2610 
  203.0000   -33.5510    65.5850   142.9860   124.0430   124.6660    25.8670     2.2820 
  203.1250   -33.4980    65.2010   140.2720   121.3280   130.3480    25.8670     2.2850 
  203.2500   -33.4780    66.5080   137.6430   118.3050   120.8550    25.8670     2.2680 
  203.3750   -33.5270    67.1800   138.1090   117.5780   100.3210    25.8620     2.2360 
  203.5000   -33.4780    67.8070   143.5130   120.9090    87.2940    25.8470     2.2030 
  203.6250   -33.4120    66.0970   154.5850   129.1800   104.3570    25.8160     2.1770 
  203.7500   -33.3130    61.9540   168.5240   140.1620   126.0090    25.8000     2.1630 
  203.8750   -33.2590    58.5430   182.5960   151.6280   139.4390    25.7930     2.1580 
  204.0000   -33.1850    59.6770   193.9850   161.2470   151.7800    25.7900     2.1600 
  204.1250   -33.1110    63.4720   199.6440   166.4580   167.6040    25.7890     2.1650 
  204.2500   -32.9830    65.4070   199.7780   167.2180   167.8650    25.7860     2.1730 
  204.3750   -32.8280    64.7140   194.9330   163.8470   161.3400    25.7680     2.1810 
  204.5000   -32.7390    63.6060   185.7770   156.8600   152.8170    25.7200     2.1900 
  204.6250   -32.4950    64.1710   171.8570   145.9490   138.4190    25.6530     2.1980 
  204.7500   -32.3550    64.8980   153.8320   131.6840   120.0680    25.5780     2.2040 
  204.8750   -32.1460    64.8110   132.3580   114.4690   106.1450    25.5070     2.2120 
  205.0000   -31.9640    66.6800   109.4150    95.6680   101.5940    25.4530     2.2250 
  205.1250   -31.7670    72.0080    88.8060    78.1210    95.7590    25.4050     2.2480 
  205.2500   -31.6160    75.2110    73.2380    64.2740    71.5820    25.3360     2.2730 
  205.3750   -31.5380    73.9720    63.9540    55.4310    45.8890    25.2410     2.2930 
  205.5000   -31.4640    71.3090    61.0870    51.9350    34.7420    25.1810     2.3020 
  205.6250   -31.5760    72.4210    65.2470    54.4840    38.6350    25.1660     2.2980 
  205.7500   -31.5610    73.0570    75.0840    62.0160    48.0490    25.1780     2.2890 
  205.8750   -31.5690    69.9680    90.4320    74.3750    63.2260    25.2000     2.2780 
  206.0000   -31.5120    64.2880   110.9540    91.1250    82.8030    25.2030     2.2690 
  206.1250   -31.4160    59.9840   135.8070   111.3020    99.1450    25.2330     2.2560 
  206.2500   -31.2620    58.8680   160.9630   131.5450   110.7060    25.2800     2.2410 
  206.3750   -31.0030    59.2140   181.5600   148.0830   124.5650    25.2500     2.2240 
  206.5000   -30.6760    59.8160   192.0040   156.7000   141.8580    25.1940     2.2060 
  206.6250   -30.2520    58.5460   185.6100   152.2800   153.1020    25.2430     2.1910 
  206.7500   -29.8740    57.8050   166.0690   137.3610   151.9680    25.3560     2.1830 
  206.8750   -29.4310    59.9700   139.8110   116.3760   139.2060    25.3290     2.1880 
  207.0000   -29.0100    64.9320   114.3990    95.0250   114.5460    25.3000     2.2050 
  207.1250   -28.5810    71.1200    95.7740    78.4760    81.9640    25.3370     2.2300 
  207.2500   -28.1980    76.3800    83.8170    67.3910    62.6640    25.3040     2.2520 
  207.3750   -27.7650    77.9190    77.6900    61.3130    57.5200    25.2570     2.2660 
