~V
VERS. 2.00: Ver 2.00
~W
STRT.M 125.0000:
STOP.M 255.0000:
STEP.M 0.1250:
NULL. -999.2500:
UWI. DF3006:
~C
DEPT.M :
GR.API :
RML.OHMM :
RI. :
RXO.OHMM :
CALI.CM :
DEN.GM/CC :
SP.MV :
~A
# ...
  248.7500    70.8820    14.4080    11.6810    10.9160    24.4670     2.5170   -10.6400 
  248.8750    70.8820    14.4200    11.6780    10.9880    24.5110     2.5150   -10.5260 
  249.0000    70.8820    14.4400    11.6740    11.0500    24.5300     2.5130   -10.4660 
  249.1250    70.8820    14.4700    11.6700    11.1540    24.5440     2.5120   -10.5380 
  249.2500    70.8820    14.5000    11.6670    11.3000    24.6000     2.5130   -10.5180 
  249.3750    70.8820    14.5190    11.6660    11.5080    24.6510     2.5140   -10.5070 
  249.5000    70.8820    14.5210    11.6690    11.6710    24.6390     2.5140   -10.4660 
  249.6250    70.8820    14.5070    11.6730    11.6350    24.5060     2.5100   -10.4310 
  249.7500    70.8820    14.4870    11.6770    11.4990    24.4100     2.5050   -10.5150 
  249.8750    70.8820    14.4690    11.6800    11.3390    24.3570     2.5030   -10.5990 
  250.0000    70.8820    14.4580    11.6820    11.1090    24.3270     2.5050   -10.6010 
  250.1250    70.8820    14.4540    11.6830    10.9660    24.3190     2.5110   -10.5530 
  250.2500    70.8820    14.4530    11.6840    11.0310    24.3420     2.5180   -10.5360 
  250.3750    70.8820    14.4530    11.6840    11.3070    24.3400     2.5240   -10.5110 
  250.5000    70.8820    14.4530    11.6840    11.6170    24.3460     2.5280   -10.5150 
  250.6250    70.8820    14.4530    11.6840    11.8250    24.3440     2.5300   -10.5440 
  250.7500    70.8820    14.4530    11.6840    12.0310    24.3310     2.5310   -10.4750 
  250.8750    70.8820    14.4530    11.6840    12.1660    24.3160     2.5330   -10.4750 
  251.0000    70.8820    14.4530    11.6840    12.1570    24.3090     2.5350   -10.5210 
  251.1250    70.8820    14.4530    11.6840    11.6140    24.3090     2.5380   -10.4400 
  251.2500    70.8820    14.4530    11.6840    11.2850    24.3080     2.5370   -10.4390 
  251.3750    70.8820    14.4530    11.6840    11.1550    24.2800     2.5310   -10.4560 
  251.5000    70.8820    14.4530    11.6840    11.2740    24.2230     2.5210   -10.4420 
  251.6250    70.8820    14.4530    11.6840    11.4790    24.1320     2.5110   -10.4910 
  251.7500    70.8820    14.4530    11.6840    11.6770    24.1330     2.5080   -10.4630 
  251.8750    70.8820    14.4530    11.6840    11.5870    24.0990     2.5110   -10.3530 
  252.0000    70.8820    14.4530    11.6840    11.3810    23.9100     2.5160   -10.3200 
  252.1250    70.8820    14.4530    11.6840    11.2380    23.7730     2.5110   -10.3610 
  252.2500    70.8820    14.4530    11.6840    11.0800    23.6600     2.4850   -10.3230 
  252.3750    70.8820    14.4530    11.6840    10.8340    23.5950     2.4380   -10.2570 
  252.5000    70.8820    14.4530    11.6840    10.4650    23.5530     2.3730   -10.1610 
  252.6250    70.8820    14.4530    11.6840     9.9240    23.2940     2.2960   -10.0760 
  252.7500    70.8820    14.4530    11.6840     9.2880    22.6610     2.2180   -10.0510 
  252.8750    70.8820    14.4530    11.6840     8.7710    21.5000     2.1470    -9.9900 
  253.0000    70.8820    14.4530    11.6840     8.4790    20.5570     2.0920    -9.8440 
  253.1250    70.8820    14.4530    11.6840     8.4140    20.2360     2.0570    -9.7480 
  253.2500    70.8820    14.4530    11.6840     8.4110    20.1920     2.0420    -9.7280 
  253.3750    70.8820    14.4530    11.6840     8.4110    20.1890     2.0390    -9.6710 
  253.5000    70.8820    14.4530    11.6840     8.4100    20.1870     2.0400    -9.6060 
  253.6250    70.8820    14.4530    11.6840     8.4110    20.1850     2.0410    -9.5600 
  253.7500    70.8820    14.4530    11.6840     8.4110    20.1850     2.0400    -9.4740 
  253.8750    70.8820    14.4530    11.6840     8.4110    20.1850     2.0380    -9.4350 
  254.0000    70.8820    14.4530    11.6840     8.4110    20.1850     2.0360    -9.4350 
  254.1250    70.8820    14.4530    11.6840     8.4110    20.1850     2.0350  -999.2500 
  254.2500    70.8820    14.4530    11.6840     8.4110    20.1850     2.0350  -999.2500 
  254.3750    70.8820    14.4530    11.6840     8.4100    20.1850     2.0360  -999.2500 
  254.5000    70.8820    14.4530    11.6840     8.4080    20.1840     2.0380  -999.2500 
  254.6250    70.8820    14.4530    11.6840     8.4050    20.1820     2.0400  -999.2500 
  254.7500    70.8820    14.4530    11.6840     8.4000    20.1800     2.0410  -999.2500 
  254.8750    70.8820    14.4530    11.6840     8.3960    20.1790     2.0420  -999.2500 
  255.0000    70.8820    14.4530    11.6840     8.3950    20.1790     2.0430  -999.2500 
