~V
VERS. 2.00: Ver 2.00
~W
STRT.M 100.0000:
STOP.M 264.0000:
STEP.M 0.1250:
NULL. -999.2500:
UWI. DF3023:
~C
DEPT.M :
GR.API :
CALI.CM :
RXO.OHMM :
RI. :
RML.OHMM :
SP.MV :
DEN.GM/CC :
AC.US/MT :
~A
# ...
  170.0000    64.3390    24.7130    75.5340    82.4720    83.3100   -28.9860     2.2720   409.8500 
  170.1250    65.3950    24.6290    66.2010    79.4300    80.1940   -28.9330     2.2740   411.2770 
  170.2500    68.5160    24.5310    58.7350    79.0750    79.7210   -28.8620     2.2650   411.9270 
  170.3750    72.8880    24.4750    70.3890    80.5000    81.3060   -28.7920     2.2600   411.1510 
  170.5000    74.8810    24.5740    94.8940    81.8270    83.2850   -28.7430     2.2620   408.0350 
  170.6250    72.6070    24.9120   111.3480    80.2320    82.8730   -28.6930     2.2620   402.3780 
  170.7500    69.6420    25.2860   102.4860    75.3700    79.2240   -28.6430     2.2660   397.2370 
  170.8750    69.5700    25.4760    72.7910    68.7180    73.2900   -28.6200     2.2760   396.0600 
  171.0000    72.0480    25.4340    47.3620    62.5450    67.0950   -28.6120     2.2840   399.7100 
  171.1250    74.0140    25.3210    46.6570    59.1350    63.0610   -28.6290     2.2790   405.2990 
  171.2500    73.3410    25.2660    55.8630    58.7560    61.9910   -28.6980     2.2670   408.8830 
  171.3750    71.4130    25.2580    62.0320    61.1430    63.9170   -28.8020     2.2600   410.1780 
  171.5000    72.5430    25.2640    66.8890    65.5280    68.2310   -28.9080     2.2590   410.6440 
  171.6250    77.4040    25.2530    67.5820    70.6850    73.7780   -29.0560     2.2590   411.0570 
  171.7500    79.0320    25.2170    66.8150    75.0860    78.8030   -29.2630     2.2570   411.2650 
  171.8750    75.8150    25.1550    69.9000    77.9930    82.3580   -29.4820     2.2560   411.1210 
  172.0000    72.8680    25.0650    74.1330    79.4350    84.2800   -29.6830     2.2570   410.8580 
  172.1250    75.0530    24.9350    72.0220    79.9390    84.9480   -29.8660     2.2600   411.0880 
  172.2500    78.5850    24.8070    66.2870    80.3350    85.2650   -30.0110     2.2630   411.8560 
  172.3750    80.3820    24.7470    64.2790    80.9640    85.6600   -30.1080     2.2630   412.3620 
  172.5000    80.8360    24.7810    70.8940    81.8140    86.2200   -30.1890     2.2540   411.7180 
  172.6250    80.3640    24.8670    82.2070    82.4950    86.6220   -30.2640     2.2420   410.7790 
  172.7500    78.9080    24.9440    86.0440    82.7230    86.6110   -30.3200     2.2460   411.0900 
  172.8750    76.2680    24.9940    78.6600    82.6450    86.3490   -30.3830     2.2560   412.3060 
  173.0000    73.3280    25.0130    66.0940    82.8230    86.3910   -30.4720     2.2550   412.9670 
  173.1250    70.4680    24.9840    67.6500    84.2200    87.7460   -30.5450     2.2440   411.8290 
  173.2500    69.4220    24.8920    77.1410    87.1600    90.8320   -30.5820     2.2420   409.6520 
  173.3750    70.9040    24.7360    88.7870    91.5190    95.6400   -30.6140     2.2520   407.6090 
  173.5000    74.3230    24.5730    95.3810    96.5050   101.4680   -30.6570     2.2530   407.0430 
  173.6250    76.6760    24.4880    98.4790   100.3220   106.5840   -30.6980     2.2350   408.7990 
  173.7500    76.2990    24.4690    97.4210   101.5210   109.2750   -30.7360     2.2140   411.5620 
  173.8750    74.6830    24.4710    92.5850    99.5610   108.6340   -30.7510     2.2170   414.2060 
  174.0000    73.6830    24.4800    85.4960    94.9910   104.8360   -30.7170     2.2380   416.5640 
  174.1250    72.5730    24.5040    77.7430    88.9070    98.7510   -30.6560     2.2540   418.8160 
  174.2500    72.0230    24.5340    70.2670    82.6090    91.9610   -30.5890     2.2540   420.4920 
  174.3750    74.3240    24.5560    63.6160    76.7250    85.2650   -30.4950     2.2470   421.1280 
  174.5000    78.4300    24.5650    62.3750    71.8870    79.4290   -30.3760     2.2430   421.2890 
  174.6250    78.5630    24.5600    61.7080    69.1740    75.6450   -30.2720     2.2390   421.4370 
  174.7500    75.0760    24.5430    56.6720    68.8930    74.3770   -30.2020     2.2400   420.0320 
  174.8750    72.6230    24.5160    56.5980    71.3800    76.1280   -30.1850     2.2400   414.7660 
  175.0000    72.4540    24.4930    69.1160    76.8450    81.2440   -30.2210     2.2370   406.5300 
  175.1250    72.2030    24.4820    77.0280    85.8590    90.2880   -30.2630     2.2340   400.0960 
  175.2500    71.9150    24.4610    79.8190    97.7710   102.1750   -30.2800     2.2320   396.8850 
  175.3750    70.0620    24.4170    83.6130   112.2260   116.0540   -30.2980     2.2350   393.9430 
  175.5000    65.2530    24.3660    96.5250   128.5120   130.8050   -30.3270     2.2510   388.5160 
  175.6250    61.2130    24.3420   137.7720   154.4740   157.4900   -30.3400     2.2770   382.1490 
  175.7500    61.6290    24.3350   161.6820   163.5380   169.8600   -30.3050     2.2870   377.7350 
  175.8750    64.7470    24.3190   152.1880   168.4310   177.5000   -30.1950     2.2750   374.9650 
  176.0000    65.6440    24.2910   121.1240   168.6020   179.3700   -30.0120     2.2690   372.5930 
  176.1250    64.3210    24.2730    88.9730   163.8620   175.2540   -29.8130     2.2820   370.3210 
  176.2500    63.6630    24.2690    85.9740   156.2650   167.7810   -29.6240     2.3020   368.3210 
  176.3750    65.0210    24.2660    91.4440   146.9000   158.1520   -29.3890     2.3100   366.2240 
  176.5000    67.6160    24.2560    91.1000   136.4950   147.0960   -29.0590     2.3040   366.1330 
  176.6250    67.2220    24.3230   101.2910   125.6090   135.2590   -28.6110     2.2940   373.6800 
  176.7500    64.4110    24.5250   110.6860   115.0180   123.7530   -28.0700     2.2920   387.8220 
  176.8750    62.8310    24.7750   107.2580   105.3510   113.3730   -27.4820     2.2970   401.8450 
  177.0000    64.8150    24.8960    93.6300    96.9710   104.4320   -26.8890     2.2960   409.5310 
  177.1250    67.5080    24.8180    83.6630    90.0000    96.8900   -26.2700     2.2840   410.9120 
  177.2500    66.6500    24.7600    81.9450    83.8370    90.1070   -25.6200     2.2610   412.2490 
  177.3750    64.1110    24.8420    83.8350    78.1740    83.8860   -24.9770     2.2440   413.9410 
  177.5000    63.0630    25.0040    79.3340    72.9260    78.2610   -24.3560     2.2460   409.5210 
  177.6250    62.3220    25.0930    66.9000    68.0230    73.0660   -23.7170     2.2750   389.2010 
  177.7500    60.3850    25.0740    56.6020    62.7420    67.1820   -23.0530     2.3270   356.5560 
  177.8750    58.6040    25.0280    54.1010    56.1640    59.4590   -22.3730     2.3800   321.0120 
  178.0000    58.0860    25.0390    56.6140    47.9080    49.7850   -21.6730     2.4240   296.2080 
  178.1250    57.2840    25.0160    53.1880    38.8220    39.7560   -20.9840     2.4640   295.0940 
  178.2500    56.8900    24.7820    38.9950    30.6910    31.3470   -20.3600     2.4910   312.0470 
  178.3750    58.9010    24.3840    22.5360    24.5210    25.3440   -19.7960     2.4830   333.5360 
  178.5000    61.5570    24.0620    15.4630    20.5570    21.7620   -19.2640     2.4510   344.3100 
  178.6250    62.2450    23.9880    16.2430    18.7790    20.4860   -18.7690     2.4400   334.8420 
  178.7500    61.2200    24.0250    17.6350    18.3660    20.6040   -18.2890     2.4740   313.1120 
  178.8750    59.8640    24.0330    18.8170    18.8340    21.4960   -17.7910     2.5090   288.8670 
  179.0000    59.1300    24.0160    20.8440    19.5760    22.3570   -17.2830     2.5360   270.0270 
  179.1250    59.0650    24.1540    21.1700    19.7880    22.1980   -16.8080     2.5600   263.6030 
  179.2500    58.5430    24.4920    21.4960    19.2470    21.0590   -16.3680     2.5600   266.3030 
  179.3750    58.2500    24.8670    20.3040    18.2820    19.6260   -15.9800     2.5460   271.0870 
  179.5000    58.3900    25.0690    18.3900    17.4780    18.7240   -15.6820     2.5620   272.0030 
  179.6250    58.1400    25.0700    17.9710    17.4540    19.0320   -15.4890     2.6210   267.1930 
  179.7500    57.2210    25.0330    18.6390    18.1950    20.2640   -15.3530     2.6730   260.8530 
  179.8750    56.2850    25.0050    19.2250    19.2230    21.6490   -15.2600     2.6700   255.0180 
