~V
VERS. 2.00: Ver 2.00
~W
STRT.M 61.0000:
STOP.M 279.0000:
STEP.M 0.1250:
NULL. -999.2500:
UWI. DF3040:
~C
DEPT.M :
GR.API :
CALI.CM :
RXO.OHMM :
RI. :
RML.OHMM :
DEN.GM/CC :
SP.MV :
~A
# ...
  218.5000    61.7560    23.9880   130.6350   105.8130   108.4100     2.2260   -26.1750 
  218.6250    60.6910    24.1360   133.3540   101.2920   103.5200     2.2240   -26.0030 
  218.7500    58.5620    24.1350   119.5560    98.3740   100.6600     2.2220   -25.8550 
  218.8750    57.3520    23.9990    99.9650    97.5830   100.2400     2.2250   -25.7620 
  219.0000    57.5920    23.9460    92.9020    98.8390   101.9870     2.2370   -25.7420 
  219.1250    59.4730    23.9850   100.4750   101.6840   105.4690     2.2580   -25.8000 
  219.2500    62.8200    24.0450   115.2080   104.7760   109.1170     2.2750   -25.9160 
  219.3750    63.9810    24.0330   135.2880   107.1080   111.8330     2.2790   -26.0680 
  219.5000    62.0680    24.2010   148.1490   107.7580   112.5700     2.2620   -26.2600 
  219.6250    60.6480    24.2510   140.9440   106.1000   110.5350     2.2350   -26.4680 
  219.7500    63.1240    24.2450   115.1530   102.7720   106.6730     2.2170   -26.6750 
  219.8750    66.4770    24.1870    97.6490    98.6300   102.0390     2.2150   -26.8420 
  220.0000    67.4100    24.1350    95.9040    94.9070    98.0950     2.2230   -26.9560 
  220.1250    65.9110    23.9940    98.3190    92.7300    96.0230     2.2280   -27.0140 
  220.2500    65.0260    24.0500    99.7090    92.0820    95.6290     2.2320   -27.0200 
  220.3750    66.3130    24.1400   101.9570    93.0430    96.9620     2.2380   -26.9850 
  220.5000    67.9920    24.1350   103.7730    95.5180    99.6970     2.2430   -26.9070 
  220.6250    67.4970    24.0050   100.6150    98.9610   103.1470     2.2410   -26.8100 
  220.7500    65.5530    24.0360   103.7410   102.2760   106.1970     2.2320   -26.6880 
  220.8750    63.8260    24.0800   115.6900   104.6610   107.8030     2.2190   -26.5840 
  221.0000    62.2140    24.0510   126.5580   105.0290   107.1360     2.2040   -26.5110 
  221.1250    60.2170    23.9810   129.1600   102.4040   103.2830     2.1920   -26.4770 
  221.2500    59.1220    23.9810   121.1870    97.3570    97.0370     2.1850   -26.4770 
  221.3750    57.9650    23.9760   104.8920    90.6720    89.4410     2.1860   -26.5270 
  221.5000    57.6430    23.9420    88.5300    83.2990    81.4580     2.1970   -26.6140 
  221.6250    61.0720    23.8530    73.6670    76.2920    74.3610     2.2200   -26.7520 
  221.7500    67.1330    23.6800    67.2620    70.2310    68.5410     2.2430   -26.9280 
  221.8750    70.3870    23.6870    67.2660    65.4640    64.2300     2.2580   -27.1240 
  222.0000    68.2060    23.8700    67.7100    62.1670    61.5130     2.2610   -27.3220 
  222.1250    63.8930    23.9590    64.0280    60.5830    60.4900     2.2600   -27.5090 
  222.2500    61.2130    23.9280    60.0990    60.5620    61.1550     2.2640   -27.6790 
  222.3750    60.7590    23.9500    54.6230    62.2100    63.5490     2.2730   -27.8340 
  222.5000    62.1200    23.9590    53.1200    65.4250    67.5020     2.2850   -27.9440 
  222.6250    65.2530    23.9510    60.7490    70.4840    73.3100     2.2990   -27.9810 
  222.7500    67.6520    23.9320    77.6460    76.8660    80.2890     2.3070   -27.9960 
  222.8750    65.3730    23.9480    97.0680    84.0380    88.0780     2.3000   -27.9520 
  223.0000    61.3610    23.9690   106.8010    91.4720    96.1990     2.2700   -27.8710 
  223.1250    60.5170    24.0100   103.7270    98.5510   103.9350     2.2310   -27.7700 
  223.2500    61.9020    23.9980   109.4860   104.3190   110.4190     2.2040   -27.6640 
  223.3750    62.2770    23.9740   124.9100   108.1210   114.6640     2.1890   -27.5660 
  223.5000    61.3820    23.9730   134.4880   109.8290   116.7530     2.1770   -27.5230 
  223.6250    62.9550    23.9570   114.9660   109.0820   116.2810     2.1740   -27.5350 
  223.7500    65.1140    23.8600    92.1480   106.7360   113.9550     2.1890   -27.5480 
  223.8750    64.7550    23.7510    82.7310   103.4560   110.6450     2.2150   -27.6240 
  224.0000    62.5200    23.7150    88.1980   100.0030   107.1130     2.2350   -27.7370 
  224.1250    62.0890    23.9720    91.7990    97.5020   104.7620     2.2350   -27.8620 
  224.2500    63.2500    24.0930    96.3940    96.5230   104.0400     2.2250   -27.9930 
  224.3750    63.7860    24.0640   105.1060    97.0600   104.9010     2.2180   -28.0830 
  224.5000    62.5890    23.9800   112.1610    98.5660   106.8190     2.2230   -28.1030 
  224.6250    60.6080    24.1360   110.0540   100.6130   109.0580     2.2390   -28.0830 
  224.7500    59.3860    24.1020   111.1370   102.5870   111.2320     2.2550   -28.0170 
  224.8750    58.7460    24.0950   118.7750   104.0250   112.8320     2.2640   -27.8740 
  225.0000    58.2830    24.0760   124.4380   104.9430   113.7100     2.2650   -27.6880 
  225.1250    58.9220    23.9850   120.3740   105.6620   114.5730     2.2590   -27.4700 
  225.2500    59.7530    24.0180   108.6690   106.6740   115.6510     2.2460   -27.2330 
  225.3750    60.8190    24.0310   105.8320   108.1490   117.2730     2.2300   -27.0110 
  225.5000    61.9540    23.9950   115.5890   110.2840   119.5550     2.2210   -26.8280 
  225.6250    62.7390    23.8410   117.3430   113.0390   122.4630     2.2290   -26.6680 
  225.7500    61.8030    23.6590   105.1230   115.9030   125.5250     2.2420   -26.5720 
  225.8750    59.4380    23.5150    99.5320   118.4820   128.0900     2.2470   -26.5620 
  226.0000    58.5270    23.3480   107.0040   120.1890   129.7760     2.2420   -26.6020 
  226.1250    58.4700    23.1600   117.3630   120.3840   129.7000     2.2300   -26.6950 
  226.2500    58.1380    23.0420   121.9730   119.5950   128.5950     2.2180   -26.8250 
  226.3750    58.4220    23.1260   118.5830   118.6220   127.4850     2.2130   -26.9500 
  226.5000    59.7570    23.4140   115.7780   118.1080   126.7650     2.2180   -27.0660 
  226.6250    63.0520    23.6350   109.5320   118.2820   126.7720     2.2230   -27.1480 
  226.7500    65.9340    23.6930   107.1780   118.9590   127.2410     2.2200   -27.1720 
  226.8750    65.8730    23.8340   113.1470   119.7810   127.7380     2.2130   -27.1190 
  227.0000    61.6010    23.6980   132.0620   119.9830   127.5980     2.2110   -26.9990 
  227.1250    56.8860    23.8080   145.8770   118.3630   125.4970     2.2120   -26.8100 
  227.2500    54.8010    23.6940   153.9000   114.9380   121.6830     2.2090   -26.5560 
  227.3750    55.1050    23.6370   147.4990   110.3280   116.8140     2.2060   -26.2670 
  227.5000    57.6200    23.5930   120.0060   105.4500   111.7300     2.2100   -25.9370 
  227.6250    60.1580    23.3440    98.0550   101.1120   107.3270     2.2190   -25.5960 
  227.7500    59.9430    23.3380    87.2140    97.3420   103.4340     2.2330   -25.2660 
  227.8750    58.0610    23.5910    89.1140    93.7950    99.7750     2.2460   -24.9730 
  228.0000    57.4690    23.9090   103.1220    90.3050    95.9400     2.2480   -24.7170 
  228.1250    57.6160    23.9980   119.7910    86.1800    91.3080     2.2220   -24.4730 
  228.2500    57.3980    23.9930   125.0320    81.2710    85.9570     2.1880   -24.2410 
  228.3750    58.5810    23.9650   110.8090    75.9340    80.2950     2.1730   -24.0650 
  228.5000    61.7640    23.9100    80.7330    70.7890    75.2260     2.1880   -23.9180 
  228.6250    63.7060    23.8860    81.0010    66.6680    71.5500     2.2160   -23.7820 
  228.7500    63.2490    23.8430    95.5480    64.0200    69.4770     2.2370   -23.6530 
  228.8750    61.5170    23.8970    94.0010    62.8860    69.0700     2.2510   -23.5090 
  229.0000    61.5410    23.9090    85.8860    63.0790    70.0870     2.2600   -23.3570 
  229.1250    63.5410    23.9550    84.1470    64.9010    72.8080     2.2620   -23.2070 
  229.2500    64.6720    23.9570    79.8270    67.8790    76.6710     2.2520   -23.0240 
  229.3750    63.2310    23.9020    75.3420    71.3400    80.9470     2.2290   -22.7910 
  229.5000    60.6550    23.8490    82.4200    74.7790    85.1450     2.2000   -22.5270 
  229.6250    61.2110    23.6630    90.8710    77.4660    88.2560     2.1810   -22.2570 
