~V
VERS. 2.00: Ver 2.00
~W
STRT.M 60.0000:
STOP.M 277.0000:
STEP.M 0.1250:
NULL. -999.2500:
UWI. DF3044:
~C
DEPT.M :
GR.API :
CALI.CM :
RXO.OHMM :
RI. :
RML.OHMM :
DEN.GM/CC :
SP.MV :
~A
# ...
  251.2500    58.8630    22.8970    10.9520     6.2540     7.2460     2.3120   -17.2690 
  251.3750    55.2190    22.9580     9.8300     6.2520     7.2150     2.3010   -17.2140 
  251.5000    58.5070    22.9950     8.2930     6.2290     7.1750     2.3140   -17.1530 
  251.6250    62.6660    23.0040     7.4640     6.2190     7.1900     2.3320   -17.0980 
  251.7500    62.6680    23.0040     7.4860     6.2470     7.2720     2.3460   -17.0370 
  251.8750    61.5490    23.0040     8.1460     6.3180     7.3930     2.3500   -16.9810 
  252.0000    61.7690    23.0040     8.7420     6.4160     7.5100     2.3480   -16.9210 
  252.1250    59.2930    23.0040     9.0140     6.5000     7.5840     2.3460   -16.8650 
  252.2500    58.8540    23.0040     8.7910     6.5480     7.6140     2.3460   -16.8390 
  252.3750    64.7030    23.0040     8.4760     6.5610     7.6160     2.3440   -16.8360 
  252.5000    69.5860    23.0040     8.1840     6.5580     7.6150     2.3460   -16.8480 
  252.6250    64.9790    23.0040     8.0220     6.5630     7.6320     2.3570   -16.8560 
  252.7500    57.6680    23.0040     7.8080     6.5890     7.6700     2.3760   -16.8630 
  252.8750    54.2490    23.0040     7.5570     6.6360     7.7310     2.3880   -16.8620 
  253.0000    55.6820    23.0040     7.3990     6.7010     7.8150     2.3810   -16.8670 
  253.1250    58.1680    23.0100     7.3420     6.7810     7.9150     2.3680   -16.8630 
  253.2500    59.3780    23.0500     7.3820     6.8660     8.0140     2.3640   -16.8450 
  253.3750    58.9830    23.1390     7.5540     6.9400     8.1000     2.3720   -16.8180 
  253.5000    59.2510    23.2130     7.8190     6.9900     8.1610     2.3790   -16.7870 
  253.6250    62.6050    23.2400     8.1090     7.0220     8.1940     2.3760   -16.7570 
  253.7500    67.4330    23.2420     8.3360     7.0640     8.2340     2.3680   -16.7200 
  253.8750    70.6890    23.2420     8.4090     7.1450     8.3150     2.3630   -16.6700 
  254.0000    69.3640    23.2380     8.2470     7.2800     8.4630     2.3650   -16.6100 
  254.1250    63.4960    23.1960     7.9890     7.4660     8.6850     2.3700   -16.5460 
  254.2500    60.0030    23.1060     7.8570     7.6510     8.9110     2.3690   -16.4580 
  254.3750    61.2750    23.0100     7.9180     7.7810     9.0630     2.3620   -16.3330 
  254.5000    63.4930    22.9540     8.2700     7.8150     9.0700     2.3560   -16.1650 
  254.6250    62.5310    23.0030     9.0330     7.7300     8.9120     2.3580   -15.9520 
  254.7500    58.9350    23.1210    10.1820     7.5810     8.6890     2.3660   -15.6980 
  254.8750    57.0350    23.2290    10.8210     7.4220     8.4800     2.3710   -15.4130 
  255.0000    58.4360    23.2970    10.2710     7.2910     8.3290     2.3650   -15.1040 
  255.1250    61.9540    23.2980     8.7210     7.1990     8.2270     2.3580   -14.7730 
  255.2500    64.3020    23.2430     7.9990     7.1220     8.1200     2.3610   -14.4330 
  255.3750    66.0370    23.1520     7.7750     7.0440     7.9840     2.3770   -14.1110 
  255.5000    68.1910    23.0940     7.6760     6.9580     7.8260     2.3940   -13.8100 
  255.6250    67.8690    23.0800     7.4840     6.8700     7.6800     2.4040   -13.5360 
  255.7500    63.6180    23.0800     7.2940     6.7890     7.5640     2.4050   -13.3070 
  255.8750    58.3980    23.0920     7.1020     6.7120     7.4720     2.3950   -13.1240 
  256.0000    56.0370    23.1290     6.9720     6.6360     7.3940     2.3740   -12.9690 
  256.1250    55.2270    23.2010     7.0540     6.5600     7.3210     2.3590   -12.8450 
  256.2500    54.6590    23.2340     7.0990     6.4890     7.2600     2.3630   -12.7520 
  256.3750    55.6400    23.2420     6.9990     6.4240     7.2180     2.3830   -12.6770 
  256.5000    56.5170    23.2420     6.8120     6.3630     7.1930     2.3970   -12.6210 
  256.6250    58.9720    23.2420     6.7090     6.3080     7.1760     2.3960   -12.5840 
  256.7500    66.4440    23.2420     6.6030     6.2560     7.1520     2.3940   -12.5510 
  256.8750    72.9990    23.2420     6.6450     6.2020     7.1110     2.4000   -12.5130 
  257.0000    71.0910    23.2420     6.9220     6.1490     7.0490     2.4050   -12.4810 
  257.1250    63.1470    23.2420     7.4740     6.1130     6.9890     2.3990   -12.4650 
  257.2500    58.2270    23.2420     7.9960     6.1270     6.9890     2.3880   -12.4500 
  257.3750    56.8470    23.2420     8.3800     6.2350     7.1080     2.3860   -12.4350 
  257.5000    56.3310    23.2420     8.6510     6.4680     7.3810     2.3950   -12.4260 
  257.6250    58.6350    23.2420     8.9370     6.8390     7.8220     2.4030   -12.4240 
  257.7500    60.8570    23.2420     9.3160     7.2670     8.3310     2.4030   -12.4260 
  257.8750    60.9670    23.2410     9.6960     7.6710     8.7990     2.3950   -12.4410 
  258.0000    60.2860    23.2400    10.0350     7.9720     9.1280     2.3850   -12.4560 
  258.1250    60.7060    23.2370    10.3960     8.1100     9.2450     2.3750   -12.4640 
  258.2500    61.2710    23.2380    10.9210     8.1360     9.2320     2.3640   -12.4780 
  258.3750    59.7410    23.2390    11.4280     8.1080     9.1680     2.3590   -12.5050 
  258.5000    57.1260    23.2390    11.4610     8.0770     9.1200     2.3670   -12.5480 
  258.6250    56.7460    23.2380    10.9140     8.0680     9.1200     2.3820   -12.5920 
  258.7500    58.9010    23.2390    10.2510     8.0650     9.1410     2.3920   -12.6240 
  258.8750    61.0390    23.2360     9.8280     8.0510     9.1510     2.3920   -12.6470 
  259.0000    61.0450    23.2340     9.6090     8.0200     9.1370     2.3840   -12.6760 
  259.1250    60.7410    23.2350     9.3580     7.9850     9.1110     2.3800   -12.7060 
  259.2500    62.0810    23.2370     8.9000     7.9740     9.1090     2.3850   -12.7310 
  259.3750    63.5850    23.2390     8.4930     8.0080     9.1510     2.3980   -12.7410 
  259.5000    63.8030    23.2390     8.7220     8.1050     9.2500     2.4120   -12.7310 
  259.6250    63.1140    23.2390     9.9980     8.2740     9.4140     2.4200   -12.7090 
  259.7500    62.3980    23.2400    11.6550     8.4860     9.6100     2.4250   -12.6940 
  259.8750    60.9010    23.2400    12.5760     8.7010     9.7990     2.4260   -12.6830 
  260.0000    57.9320    23.2400    12.4330     8.8670     9.9290     2.4140   -12.6760 
  260.1250    56.6330    23.2520    12.2110     8.9210     9.9340     2.3940   -12.6670 
  260.2500    59.0870    23.2710    12.1490     8.8810     9.8310     2.3810   -12.6580 
  260.3750    64.8540    23.2850    11.5450     8.7840     9.6570     2.3850   -12.6530 
  260.5000    69.2780    23.2890    10.3660     8.6800     9.4760     2.4010   -12.6450 
  260.6250    66.8870    23.2890     9.7790     8.6310     9.3600     2.4130   -12.6450 
  260.7500    63.2020    23.2890     9.7450     8.6520     9.3350     2.4220   -12.6450 
  260.8750    62.5840    23.2890    10.2090     8.7260     9.4000     2.4300   -12.6360 
  261.0000    64.6780    23.2890    10.8370     8.8180     9.5110     2.4330   -12.6150 
  261.1250    66.1470    23.2890    11.1500     8.8880     9.6010     2.4320   -12.5840 
  261.2500    65.8480    23.2890    10.9450     8.9280     9.6300     2.4330   -12.5510 
  261.3750    64.3470    23.2890    10.3900     8.9420     9.6070     2.4300   -12.5130 
  261.5000    59.4890    23.2890     9.7900     8.9460     9.5690     2.4100   -12.4680 
  261.6250    54.6640    23.2890     9.1690     8.9590     9.5670     2.3780   -12.4070 
  261.7500    54.3950    23.2890     8.4510     8.9870     9.5980     2.3530   -12.3460 
  261.8750    58.1860    23.2900     7.6970     9.0240     9.6380     2.3460   -12.2950 
  262.0000    63.0410    23.2900     7.0670     9.0630     9.6500     2.3500   -12.2430 
  262.1250    63.4430    23.2920     6.8260     9.0920     9.6110     2.3570   -12.1980 
  262.2500    60.4100    23.2930     6.8700     9.1070     9.5440     2.3730   -12.1600 
  262.3750    56.8610    23.2970     7.0550     9.1100     9.4770     2.3980   -12.1270 
