~V
VERS. 2.00: Ver 2.00
~W
STRT.M 85.0000:
STOP.M 235.0000:
STEP.M 0.1250:
NULL. -999.2500:
UWI. DF305:
~C
DEPT.M :
DEN.GM/CC :
SP.MV :
AC.US/MT :
GR.API :
CALI.CM :
RXO.OHMM :
RI. :
RML.OHMM :
~A
# ...
  185.0000     2.2260   -27.0350   422.0620    71.2070    21.4660    25.2550    62.5100    70.4120 
  185.1250     2.2230   -27.0750   421.2460    71.5370    20.9690    23.1170    62.5630    70.2280 
  185.2500     2.2270   -27.1210   419.7610    69.8800    20.4440    22.7960    62.8420    70.1050 
  185.3750     2.2450   -27.1660   418.1330    67.5940    20.0370    23.6990    63.4480    70.1950 
  185.5000     2.2700   -27.2180   416.7540    66.7020    19.9770    24.9200    64.5020    70.6850 
  185.6250     2.2810   -27.2650   415.7590    66.2840    20.5000    26.5660    66.1920    71.8390 
  185.7500     2.2780   -27.3250   414.8630    65.3310    21.3840    29.3950    68.3710    73.5230 
  185.8750     2.2710   -27.3710   413.6080    65.7420    22.2130    34.6440    70.6920    75.3410 
  186.0000     2.2670   -27.4010   411.6800    66.3740    22.8330    43.1660    72.4590    76.4870 
  186.1250     2.2680   -27.4350   409.4320    64.0460    23.4190    53.7070    72.3730    75.4840 
  186.2500     2.2720   -27.4470   407.9180    62.4480    23.9690    60.7210    69.9750    71.9170 
  186.3750     2.2770   -27.4590   407.9330    65.9270    24.3500    61.4890    65.3800    66.0980 
  186.5000     2.2800   -27.4740   409.8280    71.4690    24.5210    57.3650    59.4160    59.1020 
  186.6250     2.2840   -27.5060   413.4250    72.8620    24.5480    50.6990    53.3170    52.3450 
  186.7500     2.2900   -27.5350   417.2670    74.0090    24.5540    43.4720    48.0050    46.6520 
  186.8750     2.2940   -27.5740   420.1340    77.3210    24.5540    37.9760    43.7880    42.2430 
  187.0000     2.2930   -27.6390   421.3890    78.2820    24.5540    35.1780    40.7120    39.0950 
  187.1250     2.2870   -27.7280   421.0290    77.0120    24.5540    33.6760    38.9090    37.3270 
  187.2500     2.2830   -27.8310   420.0220    78.0300    24.5540    32.0630    38.0950    36.6430 
  187.3750     2.2790   -27.9400   418.9840    81.0330    24.5540    30.6770    38.1750    36.9500 
  187.5000     2.2670   -28.0660   418.1870    83.6130    24.5670    31.1810    39.1520    38.2480 
  187.6250     2.2480   -28.2060   417.4190    83.8890    24.6200    36.3630    41.3390    40.8240 
  187.7500     2.2310   -28.2980   416.4090    82.0870    24.7110    43.1450    44.7770    44.6470 
  187.8750     2.2220   -28.4630   415.3640    77.3790    24.7910    46.6770    49.7260    49.9260 
  188.0000     2.2180   -28.6760   414.6510    69.0600    24.8350    50.6600    56.4800    56.9570 
  188.1250     2.2130   -28.9060   414.3050    59.9790    24.8460    61.7640    65.4260    66.2740 
  188.2500     2.2100   -29.1370   413.8360    53.4210    24.8480    78.5650    75.7050    77.2180 
  188.3750     2.2140   -29.3670   413.0010    52.2580    24.8480    90.0530    86.0770    88.6700 
  188.5000     2.2220   -29.6090   412.0240    53.5210    24.8480    93.4540    94.6260    98.5410 
  188.6250     2.2290   -29.8350   411.2570    55.3900    24.8490    93.3070    98.6390   103.4260 
  188.7500     2.2330   -30.0490   410.4990    57.2330    24.8530    98.1450    98.4430   103.3310 
  188.8750     2.2360   -30.2480   409.5440    58.1780    24.8570   103.8070    95.4600    99.9120 
  189.0000     2.2370   -30.4330   408.6820    58.1990    24.8590    98.1240    91.3590    95.1780 
  189.1250     2.2310   -30.6160   408.3260    57.6940    24.8590    80.6860    87.3300    90.4990 
  189.2500     2.2220   -30.8050   407.9820    57.9430    24.8590    68.7460    83.9820    86.5950 
  189.3750     2.2170   -31.0030   407.4200    60.2980    24.8590    68.1810    81.5480    83.7740 
  189.5000     2.2190   -31.1950   407.3390    65.0190    24.8590    71.1740    80.0260    82.0320 
  189.6250     2.2290   -31.4200   408.7240    68.9050    24.8590    69.7120    79.2610    81.1240 
  189.7500     2.2430   -31.6440   410.6420    67.7130    24.8590    68.3050    78.7490    80.4050 
  189.8750     2.2570   -31.8630   411.9010    64.7200    24.8590    72.1890    78.1860    79.4900 
  190.0000     2.2670   -32.0980   412.4450    64.4990    24.8590    76.8300    77.3570    78.1450 
  190.1250     2.2800   -32.3190   412.9030    68.3360    24.8590    72.8650    76.1160    76.2570 
  190.2500     2.3030   -32.5370   410.1370    70.6520    24.8590    65.9680    74.6760    74.1880 
  190.3750     2.3310   -32.7510   398.5140    68.1920    24.8590    62.2360    73.3610    72.4040 
  190.5000     2.3490   -32.9520   378.1300    63.3820    24.8590    61.2330    72.6290    71.4540 
  190.6250     2.3390   -33.1080   362.2420    62.2330    24.8580    60.6090    73.2370    72.1570 
  190.7500     2.3110   -33.2390   363.0340    64.1540    24.8380    61.0650    75.2150    74.4670 
  190.8750     2.2860   -33.3330   378.9880    64.9150    24.7520    64.4780    78.0530    77.8610 
  191.0000     2.2760   -33.3850   398.9430    63.9930    24.5700    69.7390    80.6300    81.1640 
  191.1250     2.2790   -33.3820   411.3430    65.2550    24.4690    75.6960    81.3470    82.5610 
  191.2500     2.2820   -33.3120   415.8530    66.9730    24.4600    80.6250    80.0220    81.6390 
  191.3750     2.2840   -33.1550   415.6590    67.0120    24.4750    80.8380    77.4590    79.1670 
  191.5000     2.2830   -32.9100   413.1440    67.8430    24.4780    73.9650    75.2750    76.9190 
  191.6250     2.2750   -32.5660   408.9920    70.1280    24.4780    66.3230    75.7020    77.3540 
  191.7500     2.2630   -32.1350   405.0110    68.8280    24.4780    67.5580    79.3060    81.2320 
  191.8750     2.2550   -31.6480   403.2580    65.9150    24.4780    80.0150    85.5900    88.3430 
  192.0000     2.2560   -31.1470   404.3680    66.3020    24.4780    98.2510    92.7870    97.0940 
  192.1250     2.2570   -30.6680   406.5430    67.9320    24.4780   111.3110    97.7040   103.7360 
  192.2500     2.2480   -30.2470   407.7190    66.7740    24.4780   113.0330    98.9470   105.7940 
  192.3750     2.2310   -29.9080   408.3310    62.8040    24.4780   101.2010    97.5540   104.1580 
  192.5000     2.2200   -29.6580   409.9070    58.1870    24.4780    83.7970    96.3410   102.2860 
  192.6250     2.2250   -29.5120   412.8330    54.8640    24.4780    76.8210    98.9460   104.4490 
  192.7500     2.2360   -29.4510   415.2280    55.8530    24.4780    88.5950   106.0720   111.6990 
  192.8750     2.2450   -29.4630   416.0290    60.4400    24.4780   111.6820   116.3690   123.1170 
  193.0000     2.2500   -29.5060   415.5330    63.9280    24.4780   130.0840   125.8250   134.5470 
  193.1250     2.2540   -29.5560   414.5840    64.7020    24.4780   134.0590   126.9940   136.3830 
  193.2500     2.2580   -29.5970   413.5300    66.2990    24.4780   127.7320   118.3710   126.1360 
  193.3750     2.2600   -29.6200   411.9740    71.8130    24.4780   112.1060   103.5640   109.1850 
  193.5000     2.2630   -29.6160   409.2320    78.6300    24.4780    87.8450    88.3900    92.8450 
  193.6250     2.2720   -29.5970   405.2310    78.6020    24.4780    63.8590    77.8540    82.0070 
  193.7500     2.2840   -29.5580   402.6240    72.9030    24.4780    57.2880    72.5000    76.5420 
  193.8750     2.2840   -29.4900   398.6600    68.4570    24.4780    63.5580    71.8520    75.9050 
  194.0000     2.2670   -29.4020   395.0880    69.0450    24.4780    69.0540    75.0800    79.3940 
  194.1250     2.2490   -29.2860   394.3970    70.1330    24.4780    68.6580    81.6510    86.6450 
  194.2500     2.2530   -29.1610   395.5750    69.3570    24.4780    74.6680    89.6600    95.6330 
  194.3750     2.2760   -29.0310   396.7960    69.3320    24.4780    88.3980    97.2580   104.1990 
  194.5000     2.2970   -28.8900   395.6390    70.5110    24.4780    99.5480   102.4960   109.8820 
  194.6250     2.2980   -28.7280   390.6490    69.4130    24.4780   102.2920   103.4720   110.3290 
  194.7500     2.2960   -28.5600   385.4940    65.7240    24.4780   103.1710   100.9900   106.6970 
  194.8750     2.3210   -28.3830   384.4630    64.1130    24.4780   104.4680    96.5070   100.9190 
