~V
VERS. 2.00: Ver 2.00
~W
STRT.M 60.0000:
STOP.M 232.0000:
STEP.M 0.1250:
NULL. -999.2500:
UWI. DF3065:
~C
DEPT.M :
GR.API :
CALI.CM :
RXO.OHMM :
RI. :
RML.OHMM :
DEN.GM/CC :
SP.MV :
~A
# ...
  105.0000   108.8190    23.6430     6.3500     5.3800     7.5250  -999.2500   -18.5090 
  105.1250   111.7130    23.6480     6.1320     5.4700     7.7290     2.3020   -18.5870 
  105.2500   111.6390    23.6110     6.2700     5.6070     7.9370     2.3020   -18.6750 
  105.3750   106.2810    23.6010     6.9200     5.7860     8.1900     2.3040   -18.7360 
  105.5000    99.5820    23.8060     7.0890     5.9960     8.4890     2.3070   -18.7830 
  105.6250    95.1350    23.9950     6.9940     6.2060     8.7690     2.3020   -18.8670 
  105.7500    92.6500    24.1370     6.7060     6.3530     8.9640     2.2810   -18.9560 
  105.8750    91.9260    24.1570     6.3640     6.3930     9.0080     2.2580   -19.0200 
  106.0000    92.0690    24.1770     6.1800     6.2940     8.8750     2.2480   -19.0660 
  106.1250    93.2080    24.3270     6.1980     6.0460     8.5450     2.2570   -19.1300 
  106.2500    96.6610    24.4720     6.1290     5.7140     8.1140     2.2770   -19.1710 
  106.3750   104.0790    24.5250     5.9880     5.3720     7.6790     2.2970   -19.2420 
  106.5000   110.7320    24.5300     5.7130     5.0990     7.3420     2.3160   -19.3600 
  106.6250   109.5450    24.4900     5.6390     4.9740     7.2460     2.3420   -19.4830 
  106.7500   104.6490    24.4940     5.6360     5.0210     7.4210     2.3680   -19.6240 
  106.8750    98.0960    24.4550     5.5710     5.2450     7.8620     2.3750   -19.8280 
  107.0000    90.6920    24.3100     5.7610     5.6150     8.4810     2.3540   -20.0740 
  107.1250    85.2090    23.9730     6.6150     6.0830     9.1550     2.3120   -20.3070 
  107.2500    83.9820    23.4720     7.3960     6.5280     9.7370     2.2630   -20.5360 
  107.3750    83.9210    23.3340     7.6680     6.8600    10.1040     2.2230   -20.7550 
  107.5000    82.2130    23.3060     7.6310     7.0000    10.1790     2.2070   -20.9150 
  107.6250    81.2090    23.5530     7.7290     6.9170     9.9790     2.2240   -21.0270 
  107.7500    82.3300    23.7230     7.8190     6.7370     9.6910     2.2650   -21.1610 
  107.8750    82.9770    23.8220     8.0160     6.5530     9.4610     2.3010   -21.2830 
  108.0000    79.7050    23.7940     8.2950     6.4560     9.4210     2.3170   -21.4410 
  108.1250    74.3100    23.5910     8.6240     6.5330     9.6830     2.3070   -21.6670 
  108.2500    72.4510    23.5520     9.1650     6.7800    10.1690     2.2800   -21.9450 
  108.3750    73.4840    23.3420     9.5670     7.1730    10.8110     2.2490   -22.2410 
  108.5000    72.4290    23.2270     9.7100     7.6610    11.5200     2.2210   -22.5640 
  108.6250    68.1150    23.2750     9.7180     8.1760    12.1450     2.2000   -22.8810 
  108.7500    66.4460    23.2720     9.8460     8.6170    12.6060     2.1900   -23.1330 
  108.8750    67.5830    23.2580    10.0920     8.9300    12.8560     2.1930   -23.3360 
  109.0000    69.2640    23.2360    10.1620     9.0950    12.8960     2.2090   -23.4560 
  109.1250    70.3680    23.1640     9.9010     9.1140    12.7790     2.2310   -23.4610 
  109.2500    70.4210    23.0760     9.5230     9.0670    12.6200     2.2340   -23.3770 
  109.3750    68.5970    22.9970     9.3870     8.9850    12.4610     2.2110   -23.2350 
  109.5000    66.1920    23.0770     9.2380     8.8500    12.2700     2.1750   -23.0200 
  109.6250    66.8770    23.0460     8.8780     8.5850    11.9350     2.1460   -22.7650 
  109.7500    68.5870    22.9740     8.4470     8.1890    11.4320     2.1360   -22.4720 
  109.8750    69.4210    23.1130     7.9740     7.6660    10.7520     2.1400   -22.1550 
  110.0000    71.4080    23.2740     6.8610     7.0470     9.9400     2.1600   -21.7920 
  110.1250    76.0130    23.4380     5.5790     6.4350     9.1290     2.2020   -21.4480 
  110.2500    79.2200    23.5820     5.4920     5.9380     8.4930     2.2680   -21.1440 
  110.3750    79.5790    23.8870     6.6820     5.6340     8.1610     2.3280   -20.8800 
  110.5000    79.1060    24.1090     7.6750     5.5970     8.2430     2.3560   -20.7260 
  110.6250    77.8250    24.0280     8.2620     5.9650     8.9330     2.3440   -20.6730 
  110.7500    74.7100    23.7440     9.2990     6.7280    10.2070     2.3060   -20.6880 
  110.8750    72.1700    23.6470    10.5930     7.9370    12.0770     2.2760   -20.7580 
  111.0000    71.0090    23.6260    11.8190     9.5860    14.4300     2.2850   -20.9020 
  111.1250    69.2760    23.5660    14.9590    11.5100    16.8780     2.3490   -21.0570 
  111.2500    66.7700    23.7210    21.0580    13.3190    18.8990     2.4620   -21.2170 
  111.3750    66.0020    24.0100    28.0600    14.6100    20.0660     2.5740   -21.4050 
  111.5000    66.2220    24.1630    30.2120    15.0180    20.0650     2.6450   -21.5650 
  111.6250    64.1700    24.1080    26.2420    14.2960    18.7330     2.6480   -21.7040 
  111.7500    61.5980    23.9340    17.8260    12.9870    16.7880     2.5640   -21.8780 
  111.8750    61.0030    23.6360    10.9650    11.5220    14.7560     2.4320   -22.0300 
  112.0000    62.3750    23.0140     9.1400    10.2170    13.0570     2.3000   -22.1740 
  112.1250    64.4380    22.8280     8.7830     9.3390    12.0570     2.2100   -22.3500 
  112.2500    66.4480    22.5910     9.0050     8.8270    11.6080     2.1810   -22.5260 
  112.3750    68.3600    22.6110     9.4920     8.6200    11.5560     2.1810   -22.6580 
  112.5000    69.9260    22.9120     9.3370     8.6460    11.7590     2.1820   -22.7640 
  112.6250    69.9550    23.1100     8.8400     8.8020    12.0020     2.1760   -22.8260 
  112.7500    67.4120    23.0720     8.5770     8.9460    12.1330     2.1710   -22.8230 
  112.8750    62.9360    22.9570     8.6540     9.0210    12.1400     2.1700   -22.8110 
  113.0000    59.3950    22.9570     8.6610     9.0350    12.0790     2.1670   -22.7800 
  113.1250    60.6470    22.9820     8.6230     9.0020    12.0050     2.1600   -22.7040 
  113.2500    63.1040    23.0720     8.6010     8.9600    11.9680     2.1570   -22.5930 
  113.3750    63.3660    22.9820     8.9260     8.9480    12.0060     2.1690   -22.4540 
  113.5000    62.4150    22.9900    10.3090     8.9840    12.1170     2.1950   -22.2920 
  113.6250    63.8220    23.0120    11.7830     9.0880    12.3210     2.2180   -22.0940 
  113.7500    66.4830    23.0170    12.6420     9.2650    12.5800     2.2190   -21.8640 
  113.8750    67.6270    22.9610    13.0280     9.5070    12.8600     2.2050   -21.6060 
  114.0000    67.1020    23.0720    13.2650     9.7670    13.1140     2.1930   -21.2890 
  114.1250    66.0850    23.0460    13.4220     9.9500    13.2310     2.1930   -20.9350 
  114.2500    64.3610    22.9590    13.4580     9.9630    13.1230     2.1980   -20.5220 
  114.3750    64.3510    22.9620    13.3620     9.7140    12.7220     2.1940   -20.0660 
  114.5000    67.6390    23.0740    13.1000     9.1870    12.0380     2.1810   -19.5830 
  114.6250    73.6780    23.0720    12.5070     8.4150    11.1220     2.1720   -19.0870 
  114.7500    79.6200    23.1280    11.4670     7.5560    10.1210     2.1800   -18.5730 
  114.8750    84.6610    23.3440     9.8300     6.7370     9.1610     2.2120   -18.0710 
  115.0000    89.0460    23.5340     8.6930     6.0570     8.3520     2.2670   -17.6380 
  115.1250    90.0330    23.6710     8.2020     5.5990     7.8050     2.3270   -17.2690 
  115.2500    89.1560    23.8590     8.1070     5.3500     7.5280     2.3550   -17.0130 
  115.3750    89.1490    24.0570     8.1070     5.2930     7.4840     2.3430   -16.8700 
  115.5000    90.8940    24.1570     8.3740     5.3800     7.5900     2.3120   -16.8270 
  115.6250    92.3790    24.0630     8.7290     5.5450     7.7590     2.2850   -16.8120 
  115.7500    92.1120    23.9290     8.6460     5.7110     7.9290     2.2780   -16.8100 
  115.8750    90.8610    23.9240     8.4900     5.8410     8.0510     2.2850   -16.8940 
  116.0000    88.0490    23.9070     8.5810     5.9090     8.0990     2.3010   -17.0330 
  116.1250    84.5990    23.8010     8.6250     5.9120     8.0830     2.3170   -17.1840 
