~V
VERS. 2.00: Ver 2.00
~W
STRT.M 58.0000:
STOP.M 259.0000:
STEP.M 0.1250:
NULL. -999.2500:
UWI. DF3010:
~C
DEPT.M :
GR.API :
RML.OHMM :
RI. :
RXO.OHMM :
CALI.CM :
DEN.GM/CC :
SP.MV :
~A
# ...
   91.7500    91.0010    10.4390     8.3320    15.3090    24.1260  -999.2500   -23.4890 
   91.8750    89.5960    10.4960     8.4430    19.3600    23.9670  -999.2500   -23.6590 
   92.0000    91.4840    10.0660     8.1910    15.6800    23.7740  -999.2500   -23.8650 
   92.1250    93.3430     9.3860     7.7210    10.1420    23.5750  -999.2500   -24.1840 
   92.2500    94.5860     8.8640     7.3360     8.1190    23.4620  -999.2500   -24.4450 
   92.3750    97.3090     8.7330     7.2230     7.4560    23.4500  -999.2500   -24.6320 
   92.5000    99.1360     9.0570     7.4560     7.4120    23.4240  -999.2500   -24.9330 
   92.6250    96.0590     9.7470     8.0080     7.6060    23.2480  -999.2500   -25.0850 
   92.7500    91.9990    10.4610     8.6330     7.9600    23.0050  -999.2500   -25.0610 
   92.8750    90.5670    10.9310     9.1110     8.0510    22.8060  -999.2500   -25.0500 
   93.0000    91.6600    10.9780     9.2670     8.4100    22.7220  -999.2500   -24.9330 
   93.1250    91.7440    10.5170     8.9790     8.6750    22.7880  -999.2500   -24.6340 
   93.2500    92.7910     9.7980     8.4210     8.0970    22.9770  -999.2500   -24.3620 
   93.3750    97.9420     9.0450     7.7690     6.9610    23.2240  -999.2500   -24.0910 
   93.5000   104.9880     8.4320     7.1770     6.1530    23.4240  -999.2500   -23.7120 
   93.6250   106.4120     8.0520     6.7460     5.9480    23.5250  -999.2500   -23.4920 
   93.7500   100.6400     7.8250     6.4510     5.8970    23.8000  -999.2500   -23.3120 
   93.8750    94.7660     7.6770     6.2560     5.9210    23.9830  -999.2500   -23.1780 
   94.0000    94.0120     7.5690     6.1370     5.9240    23.9780  -999.2500   -23.2790 
   94.1250    95.8720     7.5490     6.1200     5.9190    23.8170  -999.2500   -23.4530 
   94.2500    94.6750     7.6950     6.2360     6.0390    23.6480  -999.2500   -23.6850 
   94.3750    92.4940     8.0640     6.5160     6.3270    23.4610  -999.2500   -24.1090 
   94.5000    91.7810     8.6380     6.9500     6.7130    23.2680  -999.2500   -24.5910 
   94.6250    90.2440     9.2760     7.4560     7.4680    23.0690  -999.2500   -25.0080 
   94.7500    86.7260     9.7480     7.8680     8.3770    22.9000  -999.2500   -25.5130 
   94.8750    83.4410     9.8930     8.0590     9.0240    22.8600  -999.2500   -25.9950 
   95.0000    82.8390     9.6880     7.9810     9.5030    22.9000  -999.2500   -26.2820 
   95.1250    84.9420     9.2880     7.7080     9.1800    23.0240  -999.2500   -26.5670 
   95.2500    87.5360     9.0430     7.4890     8.6060    23.1840  -999.2500   -26.8550 
   95.3750    89.7210     9.2070     7.5250     8.4910    23.2860  -999.2500   -27.0250 
   95.5000    88.9570     9.8900     7.9360     9.6670    23.3520  -999.2500   -27.1970 
   95.6250    84.2650    11.0210     8.7540    12.6760    23.2710  -999.2500   -27.5020 
   95.7500    79.8750    12.1900     9.7210    16.3900    23.3850  -999.2500   -27.7130 
   95.8750    79.7660    13.0380    10.5620    18.8420    23.4590  -999.2500   -27.8640 
   96.0000    80.9680    13.3060    11.0200    19.6810    23.3750  -999.2500   -28.1860 
   96.1250    78.6490    12.8830    10.8970    18.3090    23.1200  -999.2500   -28.4930 
   96.2500    76.7560    12.1250    10.4110    14.5860    22.9010  -999.2500   -28.6960 
   96.3750    77.2670    11.3330     9.7960    11.2670    22.8030  -999.2500   -28.9580 
   96.5000    78.2190    10.7260     9.2560     9.8580    22.7870  -999.2500   -29.1750 
   96.6250    78.1950    10.4500     8.9420     9.6230    22.7890  -999.2500   -29.3040 
   96.7500    78.5200    10.4750     8.8550     9.6010    22.7870  -999.2500   -29.4520 
   96.8750    78.1370    10.7860     8.9830     9.6440    22.7800  -999.2500   -29.5000 
   97.0000    76.5890    11.3280     9.2760     9.8840    22.7700  -999.2500   -29.4370 
   97.1250    76.8800    11.9550     9.6350    10.2360    22.8060  -999.2500   -29.4170 
   97.2500    79.1820    12.3940     9.8780    10.5860    22.8690  -999.2500   -29.3000 
   97.3750    80.7930    12.4090     9.8460    11.0220    22.9220  -999.2500   -29.0590 
   97.5000    81.2990    11.8790     9.4460    11.4610    22.9670  -999.2500   -28.9000 
   97.6250    83.9420    10.8610     8.6860    11.5280    23.0610  -999.2500   -28.6190 
   97.7500    88.9550     9.7620     7.8320    10.1090    23.2060  -999.2500   -28.3900 
   97.8750    93.1260     8.9110     7.1040     8.2530    23.3000  -999.2500   -28.4960 
   98.0000    93.2270     8.5160     6.6650     7.0690    23.2690  -999.2500   -28.7840 
   98.1250    90.4600     8.6960     6.6470     7.0220    23.0860  -999.2500   -29.0950 
   98.2500    90.0240     9.2500     6.9640     7.3800    22.9650  -999.2500   -29.5900 
   98.3750    90.7840    10.0020     7.5290     8.1430    22.8780  -999.2500   -30.2580 
   98.5000    87.3330    10.7580     8.2090     9.1680    22.8530  -999.2500   -30.8650 
   98.6250    79.1540    11.3090     8.8270     9.7820    22.8100  -999.2500   -31.5430 
   98.7500    74.6390    11.6040     9.2660    10.0450    22.7240  -999.2500   -32.2570 
   98.8750    74.5300    11.6660     9.4880    10.3020    22.6490  -999.2500   -32.7510 
   99.0000    73.9940    11.5670     9.5250    10.6420    22.5870  -999.2500   -33.0750 
   99.1250    72.7740    11.3980     9.4330    10.8560    22.6680  -999.2500   -33.4690 
   99.2500    73.4790    11.2460     9.3080    10.9520    22.7070  -999.2500   -33.7710 
   99.3750    74.7580    11.1500     9.1960    10.9330    22.7100  -999.2500   -33.9400 
   99.5000    73.7560    11.1180     9.1230    10.8700    22.6900  -999.2500   -34.2220 
   99.6250    70.3540    11.1520     9.1010    10.5740    22.6870  -999.2500   -34.4680 
   99.7500    67.1650    11.2130     9.1120    10.3220    22.6960  -999.2500   -34.6220 
   99.8750    67.7870    11.2740     9.1390    10.2690    22.7030  -999.2500   -34.8590 
  100.0000    71.6390    11.3140     9.1650    10.4270    22.7070  -999.2500   -35.0280 
  100.1250    72.7820    11.3190     9.1750    10.5720    22.7130  -999.2500   -35.0910 
  100.2500    71.0640    11.3030     9.1690    10.7560    22.7130  -999.2500   -35.1840 
  100.3750    69.8000    11.2770     9.1510    10.8400    22.7120  -999.2500   -35.2260 
  100.5000    69.7890    11.2510     9.1290    10.7380    22.7120  -999.2500   -35.2110 
  100.6250    68.7370    11.2290     9.1130    10.5940    22.7120  -999.2500   -35.1360 
  100.7500    68.1530    11.2110     9.1080    10.5210    22.7120  -999.2500   -34.9790 
  100.8750    70.6810    11.1910     9.1140    10.5120    22.7140  -999.2500   -34.8040 
  101.0000    72.9520    11.1620     9.1220    10.5100    22.7240  -999.2500   -34.6680 
  101.1250    71.9520    11.1050     9.1160    10.6360    22.7610  -999.2500   -34.3780 
  101.2500    70.8650    11.0120     9.0880    10.8530    22.8080  -999.2500   -34.0390 
  101.3750    72.2630    10.8840     9.0380    11.1450    22.8410  -999.2500   -33.8010 
  101.5000    73.9850    10.7410     8.9810    11.3220    22.8580  -999.2500   -33.4900 
  101.6250    72.6770    10.6400     8.9540    11.2000    22.8750  -999.2500   -33.0660 
  101.7500    72.1810    10.6280     8.9840    10.6690    22.8900  -999.2500   -32.6540 
  101.8750    73.7330    10.7200     9.0770    10.2690    22.8970  -999.2500   -32.1870 
  102.0000    74.9430    10.8690     9.2000    10.0300    22.9000  -999.2500   -31.6160 
  102.1250    75.4320    10.9270     9.2550     9.8670    22.9090  -999.2500   -31.0740 
  102.2500    78.4990    10.7580     9.1380     9.7140    22.9270  -999.2500   -30.4870 
  102.3750    83.2980    10.2980     8.7860     9.4500    22.9560  -999.2500   -29.6660 
  102.5000    85.6360     9.5920     8.2100     9.1450    23.0300  -999.2500   -28.8330 
  102.6250    86.7500     8.7850     7.5040     8.5540    23.2280  -999.2500   -28.1510 
  102.7500    91.1430     8.0640     6.8300     7.4380    23.5640  -999.2500   -27.5180 
  102.8750    95.8990     7.5250     6.2850     6.1890    23.9010  -999.2500   -27.0540 
