~V
VERS. 2.00: Ver 2.00
~W
STRT.M 62.0000:
STOP.M 265.0000:
STEP.M 0.1250:
NULL. -999.2500:
UWI. DF3071:
~C
DEPT.M :
GR.API :
CALI.CM :
RXO.OHMM :
RI. :
RML.OHMM :
DEN.GM/CC :
SP.MV :
~A
# ...
  185.7500    62.0100    25.2910    75.6130   174.0250   168.6700     2.2530   -26.3970 
  185.8750    65.0320    25.2960    73.5500   146.5840   143.5950     2.2500   -26.7280 
  186.0000    67.1520    25.3070    67.8320   128.3950   127.9110     2.2600   -26.9540 
  186.1250    68.5580    25.3620    60.9040   120.9790   122.3160     2.2730   -27.1720 
  186.2500    70.1480    25.4730    59.7930   121.3600   123.6860     2.2750   -27.3030 
  186.3750    70.2150    25.5850    63.0230   127.3070   130.1100     2.2660   -27.3840 
  186.5000    68.5030    25.5860    62.4090   136.0990   139.4250     2.2560   -27.3630 
  186.6250    67.6180    25.3480    54.7270   145.1450   149.6410     2.2630   -27.3030 
  186.7500    67.6520    24.9880    47.0650   153.4390   159.9130     2.2880   -27.1450 
  186.8750    66.1250    24.6840    44.1160   162.2010   171.3840     2.3150   -26.9620 
  187.0000    63.0670    24.5370    45.8980   173.9960   186.2450     2.3320   -26.8200 
  187.1250    60.5120    24.5810    54.2960   191.7590   206.9730     2.3280   -26.6240 
  187.2500    57.9590    24.7740    69.7050   213.0470   230.9690     2.3040   -26.4140 
  187.3750    56.0310    25.0460    88.8720   232.6250   252.9220     2.2670   -26.1540 
  187.5000    56.7470    25.2600   104.4240   243.9770   265.8790     2.2340   -25.9340 
  187.6250    59.8630    25.3040   108.4570   240.3430   261.7230     2.2320   -25.6770 
  187.7500    61.9490    25.2710   103.4310   224.1190   242.6050     2.2620   -25.3470 
  187.8750    61.3640    25.2390    94.7880   198.8090   212.9350     2.3100   -25.0720 
  188.0000    59.9920    25.2010    89.5880   169.0920   179.3250     2.3560   -24.8070 
  188.1250    58.5090    25.1350    88.4490   140.5950   149.6740     2.3750   -24.4400 
  188.2500    58.2650    25.1040    81.1540   118.0210   128.3400     2.3740   -24.0490 
  188.3750    59.3190    25.1400    66.2160   104.1760   116.5570     2.3740   -23.5220 
  188.5000    60.8390    25.2150    53.2360    99.0080   112.1090     2.4020   -22.8810 
  188.6250    62.0290    25.2650    51.4330    97.7700   107.8000     2.4770   -22.1110 
  188.7500    61.3150    25.2880    57.3070    90.0680    95.8240     2.5700   -21.2540 
  188.8750    59.9940    25.3060    67.1530    70.6240    74.5240     2.6460   -20.3210 
  189.0000    60.4480    25.3290    68.9810    45.4200    48.8070     2.6720   -19.3520 
  189.1250    62.8370    25.3320    49.8520    26.1960    27.8010     2.6360   -18.3890 
  189.2500    63.4740    25.2610    25.5480    14.8460    14.9610     2.5820   -17.4730 
  189.3750    61.3900    25.0930    11.0780     9.0390     8.8180     2.5440   -16.6980 
  189.5000    58.5750    24.8920     6.2090     6.3040     6.2950     2.5380   -16.0640 
  189.6250    58.9980    24.7660     5.5280     5.2560     5.4360     2.5540   -15.6230 
  189.7500    60.7420    24.7460     5.6470     4.9770     5.3410     2.5720   -15.3560 
  189.8750    61.2160    24.7970     5.9030     5.1920     5.6580     2.5830   -15.2400 
  190.0000    60.3500    24.8620     6.1420     5.6640     6.1110     2.5880   -15.2450 
  190.1250    61.0210    24.8920     6.4220     6.1300     6.4700     2.5810   -15.3910 
  190.2500    64.5010    24.8830     6.7140     6.4080     6.6370     2.5530   -15.6580 
  190.3750    67.6650    24.8490     6.8380     6.4520     6.6010     2.5010   -15.9800 
  190.5000    67.1290    24.7980     6.6210     6.3030     6.4170     2.4380   -16.3390 
  190.6250    61.8250    24.7420     6.1690     6.0540     6.1740     2.3930   -16.7720 
  190.7500    56.5270    24.7010     5.8160     5.8160     5.9720     2.3730   -17.2280 
  190.8750    54.4110    24.6750     5.7000     5.6280     5.8510     2.3690   -17.7750 
  191.0000    54.0270    24.6510     5.7010     5.4920     5.8150     2.3660   -18.3590 
  191.1250    52.6720    24.6220     5.7110     5.3980     5.8520     2.3660   -18.9490 
  191.2500    50.7180    24.6090     5.7090     5.3310     5.9320     2.3720   -19.4390 
  191.3750    49.2740    24.6260     5.7210     5.3020     6.0530     2.3800   -19.9390 
  191.5000    48.4430    24.6580     5.7790     5.3320     6.2290     2.3860   -20.4650 
  191.6250    48.7000    24.6800     5.9270     5.4490     6.4840     2.3950   -21.0560 
  191.7500    51.4730    24.6870     6.1660     5.6310     6.7920     2.4180   -21.7100 
  191.8750    56.1590    24.6950     6.4720     5.8470     7.1140     2.4480   -22.4250 
  192.0000    61.3920    24.7130     6.8090     6.0480     7.3950     2.4720   -23.2230 
  192.1250    66.1870    24.7360     7.0830     6.1730     7.5750     2.4790   -24.1010 
  192.2500    71.1590    24.7450     7.2600     6.2140     7.6650     2.4760   -25.0480 
  192.3750    78.7520    24.7230     7.3170     6.2020     7.7180     2.4680   -26.0160 
  192.5000    88.3970    24.6680     7.2940     6.1960     7.8120     2.4550   -27.0080 
  192.6250    97.0450    24.5980     7.3400     6.2810     8.0560     2.4400   -28.0020 
  192.7500   101.7060    24.5510     7.5660     6.4830     8.4610     2.4290   -28.9700 
  192.8750   104.2460    24.5540     8.0360     6.7940     8.9930     2.4230   -29.8880 
  193.0000   107.1290    24.6030     8.7880     7.1690     9.5660     2.4210   -30.7450 
  193.1250   107.7830    24.6600     9.6930     7.5230    10.0480     2.4230   -31.5910 
  193.2500   105.0630    24.6980    10.4020     7.7790    10.3680     2.4300   -32.4190 
  193.3750   101.4270    24.7100    10.7310     7.9170    10.5250     2.4400   -33.2480 
  193.5000    98.9980    24.7020    10.7090     7.9630    10.5790     2.4400   -34.0200 
  193.6250    97.8500    24.7000    10.4160     7.9880    10.6440     2.4200   -34.7010 
  193.7500    96.8280    24.7330    10.3900     8.0750    10.8170     2.3970   -35.3150 
  193.8750    94.5060    24.7890    10.7490     8.2710    11.1420     2.3890   -35.8480 
  194.0000    89.8330    24.8330    11.3240     8.5900    11.6160     2.3980   -36.3280 
  194.1250    86.2810    24.8470    12.0560     9.0140    12.1960     2.4070   -36.6970 
  194.2500    85.1770    24.8350    12.9100     9.4670    12.7850     2.4040   -37.0390 
  194.3750    83.8730    24.8010    13.7350     9.8910    13.3160     2.3910   -37.2810 
  194.5000    81.3820    24.7680    14.1970    10.2420    13.7490     2.3850   -37.4620 
  194.6250    82.8010    24.7680    14.2990    10.4870    14.0550     2.4020   -37.5310 
  194.7500    87.6530    24.7940    14.4090    10.6420    14.2630     2.4300   -37.5730 
  194.8750    91.5200    24.8110    14.7350    10.7090    14.3660     2.4500   -37.5590 
  195.0000    93.2050    24.7930    14.9630    10.6700    14.3250     2.4520   -37.4620 
  195.1250    95.3720    24.7290    14.7250    10.4540    14.0340     2.4410   -37.2420 
  195.2500    97.5280    24.6490    14.1320    10.0540    13.4970     2.4280   -36.8610 
  195.3750    96.7990    24.5820    13.4110     9.5050    12.7800     2.4190   -36.3250 
  195.5000    93.9270    24.5540    12.5680     8.9140    12.0410     2.4180   -35.6570 
  195.6250    91.6190    24.5740    11.5460     8.4640    11.5370     2.4330   -34.8940 
  195.7500    89.9130    24.6330    10.4910     8.2600    11.4010     2.4540   -34.0830 
  195.8750    88.8190    24.7590     9.8660     8.3440    11.6670     2.4690   -33.2680 
  196.0000    87.7830    24.9410    10.1560     8.6890    12.2400     2.4740   -32.4700 
  196.1250    87.3620    25.0800    11.2000     9.1810    12.8760     2.4760   -31.7000 
  196.2500    90.9020    25.1060    12.0110     9.5670    13.2340     2.4770   -30.9830 
  196.3750    98.0450    25.0660    12.0690     9.6290    13.0880     2.4710   -30.3020 
  196.5000   103.2630    25.0620    11.3430     9.2520    12.3870     2.4590   -29.6580 
  196.6250   101.5540    25.1240    10.2150     8.4790    11.2550     2.4470   -29.0040 
  196.7500    96.5150    25.2030     9.0770     7.5940    10.0590     2.4350   -28.2690 
  196.8750    89.5280    25.1860     7.9570     6.7780     9.0250     2.4230   -27.4690 
