~V
VERS. 2.00: Ver 2.00
~W
STRT.M 120.0000:
STOP.M 278.0000:
STEP.M 0.1250:
NULL. -999.2500:
UWI. DF3047:
~C
DEPT.M :
DEN.GM/CC :
SP.MV :
AC.US/MT :
GR.API :
CALI.CM :
RXO.OHMM :
RI. :
RML.OHMM :
~A
# ...
  210.0000     2.3640   -22.2560   383.5800    90.2750    24.9970    17.5330     9.5510    14.8220 
  210.1250     2.3640   -22.5430   381.7100    89.2860    25.0680    17.9810     9.7500    15.1540 
  210.2500     2.3750   -22.5680   380.6920    88.5350    25.2320    17.4610     9.8410    15.3620 
  210.3750     2.3840   -22.3340   381.0350    87.6030    25.3880    16.1670     9.7520    15.2650 
  210.5000     2.3860   -21.8720   383.5510    85.7770    25.4600    14.6370     9.4210    14.7050 
  210.6250     2.3870   -21.2110   389.4480    85.5280    25.4420    12.9500     8.8290    13.6440 
  210.7500     2.3960   -20.4780   397.7600    88.4210    25.3890    11.0770     8.1440    12.4400 
  210.8750     2.4070   -19.7780   406.3070    91.7800    25.3570     9.2960     7.5230    11.4240 
  211.0000     2.4130   -19.2080   411.6890    94.0110    25.4050     8.1040     7.0990    10.8520 
  211.1250     2.4130   -18.8770   409.5690    96.0280    25.5370     8.1410     7.0110    10.9420 
  211.2500     2.4150   -18.8160   400.7170    97.2360    25.6430     9.3700     7.2480    11.5810 
  211.3750     2.4160   -18.9940   387.7720    94.1060    25.6130    11.4440     7.8070    12.6730 
  211.5000     2.4120   -19.3580   374.0910    88.4210    25.4320    13.8130     8.6580    14.0960 
  211.6250     2.4070   -19.8500   361.4780    85.0310    25.2710    16.1680     9.8030    15.8330 
  211.7500     2.4160   -20.3290   348.6660    82.7410    25.3100    18.6490    11.1890    17.9050 
  211.8750     2.4450   -20.6740   334.2610    80.2050    25.5120    21.4240    12.8120    20.3750 
  212.0000     2.4840   -20.7810   318.6260    78.9510    25.6860    24.7040    14.5770    23.0670 
  212.1250     2.5100   -20.5540   305.3230    81.5070    25.7470    28.1950    15.9990    24.9750 
  212.2500     2.5000   -19.9800   298.4430    84.7550    25.8300    29.9130    16.3640    24.8040 
  212.3750     2.4450   -19.1130   300.8360    85.3110    26.0030    28.1610    15.2330    22.0200 
  212.5000     2.3630   -18.0180   313.0400    81.4630    26.1910    23.1010    12.9230    17.5900 
  212.6250     2.3010   -16.7500   333.4730    74.6280    26.2780    16.6030    10.3390    13.3160 
  212.7500     2.2760   -15.4420   355.8160    68.9760    26.3130    11.0030     8.2110    10.1580 
  212.8750     2.2810   -14.1690   375.2110    67.5880    26.3500     7.4240     6.7180     8.1960 
  213.0000     2.3030   -12.9970   388.2270    72.3120    26.3390     5.8870     5.8170     7.2100 
  213.1250     2.3310   -11.9880   392.6730    81.8230    26.2100     5.6410     5.4490     6.9970 
  213.2500     2.3490   -11.1670   391.3010    88.4600    26.0570     5.6290     5.3920     7.1440 
  213.3750     2.3570   -10.5340   386.4520    89.1390    25.9790     5.6350     5.5260     7.4210 
  213.5000     2.3680   -10.0720   380.4260    85.8980    26.0220     5.7080     5.7420     7.6480 
  213.6250     2.3980    -9.7830   375.4670    84.6150    26.1640     5.8540     5.9400     7.6910 
  213.7500     2.4320    -9.5890   372.7790    86.2610    26.2980     5.9900     6.0660     7.5910 
  213.8750     2.4570    -9.4690   372.6490    89.9720    26.3340     6.0280     6.1100     7.4060 
  214.0000     2.4660    -9.3950   374.3270    91.9860    26.2700     5.9580     6.0900     7.2150 
  214.1250     2.4670    -9.3510   375.9420    89.3500    26.2070     5.9070     6.0510     7.1180 
  214.2500     2.4660    -9.3380   375.7780    85.8050    26.1960     6.0220     6.0390     7.1410 
  214.3750     2.4620    -9.3420   373.4840    84.9070    26.2180     6.3340     6.0650     7.2770 
  214.5000     2.4530    -9.3730   370.0650    88.5590    26.2550     6.7070     6.1050     7.4520 
  214.6250     2.4410    -9.4350   367.8280    92.4080    26.3090     6.8500     6.0990     7.5470 
  214.7500     2.4320    -9.5340   368.1620    92.5850    26.3700     6.7000     6.0160     7.4990 
  214.8750     2.4250    -9.6610   370.5900    90.5410    26.4130     6.4310     5.8750     7.3340 
  215.0000     2.4180    -9.8160   372.8230    89.8150    26.4520     6.2730     5.7500     7.1890 
  215.1250     2.4140   -10.0060   370.9950    91.1270    26.5580     6.4350     5.7790     7.3130 
  215.2500     2.4170   -10.2130   363.8710    90.1360    26.6750     7.3590     6.0700     7.8970 
  215.3750     2.4250   -10.4590   352.2570    86.8710    26.6840     9.6340     6.7330     9.1140 
  215.5000     2.4280   -10.7350   339.0070    83.3870    26.5440    13.1220     7.8830    11.1090 
  215.6250     2.4170   -11.0250   329.0940    79.3380    26.3290    16.8210     9.7670    14.1420 
  215.7500     2.3960   -11.3240   325.6200    73.7490    26.1060    20.5230    12.3930    18.0900 
  215.8750     2.3690   -11.6200   329.1330    69.2480    25.8900    25.0310    15.7720    22.8760 
  216.0000     2.3390   -11.9020   337.3980    67.7950    25.7470    30.6680    19.7870    28.3110 
  216.1250     2.3140   -12.1700   346.0070    67.4940    25.7610    37.8190    24.3260    34.2650 
  216.2500     2.3010   -12.4310   351.4470    66.3200    25.8360    47.2150    29.1860    40.5830 
  216.3750     2.2970   -12.6860   353.4100    65.7040    25.8910    58.0390    34.2860    47.2020 
  216.5000     2.2930   -12.9340   353.7710    67.1390    25.9110    67.5530    39.4810    53.9920 
  216.6250     2.2830   -13.1970   355.1370    69.0550    25.9720    73.9530    44.4590    60.5480 
  216.7500     2.2710   -13.4780   357.9920    69.0950    26.1030    78.7240    48.9480    66.4440 
  216.8750     2.2630   -13.8140   361.2190    67.8330    26.2410    82.2710    52.8830    71.5540 
  217.0000     2.2550   -14.2040   363.5710    67.0480    26.3080    84.2540    56.5110    76.2520 
  217.1250     2.2450   -14.6110   364.7290    65.4040    26.3030    85.6670    60.3100    81.2670 
  217.2500     2.2370   -15.0260   365.8950    61.5190    26.3090    89.9920    64.5650    86.9680 
  217.3750     2.2320   -15.4200   368.0730    58.0500    26.3480    98.8740    69.2960    93.3320 
  217.5000     2.2300   -15.7890   371.6510    58.4950    26.3980   109.3210    74.2560    99.8850 
  217.6250     2.2310   -16.1180   376.1960    63.1200    26.4340   115.5910    78.7650   105.4690 
  217.7500     2.2350   -16.4040   380.2800    66.7430    26.4480   117.9920    82.1240   109.1230 
  217.8750     2.2410   -16.6110   382.6990    67.0990    26.4500   119.3960    83.8720   110.3160 
  218.0000     2.2420   -16.7480   382.8850    64.5120    26.4490   120.2840    84.0320   109.3170 
  218.1250     2.2350   -16.8520   381.4760    63.7050    26.4480   117.0320    83.1110   107.0470 
  218.2500     2.2220   -16.9270   380.7700    65.6840    26.4490   109.2110    82.1960   105.0050 
  218.3750     2.2080   -17.0090   382.3300    64.8220    26.4690   100.5630    81.9780   104.0200 
  218.5000     2.1980   -17.0960   386.2020    61.0680    26.5350    96.0380    82.8670   104.4910 
  218.6250     2.1980   -17.1850   390.5100    59.5630    26.6510    98.3250    85.1420   106.6220 
  218.7500     2.2020   -17.2790   392.8750    61.0070    26.7530   103.4340    88.2970   109.6510 
  218.8750     2.2020   -17.3700   392.4200    62.6730    26.7830   107.5450    91.7280   112.8100 
  219.0000     2.2000   -17.4510   389.5680    63.5620    26.7470   109.4180    94.6600   115.1580 
  219.1250     2.2050   -17.4990   385.2540    62.8300    26.7280   110.1670    95.9130   115.2070 
  219.2500     2.2170   -17.5330   380.5630    62.0670    26.7430   109.7170    94.6890   111.8760 
  219.3750     2.2290   -17.5310   375.9910    63.6220    26.7370   106.7460    90.1540   104.1640 
  219.5000     2.2380   -17.4980   372.1440    67.3800    26.6880   101.2610    82.2030    92.5440 
  219.6250     2.2420   -17.4560   370.0470    68.4920    26.6400    91.2320    71.9910    79.5730 
  219.7500     2.2400   -17.3980   369.6770    67.4490    26.6200    75.2550    62.2550    68.4860 
  219.8750     2.2380   -17.3640   370.4160    68.3500    26.5840    57.9940    54.7720    60.7510 
