~V
VERS. 2.00: Ver 2.00
~W
STRT.M 125.0000:
STOP.M 269.0000:
STEP.M 0.1250:
NULL. -999.2500:
UWI. DF3004:
~C
DEPT.M :
GR.API :
RML.OHMM :
RI. :
RXO.OHMM :
CALI.CM :
DEN.GM/CC :
SP.MV :
~A
# ...
  192.5000    56.4900    86.5670    80.2350   127.7270    24.3800     2.4290   -15.7710 
  192.6250    59.5360    66.1120    60.5610    87.1330    24.3680     2.4500   -15.3320 
  192.7500    59.2260    54.5770    48.7200    47.3550    24.2680     2.4480   -14.8960 
  192.8750    58.1500    51.3080    44.5720    31.3670    24.2400     2.4240   -14.4550 
  193.0000    58.7170    55.7380    47.3900    28.9250    24.3860     2.3900   -13.9470 
  193.1250    59.1520    67.3730    56.5040    38.4550    24.4530     2.3650   -13.5220 
  193.2500    57.3200    81.1890    67.6020    55.3310    24.3950     2.3690   -12.9700 
  193.3750    55.2960    91.3130    75.7620    79.6040    24.3030     2.4170   -12.4590 
  193.5000    56.9160    91.2970    75.7270   119.5890    24.2700     2.5030   -11.9570 
  193.6250    63.0580    75.8450    63.3620   154.4790    24.2280     2.5970   -11.4010 
  193.7500    69.1280    53.1450    45.0420   129.4530    24.1300     2.6480   -10.9040 
  193.8750    72.2290    32.6330    28.0560    79.5720    23.9150     2.6260   -10.4660 
  194.0000    71.7410    18.8280    16.4730    31.1200    23.6260     2.5320   -10.0710 
  194.1250    68.4510    11.8530    10.6570    12.5120    23.7810     2.4030    -9.7240 
  194.2500    62.6530     8.4840     7.7650     7.0560    24.1680     2.2930    -9.4790 
  194.3750    56.9650     7.3630     6.4720     5.8060    24.5200     2.2260    -9.3380 
  194.5000    53.7320     7.1210     6.0390     5.5160    24.6750     2.2030    -9.1550 
  194.6250    53.5970     7.3090     6.1120     5.3850    25.0150     2.2050    -9.1050 
  194.7500    52.9420     7.5570     6.3480     5.2910    25.7380     2.1990    -9.1160 
  194.8750    50.8440     7.7120     6.5780     5.1030    26.2470     2.1710    -9.1260 
  195.0000    48.5770     7.7150     6.7060     4.9510    26.1920     2.1340    -9.2410 
  195.1250    47.3590     7.5730     6.6880     4.8370    25.8540     2.1150    -9.2940 
  195.2500    47.7330     7.3790     6.5850     4.8000    25.6310     2.1280    -9.4360 
  195.3750    48.8280     7.2050     6.4560     4.8210    25.3260     2.1690    -9.5180 
  195.5000    49.5080     7.1120     6.3550     4.9530    25.1120     2.2200    -9.6860 
  195.6250    50.7450     7.1640     6.3360     5.1640    24.9580     2.2550    -9.8370 
  195.7500    53.8250     7.3480     6.3980     5.5390    24.7090     2.2710    -9.9730 
  195.8750    60.6580     7.6390     6.5280     6.1070    24.4230     2.2730   -10.1360 
  196.0000    68.2410     7.9890     6.6940     6.5860    24.1880     2.2730   -10.2540 
  196.1250    71.4720     8.3300     6.8520     6.6830    24.3560     2.2680   -10.4630 
  196.2500    68.7240     8.5940     6.9570     6.6330    25.3000     2.2520   -10.5470 
  196.3750    62.4590     8.7400     6.9830     6.5350    26.5590     2.2190   -10.6770 
  196.5000    57.3320     8.7460     6.9180     6.4360    27.1550     2.1710   -10.8150 
  196.6250    57.0570     8.6100     6.7620     6.3020    26.8390     2.1200   -10.8900 
  196.7500    58.5960     8.4230     6.5690     6.2870    26.4970     2.0820   -10.9650 
  196.8750    59.6250     8.2870     6.4050     6.3850    27.0450     2.0610   -11.0810 
  197.0000    60.1030     8.3250     6.3480     6.5170    28.3420     2.0520   -11.1880 
  197.1250    62.1920     8.6970     6.5120     6.7510    28.6660     2.0510   -11.3310 
  197.2500    66.6030     9.3830     6.9020     7.1950    27.3410     2.0610   -11.5750 
  197.3750    73.5560    10.2930     7.4780     7.9430    25.9630     2.0920   -11.8470 
  197.5000    82.4820    11.2510     8.1390     9.0510    25.1320     2.1560   -12.0910 
  197.6250    94.4070    12.0000     8.7120    10.2990    24.6120     2.2520   -12.4470 
  197.7500   105.9080    12.4170     9.0780    11.1290    24.3300     2.3520   -12.8660 
  197.8750   110.4660    12.4830     9.1940    11.3430    24.2040     2.4290   -13.2220 
  198.0000   106.6840    12.2720     9.0950    11.3120    24.1400     2.4670   -13.6900 
  198.1250   104.1610    11.9010     8.8570    11.3410    24.1260     2.4720   -14.0870 
  198.2500   106.7620    11.5330     8.6060    11.4000    24.1960     2.4620   -14.5690 
  198.3750   108.9560    11.2670     8.4190    11.3280    24.4100     2.4440   -15.0740 
  198.5000   107.4290    11.1820     8.3590    10.8610    24.7590     2.4190   -15.6010 
  198.6250   103.5940    11.3580     8.4990    10.0940    24.9490     2.3930   -16.2170 
  198.7500    99.2390    11.7450     8.8140    10.0020    24.6360     2.3730   -16.7720 
  198.8750    94.3800    12.2830     9.2730    11.0180    24.0030     2.3620   -17.4060 
  199.0000    92.7670    12.8900     9.8150    12.2690    23.5910     2.3600   -17.9140 
  199.1250    95.4000    13.4440    10.3370    12.9600    23.4710     2.3650   -18.3780 
  199.2500    98.3000    13.8320    10.7290    13.2700    23.5620     2.3740   -18.6610 
  199.3750    99.4580    13.9570    10.8990    13.4360    23.5740     2.3880   -18.8400 
  199.5000    97.7960    13.7640    10.7930    13.2720    23.5130     2.4050   -18.9210 
  199.6250    94.1950    13.2450    10.3890    12.8790    23.4770     2.4170   -18.7760 
  199.7500    90.5720    12.6030     9.8460    12.2280    23.5460     2.4080   -18.6610 
  199.8750    88.5580    12.0370     9.3210    11.2390    23.8150     2.3690   -18.4780 
  200.0000    88.0770    11.7150     8.9580     9.8920    24.2840     2.3060   -18.2560 
  200.1250    87.7810    11.7530     8.8860     8.8340    24.7790     2.2460   -18.1060 
  200.2500    89.6960    12.0420     9.0590     8.4530    24.8710     2.2170   -18.0050 
  200.3750    94.2440    12.4750     9.4210     9.5210    24.6820     2.2310   -17.9280 
  200.5000    98.4120    12.9720     9.9060    11.8260    24.4970     2.2810   -17.9260 
  200.6250    98.0480    13.5500    10.4970    13.1660    24.4300     2.3440   -17.9610 
  200.7500    96.7120    14.2900    11.2030    13.5910    24.3700     2.3940   -17.9380 
  200.8750    97.0600    15.2720    12.0630    13.9660    24.2020     2.4250   -17.8280 
  201.0000    97.0240    16.4750    13.0680    15.0290    23.9070     2.4440   -17.7670 
  201.1250    91.7920    17.6560    14.0650    17.7190    23.7520     2.4590   -17.5350 
  201.2500    84.2210    18.4000    14.7610    20.2340    23.7620     2.4770   -17.2520 
  201.3750    79.1790    18.3460    14.8720    21.3720    23.9100     2.4990   -16.8850 
  201.5000    78.9130    17.3280    14.2340    20.7010    24.0380     2.5240   -16.3820 
  201.6250    84.2020    15.4060    12.8420    18.6940    24.1390     2.5430   -15.8950 
  201.7500    87.5890    13.1870    11.1550    15.5160    24.2610     2.5410   -15.3050 
  201.8750    84.3750    11.1200     9.5280    12.1160    24.5190     2.4980   -14.7870 
  202.0000    77.2510     9.5020     8.2100     9.4470    24.9210     2.4050   -14.2330 
  202.1250    71.6400     8.5350     7.3780     7.1020    25.3990     2.2650   -13.8340 
  202.2500    65.6240     8.0640     6.9420     5.7110    26.0740     2.1140   -13.5070 
  202.3750    61.5040     7.9500     6.8190     5.1940    27.5500     1.9830   -13.3180 
  202.5000    65.8170     8.0350     6.9000     5.1200    29.1050     1.8900   -13.2930 
  202.6250    75.2850     8.1700     7.0780     5.3210    29.5990     1.8430   -13.3070 
  202.7500    78.0800     8.2510     7.2430     5.7870    29.2020     1.8240   -13.5440 
  202.8750    76.9340     8.2600     7.3550     6.2030    28.6190     1.8260   -13.8260 
  203.0000    78.4250     8.2160     7.4090     6.3520    28.1930     1.8440   -14.1660 
  203.1250    83.1650     8.1530     7.4200     6.2360    27.4700     1.8900   -14.5740 
  203.2500    85.2240     8.0930     7.4170     6.3370    26.2200     1.9600   -14.9630 
  203.3750    83.8040     8.0450     7.4120     6.5970    25.0490     2.0470   -15.3520 
  203.5000    80.8810     8.0280     7.4240     6.8370    24.5330     2.1390   -15.7470 
  203.6250    79.8850     8.0950     7.4860     7.3560    24.3790     2.2190   -16.1360 
