~V
VERS. 2.00: Ver 2.00
~W
STRT.M 56.0000:
STOP.M 260.0000:
STEP.M 0.1250:
NULL. -999.2500:
UWI. DF3033:
~C
DEPT.M :
GR.API :
RML.OHMM :
RI. :
RXO.OHMM :
CALI.CM :
DEN.GM/CC :
SP.MV :
~A
# ...
  123.5000   103.5030     7.4660     6.3200     5.8320    23.5730     2.2570   -19.2870 
  123.6250   100.3170     7.6340     6.4990     5.9240    23.6910     2.2550   -19.3740 
  123.7500    94.5220     7.8240     6.7120     6.0200    23.8920     2.2560   -19.4400 
  123.8750    87.7880     7.9560     6.8920     6.1740    24.0660     2.2620   -19.3950 
  124.0000    82.7750     7.9660     6.9650     6.2960    24.2260     2.2780   -19.2440 
  124.1250    83.5310     7.8080     6.8640     6.2670    24.4080     2.3070   -19.0460 
  124.2500    89.1500     7.5330     6.6250     6.0610    24.5530     2.3430   -18.7220 
  124.3750    97.6180     7.1940     6.3010     5.8130    24.6740     2.3720   -18.3260 
  124.5000   105.1040     6.8520     5.9550     5.3730    24.7970     2.3800   -18.0300 
  124.6250   106.4930     6.5680     5.6520     5.1190    24.9620     2.3530   -17.7290 
  124.7500   104.4330     6.3610     5.4170     4.9940    25.1930     2.3020   -17.5750 
  124.8750   102.7320     6.2340     5.2580     4.9300    25.3300     2.2440   -17.5220 
  125.0000   101.9930     6.1880     5.1740     4.8890    25.3660     2.1970   -17.5960 
  125.1250    97.4780     6.2400     5.1830     4.8810    25.0510     2.1790   -17.8990 
  125.2500    90.5640     6.3850     5.2780     4.9670    24.6130     2.1850   -18.2400 
  125.3750    86.3100     6.6220     5.4620     5.2020    24.2380     2.2110   -18.7700 
  125.5000    86.1750     6.9250     5.7210     5.4550    24.1150     2.2490   -19.3480 
  125.6250    86.2380     7.2330     6.0130     5.6670    24.1320     2.2930   -20.0270 
  125.7500    83.5030     7.4720     6.2720     5.8700    24.1250     2.3340   -20.8070 
  125.8750    79.8140     7.5990     6.4510     6.1490    24.0940     2.3590   -21.5550 
  126.0000    78.4360     7.6160     6.5310     6.3570    24.0480     2.3570   -22.3940 
  126.1250    81.3000     7.5710     6.5260     6.4930    23.9340     2.3260   -23.2570 
  126.2500    85.0500     7.5460     6.5050     6.6320    23.7750     2.2890   -24.0570 
  126.3750    85.9420     7.5760     6.5150     6.8560    23.7210     2.2590   -24.7190 
  126.5000    84.4090     7.6650     6.5790     7.1440    23.8100     2.2470   -25.3170 
  126.6250    82.5080     7.7900     6.7000     7.4050    23.9280     2.2570   -25.7600 
  126.7500    80.8200     7.9130     6.8440     7.6790    23.9750     2.2780   -26.0770 
  126.8750    80.2610     8.0240     6.9880     7.8350    23.9850     2.3010   -26.3210 
  127.0000    82.0780     8.1350     7.1280     7.9040    23.9850     2.3130   -26.3670 
  127.1250    84.0050     8.2910     7.2840     8.0110    23.9890     2.3090   -26.2400 
  127.2500    82.7260     8.5070     7.4600     8.1880    24.0000     2.2960   -26.0340 
  127.3750    79.9880     8.7440     7.6260     8.5290    24.0100     2.2830   -25.8150 
  127.5000    79.6240     8.8890     7.7030     8.9130    24.0180     2.2770   -25.4330 
  127.6250    79.8620     8.7330     7.5410     9.0460    24.0340     2.2830   -24.9600 
  127.7500    77.9760     8.2210     7.1050     8.2200    24.0790     2.2930   -24.3770 
  127.8750    77.5690     7.4210     6.4390     7.4610    24.1810     2.3010   -23.7210 
  128.0000    81.9870     6.5530     5.6980     6.6020    24.3540     2.2990   -23.2120 
  128.1250    89.7360     5.9900     5.1510     5.5570    24.5860     2.2910   -22.7690 
  128.2500    92.8180     5.9270     4.9590     5.0620    24.8640     2.2890   -22.6290 
  128.3750    89.2820     6.4040     5.1920     5.3840    25.0610     2.3000   -22.7580 
  128.5000    81.5820     7.3160     5.8230     6.6470    24.9220     2.3210   -23.1870 
  128.6250    73.9760     8.4220     6.7450     8.9750    24.5400     2.3310   -24.0280 
  128.7500    69.8260     9.3650     7.6790    11.6690    24.1980     2.3180   -25.0400 
  128.8750    69.7540     9.9170     8.4090    12.0300    23.9550     2.2870   -26.2620 
  129.0000    73.5810    10.0100     8.8030     9.9760    23.8680     2.2540   -27.5150 
  129.1250    78.0810     9.7390     8.8390     9.2150    23.9310     2.2380   -28.6740 
  129.2500    77.2070     9.4000     8.7220     9.3550    24.0520     2.2360   -29.7090 
  129.3750    71.3830     9.1480     8.5770     9.6520    24.1220     2.2370   -30.5370 
  129.5000    66.2350     9.0250     8.4670     9.7210    24.1420     2.2320   -31.1030 
  129.6250    65.4030     8.9920     8.3950     9.6250    24.1460     2.2220   -31.3900 
  129.7500    66.8850     8.9760     8.3420     9.4890    24.1420     2.2130   -31.5760 
  129.8750    69.1780     8.9740     8.3130     9.4650    24.1200     2.2110   -31.5290 
  130.0000    72.6050     9.0170     8.3310     9.3860    24.0510     2.2130   -31.3720 
  130.1250    74.8640     9.1550     8.4230     9.1480    23.9460     2.2150   -31.2000 
  130.2500    76.1440     9.3620     8.5570     9.0480    23.8570     2.2120   -30.8960 
  130.3750    78.3980     9.5610     8.6790     9.1700    23.8230     2.2040   -30.5650 
  130.5000    80.9000     9.6500     8.7150     9.4260    23.8270     2.1940   -30.2000 
  130.6250    80.1460     9.5120     8.5750     9.5490    23.8590     2.1870   -29.7970 
  130.7500    76.1380     9.1900     8.2850     9.2910    23.9200     2.1890   -29.3610 
  130.8750    73.0470     8.7810     7.9140     8.7740    23.9910     2.2040   -29.0800 
  131.0000    75.7630     8.4250     7.5740     8.2110    24.0640     2.2330   -28.8820 
  131.1250    82.3100     8.2800     7.4010     7.8280    24.1160     2.2710   -28.8070 
  131.2500    85.4570     8.3550     7.4200     7.9080    24.1360     2.3030   -28.9670 
  131.3750    83.3890     8.5960     7.6110     8.2600    24.1430     2.3160   -29.1690 
  131.5000    80.4280     8.9050     7.9030     8.8280    24.1130     2.3010   -29.6020 
  131.6250    78.0580     9.1560     8.2000     9.4600    24.0050     2.2590   -30.1480 
  131.7500    75.4670     9.2930     8.4250     9.6620    23.8380     2.2100   -30.7280 
  131.8750    73.7520     9.3290     8.5610     9.4170    23.7150     2.1710   -31.3080 
  132.0000    73.5020     9.3210     8.6340     9.2010    23.6530     2.1490   -31.7440 
  132.1250    72.6760     9.3320     8.6780     9.2320    23.6420     2.1500   -32.1070 
  132.2500    70.0770     9.3600     8.7070     9.4420    23.6700     2.1630   -32.2300 
  132.3750    68.2230     9.3530     8.6910     9.6980    23.7530     2.1810   -32.2050 
  132.5000    69.2170     9.2490     8.5960     9.8850    23.8740     2.2010   -32.0680 
  132.6250    72.2080     9.0140     8.4030    10.0500    23.9540     2.2210   -31.7950 
  132.7500    74.9890     8.7390     8.1830    10.0940    23.9810     2.2390   -31.4940 
  132.8750    75.9690     8.5330     8.0250     9.7620    23.9850     2.2480   -31.2440 
  133.0000    75.3400     8.4940     8.0050     9.2060    23.9880     2.2450   -31.0610 
  133.1250    73.5220     8.6780     8.1710     9.3470    24.0040     2.2300   -30.8000 
  133.2500    70.0910     8.9750     8.4360     9.6720    24.0280     2.2120   -30.5600 
  133.3750    66.7980     9.2520     8.6930    10.0220    24.0090     2.2000   -30.2380 
  133.5000    65.4680     9.3710     8.8260    10.2970    23.9390     2.1980   -29.8280 
  133.6250    67.2920     9.2090     8.7180    10.2350    23.8900     2.2090   -29.3650 
  133.7500    71.3960     8.8380     8.4120     9.8450    23.9680     2.2260   -28.8850 
  133.8750    75.7200     8.3710     7.9870     9.2080    24.0210     2.2450   -28.3400 
  134.0000    79.1430     7.9330     7.5520     8.4450    24.0250     2.2590   -27.7530 
  134.1250    80.4030     7.6450     7.2260     7.6660    24.0580     2.2620   -27.3390 
  134.2500    79.2090     7.5290     7.0590     7.2000    24.0970     2.2540   -26.9930 
  134.3750    77.4810     7.5830     7.0710     7.0870    24.0700     2.2380   -26.8750 
  134.5000    76.3360     7.7830     7.2500     7.2110    23.9660     2.2200   -26.9100 
  134.6250    76.2340     8.0900     7.5650     7.5320    23.9600     2.2080   -27.0030 
