~V
VERS. 2.00: Ver 2.00
~W
STRT.M 140.0000:
STOP.M 272.0000:
STEP.M 0.1250:
NULL. -999.2500:
UWI. DF3077:
~C
DEPT.M :
GR.API :
CALI.CM :
RXO.OHMM :
RI. :
RML.OHMM :
DEN.GM/CC :
SP.MV :
~A
# ...
  241.2500    89.7870    25.0730    17.0680    22.5110    23.0320     2.2720   -18.0230 
  241.3750    86.1480    25.0130    18.4620    24.6630    25.9570     2.2830   -18.1410 
  241.5000    83.4800    24.9690    19.8700    28.0280    30.3010     2.2890   -18.3000 
  241.6250    79.3900    24.9210    21.8630    33.2180    36.7480     2.2910   -18.4460 
  241.7500    71.9430    24.8500    25.2930    40.0360    45.1480     2.3030   -18.6230 
  241.8750    67.4810    24.8680    35.9790    48.1810    55.3470     2.3360   -18.8320 
  242.0000    70.0460    24.9470    53.0770    57.0270    66.9810     2.3890   -19.0440 
  242.1250    77.3900    25.0080    66.8770    65.6340    78.8800     2.4420   -19.2270 
  242.2500    83.6540    25.1170    72.5230    72.9020    89.3450     2.4690   -19.3830 
  242.3750    86.2230    25.2100    75.4260    78.3990    97.4010     2.4580   -19.5380 
  242.5000    85.8770    25.0310    71.2770    82.2630   103.1030     2.4270   -19.6120 
  242.6250    87.2710    24.6180    71.7810    84.6980   107.2130     2.4090   -19.6270 
  242.7500    92.2160    24.5670    76.6110    86.5860   110.8100     2.4090   -19.6150 
  242.8750    95.5570    24.7250    76.3500    88.6590   115.1490     2.4130   -19.5380 
  243.0000    92.3590    24.6330    69.1130    90.8530   119.6850     2.4160   -19.4290 
  243.1250    85.1600    24.5870    65.6820    92.2650   122.6700     2.4230   -19.3100 
  243.2500    79.4740    24.5500    64.0180    92.3310   123.0730     2.4260   -19.2090 
  243.3750    77.9590    24.7330    70.0230    90.9070   120.2660     2.4160   -19.1080 
  243.5000    80.1130    24.8810    71.3510    87.9820   114.5450     2.3950   -19.0320 
  243.6250    78.6500    25.1670    70.7920    84.2730   107.5070     2.3770   -19.0140 
  243.7500    73.0080    25.3500    65.9440    80.4310   100.6220     2.3690   -19.0230 
  243.8750    68.8480    25.2070    65.1390    76.8680    94.7180     2.3720   -19.0280 
  244.0000    70.0620    25.1520    63.3610    73.8670    90.2080     2.3910   -19.0140 
  244.1250    73.2110    25.3090    65.4710    71.9070    87.5520     2.4170   -19.0350 
  244.2500    74.8010    25.2550    65.0340    70.8380    85.9680     2.4300   -19.0380 
  244.3750    75.5170    25.1310    57.6400    70.2200    84.9740     2.4300   -19.0280 
  244.5000    75.1740    25.2840    46.7770    69.7130    84.0920     2.4300   -18.9960 
  244.6250    75.0030    25.1750    41.0210    68.6930    82.5080     2.4370   -18.9120 
  244.7500    77.7320    24.5350    40.5060    67.0640    80.1480     2.4340   -18.7820 
  244.8750    82.6360    24.2260    44.3780    65.0750    77.5840     2.4160   -18.6390 
  245.0000    85.7340    24.3570    47.3350    63.1770    75.7390     2.3920   -18.5080 
  245.1250    83.3330    24.6290    49.1610    62.1530    75.7620     2.3850   -18.3530 
  245.2500    77.8880    25.2280    50.7950    62.3580    77.7070     2.4060   -18.1540 
  245.3750    74.2760    25.4440    47.8020    63.6620    80.9390     2.4540   -17.9360 
  245.5000    73.7790    25.2620    47.9490    65.4560    84.3410     2.5200   -17.6960 
  245.6250    72.7420    25.5260    58.1560    67.0400    86.5860     2.5650   -17.4380 
  245.7500    72.7900    25.4120    64.9510    67.6850    86.6660     2.5640   -17.1900 
  245.8750    76.4550    25.0930    62.4390    66.9320    84.0250     2.5240   -16.9370 
  246.0000    80.2110    25.0140    59.0720    64.6160    78.7440     2.4730   -16.6780 
  246.1250    77.5160    25.0790    59.3560    60.7650    71.5860     2.4310   -16.3910 
  246.2500    73.1320    25.0670    62.1420    55.7330    63.5160     2.4020   -16.1290 
  246.3750    74.2500    25.0550    60.0150    49.6170    54.8430     2.3910   -15.8890 
  246.5000    78.8190    25.0130    55.4540    42.3640    45.5610     2.4100   -15.6710 
  246.6250    76.5570    25.1940    54.8540    34.1530    36.0030     2.4590   -15.4820 
  246.7500    65.5470    25.3460    65.4780    26.1930    27.0810     2.5150   -15.3050 
  246.8750    53.9230    25.3470    77.2900    19.3440    19.5700     2.5580   -15.1600 
  247.0000    48.7180    25.5100    73.7130    13.9850    13.8140     2.5750   -15.0310 
  247.1250    49.0330    25.4180    56.5290    10.2960     9.9990     2.5440   -14.9210 
  247.2500    48.9240    25.2140    29.3640     7.8130     7.5630     2.4740   -14.8320 
  247.3750    47.9210    24.9410    11.5400     6.2930     6.2290     2.3980   -14.7580 
  247.5000    47.2200    24.8210     6.2200     5.5030     5.7050     2.3520   -14.7010 
  247.6250    46.9810    24.7010     5.4480     5.3140     5.8120     2.3580   -14.6860 
  247.7500    47.7670    24.7120     5.4340     5.4270     6.1770     2.3850   -14.7040 
  247.8750    50.1020    24.7780     5.5620     5.6950     6.6410     2.4000   -14.7410 
  248.0000    51.9350    24.8420     5.7190     6.0000     7.0630     2.3870   -14.8170 
  248.1250    49.8600    24.8890     5.8550     6.2490     7.3180     2.3580   -14.9270 
  248.2500    48.1690    24.9230     5.9510     6.3950     7.3930     2.3410   -15.0550 
  248.3750    50.2700    25.0240     5.9890     6.4440     7.3410     2.3420   -15.2100 
  248.5000    53.7160    25.0640     6.0380     6.4230     7.2180     2.3590   -15.3900 
  248.6250    54.1290    25.0360     6.0720     6.3490     7.0810     2.3820   -15.5410 
  248.7500    52.3820    24.9760     6.0870     6.2530     6.9640     2.4000   -15.7050 
  248.8750    48.8550    24.9470     6.0440     6.1510     6.8780     2.4050   -15.8910 
  249.0000    44.1430    24.8910     5.9530     6.0660     6.8180     2.3960   -16.0610 
  249.1250    42.0570    24.8160     5.9680     6.0220     6.8470     2.3800   -16.2570 
  249.2500    43.4790    24.6850     5.9540     6.0320     6.9510     2.3720   -16.4730 
  249.3750    45.9090    24.5310     5.9020     6.0990     7.1150     2.3760   -16.6940 
  249.5000    49.5980    24.4580     5.9750     6.2250     7.3390     2.3880   -16.9280 
  249.6250    58.5720    24.5400     6.2090     6.4300     7.6280     2.3940   -17.2070 
  249.7500    70.9040    24.6430     6.3770     6.7020     7.9660     2.3910   -17.5010 
  249.8750    81.4110    24.8550     6.5540     7.0280     8.3220     2.3770   -17.7950 
  250.0000    85.8680    24.9540     6.9360     7.3850     8.6850     2.3530   -18.1050 
  250.1250    82.5550    25.0240     7.4200     7.7540     9.0230     2.3250   -18.4330 
  250.2500    77.9800    25.0160     7.7610     8.1090     9.3000     2.3030   -18.7610 
  250.3750    75.3420    24.9060     8.1360     8.4450     9.5460     2.2910   -19.0790 
  250.5000    74.7090    24.8100     8.6440     8.7470     9.7360     2.2850   -19.3680 
  250.6250    74.0720    24.8240     9.6540     8.9650     9.8660     2.2820   -19.6100 
  250.7500    74.6820    24.8870    10.6130     9.1270     9.9730     2.2810   -19.7980 
  250.8750    78.3150    24.9410    10.7340     9.2740    10.1110     2.2830   -19.9440 
  251.0000    80.2710    24.7610    10.0480     9.4500    10.2820     2.2890   -20.0570 
  251.1250    76.1990    24.8010     9.4740     9.6640    10.5000     2.3040   -20.1060 
  251.2500    72.3270    24.9900     9.4880     9.9350    10.7970     2.3280   -20.1270 
  251.3750    74.3770    25.0750    10.4720    10.2390    11.1120     2.3580   -20.1120 
  251.5000    81.3490    25.0880    12.5900    10.5280    11.3570     2.3820   -20.0630 
  251.6250    83.6280    25.0660    14.6670    10.7110    11.4500     2.3890   -20.0370 
  251.7500    78.1790    25.0700    14.0300    10.7620    11.4080     2.3810   -20.0360 
  251.8750    70.7600    25.0970    11.8370    10.6420    11.2020     2.3650   -20.0430 
  252.0000    68.2990    25.2850    10.1690    10.3460    10.8450     2.3510   -20.0510 
  252.1250    70.1860    25.3220     9.9380     9.8710    10.3260     2.3460   -20.0630 
  252.2500    69.8730    25.3050    11.6780     9.3280     9.7630     2.3460   -20.0600 
  252.3750    70.8520    25.1560    14.0270     8.8530     9.3110     2.3430   -20.0610 
