~V
VERS. 2.00: Ver 2.00
~W
STRT.M 140.0000:
STOP.M 286.0000:
STEP.M 0.1250:
NULL. -999.2500:
UWI. DF3059:
~C
DEPT.M :
SP.MV :
GR.API :
RML.OHMM :
RI. :
RXO.OHMM :
CALI.CM :
DEN.GM/CC :
~A
# ...
  275.0000   -10.9800    53.7160     8.3550     7.4830     7.7630    23.7580     2.3580 
  275.1250   -11.0310    53.7160     8.2440     7.3640     7.4370    23.7580     2.3560 
  275.2500   -11.1080    53.7160     8.1800     7.2760     6.9990    23.7580     2.3540 
  275.3750   -11.1630    53.7160     8.1590     7.2260     6.6270    23.7580     2.3520 
  275.5000   -11.2060    53.7160     8.1660     7.2070     6.3830    23.7580     2.3500 
  275.6250   -11.3310    53.7160     8.1780     7.2010     6.5060    23.7580     2.3480 
  275.7500   -11.3650    53.7160     8.1670     7.1830     6.8590    23.7580     2.3470 
  275.8750   -11.4390    53.7160     8.1130     7.1350     7.3040    23.7580     2.3470 
  276.0000   -11.4560    53.7160     8.0100     7.0520     7.6020    23.7580     2.3500 
  276.1250   -11.5130    53.7160     7.8660     6.9390     6.7000    23.7580     2.3560 
  276.2500   -11.5450    53.7160     7.7260     6.8340     6.2640    23.7580     2.3660 
  276.3750   -11.5910    53.7160     7.6350     6.7720     6.2310    23.7580     2.3780 
  276.5000   -11.6210    53.7160     7.6350     6.7880     6.5060    23.7580     2.3880 
  276.6250   -11.6350    53.7160     7.7730     6.9230     6.7730    23.7580     2.3930 
  276.7500   -11.6820    53.7160     8.0220     7.1550     7.1390    23.7580     2.3920 
  276.8750   -11.7480    53.7160     8.3420     7.4570     7.8140    23.7580     2.3890 
  277.0000   -11.8290    53.7160     8.6750     7.7810     8.5690    23.7580     2.3870 
  277.1250   -11.9610    53.7160     8.9420     8.0620     8.8860    23.7580     2.3860 
  277.2500   -12.0610    53.7160     9.1010     8.2540     8.7130    23.7580     2.3830 
  277.3750   -12.0770    53.7160     9.1430     8.3370     8.4350    23.7580     2.3740 
  277.5000   -12.0790    53.7160     9.0850     8.3220     8.4530    23.7580     2.3590 
  277.6250   -12.0480    53.7160     8.9650     8.2330     8.7800    23.7580     2.3440 
  277.7500   -12.0390    53.7160     8.8440     8.1290     9.0660    23.7580     2.3330 
  277.8750   -12.0440    53.7160     8.7610     8.0470     8.9220    23.7580     2.3340 
  278.0000   -12.0850    53.7160     8.7430     8.0150     8.6950    23.7580     2.3460 
  278.1250   -12.0770    53.7160     8.8130     8.0600     8.8970    23.7580     2.3620 
  278.2500   -12.1400    53.7160     8.9420     8.1630     8.9270    23.7580     2.3760 
  278.3750   -12.2800    53.7160     9.0970     8.2940     8.6300    23.7580     2.3840 
  278.5000   -12.4450    53.7160     9.2380     8.4140     8.5650    23.7580     2.3850 
  278.6250   -12.6420    53.7160     9.3280     8.4790     8.8730    23.7580     2.3800 
  278.7500   -12.8020    53.7160     9.3640     8.4900     9.3990    23.7580     2.3700 
  278.8750   -12.8480    53.7160     9.3560     8.4630    10.3270    23.7580     2.3580 
  279.0000   -12.8360    53.7160     9.3190     8.4230    11.3010    23.7660     2.3470 
  279.1250   -12.8570    53.7160     9.2750     8.3900    11.2710    23.7890     2.3430 
  279.2500   -12.8690    53.7160     9.2480     8.3680    10.8610    23.8220     2.3460 
  279.3750   -12.8630    53.7160     9.2480     8.3600     9.9470    23.8330     2.3570 
  279.5000   -12.8300    53.7160     9.2770     8.3620     9.3050    23.8180     2.3690 
  279.6250   -12.7980    53.7160     9.3210     8.3730     9.0440    23.7810     2.3770 
  279.7500   -12.8270    53.7160     9.3600     8.3870     8.8440    23.7640     2.3750 
  279.8750   -12.9330    53.7160     9.3850     8.4010     8.5170    23.7520     2.3670 
  280.0000   -13.0370    53.7160     9.3950     8.4120     8.7650    23.7110     2.3580 
  280.1250   -13.0830    53.7160     9.3950     8.4190    10.2470    23.7340     2.3560 
  280.2500   -13.0980    53.7160     9.3940     8.4220    12.0400    23.7390     2.3600 
  280.3750   -13.1230    53.7160     9.3940     8.4220    12.2780    23.5940     2.3660 
  280.5000   -13.1410    53.7160     9.3940     8.4220    12.1210    23.4740     2.3690 
  280.6250   -13.1620    53.7160     9.3940     8.4220    11.2860    23.5740     2.3700 
  280.7500   -13.2050    53.7160     9.3940     8.4220    10.0130    23.6170     2.3720 
  280.8750   -13.2800    53.7160     9.3940     8.4220     9.0620    23.4540     2.3770 
  281.0000   -13.4090    53.7160     9.3940     8.4220     8.7520    23.2680     2.3870 
  281.1250   -13.5310    53.7160     9.3940     8.4220     8.3490    23.3070     2.3980 
  281.2500   -13.5770    53.7160     9.3940     8.4220     8.0860    23.4890     2.4060 
  281.3750   -13.5590    53.7160     9.3940     8.4220     7.9220    23.6170     2.4060 
  281.5000   -13.6230    53.7160     9.3940     8.4220     7.9440    23.6490     2.3980 
  281.6250   -13.7310    53.7160     9.3940     8.4220     8.0240    23.6410     2.3860 
  281.7500   -13.8090    53.7160     9.3940     8.4220     8.1270    23.6410     2.3730 
  281.8750   -13.8550    53.7160     9.3940     8.4220     8.3660    23.6410     2.3650 
  282.0000   -13.8000    53.7160     9.3940     8.4220     8.5380    23.6410     2.3590 
  282.1250   -13.6760    53.7160     9.3940     8.4220     8.4480    23.6410     2.3550 
  282.2500   -13.6410    53.7160     9.3940     8.4220     7.8170    23.6440     2.3510 
  282.3750   -13.6520    53.7160     9.3940     8.4220     7.3370    23.6500     2.3520 
  282.5000   -13.6110    53.7160     9.3940     8.4220     7.1140    23.6240     2.3600 
  282.6250   -13.5300    53.7160     9.3940     8.4220     7.1190    23.5570     2.3740 
  282.7500   -13.5040    53.7160     9.3940     8.4220     7.2440    23.4960     2.3840 
  282.8750   -13.4410    53.7160     9.3940     8.4220     7.3610    23.6410     2.3680 
  283.0000   -13.3730    53.7160     9.3940     8.4220     7.6970    23.8740     2.3120 
  283.1250   -13.4200    53.7160     9.3940     8.4220     7.9400    22.9440     2.2160 
  283.2500   -13.3910    53.7160     9.3940     8.4220     7.6110    20.1880     2.1030 
  283.3750   -13.3850    53.7160     9.3940     8.4220     6.7520    16.5110     2.0030 
  283.5000   -13.4520    53.7160     9.3940     8.4220     6.0820    14.2680     1.9300 
  283.6250   -13.4410    53.7160     9.3940     8.4220     5.8830    13.6510     1.8870 
  283.7500   -13.3210    53.7160     9.3940     8.4220     5.8540    13.5850     1.8660 
  283.8750   -13.2690    53.7160     9.3940     8.4220     5.8520    13.5460     1.8610 
  284.0000   -13.2690    53.7160     9.3940     8.4220     5.8510    13.5330     1.8610 
  284.1250  -999.2500    53.7160     9.3940     8.4220     5.8500    13.5330     1.8620 
  284.2500  -999.2500    53.7160     9.3940     8.4220     5.8490    13.5330     1.8640 
  284.3750  -999.2500    53.7160     9.3940     8.4220     5.8500    13.5330     1.8660 
  284.5000  -999.2500    53.7160     9.3940     8.4220     5.8500    13.5320     1.8670 
  284.6250  -999.2500    53.7160     9.3940     8.4220     5.8490    13.5280     1.8670 
  284.7500  -999.2500    53.7160     9.3940     8.4220     5.8480    13.5240     1.8670 
  284.8750  -999.2500    53.7160     9.3940     8.4220     5.8470    13.5220     1.8680 
  285.0000  -999.2500    53.7160     9.3850     8.4140     5.8480    13.5200     1.8700 
  285.1250  -999.2500  -999.2500  -999.2500  -999.2500  -999.2500  -999.2500     1.8730 
  285.2500  -999.2500  -999.2500  -999.2500  -999.2500  -999.2500  -999.2500     1.8750 
  285.3750  -999.2500  -999.2500  -999.2500  -999.2500  -999.2500  -999.2500     1.8740 
  285.5000  -999.2500  -999.2500  -999.2500  -999.2500  -999.2500  -999.2500     1.8710 
  285.6250  -999.2500  -999.2500  -999.2500  -999.2500  -999.2500  -999.2500     1.8680 
  285.7500  -999.2500  -999.2500  -999.2500  -999.2500  -999.2500  -999.2500     1.8650 
  285.8750  -999.2500  -999.2500  -999.2500  -999.2500  -999.2500  -999.2500     1.8630 
  286.0000  -999.2500  -999.2500  -999.2500  -999.2500  -999.2500  -999.2500     1.8620 
