~V
VERS. 2.00: Ver 2.00
~W
STRT.M 64.0000:
STOP.M 257.0000:
STEP.M 0.1250:
NULL. -999.2500:
UWI. DF3069:
~C
DEPT.M :
GR.API :
CALI.CM :
RXO.OHMM :
RI. :
RML.OHMM :
DEN.GM/CC :
SP.MV :
~A
# ...
   97.7500    69.7720    22.8810    11.4300     7.9530    11.0860  -999.2500   -32.7840 
   97.8750    67.3400    23.0050    11.4460     7.9240    11.0940  -999.2500   -32.8470 
   98.0000    66.3670    23.0490    11.3910     7.8890    11.0590  -999.2500   -32.8790 
   98.1250    68.3420    23.0960    11.2410     7.8500    10.9810  -999.2500   -32.9250 
   98.2500    68.4700    23.1850    11.0870     7.8310    10.9080  -999.2500   -32.9640 
   98.3750    65.0250    23.2920    11.0470     7.8660    10.8820  -999.2500   -32.9720 
   98.5000    62.2290    23.3470    11.0650     7.9500    10.9400  -999.2500   -32.9220 
   98.6250    63.2450    23.3700    11.0830     8.0610    11.0750  -999.2500   -32.8970 
   98.7500    65.5550    23.4030    11.1770     8.1660    11.2100  -999.2500   -32.8390 
   98.8750    66.8080    23.3970    11.1750     8.2100    11.2950  -999.2500   -32.7310 
   99.0000    66.7640    23.3590    11.1480     8.1310    11.2160  -999.2500   -32.5980 
   99.1250    66.0410    23.3480    11.1230     7.8740    10.8570  -999.2500   -32.4260 
   99.2500    65.4140    23.3900    10.9440     7.4710    10.2510  -999.2500   -32.2290 
   99.3750    68.1940    23.4310    10.2610     6.9790     9.4810  -999.2500   -32.0370 
   99.5000    74.9980    23.4170     9.3500     6.4980     8.7170  -999.2500   -31.8970 
   99.6250    80.5500    23.6250     8.6040     6.1610     8.2120  -999.2500   -31.7200 
   99.7500    82.6320    23.6500     8.0220     6.0490     8.0960  -999.2500   -31.5680 
   99.8750    82.1390    23.6690     7.7170     6.2210     8.4480  -999.2500   -31.4650 
  100.0000    79.9250    23.6650     8.0070     6.6880     9.2460  -999.2500   -31.3540 
  100.1250    76.3060    23.6400     8.6900     7.4280    10.3870  -999.2500   -31.2240 
  100.2500    72.9920    23.4950     9.3860     8.2570    11.5400  -999.2500   -31.1560 
  100.3750    70.9620    23.2010    10.3340     8.9960    12.4290  -999.2500   -31.1470 
  100.5000    69.6750    23.0670    11.4980     9.4490    12.8210  -999.2500   -31.1590 
  100.6250    69.9170    23.0450    11.6830     9.4320    12.5590  -999.2500   -31.1910 
  100.7500    71.5620    23.0360    11.4810     9.0700    11.8850  -999.2500   -31.1740 
  100.8750    74.0260    23.0800    11.1650     8.5170    11.0440  -999.2500   -31.0890 
  101.0000    77.0710    23.1870    10.6990     7.9480    10.3110  -999.2500   -30.9510 
  101.1250    78.0000    23.3150    10.2140     7.5130     9.8900  -999.2500   -30.8130 
  101.2500    74.3180    23.3320     9.9680     7.2370     9.7460  -999.2500   -30.6620 
  101.3750    67.6410    23.2930    10.0470     7.1000     9.8070  -999.2500   -30.5110 
  101.5000    62.9290    23.3150    10.1840     7.0560     9.9530  -999.2500   -30.3720 
  101.6250    65.8990    23.3330    10.2300     7.0520    10.0540  -999.2500   -30.2580 
  101.7500    72.6210    23.3220    10.1510     7.0380    10.0590  -999.2500   -30.1830 
  101.8750    77.5560    23.2490     9.9520     7.0080     9.9590  -999.2500   -30.1220 
  102.0000    78.1830    23.1330     9.7500     6.9640     9.7960  -999.2500   -30.0610 
  102.1250    75.7390    23.0610     9.5780     6.9220     9.6310  -999.2500   -29.9600 
  102.2500    73.5820    23.0570     9.1160     6.9100     9.5300  -999.2500   -29.8110 
  102.3750    71.4560    23.1110     8.4890     6.9450     9.5140  -999.2500   -29.6250 
  102.5000    68.2640    23.0840     8.4660     7.0380     9.6090  -999.2500   -29.4260 
  102.6250    65.1140    23.0540     9.2370     7.1720     9.7950  -999.2500   -29.2400 
  102.7500    63.6550    23.0520     9.5600     7.2920     9.9770  -999.2500   -29.0210 
  102.8750    64.7930    23.0840     9.5390     7.3450    10.0570  -999.2500   -28.7370 
  103.0000    67.3930    23.1640     9.5370     7.2920     9.9410  -999.2500   -28.3770 
  103.1250    70.9560    23.2590     9.5830     7.0710     9.5450  -999.2500   -27.8650 
  103.2500    76.1260    23.3300     9.5970     6.7170     8.9470  -999.2500   -27.2120 
  103.3750    82.8720    23.3390     9.3540     6.3110     8.2960  -999.2500   -26.4540 
  103.5000    89.0770    23.3300     8.2990     5.9430     7.7310  -999.2500   -25.6440 
  103.6250    90.8830    23.3700     7.0570     5.6830     7.3740  -999.2500   -24.8640 
  103.7500    90.3710    23.3530     6.4250     5.5440     7.2400  -999.2500   -24.1680 
  103.8750    90.8060    23.3670     6.4880     5.5160     7.2960  -999.2500   -23.5920 
  104.0000    92.3000    23.4670     7.0430     5.5580     7.4470  -999.2500   -23.1370 
  104.1250    92.2490    23.4060     9.1870     5.5970     7.5670  -999.2500   -22.8490 
  104.2500    92.0570    23.3590    10.8420     5.5850     7.5770  -999.2500   -22.6890 
  104.3750    93.0040    23.3660     9.9950     5.4950     7.4440  -999.2500   -22.5970 
  104.5000    95.4920    23.4290     7.5080     5.3320     7.1790  -999.2500   -22.5330 
  104.6250    99.0850    23.4050     6.7280     5.1460     6.8860  -999.2500   -22.4740 
  104.7500   104.0360    23.3630     6.6080     5.0010     6.6760  -999.2500   -22.4390 
  104.8750   108.6320    23.3570     6.7460     4.9550     6.6490  -999.2500   -22.4590 
  105.0000   109.5770    23.3590     6.8920     5.0320     6.8300  -999.2500   -22.5210 
  105.1250   107.5020    23.3740     6.8600     5.2440     7.2110  -999.2500   -22.6330 
  105.2500   105.3960    23.3470     7.0110     5.5520     7.7140  -999.2500   -22.7650 
  105.3750   103.8950    23.3010     7.3790     5.9100     8.2510  -999.2500   -22.9070 
  105.5000   101.2960    23.1140     7.9900     6.2470     8.7170  -999.2500   -23.0640 
  105.6250    97.5020    22.3920     9.2040     6.4820     9.0210  -999.2500   -23.2170 
  105.7500    96.8020    22.2530     9.2410     6.6070     9.1490  -999.2500   -23.3750 
  105.8750   100.0540    22.5310     8.6350     6.6010     9.0790  -999.2500   -23.5520 
  106.0000   104.4930    22.7020     8.5280     6.5000     8.8840  -999.2500   -23.7470 
  106.1250   108.8220    22.8020     8.2780     6.3890     8.7170  -999.2500   -23.9850 
  106.2500   111.0320    22.7960     7.6820     6.3140     8.6320  -999.2500   -24.2690 
  106.3750   107.1350    22.7620     7.4680     6.2970     8.6630  -999.2500   -24.5570 
  106.5000    96.1350    22.7300     7.6220     6.3480     8.8050  -999.2500   -24.8150 
  106.6250    86.8400    22.7500     7.8140     6.4320     8.9770  -999.2500   -24.9860 
  106.7500    85.8260    22.7860     7.9800     6.4820     9.0780  -999.2500   -25.0340 
  106.8750    87.5980    22.7410     8.0760     6.4640     9.0610  -999.2500   -24.9550 
  107.0000    85.8010    22.7510     8.1300     6.3690     8.9160  -999.2500   -24.7840 
  107.1250    82.1850    22.8590     7.9230     6.1810     8.6180  -999.2500   -24.5630 
  107.2500    83.8320    23.1840     7.6150     5.9380     8.2510  -999.2500   -24.3050 
  107.3750    91.0160    23.4310     7.5850     5.7180     7.9230  -999.2500   -24.0480 
  107.5000    97.8620    23.6120     8.1820     5.5970     7.7510  -999.2500   -23.7900 
  107.6250    99.9890    23.6460     8.0620     5.6120     7.7790  -999.2500   -23.5260 
  107.7500    99.3980    23.6510     7.3820     5.7310     7.9570  -999.2500   -23.2810 
  107.8750    97.2370    23.6800     7.0510     5.9400     8.2460  -999.2500   -23.0630 
  108.0000    92.9800    23.6520     7.5710     6.1850     8.5350  -999.2500   -22.8870 
  108.1250    90.0670    23.6450     9.8260     6.3500     8.6740  -999.2500   -22.7330 
  108.2500    91.9940    23.6360    12.7940     6.4110     8.6710  -999.2500   -22.6310 
  108.3750    97.9450    23.6700    12.5470     6.3640     8.5510  -999.2500   -22.6110 
  108.5000   103.0780    23.7680     9.0560     6.2280     8.3480  -999.2500   -22.6680 
  108.6250   101.6360    23.7560     7.2790     6.0740     8.1430  -999.2500   -22.7790 
  108.7500    95.9100    23.8760     7.0650     5.9560     8.0040  -999.2500   -22.9120 
  108.8750    90.9110    23.6340     7.1570     5.8690     7.9160  -999.2500   -23.0350 
