~V
VERS. 2.00: Ver 2.00
~W
STRT.M 65.0000:
STOP.M 252.0000:
STEP.M 0.1250:
NULL. -999.2500:
UWI. DF3012:
~C
DEPT.M :
GR.API :
RML.OHMM :
RI. :
RXO.OHMM :
CALI.CM :
DEN.GM/CC :
SP.MV :
~A
# ...
   98.7500    87.8220    11.0850     9.7700     9.7040    23.1080  -999.2500   -26.8040 
   98.8750    90.1480    11.4160    10.1000     9.9240    23.0070  -999.2500   -27.1270 
   99.0000    89.3680    11.4050    10.0870     9.9690    22.9210  -999.2500   -27.1670 
   99.1250    90.7730    10.8910     9.6050     9.9900    22.9200  -999.2500   -26.8690 
   99.2500    93.0930     9.9640     8.7600    10.1050    23.0290  -999.2500   -26.5620 
   99.3750    93.8260     8.7810     7.6900     9.7330    23.2820  -999.2500   -26.1370 
   99.5000    95.0330     7.6190     6.6150     8.3340    23.6160  -999.2500   -25.6590 
   99.6250    98.7760     6.9190     5.8520     6.6390    23.8930  -999.2500   -25.4990 
   99.7500   104.1710     6.8940     5.5600     5.8320    24.1490  -999.2500   -25.5490 
   99.8750   106.4710     7.6070     5.8100     6.1610    24.3910  -999.2500   -25.6870 
  100.0000   103.3770     8.9170     6.5630     7.6420    24.3790  -999.2500   -26.0800 
  100.1250    95.2350    10.4440     7.6620    10.7790    23.9850  -999.2500   -26.8980 
  100.2500    85.3460    11.6110     8.7110    14.4070    23.4280  -999.2500   -27.8170 
  100.3750    77.1470    12.0440     9.3930    15.4040    23.1250  -999.2500   -28.7540 
  100.5000    72.8930    11.6850     9.5440    13.0790    23.1240  -999.2500   -29.6450 
  100.6250    72.4250    10.9000     9.2770    11.6530    23.2830  -999.2500   -30.4080 
  100.7500    71.8830    10.4280     9.0920    11.9970    23.4570  -999.2500   -31.0390 
  100.8750    71.2770    10.7410     9.3700    13.4510    23.6220  -999.2500   -31.4510 
  101.0000    72.9800    11.9780    10.3010    16.3350    23.7110  -999.2500   -31.7080 
  101.1250    75.0740    13.9300    11.8610    21.4910    23.7400  -999.2500   -31.7490 
  101.2500    74.2490    15.8310    13.5250    28.9320    23.7870  -999.2500   -31.6040 
  101.3750    72.1030    17.0080    14.7360    39.1210    23.8920  -999.2500   -31.5320 
  101.5000    69.6680    16.9940    15.0070    46.0800    23.9400  -999.2500   -31.6040 
  101.6250    66.5890    15.6720    14.0660    31.9310    23.7630  -999.2500   -31.5870 
  101.7500    65.6020    13.8870    12.5620    18.0160    23.4870  -999.2500   -31.5520 
  101.8750    68.7120    12.3250    11.0790    12.6360    23.3490  -999.2500   -31.6860 
  102.0000    73.6360    11.3900     9.9970    11.2860    23.3810  -999.2500   -31.8540 
  102.1250    76.0250    11.2030     9.4850    11.1540    23.4890  -999.2500   -31.9030 
  102.2500    76.3350    11.3880     9.3360    11.0530    23.5400  -999.2500   -32.0770 
  102.3750    76.7270    11.6480     9.3660    10.8910    23.5320  -999.2500   -32.2550 
  102.5000    78.1100    11.7640     9.4080    10.7620    23.4170  -999.2500   -32.3000 
  102.6250    79.3770    11.6220     9.3380    10.8280    23.2640  -999.2500   -32.4970 
  102.7500    78.6280    11.3340     9.1750    10.9430    23.1320  -999.2500   -32.7790 
  102.8750    77.1910    11.0250     8.9800    10.9170    23.0530  -999.2500   -32.9700 
  103.0000    77.5010    10.7990     8.8220    10.9000    23.0630  -999.2500   -33.2340 
  103.1250    79.1610    10.7180     8.7590    11.2260    23.1760  -999.2500   -33.6440 
  103.2500    78.7710    10.7400     8.7770    11.6070    23.2440  -999.2500   -33.8930 
  103.3750    76.0280    10.8180     8.8490    11.7100    23.2190  -999.2500   -34.0960 
  103.5000    74.4060    10.9080     8.9370    11.6410    23.1580  -999.2500   -34.3930 
  103.6250    75.0850    10.9830     9.0060    11.6570    23.1330  -999.2500   -34.5020 
  103.7500    75.6930    11.0470     9.0480    11.6900    23.2280  -999.2500   -34.4240 
  103.8750    75.1970    11.1150     9.0720    11.5940    23.4260  -999.2500   -34.3830 
  104.0000    74.8890    11.1950     9.0910    11.4390    23.6300  -999.2500   -34.3260 
  104.1250    74.9080    11.2670     9.1100    11.3390    23.7110  -999.2500   -34.1170 
  104.2500    74.3870    11.2910     9.1120    11.2650    23.7320  -999.2500   -33.9260 
  104.3750    73.5190    11.2260     9.0710    11.2450    23.7350  -999.2500   -33.7720 
  104.5000    71.7890    11.0520     8.9650    11.2710    23.7450  -999.2500   -33.5140 
  104.6250    72.1640    10.7700     8.7810    11.0650    23.7680  -999.2500   -33.1950 
  104.7500    76.7920    10.4510     8.5580    10.5100    23.7990  -999.2500   -33.0080 
  104.8750    82.2600    10.1670     8.3480     9.8100    23.8130  -999.2500   -32.7790 
  105.0000    82.6800     9.9880     8.2030     9.1130    23.8150  -999.2500   -32.3730 
  105.1250    77.8290    10.0010     8.1960     8.7030    23.8000  -999.2500   -32.0160 
  105.2500    76.1800    10.1960     8.3310     8.8390    23.7520  -999.2500   -31.6710 
  105.3750    79.3900    10.5380     8.5950     9.4620    23.6750  -999.2500   -31.1520 
  105.5000    81.4330    10.9350     8.9220    10.1410    23.6110  -999.2500   -30.5970 
  105.6250    76.6010    11.1940     9.1720    10.3180    23.5110  -999.2500   -29.9770 
  105.7500    71.0950    11.1560     9.2070    10.2400    23.3710  -999.2500   -29.0920 
  105.8750    71.8140    10.7350     8.9390    10.1970    23.2400  -999.2500   -28.1070 
  106.0000    80.1280     9.9710     8.3780    10.0290    23.2040  -999.2500   -27.1120 
  106.1250    91.2380     9.0510     7.6450     9.1760    23.4030  -999.2500   -25.8760 
  106.2500   100.5040     8.2750     6.9780     7.6560    23.8170  -999.2500   -24.6120 
  106.3750   106.1070     7.8350     6.5340     6.2230    24.2910  -999.2500   -23.5180 
  106.5000   107.4290     7.7960     6.3900     5.5700    24.6040  -999.2500   -22.4300 
  106.6250   104.7260     8.1050     6.5570     5.8010    24.6690  -999.2500   -21.4170 
  106.7500   101.8570     8.4900     6.8580     6.3260    24.6380  -999.2500   -20.6850 
  106.8750    99.8020     8.7500     7.1400     6.8590    24.5850  -999.2500   -20.1310 
  107.0000    99.1650     8.7720     7.2790     7.2130    24.5020  -999.2500   -19.6230 
  107.1250   101.2430     8.5700     7.2230     7.1080    24.5320  -999.2500   -19.3330 
  107.2500   104.7170     8.3550     7.0920     6.7010    24.5750  -999.2500   -19.2410 
  107.3750   107.5980     8.2790     7.0030     6.3630    24.6030  -999.2500   -19.1180 
  107.5000   108.1300     8.3830     7.0160     6.3870    24.5750  -999.2500   -19.0000 
  107.6250   107.4100     8.5680     7.1000     6.6810    24.5110  -999.2500   -19.0750 
  107.7500   106.2050     8.6330     7.1270     6.9350    24.4510  -999.2500   -19.1250 
  107.8750   105.0570     8.4510     6.9910     7.0420    24.4060  -999.2500   -19.1020 
  108.0000   105.9230     8.0090     6.6590     6.9260    24.3820  -999.2500   -19.2200 
  108.1250   108.8500     7.4610     6.2100     6.3940    24.4720  -999.2500   -19.4760 
  108.2500   112.3190     7.1090     5.8600     5.6960    24.5760  -999.2500   -19.6560 
  108.3750   114.9370     7.1830     5.7890     5.3050    24.5820  -999.2500   -19.9740 
  108.5000   114.1370     7.7810     6.1000     5.5880    24.4650  -999.2500   -20.4830 
  108.6250   104.6600     8.8310     6.8110     6.6380    24.3680  -999.2500   -20.9550 
  108.7500    91.8480     9.9050     7.6540     8.0980    24.3570  -999.2500   -21.5790 
  108.8750    83.8180    10.6180     8.3490     9.7640    24.3720     2.3270   -22.3910 
  109.0000    84.1870    10.7220     8.6500    11.2440    24.2560     2.3270   -23.1630 
  109.1250    87.6360    10.2040     8.4280    11.4910    24.0330     2.3030   -23.9640 
  109.2500    90.2600     9.5410     7.9780    10.3480    23.8860     2.2860   -24.8380 
  109.3750    93.3530     9.0970     7.5690     8.8960    23.8610     2.2790   -25.6260 
  109.5000    96.4600     9.0540     7.3790     8.4540    23.8760     2.2770   -26.4460 
  109.6250    96.5110     9.4160     7.4820     9.2530    23.8800     2.2720   -27.4090 
  109.7500    92.9730     9.9280     7.7550    10.1770    23.8500     2.2580   -28.2500 
  109.8750    87.5850    10.4110     8.0850    10.6530    23.7610     2.2370   -28.9950 
