~V
VERS. 2.00: Ver 2.00
~W
STRT.M 110.0000:
STOP.M 242.0000:
STEP.M 0.1250:
NULL. -999.2500:
UWI. DF306:
~C
DEPT.M :
DEN.GM/CC :
AC.US/MT :
GR.API :
CALI.CM :
RXO.OHMM :
RI. :
RML.OHMM :
SP.MV :
~A
# ...
  230.0000     2.4650   232.6310    90.4900    24.0150    16.1390    15.8980    18.5310   -10.1460 
  230.1250     2.4820   229.3800    91.9600    24.0080    16.3030    16.7370    19.7190   -10.1410 
  230.2500     2.5120   224.4780    94.3750    24.0050    15.8930    17.4660    20.6730   -10.1600 
  230.3750     2.5380   220.3790    97.8530    23.9940    14.8880    17.8790    21.1460   -10.1880 
  230.5000     2.5500   218.1510    99.1120    24.0250    14.5040    17.8990    21.0770   -10.2150 
  230.6250     2.5400   217.5720    98.3740    24.1460    15.6500    17.5820    20.5880   -10.2450 
  230.7500     2.4970   217.5390    99.0450    24.2060    16.8910    17.1940    20.0570   -10.2630 
  230.8750     2.4480   217.0050   100.8050    24.0950    17.2550    16.9270    19.7460   -10.2720 
  231.0000     2.4290   215.7840    99.5540    23.8900    17.1270    16.9130    19.8260   -10.2810 
  231.1250     2.4600   214.0720    95.5150    23.7880    17.4060    17.2670    20.4170   -10.2850 
  231.2500     2.5130   211.8860    93.1050    23.7800    18.0840    17.9050    21.3610   -10.2830 
  231.3750     2.5410   209.0020    92.3870    23.7700    19.0620    18.7190    22.4820   -10.2730 
  231.5000     2.5360   205.2740    91.8920    23.7490    20.4960    19.5270    23.5360   -10.2520 
  231.6250     2.5230   201.2340    91.6520    23.7060    22.4950    20.0400    24.1620   -10.2090 
  231.7500     2.5240   198.5090    91.6520    23.6480    23.7260    20.0710    24.1660   -10.1580 
  231.8750     2.5280   198.3470    91.6520    23.5980    22.1670    19.5490    23.4880   -10.1050 
  232.0000     2.5220   201.2500    91.6520    23.5320    17.6360    18.5920    22.2990   -10.0540 
  232.1250     2.5050   206.8390    91.6520    23.3350    13.1500    17.4920    20.9660    -9.9910 
  232.2500     2.4910   214.3210    91.6520    23.0130    11.0410    16.5730    19.8730    -9.9440 
  232.3750     2.4840   222.5020    91.6520    22.6880    10.7020    15.9640    19.1690    -9.8530 
  232.5000     2.4790   230.8220    91.6520    22.4150    10.8620    15.6580    18.8340    -9.7990 
  232.6250     2.4700   238.4300    91.6520    22.0310    11.0030    15.5720    18.7610    -9.7450 
  232.7500     2.4600   243.3920    91.6520    21.4140    11.2040    15.5520    18.7630    -9.6800 
  232.8750     2.4560   245.1030    91.6520    20.6280    11.2180    15.5490    18.7790    -9.6150 
  233.0000     2.4580   244.3820    91.6520    19.7730    10.7260    15.5500    18.7840    -9.5490 
  233.1250     2.4600   243.3290    91.6520    18.8520     9.8970    15.5510    18.7690    -9.5070 
  233.2500     2.4640   243.9600    91.6520    17.9810     9.4300    15.5510    18.7420    -9.4870 
  233.3750     2.4680   245.0250    91.6520    17.3890     9.7060    15.5510    18.7060    -9.4610 
  233.5000     2.4710   243.3900    91.6520    17.1890    10.6810    15.5510    18.6710    -9.4540 
  233.6250     2.4740   236.3590    91.6520    17.3370    12.0790    15.5520    18.6490    -9.4590 
  233.7500     2.4820   224.3160    91.6520    17.7120    13.6740    15.5530    18.6450    -9.4840 
  233.8750     2.4880   213.6960    91.6520    18.3540    15.0950    15.5530    18.6520    -9.5120 
  234.0000     2.4820   210.3140    91.6520    19.1420    15.2380    15.5530    18.6630    -9.5470 
  234.1250     2.4620   216.7900    91.6520    19.7270    13.2740    15.5520    18.6670    -9.5640 
  234.2500     2.4370   231.2260    91.6520    19.9700    10.9160    15.5520    18.6680    -9.5610 
  234.3750     2.4160   245.7010    91.6520    19.9860     9.6280    15.5520    18.6760    -9.5670 
  234.5000     2.3970   254.8160    91.6520    19.9170     9.5780    15.5530    18.6960    -9.5610 
  234.6250     2.3840   256.1880    91.6520    19.7980    10.1610    15.5550    18.7170    -9.5490 
  234.7500     2.3860   250.2390    91.6520    19.6680    10.9030    15.5570    18.7320    -9.5320 
  234.8750     2.4010   241.8850    91.6520    19.5860    11.7790    15.5590    18.7430    -9.5090 
  235.0000     2.4090   234.5180    91.6520    19.5610    12.4500    15.5610    18.7550    -9.4830 
  235.1250     2.3900   230.2000    91.6520    19.5430    12.3180    15.5610    18.7680    -9.4740 
  235.2500     2.3420   229.7470    91.6520    19.5030    11.7640    15.5610    18.7760    -9.4810 
  235.3750     2.2950   231.4780    91.6520    19.4790    11.3240    15.5620    18.7750    -9.4830 
  235.5000     2.2640   234.1470    91.6520    19.4960    11.0590    15.5630    18.7620    -9.4780 
  235.6250     2.2450   236.8880    91.6520    19.5360    10.6870    15.5640    18.7360    -9.4760 
  235.7500     2.2280   239.1920    91.6520    19.5450    10.2160    15.5640    18.7040    -9.4890 
  235.8750     2.2060   240.8810    91.6520    19.5070     9.6990    15.5630    18.6740    -9.5230 
  236.0000     2.1790   241.8100    91.6520    19.3800     9.0630    15.5610    18.6560    -9.5470 
  236.1250     2.1490   242.0370    91.6520    18.9850     8.2980    15.5600    18.6560    -9.5530 
  236.2500     2.1240   241.8900    91.6520    18.2660     7.6090    15.5600    18.6650    -9.5530 
  236.3750     2.1100   241.8350    91.6520    17.3140     7.1350    15.5590    18.6720    -9.5560 
  236.5000     2.1090   242.0090    91.6520    16.3600     6.9000    15.5590    18.6730    -9.5600 
  236.6250     2.1230   242.3590    91.6520    15.6860     6.7810    15.5590    18.6730    -9.5530 
  236.7500     2.1540   242.7550    91.6520    15.2840     6.6070    15.5590    18.6780    -9.5120 
  236.8750     2.1910   243.0580    91.6520    15.0640     6.4620    15.5620    18.6850    -9.4390 
  237.0000     2.2180   243.1330    91.6520    14.9340     6.5620    15.5670    18.6920    -9.3680 
  237.1250     2.2180   242.8040    91.6520    14.8670     6.9560    15.5750    18.6970    -9.3060 
  237.2500     2.1910   241.8060    91.6520    14.8330     7.3310    15.5840    18.7040    -9.2380 
  237.3750     2.1620   240.3200    91.6520    14.8020     7.5150    15.5910    18.7140    -9.1500 
  237.5000     2.1450   238.7400    91.6520    14.7750     7.5450    15.5960    18.7250    -9.0690 
  237.6250     2.1400   237.5530    91.6520    14.7730     7.5380    15.5970    18.7330    -9.0000 
  237.7500     2.1360   237.1960    91.6520    14.7950     7.5380    15.5970    18.7330    -8.9520 
  237.8750     2.1280   237.5960    91.6520    14.8170     7.5370    15.5970    18.7330    -8.9340 
  238.0000     2.1180   238.7360    91.6520    14.8230     7.5360    15.5970    18.7330    -8.9240 
  238.1250     2.1110   240.9590    91.6520    14.8220     7.5350    15.5970    18.7330    -8.9030 
  238.2500     2.1110   241.2790    91.6520    14.8210     7.5330    15.5970    18.7330    -8.8900 
  238.3750     2.1160   246.0530    91.6520    14.8210     7.5310    15.5970    18.7330    -8.8900 
  238.5000     2.1220   277.5190    91.6520    14.8210     7.5280    15.5970    18.7330  -999.2500 
  238.6250     2.1260   341.2030    91.6520    14.8210     7.5250    15.5970    18.7330  -999.2500 
  238.7500     2.1310   399.2680    91.6520    14.8210     7.5210    15.5970    18.7330  -999.2500 
  238.8750     2.1380   415.9390    91.6520    14.8210     7.5200    15.5970    18.7330  -999.2500 
  239.0000     2.1430   397.6700    91.6520    14.8210     7.5190    15.5970    18.7330  -999.2500 
  239.1250     2.1380  -999.2500    91.6520    14.8210     7.5180    15.5970    18.7330  -999.2500 
  239.2500     2.1320  -999.2500    91.6520    14.8210     7.5170    15.5970    18.7330  -999.2500 
  239.3750     2.1320  -999.2500    91.6520    14.8210     7.5170    15.5970    18.7330  -999.2500 
  239.5000     2.1370  -999.2500    91.6520    14.8210     7.5170    15.5970    18.7330  -999.2500 
  239.6250     2.1370  -999.2500    91.6520    14.8210     7.5160    15.5970    18.7330  -999.2500 
  239.7500     2.1320  -999.2500    91.6520    14.8210     7.5140    15.5970    18.7330  -999.2500 
  239.8750     2.1300  -999.2500    91.6520    14.8210     7.5140    15.5970    18.7330  -999.2500 
