~V
VERS. 2.00: Ver 2.00
~W
STRT.M 56.0000:
STOP.M 260.0000:
STEP.M 0.1250:
NULL. -999.2500:
UWI. DF3033:
~C
DEPT.M :
GR.API :
RML.OHMM :
RI. :
RXO.OHMM :
CALI.CM :
DEN.GM/CC :
SP.MV :
~A
# ...
  112.2500    72.6350     9.5060     8.3630    10.2730    23.5950  -999.2500   -31.8630 
  112.3750    75.5320     9.3490     8.1960     9.7800    23.5160  -999.2500   -31.8070 
  112.5000    74.8350     9.3180     8.1400     9.4960    23.4990  -999.2500   -31.8420 
  112.6250    73.4160     9.4140     8.2080     9.6530    23.4890  -999.2500   -31.8400 
  112.7500    73.5580     9.5710     8.3500    10.2100    23.4680     0.0000   -31.8910 
  112.8750    73.4130     9.7480     8.5220    10.5210    23.4330     0.0000   -31.9090 
  113.0000    72.0090     9.9190     8.6890    10.5800    23.3870     0.0000   -31.8720 
  113.1250    71.8470    10.0710     8.8180    10.6040    23.3420     2.1870   -31.7460 
  113.2500    73.7350    10.1920     8.8990    10.6160    23.3240     2.2010   -31.5640 
  113.3750    76.1670    10.2480     8.9170    10.6590    23.3920     2.2130   -31.2220 
  113.5000    76.2740    10.1930     8.8520    10.6750    23.5030     2.2220   -30.8100 
  113.6250    74.6700     9.9730     8.6790    10.6170    23.5740     2.2290   -30.4410 
  113.7500    74.8130     9.6410     8.4330    10.5770    23.6580     2.2350   -30.0320 
  113.8750    76.8300     9.2770     8.1630    10.4480    23.7890     2.2410   -29.6460 
  114.0000    78.8260     8.9850     7.9370    10.0420    23.9240     2.2480   -29.2910 
  114.1250    77.5040     8.8990     7.8540     9.6390    23.9990     2.2580   -28.9810 
  114.2500    72.5250     9.0350     7.9400     9.7240    24.0620     2.2660   -28.6710 
  114.3750    67.6670     9.3560     8.1830    10.6010    24.1160     2.2650   -28.4530 
  114.5000    66.5910     9.7630     8.5250    12.1230    24.1340     2.2490   -28.2040 
  114.6250    70.7370    10.0970     8.8500    14.5380    24.1250     2.2130   -27.8470 
  114.7500    74.6480    10.2440     9.0420    18.4820    24.1230     2.1710   -27.4780 
  114.8750    76.8710    10.1530     9.0360    21.6550    24.1120     2.1330   -26.9670 
  115.0000    78.7910     9.8330     8.8180    18.1060    24.0480     2.1130   -26.4340 
  115.1250    79.9420     9.3240     8.4130    12.1550    24.0080     2.1160   -25.6740 
  115.2500    80.3080     8.7520     7.9330     9.5000    24.0210     2.1370   -24.7340 
  115.3750    79.6530     8.2100     7.4590     8.3780    24.1160     2.1650   -23.7120 
  115.5000    79.6830     7.7800     7.0590     7.5310    24.2930     2.1940   -22.5590 
  115.6250    84.3300     7.5350     6.7940     6.6750    24.4230     2.2180   -21.4900 
  115.7500    92.4370     7.4320     6.6440     6.0580    24.5070     2.2390   -20.4620 
  115.8750   100.2270     7.4150     6.5810     5.8920    24.5350     2.2580   -19.5620 
  116.0000   103.8080     7.4200     6.5630     5.9340    24.5180     2.2740   -18.8290 
  116.1250   104.9440     7.3930     6.5410     5.8590    24.5340     2.2840   -18.2080 
  116.2500   105.4390     7.3260     6.4870     5.6000    24.6000     2.2870   -17.8100 
  116.3750   105.1260     7.2350     6.4020     5.2800    24.6450     2.2840   -17.6540 
  116.5000   103.8820     7.1410     6.2960     5.0930    24.6410     2.2820   -17.6820 
  116.6250   104.2840     7.0450     6.1780     5.1110    24.6210     2.2880   -17.7380 
  116.7500   107.5320     6.9310     6.0500     5.1570    24.6120     2.3000   -17.8890 
  116.8750   111.4310     6.7850     5.9080     5.2200    24.6100     2.3130   -18.1000 
  117.0000   115.0710     6.6180     5.7580     5.2760    24.5930     2.3210   -18.3290 
  117.1250   116.2620     6.4900     5.6410     5.2510    24.5410     2.3160   -18.7900 
  117.2500   113.7380     6.4850     5.6160     5.3590    24.4630     2.2990   -19.2780 
  117.3750   107.3380     6.6940     5.7580     5.5730    24.3840     2.2760   -19.7390 
  117.5000   100.0880     7.2040     6.1510     5.9930    24.2690     2.2560   -20.1540 
  117.6250    95.6730     8.1140     6.9020     6.8850    24.1510     2.2570   -20.5230 
  117.7500    93.0920     9.2810     7.9190     8.2110    24.1160     2.2840   -20.7850 
  117.8750    91.0670    10.4790     9.0360     9.9290    24.1960     2.3300   -20.9700 
  118.0000    89.5140    11.3860     9.9860    11.9840    24.3480     2.3790   -21.1360 
  118.1250    87.7000    11.5640    10.3620    14.2590    24.3710     2.4010   -21.0750 
  118.2500    85.6650    11.0260    10.0910    14.4070    24.2540     2.3890   -20.9750 
  118.3750    84.0550     9.9850     9.2990    11.3470    24.1130     2.3520   -20.7600 
  118.5000    84.9240     8.8130     8.2820     9.6270    24.1120     2.3090   -20.5020 
  118.6250    91.5690     7.9020     7.3760     8.0030    24.2740     2.2780   -20.3510 
  118.7500   100.9190     7.3590     6.7280     6.6600    24.4290     2.2600   -20.1690 
  118.8750   108.2030     7.1400     6.3450     5.9840    24.5520     2.2530   -20.0650 
  119.0000   110.0860     7.1200     6.1550     5.7450    24.6720     2.2560   -19.8790 
  119.1250   108.6260     7.1400     6.0550     5.7430    24.7720     2.2670   -19.6940 
  119.2500   108.6060     7.0760     5.9370     5.7190    24.8060     2.2810   -19.6410 
  119.3750   110.1390     6.8900     5.7600     5.5280    24.7580     2.2940   -19.6150 
  119.5000   112.2750     6.6170     5.5370     5.3200    24.6650     2.3040   -19.6650 
  119.6250   113.4740     6.3730     5.3480     5.0840    24.6020     2.3070   -19.8670 
  119.7500   110.5950     6.2880     5.2850     4.8560    24.5160     2.3010   -20.1780 
  119.8750   103.7730     6.4500     5.4150     4.9630    24.3700     2.2870   -20.5170 
  120.0000    97.3210     6.8920     5.7670     5.3810    24.2200     2.2650   -21.0140 
  120.1250    93.2930     7.5850     6.3340     6.6110    24.1110     2.2370   -21.5090 
  120.2500    87.7130     8.3210     6.9610     7.7210    24.0940     2.2140   -21.8170 
  120.3750    81.4910     8.8880     7.4810     7.9180    24.1430     2.2070   -22.0790 
  120.5000    81.7240     9.0820     7.7220     7.6000    24.2180     2.2220   -22.1920 
  120.6250    88.5970     8.7090     7.5010     7.0590    24.2520     2.2540   -22.0660 
  120.7500    93.5900     7.9260     6.9180     6.4420    24.2760     2.2870   -21.8380 
  120.8750    95.3020     6.9440     6.1250     5.6970    24.3380     2.3050   -21.5610 
  121.0000    95.7570     6.0210     5.3230     5.2280    24.4860     2.3000   -21.2040 
  121.1250    98.1860     5.4540     4.7360     4.5740    24.7570     2.2770   -20.9790 
  121.2500   100.8700     5.3280     4.4540     4.1860    25.0510     2.2490   -21.0390 
  121.3750   100.1820     5.6610     4.5240     4.2380    25.0750     2.2230   -21.2260 
  121.5000    94.4250     6.3870     4.9400     4.7920    24.5680     2.2000   -21.6120 
  121.6250    87.5870     7.3570     5.6560     5.7410    24.0310     2.1810   -22.0340 
  121.7500    84.0130     8.2700     6.4500     6.7750    23.7360     2.1650   -22.3820 
  121.8750    83.1580     8.8870     7.1120     7.3020    23.6610     2.1550   -22.6880 
  122.0000    84.0280     9.0510     7.4570     7.2760    23.6650     2.1550   -22.7780 
  122.1250    89.0200     8.7060     7.3540     6.9630    23.7080     2.1710   -22.6790 
  122.2500    96.3200     8.1230     6.9790     6.5990    23.8030     2.1960   -22.3240 
  122.3750   102.1120     7.5320     6.5170     6.2360    23.9140     2.2240   -21.7480 
  122.5000   104.3930     7.1140     6.1310     5.8700    23.9060     2.2510   -21.1300 
  122.6250   103.6600     6.9910     5.9450     5.6860    23.7600     2.2740   -20.5320 
  122.7500   103.1520     7.0750     5.9250     5.9030    23.6120     2.2920   -19.9740 
  122.8750   103.7320     7.2560     6.0100     6.3050    23.5620     2.3020   -19.5300 
  123.0000   105.3170     7.4130     6.1170     6.8230    23.5730     2.3010   -19.2570 
  123.1250   106.4750     7.4530     6.1790     7.1500    23.5760     2.2890   -19.0810 
  123.2500   106.5860     7.4210     6.2000     6.4140    23.5650     2.2740   -19.0800 
  123.3750   105.5030     7.4020     6.2300     5.8480    23.5510     2.2630   -19.2150 
