~V
VERS. 2.00: Ver 2.00
~W
STRT.M 59.0000:
STOP.M 281.0000:
STEP.M 0.1250:
NULL. -999.2500:
UWI. DF3005:
~C
DEPT.M :
DEN.GM/CC :
SP.MV :
AC.US/MT :
GR.API :
CALI.CM :
RXO.OHMM :
RI. :
RML.OHMM :
~A
# ...
   69.0000  -999.2500   -21.4210  -999.2500    87.2390    26.6290     9.9880     6.9320     8.7120 
   69.1250  -999.2500   -21.4670  -999.2500    83.5900    26.6390    11.1130     7.1710     9.1200 
   69.2500  -999.2500   -21.6070  -999.2500    81.3230    26.6630    11.1270     7.3770     9.3930 
   69.3750  -999.2500   -21.8350  -999.2500    80.6360    26.6860    10.6780     7.4890     9.4480 
   69.5000  -999.2500   -22.1180  -999.2500    80.4700    26.6970    10.7590     7.4990     9.3110 
   69.6250  -999.2500   -22.4090  -999.2500    81.6040    26.6970    10.8340     7.4540     9.1020 
   69.7500  -999.2500   -22.6330  -999.2500    81.6380    26.6920    10.4770     7.4190     8.9530 
   69.8750  -999.2500   -22.7280  -999.2500    78.7580    26.6760    10.1290     7.3950     8.8520 
   70.0000  -999.2500   -22.6810  -999.2500    74.7630    26.6410    10.0340     7.3250     8.7080 
   70.1250  -999.2500   -22.5060  -999.2500    74.6550    26.5860    10.2320     7.1200     8.4140 
   70.2500  -999.2500   -22.2880  -999.2500    78.0080    26.5350     9.6730     6.7920     7.9940 
   70.3750  -999.2500   -22.0560  -999.2500    82.1220    26.5080     8.0810     6.3900     7.5120 
   70.5000  -999.2500   -21.8210  -999.2500    85.7870    26.4880     6.5210     5.9710     7.0400 
   70.6250  -999.2500   -21.6140  -999.2500    88.5820    26.4350     7.1230     5.5830     6.6450 
   70.7500  -999.2500   -21.4520  -999.2500    91.8450    26.3810     8.6910     5.2460     6.3370 
   70.8750  -999.2500   -21.3590  -999.2500    97.5740    26.3950     9.5020     4.9820     6.1160 
   71.0000  -999.2500   -21.3490  -999.2500   104.2370    26.4770     8.4740     4.8120     5.9880 
   71.1250  -999.2500   -21.4620  -999.2500   105.3470    26.5230     7.1480     4.7920     6.0050 
   71.2500  -999.2500   -21.6970  -999.2500    99.9230    26.4720     7.3380     4.9410     6.2350 
   71.3750  -999.2500   -22.0490  -999.2500    91.4770    26.3630     8.4100     5.3150     6.8040 
   71.5000  -999.2500   -22.5250  -999.2500    84.8820    26.2690     9.4810     6.0020     7.8440 
   71.6250  -999.2500   -23.1180  -999.2500    83.6740    26.1930    13.7500     7.1820     9.5420 
   71.7500  -999.2500   -23.7670  -999.2500    84.6730    26.0810    20.4460     8.8010    11.7380 
   71.8750  -999.2500   -24.4570  -999.2500    83.2340    25.9300    28.4560    10.6380    14.0460 
   72.0000  -999.2500   -25.1680  -999.2500    77.8960    25.7840    32.5250    12.1760    15.6940 
   72.1250  -999.2500   -25.8950  -999.2500    71.9460    25.6950    28.5140    12.6100    15.6180 
   72.2500  -999.2500   -26.6230  -999.2500    69.0220    25.6530    20.9290    12.0110    14.2230 
   72.3750  -999.2500   -27.3470  -999.2500    69.4580    25.6400    16.2430    10.8690    12.3920 
   72.5000  -999.2500   -28.0700  -999.2500    72.0010    25.6400    14.2340     9.7210    10.8990 
   72.6250  -999.2500   -28.7370  -999.2500    74.9180    25.6400    13.7840     8.9440    10.2100 
   72.7500  -999.2500   -29.3080  -999.2500    75.7530    25.6400    14.1060     8.5640    10.1610 
   72.8750  -999.2500   -29.7540  -999.2500    74.6720    25.6410    13.9040     8.5310    10.5130 
   73.0000  -999.2500   -30.0650  -999.2500    73.5870    25.6360    13.6770     8.7130    10.9630 
   73.1250  -999.2500   -30.2700  -999.2500    72.8240    25.6160    13.4380     8.9040    11.1800 
   73.2500  -999.2500   -30.4140  -999.2500    72.9130    25.5930    14.1950     8.9410    11.0790 
   73.3750  -999.2500   -30.5000  -999.2500    72.5300    25.5940    14.9910     8.7860    10.7320 
   73.5000  -999.2500   -30.5210  -999.2500    71.2240    25.6300    14.0120     8.4890    10.2940 
   73.6250  -999.2500   -30.4290  -999.2500    70.2510    25.6870    12.3590     8.1650     9.9440 
   73.7500  -999.2500   -30.2430  -999.2500    71.2150    25.7590    11.4670     7.9170     9.7520 
   73.8750  -999.2500   -29.9840  -999.2500    72.7470    25.8540    11.9490     7.7860     9.7090 
   74.0000  -999.2500   -29.6850  -999.2500    73.0520    25.9750    13.1470     7.7770     9.7710 
   74.1250  -999.2500   -29.3910  -999.2500    71.9780    26.0930    13.9320     7.8890     9.8900 
   74.2500  -999.2500   -29.1260  -999.2500    71.1750    26.1920    13.5500     8.0520    10.0120 
   74.3750  -999.2500   -28.9160  -999.2500    71.2380    26.2850    12.6840     8.2060    10.1110 
   74.5000  -999.2500   -28.7600  -999.2500    71.5520    26.3920    14.0790     8.3000    10.1650 
   74.6250  -999.2500   -28.6500  -999.2500    71.4900    26.5070    21.0370     8.2900    10.1420 
   74.7500  -999.2500   -28.5890  -999.2500    70.4580    26.5930    23.3550     8.2030    10.0400 
   74.8750  -999.2500   -28.5770  -999.2500    70.6810    26.6320    18.9680     8.0860     9.8990 
   75.0000  -999.2500   -28.6200  -999.2500    72.5670    26.6210    13.8740     7.9920     9.7790 
   75.1250  -999.2500   -28.7280  -999.2500    73.7260    26.5700    12.7040     7.9520     9.7390 
   75.2500  -999.2500   -28.8870  -999.2500    74.4610    26.5200    12.1330     7.9480     9.7710 
   75.3750  -999.2500   -29.0850  -999.2500    76.9000    26.4740    11.9940     7.9570     9.8540 
   75.5000  -999.2500   -29.2940  -999.2500    80.8430    26.4020    12.0830     7.9700     9.9510 
   75.6250  -999.2500   -29.5060  -999.2500    81.9330    26.2860    12.5890     8.0200    10.0740 
   75.7500  -999.2500   -29.7030  -999.2500    77.9870    26.1880    13.2290     8.1690    10.3070 
   75.8750  -999.2500   -29.8530  -999.2500    71.8280    26.1440    13.6010     8.4670    10.7460 
   76.0000  -999.2500   -29.9240  -999.2500    68.1640    26.1390    14.0470     8.9130    11.4130 
   76.1250  -999.2500   -29.8560  -999.2500    68.5410    26.1350    17.9440     9.4440    12.1910 
   76.2500  -999.2500   -29.6660  -999.2500    70.3360    26.1100    29.0650     9.9050    12.7740 
   76.3750  -999.2500   -29.3560  -999.2500    72.4450    26.0520    34.4940    10.1410    12.8950 
   76.5000  -999.2500   -28.9520  -999.2500    74.3050    25.9770    28.5370    10.0690    12.4780 
   76.6250  -999.2500   -28.4860  -999.2500    74.1820    25.9450    17.4280     9.7060    11.7140 
   76.7500  -999.2500   -27.9730  -999.2500    72.6390    25.9890    15.2590     9.2600    11.0010 
   76.8750  -999.2500   -27.4000  -999.2500    70.9780    26.0900    13.8890     8.8860    10.5560 
   77.0000  -999.2500   -26.7440  -999.2500    69.3110    26.2050    13.3000     8.7030    10.4650 
   77.1250  -999.2500   -26.0000  -999.2500    66.9110    26.3140    13.1560     8.7870    10.7280 
   77.2500  -999.2500   -25.2080  -999.2500    63.4950    26.4350    13.1230     9.0200    11.1330 
   77.3750  -999.2500   -24.3880  -999.2500    60.7170    26.5630    13.3250     9.2530    11.4730 
   77.5000  -999.2500   -23.5740  -999.2500    61.0370    26.6590    13.3850     9.3110    11.5200 
   77.6250  -999.2500   -22.7620  -999.2500    65.7230    26.6940    13.1560     9.0000    11.0050 
   77.7500  -999.2500   -21.9260  -999.2500    70.4750    26.7150    11.4290     8.3740    10.0400 
   77.8750  -999.2500   -21.0540  -999.2500    73.3010    26.7730     9.1830     7.5570     8.8480 
   78.0000  -999.2500   -20.1330  -999.2500    78.1530    26.8810     7.0110     6.7080     7.6960 
   78.1250  -999.2500   -19.2070  -999.2500    87.6380    26.9920     6.4730     5.9820     6.8400 
   78.2500  -999.2500   -18.3600  -999.2500    95.6990    27.0580     5.9300     5.4430     6.3210 
   78.3750  -999.2500   -17.6820  -999.2500    98.6900    27.0780     5.9810     5.1130     6.1230 
   78.5000  -999.2500   -17.2500  -999.2500    99.4750    27.0730     5.6540     4.9820     6.1840 
   78.6250  -999.2500   -17.1000  -999.2500   100.8840    27.0400     5.7780     5.0500     6.4500 
   78.7500  -999.2500   -17.1450  -999.2500    99.8340    26.9830     6.4270     5.2620     6.8230 
   78.8750  -999.2500   -17.3460  -999.2500    95.3640    26.9270     7.7160     5.6050     7.2800 
