~V
VERS. 2.00: Ver 2.00
~W
STRT.M 63.0000:
STOP.M 272.0000:
STEP.M 0.1250:
NULL. -999.2500:
UWI. DF3013:
~C
DEPT.M :
DEN.GM/CC :
SP.MV :
AC.US/MT :
GR.API :
CALI.CM :
RXO.OHMM :
RI. :
RML.OHMM :
~A
# ...
  223.0000     2.3810   -21.0650   408.5220   114.5210    24.0650     7.6810     7.6350     8.4270 
  223.1250     2.3920   -21.2280   403.5080   120.7360    24.0640     8.0720     8.0530     9.3150 
  223.2500     2.3970   -21.3460   394.4370   122.5700    24.0500     9.2040     8.8270    10.6250 
  223.3750     2.3900   -21.4540   384.8520   115.4240    24.0250    12.1530     9.9320    12.2750 
  223.5000     2.3730   -21.5900   379.8430   104.6340    24.0020    15.2470    11.2730    14.0930 
  223.6250     2.3580   -21.7690   381.9860    97.7250    23.9970    15.5010    12.6710    15.8410 
  223.7500     2.3470   -21.9610   386.2840    93.8590    24.0040    14.6400    13.9720    17.4240 
  223.8750     2.3400   -22.1310   389.2840    90.7230    24.0080    16.7310    15.1800    18.9230 
  224.0000     2.3320   -22.2550   390.2940    89.3120    23.9950    20.0020    16.3870    20.4930 
  224.1250     2.3250   -22.3290   390.3540    90.4510    23.9600    20.5660    17.7360    22.2890 
  224.2500     2.3220   -22.3730   390.4390    89.7380    23.9280    21.1320    19.2180    24.2260 
  224.3750     2.3170   -22.4020   390.5970    86.2950    23.9150    23.3870    20.6650    26.0380 
  224.5000     2.3080   -22.4210   390.9550    84.3490    23.9140    25.5060    21.8130    27.3690 
  224.6250     2.2960   -22.4220   391.3520    85.2430    23.9150    26.2610    22.4130    27.8800 
  224.7500     2.2890   -22.4030   391.6300    84.2080    23.9140    26.4330    22.6240    27.8210 
  224.8750     2.2920   -22.3610   391.3850    82.9680    23.9150    25.2410    22.6530    27.5460 
  225.0000     2.3040   -22.2930   389.9690    86.1450    23.9160    23.1300    22.7360    27.4380 
  225.1250     2.3160   -22.2010   387.5620    89.8310    23.9010    23.5230    23.1130    27.8240 
  225.2500     2.3220   -22.0960   386.3160    86.7620    23.8610    25.6240    23.7710    28.5810 
  225.3750     2.3200   -21.9930   387.2870    80.6350    23.8040    28.1520    24.5650    29.4380 
  225.5000     2.3100   -21.9040   389.3820    79.2160    23.7480    28.4940    25.2750    30.0990 
  225.6250     2.2970   -21.8310   391.0210    84.6660    23.7040    27.3440    25.7510    30.4690 
  225.7500     2.2910   -21.7690   392.5030    89.7180    23.6670    25.6410    26.2420    31.0040 
  225.8750     2.2960   -21.7110   394.2240    88.6220    23.6400    24.7720    27.1600    32.2190 
  226.0000     2.3080   -21.6510   395.2280    82.2640    23.6170    24.3800    28.7260    34.2440 
  226.1250     2.3120   -21.5900   393.4330    77.7410    23.5690    25.5380    30.2940    36.0230 
  226.2500     2.3090   -21.5270   390.3210    76.9830    23.4840    31.0950    30.3180    35.5230 
  226.3750     2.3120   -21.4700   389.6590    77.6230    23.3720    37.1010    27.8440    31.7490 
  226.5000     2.3340   -21.4220   394.6260    78.8630    23.2520    34.3110    23.5680    26.0640 
  226.6250     2.3700   -21.3830   402.2080    84.0460    23.1380    20.4560    19.5570    21.4550 
  226.7500     2.3960   -21.3480   403.5210    90.8850    23.0060    10.9970    17.2350    19.4080 
  226.8750     2.3940   -21.3110   396.1500    93.6520    22.8240     9.9120    17.1710    20.3160 
  227.0000     2.3680   -21.2790   386.0770    90.2470    22.6060    17.1340    19.8570    24.4260 
  227.1250     2.3370   -21.2700   382.9600    84.7110    22.4390    26.9880    26.6400    32.9170 
  227.2500     2.3170   -21.2880   386.6020    81.7940    22.3560    33.5590    37.2980    45.5160 
  227.3750     2.3100   -21.3250   391.9040    80.3000    22.3290    36.0430    50.2890    60.6600 
  227.5000     2.3080   -21.3690   394.7430    77.1700    22.3340    38.1730    61.6930    73.5960 
  227.6250     2.3030   -21.3950   394.0720    72.3630    22.3730    43.3090    66.8340    78.1650 
  227.7500     2.2930   -21.3910   392.3550    69.7370    22.4240    48.8630    67.2550    77.1180 
  227.8750     2.2850   -21.3560   391.5090    70.8180    22.4560    51.9770    65.5940    74.3810 
  228.0000     2.2820   -21.3110   392.3740    73.1160    22.4870    52.0630    63.7310    72.1070 
  228.1250     2.2820   -21.2930   393.6880    71.9550    22.6200    54.1670    62.6450    71.2330 
  228.2500     2.2800   -21.3190   393.5360    68.0640    22.9090    56.8110    62.5020    71.7670 
  228.3750     2.2770   -21.3740   391.9390    65.3990    23.3220    60.8530    63.3960    73.7390 
  228.5000     2.2790   -21.4310   390.3010    65.6290    23.7310    65.5950    65.4620    77.1760 
  228.6250     2.2870   -21.4580   389.4970    67.2850    23.9750    69.5070    69.0780    82.3030 
  228.7500     2.2930   -21.4500   388.9140    69.4830    24.0630    77.2100    73.7820    88.4300 
  228.8750     2.2970   -21.4020   388.6860    70.6570    24.0690    92.1410    78.6470    94.2910 
  229.0000     2.3000   -21.2950   389.4640    69.1000    24.0570   108.7690    82.0480    97.6560 
  229.1250     2.3020   -21.0800   391.2820    64.4060    24.0360   110.5240    81.4110    95.1110 
  229.2500     2.2970   -20.7670   392.5680    62.1030    24.0210   104.8780    76.7460    87.5160 
  229.3750     2.2910   -20.3870   392.3560    63.9960    23.9880    85.0610    69.5900    77.8140 
  229.5000     2.2960   -19.9780   389.7140    66.2880    23.7930    61.8070    62.4160    69.3250 
  229.6250     2.3180   -19.5660   379.9060    67.3600    23.3890    44.5730    57.7120    64.4400 
  229.7500     2.3470   -19.1570   360.6820    69.5750    23.1180    45.1350    55.7890    62.6660 
  229.8750     2.3800   -18.7440   333.1380    72.8260    23.1740    60.6390    56.0380    62.9500 
  230.0000     2.4190   -18.3370   304.6350    72.6900    23.4660    87.6610    57.0380    63.4820 
  230.1250     2.4490   -17.9650   292.4120    67.6260    23.8700    95.6100    56.5110    61.5000 
  230.2500     2.4490   -17.6340   304.8250    63.3780    24.3230    84.4780    53.3530    56.2730 
  230.3750     2.4130   -17.3320   338.8240    62.6810    24.7030    61.8630    47.9140    48.9360 
  230.5000     2.3600   -17.0320   377.6890    65.7730    24.8660    42.3750    41.6010    41.4860 
  230.6250     2.3180   -16.7130   398.7060    70.2610    24.8460    33.8880    36.0710    35.6360 
  230.7500     2.2990   -16.3820   400.3160    72.2870    24.8070    31.6310    31.8920    31.4640 
  230.8750     2.3050   -16.0570   390.5610    72.0430    24.7680    30.0300    28.9600    28.6380 
  231.0000     2.3290   -15.7580   379.8160    71.6030    24.7380    27.8750    26.8800    26.6590 
  231.1250     2.3520   -15.5030   375.5530    72.1440    24.7370    25.4750    25.2510    25.0890 
  231.2500     2.3590   -15.2970   379.2380    73.9660    24.7350    24.3900    23.7330    23.6020 
  231.3750     2.3510   -15.1410   388.6460    77.3020    24.7100    23.4230    22.2820    22.1810 
  231.5000     2.3310   -15.0250   397.8020    82.2670    24.6740    21.5880    20.9650    20.9230 
  231.6250     2.3060   -14.9250   401.5770    85.6400    24.6560    19.7410    19.9380    20.0060 
  231.7500     2.2870   -14.8070   401.3770    84.9860    24.6490    18.8600    19.2690    19.4800 
  231.8750     2.2770   -14.6620   400.1470    81.0670    24.6420    19.0600    19.0230    19.4030 
  232.0000     2.2770   -14.4970   399.7400    76.5380    24.6380    19.6460    19.2300    19.8050 
  232.1250     2.2830   -14.3290   399.9000    75.5130    24.6260    21.1620    19.9670    20.7780 
  232.2500     2.2890   -14.1710   400.6440    75.0390    24.5880    22.8020    21.1290    22.2150 
  232.3750     2.2920   -14.0300   402.2970    72.0390    24.5370    24.9930    22.6450    24.0180 
  232.5000     2.2950   -13.9040   402.3840    67.9490    24.4980    26.8930    24.3370    25.9620 
  232.6250     2.3020   -13.7840   392.8980    66.8960    24.4760    28.1130    25.7860    27.5450 
  232.7500     2.3150   -13.6610   374.8460    68.9950    24.4740    29.8840    26.5520    28.3030 
  232.8750     2.3250   -13.5310   358.7320    71.8060    24.5330    31.1870    26.3660    27.9850 
