~V
VERS. 2.00: Ver 2.00
~W
STRT.M 130.0000:
STOP.M 268.0000:
STEP.M 0.1250:
NULL. -999.2500:
UWI. DF3061:
~C
DEPT.M :
GR.API :
CALI.CM :
RXO.OHMM :
RI. :
RML.OHMM :
DEN.GM/CC :
SP.MV :
~A
# ...
  163.7500    86.0000    23.8470    18.2500    21.9810    27.6960     2.3380   -19.8340 
  163.8750    84.1220    23.8190    23.8590    23.1950    29.2260     2.3360   -20.0320 
  164.0000    80.2110    23.8130    27.7330    24.0520    30.3060     2.3380   -20.1850 
  164.1250    80.3380    23.7370    26.4550    24.5750    30.9640     2.3340   -20.3100 
  164.2500    82.9160    23.6760    22.4560    24.8980    31.3710     2.3250   -20.4170 
  164.3750    82.7000    23.5810    20.3340    25.0370    31.5470     2.3170   -20.5230 
  164.5000    78.2170    23.6080    23.9220    24.9050    31.3810     2.3180   -20.6300 
  164.6250    73.9450    23.9380    31.5540    24.4470    30.8030     2.3320   -20.7350 
  164.7500    71.4630    24.3100    33.5050    23.7900    29.9760     2.3550   -20.8310 
  164.8750    71.1480    24.6710    27.7850    22.9880    28.9650     2.3730   -20.8960 
  165.0000    74.0180    24.9170    21.6010    22.1860    27.9540     2.3790   -20.9470 
  165.1250    79.7840    24.9990    18.1730    21.5630    27.1690     2.3690   -21.0450 
  165.2500    82.7870    25.0720    18.1090    21.1730    26.6780     2.3510   -21.1850 
  165.3750    79.8000    25.0720    20.8460    21.1960    26.7060     2.3320   -21.3800 
  165.5000    74.6770    25.0660    23.3050    21.7420    27.3950     2.3260   -21.6000 
  165.6250    75.0650    25.0590    22.6950    22.7390    28.6510     2.3380   -21.8040 
  165.7500    80.4180    25.0620    21.3840    24.0040    30.2460     2.3500   -21.9870 
  165.8750    85.2180    25.0830    19.7450    25.4770    32.1010     2.3390   -22.1480 
  166.0000    84.1350    25.0870    20.3910    27.1290    34.1830     2.2980   -22.3200 
  166.1250    78.6180    25.0820    24.0270    28.7920    36.2780     2.2420   -22.4860 
  166.2500    75.5650    25.0560    31.1760    30.3400    38.2290     2.2050   -22.6460 
  166.3750    76.9960    25.0260    38.8490    31.5150    39.7080     2.2040   -22.8020 
  166.5000    80.8450    25.0390    40.5970    32.1920    40.5620     2.2380   -22.9540 
  166.6250    83.0000    25.0920    35.3810    32.6700    41.1640     2.2710   -23.1220 
  166.7500    84.4710    25.0850    31.1200    33.6120    42.3510     2.2710   -23.2990 
  166.8750    86.3880    25.0730    30.2670    35.8500    45.1710     2.2410   -23.5030 
  167.0000    88.0230    25.0830    32.7350    40.0700    50.4880     2.2120   -23.6980 
  167.1250    85.9830    25.1070    43.8460    47.1080    59.3560     2.2100   -23.8780 
  167.2500    80.4840    25.2280    59.5670    56.6750    71.4100     2.2180   -24.0740 
  167.3750    75.4020    25.3250    74.9870    67.9530    85.6210     2.2200   -24.2600 
  167.5000    73.0280    25.3860    87.5120    79.3140    99.9350     2.2160   -24.4490 
  167.6250    74.3330    25.2960    94.5200    88.0920   110.9960     2.2200   -24.5940 
  167.7500    77.9070    25.1440    97.1550    93.3520   117.6230     2.2290   -24.6930 
  167.8750    80.8890    25.0170   100.4180    95.1990   119.9500     2.2320   -24.7510 
  168.0000    81.0190    24.9390   100.7510    95.1850   119.9330     2.2270   -24.8150 
  168.1250    77.5600    24.7900    97.2830    95.0690   119.7870     2.2250   -24.9220 
  168.2500    74.0760    24.9720    97.3630    94.6450   119.2520     2.2280   -25.0340 
  168.3750    71.5770    25.0980   105.6270    93.3070   117.5660     2.2300   -25.1560 
  168.5000    71.1610    25.2240   115.8700    90.3560   113.8490     2.2320   -25.2360 
  168.6250    72.9400    25.1530   115.3280    85.2610   107.4290     2.2350   -25.2710 
  168.7500    73.3290    24.8970   103.6970    78.9770    99.5110     2.2410   -25.2880 
  168.8750    71.5970    24.0530    89.1210    72.6920    91.5920     2.2480   -25.3000 
  169.0000    71.0130    23.2980    74.9920    67.5980    85.1740     2.2550   -25.3330 
  169.1250    72.2670    23.1490    57.8520    64.5600    81.3450     2.2570   -25.3870 
  169.2500    72.9260    23.0790    52.4880    63.3550    79.8270     2.2550   -25.4740 
  169.3750    73.3790    23.0440    58.2330    63.7400    80.3130     2.2500   -25.5420 
  169.5000    76.6170    23.0670    64.8840    65.2280    82.1870     2.2460   -25.5830 
  169.6250    82.1920    23.1240    65.0860    67.2690    84.7590     2.2430   -25.6200 
  169.7500    84.9110    23.1940    67.0770    69.0720    87.0310     2.2430   -25.6500 
  169.8750    84.8390    23.1770    69.0010    70.3940    88.6960     2.2490   -25.6990 
  170.0000    84.3010    23.4350    66.9840    71.1090    89.5980     2.2630   -25.7850 
  170.1250    83.6690    23.6840    65.6490    71.6510    90.2800     2.2740   -25.8900 
  170.2500    82.1200    23.8660    66.4960    72.8850    91.8350     2.2670   -25.9890 
  170.3750    79.5070    23.8060    69.5350    74.9910    94.4890     2.2430   -26.0930 
  170.5000    77.3810    23.7580    72.6280    77.9470    98.2140     2.2150   -26.2060 
  170.6250    78.8260    23.8030    74.1900    81.7360   102.9870     2.1980   -26.2910 
  170.7500    81.7830    23.9070    76.0640    85.7890   108.0950     2.1950   -26.3550 
  170.8750    83.9910    23.8760    79.0810    89.2350   112.4370     2.1970   -26.4370 
  171.0000    83.4410    23.8730    83.5040    90.9860   114.6420     2.1980   -26.5470 
  171.1250    81.4410    23.8960    92.7420    90.0030   113.4040     2.2010   -26.6720 
  171.2500    80.7900    23.9460    98.5790    86.9150   109.5130     2.2090   -26.7580 
  171.3750    81.2710    23.9420    93.2730    82.4170   103.8450     2.2180   -26.7740 
  171.5000    82.4320    23.9150    80.6480    77.8610    98.1050     2.2210   -26.7240 
  171.6250    80.9310    23.7800    63.1120    75.4420    95.0570     2.2140   -26.6710 
  171.7500    77.8230    23.8120    48.2280    75.7910    95.4970     2.2060   -26.6630 
  171.8750    75.6520    23.8440    45.2560    78.4990    98.9090     2.2040   -26.6880 
  172.0000    74.7540    23.8590    64.1790    82.7590   104.2770     2.2060   -26.7240 
  172.1250    73.0510    23.9010    89.2700    87.4680   110.2090     2.2140   -26.7420 
  172.2500    70.6310    23.9320    98.9000    90.9450   114.5910     2.2290   -26.7390 
  172.3750    70.1030    23.9020    95.0180    92.2220   116.2000     2.2460   -26.7270 
  172.5000    71.2750    24.1120    89.5120    91.1710   114.8760     2.2520   -26.7120 
  172.6250    70.1260    24.4790    82.1300    87.9280   110.7900     2.2400   -26.7060 
  172.7500    67.3180    24.8090    75.3610    84.3600   106.2930     2.2260   -26.7060 
  172.8750    66.1020    25.0210    76.8080    82.0150   103.3390     2.2230   -26.7150 
  173.0000    67.0630    25.0870    81.3980    81.3250   102.4700     2.2310   -26.7300 
  173.1250    68.1410    25.0570    81.2200    82.2180   103.5940     2.2400   -26.7470 
  173.2500    67.7420    25.0420    76.5950    84.1820   106.0690     2.2400   -26.7670 
  173.3750    65.7970    25.0450    75.9040    86.8500   109.4310     2.2270   -26.7730 
  173.5000    64.4270    24.9560    83.5750    89.7210   113.0480     2.2090   -26.7730 
  173.6250    67.1960    24.8680    89.4020    92.1320   116.0870     2.2010   -26.7970 
  173.7500    71.5840    24.7700    90.3000    94.0150   118.4590     2.2040   -26.8340 
  173.8750    72.1790    24.7280    91.9880    95.2240   119.9820     2.2180   -26.8800 
  174.0000    68.7960    24.8590    99.2320    95.7970   120.7040     2.2410   -26.9250 
  174.1250    67.0350    24.9540   107.7490    95.6390   120.5060     2.2610   -26.9760 
  174.2500    69.2220    25.0240   104.3200    95.5070   120.3390     2.2660   -26.9990 
  174.3750    72.2050    25.0270    91.1010    96.5100   121.6020     2.2550   -26.9940 
  174.5000    72.3960    25.0280    79.7050    99.1210   124.8920     2.2410   -27.0050 
  174.6250    70.6940    25.1690    82.3200   103.1330   129.9470     2.2410   -27.0370 
  174.7500    68.7610    25.3100    93.6630   107.0290   134.8570     2.2490   -27.1180 
  174.8750    67.4840    25.1910   106.1460   109.5530   138.0360     2.2520   -27.2260 
