~V
VERS. 2.00: Ver 2.00
~W
STRT.M 64.0000:
STOP.M 268.0000:
STEP.M 0.1250:
NULL. -999.2500:
UWI. DF3002:
~C
DEPT.M :
GR.API :
RML.OHMM :
RI. :
RXO.OHMM :
DEN.GM/CC :
SP.MV :
~A
# ...
  244.2500    73.6650    28.8570    24.7880    31.9890     2.4720   -17.7400 
  244.3750    72.4020    19.3370    17.3400    16.8350     2.4440   -17.4770 
  244.5000    68.8500    13.0720    12.5080    10.2640     2.4290   -17.1750 
  244.6250    67.2190    10.6440    10.0480     8.4270     2.4250   -17.0120 
  244.7500    67.3940     9.6110     8.8510     7.9170     2.4240   -16.8940 
  244.8750    69.2100     9.3740     8.4290     7.7830     2.4210   -16.8320 
  245.0000    72.5230     9.5130     8.4410     7.7210     2.4150   -16.8460 
  245.1250    74.9390     9.7320     8.6340     7.6740     2.4100   -16.8500 
  245.2500    74.1230     9.8600     8.8030     7.5670     2.4060   -16.8910 
  245.3750    72.5280     9.8630     8.8790     7.4640     2.4010   -16.9830 
  245.5000    75.6080     9.7700     8.8560     7.4120     2.3880   -17.1080 
  245.6250    82.2470     9.6430     8.7650     7.3450     2.3640   -17.2500 
  245.7500    86.5080     9.5630     8.6710     7.2220     2.3320   -17.3460 
  245.8750    86.1910     9.5750     8.6130     7.1310     2.3100   -17.4970 
  246.0000    83.5550     9.6780     8.6000     7.1430     2.3110   -17.6450 
  246.1250    83.0270     9.8250     8.6070     7.2800     2.3350   -17.7760 
  246.2500    84.3970     9.9400     8.5900     7.6640     2.3720   -17.9690 
  246.3750    84.9550     9.9910     8.5300     8.3420     2.4000   -18.0330 
  246.5000    84.6990     9.9930     8.4420     9.3910     2.4100   -18.1400 
  246.6250    84.6950    10.0100     8.3790    10.5860     2.4060   -18.1590 
  246.7500    83.7290    10.1100     8.3920    11.2290     2.4000   -18.1490 
  246.8750    81.9260    10.3350     8.5130    11.0800     2.4040   -18.1200 
  247.0000    80.2950    10.6920     8.7540    10.6110     2.4150   -17.9990 
  247.1250    79.9030    11.1630     9.1110    10.4980     2.4310   -17.9660 
  247.2500    80.9190    11.6500     9.5060    10.9370     2.4460   -17.8130 
  247.3750    83.2660    12.0470     9.8540    11.5990     2.4550   -17.7060 
  247.5000    86.2140    12.2470    10.0590    12.1250     2.4580   -17.5410 
  247.6250    87.1230    12.1260    10.0060    12.2640     2.4560   -17.3400 
  247.7500    85.5100    11.7460     9.7220    12.6900     2.4510   -17.2300 
  247.8750    81.3110    11.2070     9.2750    12.7100     2.4440   -17.0750 
  248.0000    76.8610    10.6520     8.7750    11.9640     2.4350   -16.9370 
  248.1250    73.9330    10.2400     8.3550    10.2980     2.4230   -16.8140 
  248.2500    71.1560    10.0170     8.0740     9.0550     2.4120   -16.7360 
  248.3750    68.7810     9.9650     7.9390     8.1130     2.4070   -16.6950 
  248.5000    68.9720    10.0240     7.9190     7.7060     2.4110   -16.6500 
  248.6250    73.3030    10.1280     7.9770     7.6730     2.4210   -16.6690 
  248.7500    76.2110    10.2290     8.0670     7.8100     2.4340   -16.6410 
  248.8750    76.6500    10.3290     8.1830     8.0360     2.4450   -16.6410 
  249.0000    77.0100    10.4550     8.3380     8.3980     2.4510   -16.6930 
  249.1250    77.4720    10.6670     8.5680     9.0660     2.4490   -16.6380 
  249.2500    76.2190    10.9890     8.8850     9.8950     2.4370   -16.6810 
  249.3750    72.7700    11.4310     9.2980    10.5950     2.4110   -16.6600 
  249.5000    71.0360    11.9770     9.7950    11.2760     2.3820   -16.6750 
  249.6250    73.9640    12.5880    10.3470    11.9230     2.3560   -16.7020 
  249.7500    76.9360    13.1760    10.8820    12.7230     2.3410   -16.6720 
  249.8750    76.0180    13.6600    11.3350    13.6690     2.3400   -16.6820 
  250.0000    72.6140    13.9750    11.6470    14.3810     2.3500   -16.5890 
  250.1250    71.3700    14.0690    11.7650    14.5920     2.3690   -16.6110 
  250.2500    72.6190    14.0240    11.7470    14.3050     2.3970   -16.5500 
  250.3750    75.9280    13.9330    11.6600    13.5040     2.4300   -16.4890 
  250.5000    81.6110    13.8980    11.5850    12.8270     2.4610   -16.4310 
  250.6250    86.8690    14.0170    11.6070    13.2210     2.4820   -16.3310 
  250.7500    88.2630    14.2710    11.7390    13.2780     2.4880   -16.3240 
  250.8750    85.5420    14.6100    11.9590    12.2900     2.4790   -16.2430 
  251.0000    81.1250    14.9620    12.2260    11.4320     2.4590   -16.2600 
  251.1250    77.8880    15.2600    12.4890    11.7330     2.4370   -16.2230 
  251.2500    76.5990    15.5030    12.7270    12.5940     2.4170   -16.1160 
  251.3750    75.3200    15.7300    12.9610    13.3550     2.4070   -16.0510 
  251.5000    72.0160    15.9980    13.2280    13.7400     2.4090   -16.0030 
  251.6250    68.8470    16.3730    13.5860    14.0700     2.4250   -15.9450 
  251.7500    68.8450    16.8510    14.0380    14.7810     2.4530   -15.8660 
  251.8750    71.0300    17.4090    14.5700    15.9900     2.4850   -15.7680 
  252.0000    73.1750    17.9970    15.1400    16.6480     2.5130   -15.6620 
  252.1250    74.0450    18.5390    15.6850    16.7260     2.5290   -15.5520 
  252.2500    74.7540    18.9800    16.1520    17.0240     2.5340   -15.4940 
  252.3750    75.3880    19.2880    16.5080    17.5970     2.5300   -15.4310 
  252.5000    74.0620    19.4520    16.7450    18.3730     2.5240   -15.3140 
  252.6250    70.3030    19.4680    16.8560    19.0280     2.5230   -15.3010 
  252.7500    67.4480    19.3980    16.8900    19.5040     2.5300   -15.2220 
  252.8750    68.3780    19.2870    16.8820    19.7030     2.5440   -15.2340 
  253.0000    71.4670    19.1830    16.8670    19.6490     2.5560   -15.1860 
  253.1250    71.9220    19.1260    16.8780    19.6730     2.5560   -15.1600 
  253.2500    70.0490    19.1170    16.9250    19.5860     2.5430   -15.1950 
  253.3750    68.4910    19.1480    17.0130    18.8630     2.5200   -15.1610 
  253.5000    68.8560    19.2070    17.1410    18.0650     2.5010   -15.2100 
  253.6250    72.1960    19.2930    17.3090    17.5340     2.4940   -15.1670 
  253.7500    76.4680    19.4010    17.5030    16.9650     2.4980   -15.1950 
  253.8750    77.9450    19.5270    17.7130    16.5350     2.5090   -15.1990 
  254.0000    74.5190    19.6540    17.9230    16.2270     2.5220   -15.1920 
  254.1250    71.1730    19.7540    18.1060    16.6590     2.5340   -15.2300 
  254.2500    71.1980    19.8100    18.2440    17.8790     2.5440   -15.2040 
  254.3750    70.9430    19.8100    18.3200    19.6290     2.5480   -15.2050 
  254.5000    68.7190    19.7520    18.3260    21.1480     2.5450   -15.1980 
  254.6250    67.9990    19.6340    18.2570    21.6680     2.5340   -15.1750 
  254.7500    71.0110    19.4870    18.1440    22.5700     2.5180   -15.1520 
  254.8750    75.1840    19.3300    18.0120    23.2760     2.5050   -15.1060 
  255.0000    76.9260    19.1800    17.8780    21.9710     2.4960   -15.1370 
  255.1250    73.5100    19.0490    17.7570    20.9290     2.4880   -15.0620 
  255.2500    68.6910    18.9350    17.6540    20.7030     2.4780   -15.0540 
  255.3750    67.8750    18.8510    17.5810    20.6210     2.4640   -15.0420 
  255.5000    71.2060    18.8110    17.5540    20.0480     2.4530   -15.0020 
  255.6250    72.5690    18.8420    17.5960    19.1010     2.4550   -15.0120 
  255.7500    70.4290    18.9290    17.6930    18.5680     2.4760   -14.9900 
  255.8750    69.4970    19.0420    17.8190    18.5820     2.5090   -14.9920 
  256.0000    72.8520    19.1380    17.9370    18.3330     2.5400   -14.9660 
  256.1250    77.0780    19.1630    17.9960    17.5380     2.5560   -14.9660 
  256.2500    77.9870    19.1120    17.9840    16.8450     2.5560   -14.9320 
  256.3750    75.7720    18.9950    17.9040    16.6900     2.5410   -14.9120 
  256.5000    73.3590    18.8360    17.7740    17.0040     2.5220   -14.8680 
  256.6250    73.0590    18.6670    17.6190    17.2180     2.5040   -14.8350 
  256.7500    73.3230    18.5160    17.4710    17.6670     2.4900   -14.8040 
  256.8750    73.1520    18.4120    17.3590    17.9940     2.4800   -14.7780 
  257.0000    73.0580    18.3850    17.3130    18.1900     2.4730   -14.7520 
