~V
VERS. 2.00: Ver 2.00
~W
STRT.M 125.0000:
STOP.M 273.0000:
STEP.M 0.1250:
NULL. -999.2500:
UWI. DF3072:
~C
DEPT.M :
DEN.GM/CC :
GR.API :
CALI.CM :
RXO.OHMM :
RI. :
RML.OHMM :
SP.MV :
~A
  125.0000     2.3510   109.5330    25.7060     4.3240     4.1340     4.3190   -16.9340 
  125.1250     2.3780   104.0360    25.7010     4.3670     4.0040     4.2020   -16.7520 
  125.2500     2.4020    98.8680    25.6960     4.5010     3.9980     4.2730   -16.6820 
  125.3750     2.4030    98.0370    25.6700     4.6440     4.1020     4.5090   -16.7490 
  125.5000     2.3770    97.9190    25.6030     4.8050     4.3100     4.8950   -16.9250 
  125.6250     2.3440    92.2190    25.4910     5.1120     4.6160     5.4130   -17.1510 
  125.7500     2.3300    84.0980    25.3130     5.5470     4.9600     5.9560   -17.3740 
  125.8750     2.3320    77.9370    25.0270     5.9860     5.2690     6.3930   -17.5490 
  126.0000     2.3390    75.0630    24.6680     6.3240     5.4560     6.5790   -17.6340 
  126.1250     2.3410    75.5490    24.4040     6.4610     5.4250     6.3730   -17.6340 
  126.2500     2.3390    77.4960    24.3650     6.2800     5.2210     5.9030   -17.5700 
  126.3750     2.3350    79.0910    24.5590     5.7430     4.9350     5.3630   -17.4610 
  126.5000     2.3370    80.0400    24.8770     5.1100     4.6890     4.9680   -17.3520 
  126.6250     2.3490    82.4950    25.1290     4.8820     4.6200     4.9330   -17.3010 
  126.7500     2.3620    84.5090    25.2140     5.2050     4.7570     5.2560   -17.3350 
  126.8750     2.3700    82.8930    25.1640     5.9750     5.1000     5.8940   -17.4850 
  127.0000     2.3750    77.8910    25.0190     6.8590     5.6070     6.7330   -17.7540 
  127.1250     2.3760    74.1820    24.6910     7.2850     6.1820     7.5640   -18.1190 
  127.2500     2.3670    74.9810    24.2350     7.1970     6.6930     8.2090   -18.5160 
  127.3750     2.3480    77.9120    23.8330     7.0260     7.0830     8.6430   -18.9000 
  127.5000     2.3300    78.4270    23.6230     7.1590     7.3440     8.9150   -19.2270 
  127.6250     2.3190    74.5290    23.6090     7.4770     7.4320     8.9710   -19.4170 
  127.7500     2.3090    72.8510    23.6760     7.6170     7.2970     8.6890   -19.4700 
  127.8750     2.2950    78.7510    23.7850     7.3850     6.8770     7.9500   -19.4020 
  128.0000     2.2750    88.6510    23.9370     6.6540     6.2030     6.8330   -19.2310 
  128.1250     2.2680    94.5030    24.1600     5.5540     5.4570     5.7070   -19.0250 
  128.2500     2.2850    93.1170    24.4420     4.7380     4.8800     4.9600   -18.8790 
  128.3750     2.3180    88.2240    24.6960     4.6960     4.6050     4.7720   -18.8410 
  128.5000     2.3420    84.2580    24.8210     5.5580     4.6920     5.1920   -18.9540 
  128.6250     2.3320    81.9250    24.7660     7.0690     5.2070     6.2570   -19.2410 
  128.7500     2.3070    77.0730    24.6610     8.4650     6.0180     7.6780   -19.6450 
  128.8750     2.2810    69.1600    24.6150     9.2850     6.9670     9.1220   -20.1430 
  129.0000     2.2600    63.2310    24.6490     9.5240     7.8410    10.2220   -20.6870 
  129.1250     2.2430    63.4800    24.7410     9.7440     8.4420    10.7710   -21.2180 
  129.2500     2.2360    64.9370    24.8660    11.0960     8.8420    11.0810   -21.6820 
  129.3750     2.2380    66.3060    24.9630    14.2130     9.1650    11.4190   -22.0310 
  129.5000     2.2430    69.5750    24.9620    17.2290     9.4960    11.9010   -22.2540 
  129.6250     2.2450    74.7260    24.9180    16.2980     9.8240    12.4470   -22.3830 
  129.7500     2.2440    78.0460    24.9400    12.8700    10.0820    12.8810   -22.4590 
  129.8750     2.2410    80.4380    24.9920    10.3010    10.2310    13.1240   -22.5090 
  130.0000     2.2410    83.0260    24.9890     9.7480    10.2770    13.1860   -22.5790 
  130.1250     2.2480    82.1250    24.9340    10.2510    10.2340    13.0850   -22.6720 
  130.2500     2.2560    75.0630    24.8930    10.8210    10.1210    12.8430   -22.7860 
  130.3750     2.2560    66.6600    24.8880    11.2140     9.9260    12.4320   -22.9350 
  130.5000     2.2430    62.9690    24.9150    11.1410     9.6430    11.8650   -23.0950 
  130.6250     2.2240    64.7520    24.9450    10.4550     9.3100    11.2630   -23.2580 
  130.7500     2.2070    67.7220    24.9490     9.7610     9.0220    10.8060   -23.4200 
  130.8750     2.1940    69.9140    24.9280     9.5990     8.8520    10.6060   -23.5410 
  131.0000     2.1840    71.1900    24.9090    10.0140     8.8360    10.6880   -23.5910 
  131.1250     2.1780    70.2020    24.9360    10.4690     8.9740    11.0050   -23.5340 
  131.2500     2.1770    68.0120    25.0040    10.5030     9.1500    11.3330   -23.3560 
  131.3750     2.1790    65.4280    25.0530    10.1500     9.2190    11.4240   -23.0460 
  131.5000     2.1790    63.5640    25.0400     9.6110     9.0250    11.0360   -22.6130 
  131.6250     2.1760    66.9460    25.0110     8.9540     8.4370    10.0190   -22.0490 
  131.7500     2.1850    73.9700    25.0290     8.0870     7.6190     8.7030   -21.4190 
  131.8750     2.2170    80.1880    25.1210     7.0070     6.7590     7.4200   -20.7900 
  132.0000     2.2700    83.1660    25.3040     6.0260     6.0370     6.4500   -20.2470 
  132.1250     2.3150    85.0100    25.5570     5.7140     5.6170     6.0250   -19.8840 
  132.2500     2.3300    85.1030    25.7260     6.0500     5.4950     6.0830   -19.7240 
  132.3750     2.3150    81.0300    25.6890     6.7500     5.6580     6.5620   -19.7790 
  132.5000     2.2810    74.5120    25.4900     7.5440     6.0590     7.3490   -20.0080 
  132.6250     2.2450    70.3010    25.2910     8.3040     6.6270     8.2620   -20.3880 
  132.7500     2.2190    68.8300    25.1760     8.9510     7.1990     9.0410   -20.8540 
  132.8750     2.2020    69.7080    25.1150     9.3850     7.6520     9.5140   -21.3450 
  133.0000     2.1920    72.3850    25.0810     9.5350     7.9100     9.6260   -21.7970 
  133.1250     2.1890    75.8570    25.0580     9.3750     7.9490     9.4280   -22.1450 
  133.2500     2.1970    77.7510    25.0270     9.1180     7.8760     9.1350   -22.3650 
  133.3750     2.2160    77.3590    25.0170     8.9930     7.7770     8.8950   -22.4570 
  133.5000     2.2410    75.5610    25.0590     9.1010     7.7270     8.8070   -22.4630 
  133.6250     2.2550    73.5730    25.0620     9.2840     7.7840     8.9250   -22.3860 
  133.7500     2.2510    71.9390    24.9350     9.3110     7.9090     9.1410   -22.2290 
  133.8750     2.2310    70.0450    24.7400     9.2210     8.0200     9.3030   -21.9880 
  134.0000     2.2070    69.9880    24.6130     9.1720     7.9990     9.2290   -21.6390 
  134.1250     2.1920    74.1670    24.6200     8.9660     7.7070     8.7280   -21.1850 
  134.2500     2.1940    80.1730    24.6780     8.2280     7.1850     7.9080   -20.6620 
  134.3750     2.2190    86.0910    24.7320     7.0340     6.5370     6.9540   -20.0870 
  134.5000     2.2650    91.3790    24.7660     5.8950     5.8930     6.0650   -19.4960 
  134.6250     2.3090    94.1210    24.7980     5.2780     5.3820     5.4180   -18.9250 
  134.7500     2.3230    93.5090    24.8630     5.0320     5.0280     5.0130   -18.3980 
  134.8750     2.3100    91.6380    24.9710     4.9700     4.8280     4.8240   -17.9550 
  135.0000     2.2940    91.0130    25.0790     5.0110     4.7570     4.8000   -17.5960 
  135.1250     2.2920    89.8000    25.1090     5.1540     4.7900     4.9000   -17.3280 
  135.2500     2.2960    88.7020    25.0860     5.3540     4.8760     5.0580   -17.1450 
  135.3750     2.2970    88.4530    25.0690     5.5590     4.9880     5.2390   -17.0300 
  135.5000     2.2940    88.2180    25.1250     5.7180     5.0990     5.3990   -16.9640 
  135.6250     2.2880    86.2450    25.3060     5.7760     5.1740     5.4850   -16.9680 
  135.7500     2.2860    83.1120    25.5200     5.7530     5.1980     5.4880   -17.0210 
  135.8750     2.2950    81.5770    25.6590     5.6960     5.1770     5.4280   -17.1260 
  136.0000     2.3180    81.9960    25.6910     5.6720     5.1340     5.3500   -17.3390 
  136.1250     2.3450    81.6350    25.6910     5.7440     5.1160     5.3280   -17.6810 
