~V
VERS. 2.00: Ver 2.00
~W
STRT.M 58.0000:
STOP.M 259.0000:
STEP.M 0.1250:
NULL. -999.2500:
UWI. DF3010:
~C
DEPT.M :
GR.API :
RML.OHMM :
RI. :
RXO.OHMM :
CALI.CM :
DEN.GM/CC :
SP.MV :
~A
# ...
  215.5000    73.1170   108.3840    93.7860    88.5720    24.3050     2.2500   -30.0350 
  215.6250    71.5450   120.8420   104.4760   100.5730    24.0770     2.2410   -30.0320 
  215.7500    67.9820   130.2780   112.8030   109.1180    24.1730     2.2210   -30.0570 
  215.8750    65.7240   134.6440   116.8780   114.1910    24.4300     2.1960   -30.0990 
  216.0000    65.1800   132.3010   116.0690   115.9400    24.5060     2.1740   -30.0230 
  216.1250    65.7530   124.5240   110.8170   112.8390    24.3810     2.1660   -29.9930 
  216.2500    66.6560   113.5680   103.8460   108.1670    24.2880     2.1730   -29.8860 
  216.3750    68.1450   102.4290    96.8890   101.7170    24.2340     2.1960   -29.7790 
  216.5000    69.8740    95.9390    91.0580    88.4570    24.1840     2.2260   -29.7480 
  216.6250    69.9990    92.2090    87.0620    76.6440    24.1850     2.2540   -29.6290 
  216.7500    69.2740    89.8560    84.5600    76.6920    24.2860     2.2690   -29.5780 
  216.8750    70.1540    88.5580    83.2740    81.4730    24.3530     2.2690   -29.4390 
  217.0000    70.8490    87.9480    82.8450    85.4340    24.2850     2.2560   -29.2970 
  217.1250    68.5010    87.6070    82.8350    81.3580    24.1340     2.2360   -29.2560 
  217.2500    65.8510    87.1000    82.7160    77.4220    24.1170     2.2160   -29.2300 
  217.3750    64.9720    86.2570    82.2510    78.0330    24.1800     2.2000   -29.1490 
  217.5000    65.8290    85.0980    81.4090    82.1280    24.0950     2.1900   -29.0530 
  217.6250    65.8810    83.7650    80.2800    79.4320    23.9070     2.1870   -29.0760 
  217.7500    64.9700    82.4060    79.0350    72.7010    23.8050     2.1880   -29.0250 
  217.8750    66.1850    80.9990    77.6970    69.3110    23.8470     2.1900   -29.0660 
  218.0000    70.0520    79.4750    76.2470    68.9160    23.9250     2.1910   -29.1810 
  218.1250    73.3470    77.8510    74.7230    69.9820    24.1490     2.1900   -29.1750 
  218.2500    73.5760    76.3620    73.3070    68.9480    24.2220     2.1930   -29.2390 
  218.3750    72.2080    75.2960    72.2130    63.0270    24.0540     2.2050   -29.3490 
  218.5000    72.0970    74.9030    71.6440    54.4190    23.7930     2.2310   -29.4430 
  218.6250    72.6550    75.4450    71.8440    52.6150    23.5320     2.2620   -29.5230 
  218.7500    73.0110    76.7860    72.7410    56.9310    23.3950     2.2860   -29.6450 
  218.8750    73.7600    78.8950    74.3370    65.0170    23.4120     2.2890   -29.7990 
  219.0000    74.4320    81.7410    76.6240    70.6870    23.6160     2.2690   -29.8950 
  219.1250    72.7730    85.3350    79.6250    70.8040    23.9220     2.2350   -30.0220 
  219.2500    68.3810    89.3320    83.0270    73.1490    24.1770     2.2030   -30.1090 
  219.3750    65.5670    93.3790    86.5180    81.8360    24.2920     2.1810   -30.1770 
  219.5000    66.2280    97.0350    89.7000    93.7830    24.2620     2.1710   -30.2550 
  219.6250    66.1770    99.6790    92.0090   101.6480    24.0060     2.1700   -30.2520 
  219.7500    63.5100   101.2290    93.3430   100.7850    23.8860     2.1710   -30.2730 
  219.8750    61.9440   101.8970    93.8560    97.7210    23.9020     2.1700   -30.2580 
  220.0000    64.5120   102.2910    94.0470   100.5670    23.9920     2.1660   -30.2120 
  220.1250    66.7290   103.3510    94.7360   108.7630    24.0900     2.1660   -30.2490 
  220.2500    66.7180   105.4190    96.3190   111.1730    24.2000     2.1730   -30.2700 
  220.3750    66.6940   108.2060    98.6600   107.6940    24.2370     2.1880   -30.2830 
  220.5000    67.1840   110.8900   101.1390   103.7970    24.1610     2.2030   -30.2920 
  220.6250    67.3410   112.1160   102.6360   107.3710    23.9930     2.2080   -30.3340 
  220.7500    67.0580   111.3450   102.5240   114.7110    23.9590     2.2020   -30.3340 
  220.8750    66.4580   108.6730   100.6860   112.2980    23.8900     2.1890   -30.3300 
  221.0000    65.3860   104.8730    97.6110    98.3430    23.7770     2.1770   -30.3830 
  221.1250    64.8130   101.1460    94.2170    88.2080    23.6380     2.1700   -30.2430 
  221.2500    66.8480    98.2760    91.3220    86.1430    23.5880     2.1670   -30.1600 
  221.3750    68.7190    96.3100    89.0880    84.5830    23.5870     2.1660   -30.1330 
  221.5000    67.9580    94.8470    87.2660    82.7530    23.5740     2.1650   -29.9440 
  221.6250    64.4510    93.2990    85.3880    83.3350    23.6050     2.1700   -29.8160 
  221.7500    61.9600    91.3550    83.1750    80.0650    23.7500     2.1830   -29.7270 
  221.8750    63.8090    89.0910    80.6800    73.1450    24.0520     2.2010   -29.5750 
  222.0000    68.1790    86.8450    78.1990    69.5940    24.3450     2.2210   -29.3940 
  222.1250    68.8340    85.2060    76.2680    75.7210    24.3100     2.2350   -29.1820 
  222.2500    65.8660    84.5290    75.2050    81.2210    24.0040     2.2440   -28.9520 
  222.3750    63.5630    85.0460    75.2020    82.1170    23.8980     2.2480   -28.6800 
  222.5000    63.9420    86.7890    76.2740    79.6680    24.1010     2.2480   -28.5280 
  222.6250    65.9120    89.6690    78.3440    77.4500    24.2790     2.2450   -28.4120 
  222.7500    67.5750    93.0810    80.8940    80.6210    24.3570     2.2390   -28.3170 
  222.8750    68.1670    96.5830    83.5530    82.1060    24.4130     2.2320   -28.3550 
  223.0000    67.5770    99.7780    85.9780    83.1410    24.4950     2.2250   -28.4420 
  223.1250    64.8180   102.2650    87.7890    86.2570    24.4270     2.2160   -28.6790 
  223.2500    61.6980   104.0390    88.9360    90.1000    24.2780     2.2080   -28.9340 
  223.3750    60.7570   105.1200    89.4170    93.6560    24.2260     2.2000   -29.1840 
  223.5000    64.3360   105.5500    89.2840    96.2270    24.2830     2.1950   -29.4550 
  223.6250    68.7580   105.3130    88.5720    96.3120    24.4130     2.1960   -29.6920 
  223.7500    70.2010   104.7080    87.5790    94.6340    24.4080     2.2000   -29.8340 
  223.8750    69.4320   104.0430    86.5770    90.8900    24.2100     2.2070   -29.9210 
  224.0000    66.9910   103.6750    85.8560    86.5680    24.0610     2.2130   -30.0110 
  224.1250    63.7230   104.0290    85.7630    82.7410    24.1420     2.2170   -29.9620 
  224.2500    63.1720   105.0990    86.3160    81.0870    24.2860     2.2190   -29.8800 
  224.3750    68.4790   106.7050    87.4110    82.9670    24.4050     2.2200   -29.8520 
  224.5000    75.4160   108.4410    88.7450    86.0660    24.4900     2.2220   -29.6630 
  224.6250    76.3520   109.5720    89.7510    89.5110    24.5730     2.2240   -29.4740 
  224.7500    71.8780   109.5640    89.9600    91.0280    24.6150     2.2270   -29.3360 
  224.8750    67.2760   108.1070    89.1030    90.3650    24.5950     2.2330   -29.0800 
  225.0000    66.4680   105.1810    87.1460    86.9820    24.5000     2.2420   -28.8150 
  225.1250    70.0280   100.8930    84.1500    82.2870    24.3080     2.2580   -28.5310 
  225.2500    74.8210    96.0730    80.7100    77.1320    24.2830     2.2790   -28.1860 
  225.3750    77.4240    91.7660    77.5890    71.6810    24.2930     2.3020   -27.8000 
  225.5000    76.3390    89.7910    76.1570    67.0910    24.2670     2.3220   -27.4600 
  225.6250    72.4350    93.6640    79.2100    65.7000    24.1490     2.3360   -27.0830 
  225.7500    68.8270   103.8690    87.4160    62.3820    23.9140     2.3450   -26.6020 
  225.8750    67.5290   118.3780    99.4840    64.6030    23.7170     2.3510   -26.1490 
  226.0000    68.9750   131.4370   110.9450    80.7130    23.6780     2.3590   -25.6710 
  226.1250    72.4690   131.8580   112.6850   105.0410    23.7520     2.3770   -25.2610 
  226.2500    73.8800   114.7790   100.2090   131.0160    23.8710     2.4090   -24.8870 
  226.3750    71.3250    83.5190    75.3680   156.1730    23.9490     2.4560   -24.4950 
  226.5000    67.0950    50.7670    47.4510   164.2400    23.9290     2.5040   -24.2610 
  226.6250    68.2220    28.8200    27.6450    87.1310    23.8840     2.5290   -24.1030 
