~V
VERS. 2.00: Ver 2.00
~W
STRT.M 125.0000:
STOP.M 269.0000:
STEP.M 0.1250:
NULL. -999.2500:
UWI. DF3036:
~C
DEPT.M :
GR.API :
RML.OHMM :
RI. :
RXO.OHMM :
CALI.CM :
DEN.GM/CC :
SP.MV :
~A
# ...
  147.5000   105.4820     6.7810     5.0740     5.4760    24.9020     2.3290   -25.6530 
  147.6250   110.4320     7.0590     5.2820     5.6290    24.8720     2.3430   -25.9000 
  147.7500   110.5930     7.4830     5.6370     5.9270    24.6670     2.3550   -26.2570 
  147.8750   101.5300     7.9970     6.0970     6.3930    24.3370     2.3640   -26.6880 
  148.0000    90.0440     8.5390     6.6100     7.0110    24.0210     2.3660   -27.2150 
  148.1250    87.3390     9.0510     7.1110     7.4810    23.7060     2.3540   -27.7160 
  148.2500    89.3620     9.4990     7.5530     7.6190    23.3700     2.3300   -28.1770 
  148.3750    87.9870     9.8470     7.8960     7.5790    23.0580     2.3010   -28.5370 
  148.5000    86.3070    10.0510     8.1060     7.7560    22.8490     2.2770   -28.7960 
  148.6250    89.9070    10.0160     8.1110     8.2180    22.7260     2.2710   -28.9340 
  148.7500    94.1460     9.7590     7.9260     8.4360    22.6780     2.2830   -28.9030 
  148.8750    94.9100     9.3410     7.5890     8.5080    22.7750     2.3080   -28.8630 
  149.0000    91.8060     8.8940     7.1950     8.2570    23.0740     2.3330   -28.6740 
  149.1250    91.7400     8.5940     6.8810     7.9800    23.4260     2.3440   -28.5800 
  149.2500    94.8060     8.4940     6.7130     7.5100    23.7010     2.3360   -28.4550 
  149.3750    97.0300     8.5420     6.6840     6.9800    23.7130     2.3140   -28.3980 
  149.5000    95.1500     8.6270     6.7340     7.0700    23.4020     2.2890   -28.3630 
  149.6250    90.4570     8.6340     6.7910     7.6410    22.9870     2.2700   -28.3340 
  149.7500    88.0050     8.6130     6.8490     8.0390    22.7890     2.2580   -28.4000 
  149.8750    88.1570     8.7260     6.9970     7.6720    22.9540     2.2480   -28.4240 
  150.0000    90.4190     9.1570     7.3550     7.3030    23.1860     2.2390   -28.5460 
  150.1250    94.4490    10.0060     8.0230     7.7060    23.2420     2.2410   -28.5580 
  150.2500    94.9800    10.9880     8.8420     8.8010    23.1280     2.2640   -28.6040 
  150.3750    90.0880    11.7260     9.5610    10.7010    22.8780     2.3090   -28.6090 
  150.5000    85.7350    11.8590     9.8870    13.6300    22.6300     2.3630   -28.6380 
  150.6250    89.1940    11.1680     9.5510    14.7950    22.5600     2.3990   -28.6790 
  150.7500    93.7210    10.1130     8.8170    12.2670    22.6960     2.4010   -28.6470 
  150.8750    94.7100     9.2370     8.0680     9.3170    22.9740     2.3730   -28.5690 
  151.0000    94.3390     9.0080     7.6840     8.0300    23.2350     2.3360   -28.4240 
  151.1250    92.2290     9.7250     7.9700     8.2480    23.4130     2.3200   -28.2700 
  151.2500    85.7420    10.9760     8.7460     9.6010    23.6070     2.3360   -28.0760 
  151.3750    77.4660    12.2410     9.7050    11.7100    23.8440     2.3790   -27.9140 
  151.5000    72.8990    12.9420    10.4250    13.5340    24.0380     2.4340   -27.6980 
  151.6250    74.1290    12.5260    10.3980    14.2980    24.0730     2.4720   -27.5970 
  151.7500    76.6140    11.2900     9.6810    14.4380    24.0660     2.4740   -27.5050 
  151.8750    79.9090     9.8110     8.6310    11.5590    24.0720     2.4410   -27.5100 
  152.0000    84.5620     8.8140     7.7890     8.5640    24.0810     2.3890   -27.4900 
  152.1250    87.2770     9.0870     7.8110     7.9840    24.0810     2.3450   -27.5540 
  152.2500    83.9270    10.6260     8.8530     8.3440    24.0810     2.3320   -27.6790 
  152.3750    77.0600    13.1510    10.8590     9.9960    24.0810     2.3580   -27.7590 
  152.5000    72.7530    15.9900    13.4230    13.0100    24.0810     2.4160   -27.9300 
  152.6250    71.8750    17.9710    15.6230    18.1660    24.0690     2.4800   -28.0490 
  152.7500    69.9250    18.3720    16.5830    23.7810    24.0420     2.5130   -28.1980 
  152.8750    68.7070    17.1340    15.9820    22.7700    24.0200     2.4980   -28.3160 
  153.0000    71.4510    14.9190    14.2540    15.2890    24.0260     2.4420   -28.4610 
  153.1250    76.1540    12.7530    12.3120    10.8920    24.0630     2.3720   -28.5800 
  153.2500    78.0140    11.2190    10.8030     9.6240    24.0980     2.3170   -28.6350 
  153.3750    76.7940    10.3950     9.8630     9.2190    24.1510     2.2830   -28.7490 
  153.5000    75.2540    10.2170     9.4830     9.4610    24.2110     2.2700   -28.7720 
  153.6250    75.4290    10.7200     9.7200     9.7990    24.2750     2.2750   -28.8220 
  153.7500    75.1430    11.7760    10.4780     9.9960    24.4120     2.2950   -28.8090 
  153.8750    72.7020    13.3190    11.7290    11.0140    24.6400     2.3300   -28.7950 
  154.0000    68.9190    15.1970    13.3820    13.9890    24.8170     2.3780   -28.7660 
  154.1250    66.3700    17.1380    15.2580    18.9670    24.8810     2.4320   -28.7430 
  154.2500    65.4650    18.8550    17.0540    24.8120    24.8910     2.4770   -28.7170 
  154.3750    65.7210    20.2460    18.6000    25.1940    24.8840     2.5060   -28.7280 
  154.5000    66.7390    21.3900    19.8720    21.5420    24.8620     2.5190   -28.7350 
  154.6250    66.6120    22.5060    20.9890    22.6650    24.8060     2.5220   -28.7290 
  154.7500    65.1430    23.7620    22.1370    24.1790    24.7650     2.5230   -28.7630 
  154.8750    64.1450    25.1220    23.3360    24.4550    24.7610     2.5230   -28.7960 
  155.0000    64.9360    26.3710    24.4390    24.1460    24.8070     2.5250   -28.8150 
  155.1250    64.9710    27.0960    25.1010    25.1440    24.8570     2.5290   -28.8500 
  155.2500    63.1300    27.1450    25.1750    26.6320    24.9040     2.5340   -28.8330 
  155.3750    62.4130    26.5350    24.6620    27.7570    24.9470     2.5370   -28.7570 
  155.5000    64.2620    25.4850    23.7420    27.8640    24.9530     2.5340   -28.6500 
  155.6250    66.4530    24.3960    22.7480    25.3790    24.8940     2.5290   -28.3830 
  155.7500    66.3590    23.6700    22.0400    23.1390    24.8200     2.5280   -28.1010 
  155.8750    63.9140    23.4840    21.8000    22.0800    24.7330     2.5340   -27.6850 
  156.0000    60.4360    23.8020    22.0400    21.4590    24.6580     2.5460   -27.3010 
  156.1250    60.4930    24.4190    22.6400    22.3140    24.6280     2.5590   -26.8260 
  156.2500    62.8180    25.0000    23.2950    23.3630    24.6910     2.5680   -26.4280 
  156.3750    64.1720    25.3680    23.8120    23.9610    24.7870     2.5690   -26.0020 
  156.5000    63.7360    25.4540    24.0710    24.1990    24.8620     2.5620   -25.6590 
  156.6250    64.6950    25.1760    23.9420    23.7750    24.8890     2.5500   -25.4240 
  156.7500    66.3450    24.5170    23.4040    22.5500    24.9180     2.5390   -25.2380 
  156.8750    66.7340    23.3840    22.3820    21.8550    24.9780     2.5310   -25.1530 
  157.0000    67.3770    21.7500    20.8680    21.9400    25.0460     2.5290   -25.0850 
  157.1250    69.7900    19.7410    18.9710    21.7090    25.0580     2.5270   -25.0240 
  157.2500    71.8990    17.7790    17.0740    19.8660    25.0310     2.5190   -24.9540 
  157.3750    71.7900    16.2220    15.4930    16.7270    25.0070     2.5020   -24.8890 
  157.5000    70.4680    15.3140    14.4570    13.6220    24.9990     2.4810   -24.8350 
  157.6250    67.8510    15.2220    14.1530    12.9390    24.9930     2.4680   -24.7830 
  157.7500    64.6750    15.6760    14.4010    13.2340    24.9550     2.4710   -24.7310 
  157.8750    62.8260    16.4470    15.0450    14.0660    24.8300     2.4910   -24.6700 
  158.0000    62.5590    17.3180    15.9020    14.8980    24.6370     2.5200   -24.6280 
  158.1250    61.6780    18.1310    16.8050    16.0270    24.4850     2.5480   -24.6090 
  158.2500    59.8470    18.8720    17.6620    16.8290    24.5740     2.5640   -24.6370 
  158.3750    59.3820    19.5720    18.4560    17.8490    24.7270     2.5660   -24.6730 
  158.5000    60.5330    20.2310    19.1700    18.9480    24.7970     2.5590   -24.6700 
  158.6250    60.8820    20.7490    19.7070    20.3220    24.7530     2.5480   -24.7340 
