~V
VERS. 2.00: Ver 2.00
~W
STRT.M 85.0000:
STOP.M 235.0000:
STEP.M 0.1250:
NULL. -999.2500:
UWI. DF305:
~C
DEPT.M :
DEN.GM/CC :
SP.MV :
AC.US/MT :
GR.API :
CALI.CM :
RXO.OHMM :
RI. :
RML.OHMM :
~A
# ...
  195.0000     2.3840   -28.1820   388.1180    68.2850    24.4780   100.2720    92.2950    95.7000 
  195.1250     2.4720   -27.9620   387.6300    74.4920    24.4780    86.8350    91.4240    94.2410 
  195.2500     2.5500   -27.7030   371.4200    75.4850    24.4780    80.0340    94.9780    97.4870 
  195.3750     2.6000   -27.4160   335.3380    71.4350    24.4680    84.9300   102.1860   104.8990 
  195.5000     2.6230   -27.1270   287.7290    66.4790    24.4110   100.4080   108.5810   111.8670 
  195.6250     2.6340   -26.8340   251.4520    61.5090    24.2250   138.5990   103.0340   105.0280 
  195.7500     2.6390   -26.5260   242.5400    57.9270    23.9790   171.7370    82.7230    81.8740 
  195.8750     2.6380   -26.2360   261.8620    58.0740    23.7960   148.3190    56.0590    53.9370 
  196.0000     2.6300   -25.9980   298.5640    60.5650    23.7120    77.5770    33.8970    32.8310 
  196.1250     2.6130   -25.8050   338.1760    57.1790    23.6610    32.4690    21.0700    20.3020 
  196.2500     2.5850   -25.6870   372.3090    53.5100    23.6200    20.1580    13.9620    13.1160 
  196.3750     2.5450   -25.6340   399.0220    57.8990    23.6790    18.2110    10.1380     9.2040 
  196.5000     2.4970   -25.6380   416.9820    68.9290    23.8570    16.3970     8.1040     7.2440 
  196.6250     2.4590   -25.7340   423.5030    77.4860    24.0240    13.5030     7.2420     6.5490 
  196.7500     2.4400   -25.9040   421.8790    83.5890    24.1590    10.8950     6.9980     6.4370 
  196.8750     2.4400   -26.1190   416.5200    90.6390    24.2620     8.9830     7.1590     6.6640 
  197.0000     2.4470   -26.3400   411.7040    98.2810    24.3660     7.8960     7.5540     7.0680 
  197.1250     2.4540   -26.5810   409.3690   102.3930    24.5200     7.7780     8.0310     7.5110 
  197.2500     2.4630   -26.8090   408.0190   105.3470    24.6140     7.8480     8.4460     7.8640 
  197.3750     2.4750   -27.0430   406.7110   108.6470    24.5980     7.9090     8.7310     8.0690 
  197.5000     2.4810   -27.2610   406.1600   113.4970    24.5230     7.9560     8.8720     8.1300 
  197.6250     2.4720   -27.4240   408.2020   117.6220    24.4870     8.0450     8.8580     8.0830 
  197.7500     2.4530   -27.5630   412.3280   117.6930    24.4780     8.1090     8.7150     7.9810 
  197.8750     2.4340   -27.6920   416.9310   112.7280    24.4780     8.0620     8.4450     7.8290 
  198.0000     2.4200   -27.8400   420.4410   106.0570    24.4810     7.9530     8.0750     7.6310 
  198.1250     2.4140   -28.0050   421.5770   105.0940    24.4870     7.9330     7.7080     7.4530 
  198.2500     2.4110   -28.1850   419.7360   109.6580    24.4990     7.9890     7.4900     7.4350 
  198.3750     2.4010   -28.3650   413.7230   113.1030    24.5070     8.0720     7.5550     7.7430 
  198.5000     2.3780   -28.5600   403.5090   110.7590    24.5090     8.5270     8.0280     8.5530 
  198.6250     2.3470   -28.7840   392.8750   103.7320    24.4880    10.3550     9.1210    10.1400 
  198.7500     2.3240   -29.0180   387.9630    96.7640    24.4660    13.7340    10.8290    12.4670 
  198.8750     2.3160   -29.2420   391.5490    92.4420    24.4290    17.1810    13.1380    15.4560 
  199.0000     2.3180   -29.4390   401.4480    89.4350    24.3720    19.9900    15.8730    18.8390 
  199.1250     2.3210   -29.5900   411.4500    82.4400    24.3110    22.6460    18.5530    22.0160 
  199.2500     2.3180   -29.6860   416.7540    75.2890    24.2810    24.8070    20.5930    24.3520 
  199.3750     2.3110   -29.7310   416.7830    73.6150    24.2730    25.7410    21.6960    25.5260 
  199.5000     2.3060   -29.7310   413.5940    79.5370    24.2750    25.5070    21.9350    25.6550 
  199.6250     2.3040   -29.6700   410.5340    85.4220    24.2810    24.4690    21.6020    25.1480 
  199.7500     2.3010   -29.5700   409.7980    85.3660    24.2830    23.3270    21.1930    24.6300 
  199.8750     2.2970   -29.4460   411.2930    82.2420    24.2790    22.4190    21.0010    24.4630 
  200.0000     2.2920   -29.3040   413.7190    80.0730    24.2740    22.5510    21.2310    24.8840 
  200.1250     2.2860   -29.1440   416.1690    81.1340    24.2620    23.7950    22.1010    26.1250 
  200.2500     2.2780   -28.9840   419.3720    80.9000    24.2300    24.8770    23.5930    28.1110 
  200.3750     2.2760   -28.8100   424.2180    80.2180    24.1720    25.3810    25.7210    30.8340 
  200.5000     2.2910   -28.6030   429.5300    81.1910    24.0620    26.2190    28.4040    34.1890 
  200.6250     2.3310   -28.3410   430.6210    81.4830    23.8910    28.5670    31.3960    37.8520 
  200.7500     2.3850   -28.0110   424.9630    76.5920    23.6840    32.1780    34.1970    41.1770 
  200.8750     2.4460   -27.6090   412.7210    70.9210    23.5230    35.2950    36.4180    43.6310 
  201.0000     2.5040   -27.1330   394.4970    75.0070    23.4580    36.1110    37.8410    44.9430 
  201.1250     2.5320   -26.5820   368.8520    85.2630    23.5280    35.2930    38.3400    45.0640 
  201.2500     2.5210   -25.9830   340.1460    86.5750    23.7330    36.1300    38.1070    44.4020 
  201.3750     2.4830   -25.3610   317.4770    78.9460    23.9930    39.2630    37.0760    42.9470 
  201.5000     2.4440   -24.7420   310.2510    72.5910    24.1470    42.5860    35.1490    40.5230 
  201.6250     2.4190   -24.1560   322.2890    71.7210    24.1820    40.0560    32.2700    36.9410 
  201.7500     2.3990   -23.6310   341.0910    68.8060    24.1680    32.6160    28.9380    32.7430 
  201.8750     2.3750   -23.1750   356.8010    65.2860    24.1390    25.2420    25.6050    28.5130 
  202.0000     2.3510   -22.7900   365.7090    64.3830    24.1330    21.2350    22.6650    24.8010 
  202.1250     2.3340   -22.5010   370.9010    63.7210    24.1620    19.3210    20.4650    22.0990 
  202.2500     2.3260   -22.2710   377.7600    62.9470    24.1710    17.6420    18.9490    20.3290 
  202.3750     2.3250   -22.1050   386.6370    64.0090    24.1510    16.5030    18.0560    19.3870 
  202.5000     2.3300   -21.9970   394.8140    67.2670    24.1150    16.4430    17.6910    19.1190 
  202.6250     2.3370   -21.9340   399.1000    69.5760    24.0980    17.2690    17.7750    19.3910 
  202.7500     2.3390   -21.9020   400.4720    69.0120    24.0940    18.0880    18.0350    19.8560 
  202.8750     2.3380   -21.8840   400.8090    66.9650    24.0920    18.4600    18.2430    20.2380 
  203.0000     2.3360   -21.8870   401.2560    65.3770    24.0900    18.8970    18.1670    20.2760 
  203.1250     2.3340   -21.8940   401.9180    66.5480    24.0910    18.7940    17.5960    19.7380 
  203.2500     2.3310   -21.9020   402.6530    70.2070    24.0890    17.5280    16.6760    18.7940 
  203.3750     2.3280   -21.9100   403.4880    72.8580    24.0880    15.5720    15.6560    17.7310 
  203.5000     2.3250   -21.8990   404.2130    72.7230    24.0960    14.0860    14.8420    16.9110 
  203.6250     2.3210   -21.8760   404.2300    70.8590    24.1220    13.8690    14.6100    16.7920 
  203.7500     2.3160   -21.8500   403.6230    68.0060    24.1560    14.4490    15.0700    17.5150 
  203.8750     2.3130   -21.8150   403.0070    63.2190    24.1700    16.5680    16.2620    19.1610 
  204.0000     2.3120   -21.7650   402.9090    57.4160    24.1700    20.1820    18.0520    21.5980 
  204.1250     2.3080   -21.7040   403.0760    55.1800    24.1740    24.6680    19.9850    24.2580 
  204.2500     2.3000   -21.6370   402.8790    56.0810    24.1730    27.0430    21.3540    26.1210 
  204.3750     2.2890   -21.5420   402.5200    58.5700    24.1550    26.1800    21.7440    26.5250 
  204.5000     2.2840   -21.4350   402.8470    60.9740    24.1140    22.8070    21.2420    25.5690 
  204.6250     2.2950   -21.3320   404.4290    61.8460    24.0940    20.3600    20.3860    24.1100 
  204.7500     2.3190   -21.2100   405.7830    62.9220    24.0870    20.1520    19.8180    23.1500 
  204.8750     2.3450   -21.0920   404.2150    65.6150    24.0870    21.2850    19.7940    23.0670 
