~V
VERS. 2.00: Ver 2.00
~W
STRT.M 66.0000:
STOP.M 262.0000:
STEP.M 0.1250:
NULL. -999.2500:
UWI. DF3009:
~C
DEPT.M :
GR.API :
RML.OHMM :
RI. :
RXO.OHMM :
CALI.CM :
DEN.GM/CC :
SP.MV :
~A
# ...
  111.0000   100.1550     8.0260     6.8460     7.3690    24.0320     2.3160   -19.6720 
  111.1250    96.3790     7.9230     6.7750     7.3210    23.9200     2.2850   -20.4150 
  111.2500    91.4300     7.9740     6.8160     7.2900    23.8540     2.2660   -21.1820 
  111.3750    88.5560     8.1500     6.9680     7.6120    23.7160     2.2530   -21.8120 
  111.5000    87.0140     8.4000     7.2050     8.4090    23.6890     2.2410   -22.4970 
  111.6250    84.8200     8.7120     7.5050     8.9820    23.6540     2.2260   -23.1030 
  111.7500    83.0340     9.1120     7.8600     9.2080    23.6410     2.2090   -23.4740 
  111.8750    82.2940     9.6520     8.2900     9.3080    23.7020     2.1930   -23.8270 
  112.0000    81.6200    10.3540     8.8070     9.3850    23.7430     2.1920   -24.1150 
  112.1250    80.9980    11.1550     9.3840     9.7560    23.8250     2.2230   -24.0460 
  112.2500    81.1750    11.8500     9.8960    10.7160    23.7400     2.2850   -23.8680 
  112.3750    81.0400    12.2160    10.2000    12.4490    23.7570     2.3610   -23.6160 
  112.5000    81.2890    12.0850    10.1620    14.9330    23.7240     2.4240   -23.1020 
  112.6250    83.2850    11.3670     9.6840    16.6620    23.7990     2.4390   -22.5310 
  112.7500    86.5370    10.3560     8.9450    15.0900    23.8230     2.4120   -21.9600 
  112.8750    89.6630     9.3300     8.1300    10.9750    23.7890     2.3640   -21.2980 
  113.0000    93.6650     8.5190     7.4120     8.0750    23.9070     2.3170   -20.6540 
  113.1250    97.7660     8.0970     6.9370     6.9690    24.0460     2.2860   -20.1050 
  113.2500    99.2740     7.9950     6.6930     6.6910    24.2560     2.2670   -19.5800 
  113.3750    99.0960     8.1260     6.6420     6.9410    24.2770     2.2560   -19.2110 
  113.5000    99.2500     8.3660     6.7180     7.2660    24.2220     2.2490   -18.9570 
  113.6250    98.9930     8.5560     6.8250     7.3230    24.1840     2.2470   -18.6600 
  113.7500    99.2960     8.5780     6.8610     7.0210    24.0170     2.2500   -18.5060 
  113.8750   100.6620     8.3810     6.7670     6.6890    24.0220     2.2600   -18.3790 
  114.0000   102.1970     7.9900     6.5360     6.5570    24.0240     2.2780   -18.1820 
  114.1250   101.8030     7.5070     6.2140     6.2620    24.1070     2.3030   -18.1080 
  114.2500   101.7180     7.1010     5.9130     5.9250    24.1060     2.3280   -18.0420 
  114.3750   103.4710     6.8850     5.7170     5.5750    24.0190     2.3420   -17.9670 
  114.5000   105.6550     6.9190     5.6770     5.4020    23.9270     2.3390   -18.0480 
  114.6250   107.7300     7.2090     5.8240     5.6440    23.7120     2.3140   -18.1500 
  114.7500   105.8820     7.6120     6.0840     6.2020    23.6530     2.2780   -18.2070 
  114.8750    99.8650     8.0040     6.3890     6.9410    23.5650     2.2390   -18.3960 
  115.0000    93.6020     8.3040     6.6760     7.5940    23.5060     2.2100   -18.5850 
  115.1250    90.1120     8.4890     6.9010     8.1670    23.5550     2.2040   -18.5520 
  115.2500    89.2230     8.6240     7.0700     8.8890    23.5600     2.2260   -18.4880 
  115.3750    89.9130     8.7250     7.1780     9.2160    23.5830     2.2770   -18.3500 
  115.5000    93.0820     8.7540     7.2000     7.8270    23.5060     2.3470   -17.9930 
  115.6250    97.7860     8.6120     7.0800     7.4410    23.5310     2.4110   -17.6820 
  115.7500   101.1610     8.2970     6.8230     7.7780    23.5540     2.4440   -17.4190 
  115.8750   102.5980     7.8740     6.4690     7.4020    23.6810     2.4400   -17.0380 
  116.0000   102.5490     7.4690     6.0990     6.2220    23.7910     2.4090   -16.7480 
  116.1250   104.8910     7.2360     5.8240     5.6050    23.7980     2.3680   -16.6370 
  116.2500   108.1250     7.1900     5.6870     5.5240    23.8320     2.3360   -16.5440 
  116.3750   107.8950     7.2910     5.6860     5.5890    23.7720     2.3160   -16.5010 
  116.5000   104.7780     7.4540     5.7790     5.6440    23.8310     2.3070   -16.5100 
  116.6250   103.8790     7.5720     5.9020     5.7850    23.8550     2.3060   -16.5210 
  116.7500   103.9480     7.6020     5.9980     5.9730    23.8550     2.3070   -16.5040 
  116.8750   101.4480     7.5620     6.0570     6.1240    23.8990     2.3070   -16.4550 
  117.0000    97.9510     7.5010     6.0950     6.0520    23.8980     2.3020   -16.3760 
  117.1250    98.5160     7.4790     6.1400     5.9850    24.0150     2.2930   -16.3500 
  117.2500   101.1300     7.5180     6.2100     6.0950    23.9640     2.2820   -16.3180 
  117.3750   100.8280     7.6040     6.3050     6.2800    23.8410     2.2700   -16.2810 
  117.5000    98.3260     7.7050     6.4140     6.3260    23.7520     2.2590   -16.3570 
  117.6250    96.8120     7.7860     6.5140     6.3310    23.8520     2.2540   -16.3480 
  117.7500    95.2930     7.8330     6.5880     6.5750    24.0020     2.2550   -16.3240 
  117.8750    92.6110     7.8440     6.6200     6.7480    24.1080     2.2620   -16.3960 
  118.0000    91.7380     7.8150     6.5990     6.5200    24.2640     2.2710   -16.3390 
  118.1250    97.0610     7.7250     6.5100     6.0400    24.2680     2.2790   -16.2060 
  118.2500   102.7710     7.5700     6.3590     5.8080    24.2230     2.2870   -16.2050 
  118.3750   105.1730     7.3510     6.1510     5.7210    24.0310     2.2980   -16.1390 
  118.5000   104.8260     7.0820     5.8950     5.4700    23.7530     2.3170   -15.9910 
  118.6250   101.8490     6.7940     5.6100     5.1010    23.8070     2.3450   -16.0550 
  118.7500    97.6820     6.5130     5.3240     4.9520    23.8960     2.3720   -16.1280 
  118.8750    94.8500     6.2370     5.0520     4.9500    24.1100     2.3890   -16.2290 
  119.0000    95.9600     5.9460     4.8070     4.9820    24.1400     2.3910   -16.5890 
  119.1250    98.1060     5.6480     4.6170     5.0660    24.1280     2.3760   -17.0150 
  119.2500    97.5010     5.4700     4.5450     5.3490    24.0710     2.3540   -17.3640 
  119.3750    93.4150     5.6690     4.7390     5.8590    23.9710     2.3390   -17.8560 
  119.5000    87.8480     6.5990     5.4320     6.6460    23.8330     2.3450   -18.4020 
  119.6250    84.0690     8.7470     7.0250     8.3010    23.6160     2.3890   -18.8740 
  119.7500    81.6890    11.8800     9.4640    11.4090    23.5280     2.4630   -19.4580 
  119.8750    80.5420    15.4350    12.4460    16.4610    23.4560     2.5530   -20.0290 
  120.0000    80.1790    18.4430    15.2890    23.9460    23.5020     2.6310   -20.5570 
  120.1250    79.3390    19.4570    16.7950    29.1620    23.4820     2.6620   -21.2160 
  120.2500    78.7090    18.3100    16.5410    26.1140    23.3990     2.6370   -21.9180 
  120.3750    79.8080    15.6810    14.8440    18.8170    23.3610     2.5690   -22.6420 
  120.5000    79.0610    12.8200    12.6170    13.1160    23.3710     2.4810   -23.4010 
  120.6250    72.4510    10.8710    10.8060    10.7100    23.5360     2.3960   -24.1200 
  120.7500    67.2430     9.9150     9.6640     9.8580    23.5850     2.3300   -24.8260 
  120.8750    68.8710     9.7130     9.1270     9.6950    23.6270     2.2840   -25.5190 
  121.0000    73.7550     9.9450     9.0230     9.6880    23.6060     2.2570   -26.0560 
  121.1250    74.4970    10.3020     9.1780     9.6640    23.5280     2.2450   -26.5070 
  121.2500    71.5760    10.5550     9.3750     9.7260    23.5280     2.2410   -27.0050 
  121.3750    68.1920    10.6450     9.5190     9.8710    23.5290     2.2410   -27.3380 
  121.5000    67.4620    10.6100     9.5800     9.9030    23.6650     2.2410   -27.5390 
  121.6250    71.8250    10.5280     9.5630     9.9000    23.7590     2.2380   -27.7880 
  121.7500    75.3230    10.4510     9.4950     9.8950    23.9020     2.2320   -27.8840 
  121.8750    73.5700    10.3570     9.3690     9.7610    23.9740     2.2220   -27.8430 
  122.0000    68.8190    10.1970     9.1700     9.6200    24.0030     2.2120   -27.8320 
  122.1250    69.1850     9.9150     8.8730     9.4260    23.9820     2.2040   -27.6720 
