~V
VERS. 2.00: Ver 2.00
~W
STRT.M 60.0000:
STOP.M 238.0000:
STEP.M 0.1250:
NULL. -999.2500:
UWI. DF308:
~C
DEPT.M :
DEN.GM/CC :
SP.MV :
AC.US/MT :
GR.API :
CALI.CM :
RXO.OHMM :
RI. :
RML.OHMM :
~A
# ...
  120.0000     2.5870   -17.4340   300.6650    49.7150    23.9950    24.4080    14.5570    16.5270 
  120.1250     2.5560   -17.2230   320.5200    52.9540    23.9440    22.0760    15.5680    17.0990 
  120.2500     2.5290   -17.0460   333.1700    54.5640    23.8540    17.7120    15.7390    16.7100 
  120.3750     2.5280   -16.9290   328.4050    52.4170    23.8240    15.3980    15.6820    16.3580 
  120.5000     2.5500   -16.8420   309.8160    50.0260    23.8950    16.7030    16.0570    16.9560 
  120.6250     2.5800   -16.7900   289.6240    48.2200    24.0470    21.8210    17.4660    19.1910 
  120.7500     2.6060   -16.7840   275.9690    45.5360    24.0990    27.0520    19.8370    22.6680 
  120.8750     2.6280   -16.7780   268.7330    43.8840    24.0950    30.0010    22.8460    26.7270 
  121.0000     2.6490   -16.7690   265.6740    45.4070    24.0750    30.8120    25.8050    30.3420 
  121.1250     2.6590   -16.7920   266.4330    49.1770    24.0260    30.5020    27.6620    32.1810 
  121.2500     2.6500   -16.8120   270.9080    51.7060    23.9420    29.4980    28.1910    32.2480 
  121.3750     2.6180   -16.8360   278.7420    53.5920    23.8790    28.1310    27.6960    31.1270 
  121.5000     2.5730   -16.8790   288.2240    54.2600    23.8480    26.7380    26.7180    29.6000 
  121.6250     2.5360   -16.9150   295.5900    52.4110    23.8260    25.3160    25.8080    28.4150 
  121.7500     2.5190   -16.9430   297.6690    49.3550    23.8360    24.2880    25.3220    27.9410 
  121.8750     2.5230   -16.9610   294.0810    46.2520    23.9140    24.4930    25.3750    28.2360 
  122.0000     2.5400   -16.9700   288.1550    44.2490    23.9170    26.4310    25.8730    29.0770 
  122.1250     2.5560   -16.9690   286.7940    43.8490    23.8570    30.1930    26.5300    29.9690 
  122.2500     2.5570   -16.9550   292.9930    43.9520    23.8720    31.9180    26.9360    30.3560 
  122.3750     2.5450   -16.9230   304.5980    45.4680    23.9070    29.8900    26.8760    30.0130 
  122.5000     2.5320   -16.8850   315.6930    48.4140    23.8970    27.0770    26.4160    29.1440 
  122.6250     2.5330   -16.8500   318.1570    51.4380    23.9300    27.0960    25.9200    28.3520 
  122.7500     2.5510   -16.7900   310.6260    52.4240    24.0340    27.3550    25.7620    28.1270 
  122.8750     2.5850   -16.7350   296.4750    50.9830    24.0950    27.1670    26.0960    28.6190 
  123.0000     2.6270   -16.6840   282.3600    47.3300    24.1140    28.2670    26.8950    29.7240 
  123.1250     2.6630   -16.6010   275.2660    44.4690    24.1200    32.2030    27.9680    31.0990 
  123.2500     2.6780   -16.5340   273.8650    43.5000    24.0910    35.5590    28.8990    32.1760 
  123.3750     2.6650   -16.4850   275.0380    43.6150    24.0490    36.1830    29.3670    32.5630 
  123.5000     2.6330   -16.4270   278.4190    43.4970    24.0080    35.2280    29.1940    32.1010 
  123.6250     2.6000   -16.3740   287.0930    43.3750    24.0260    33.8890    28.3610    30.8670 
  123.7500     2.5750   -16.3570   298.3740    44.3600    24.0730    30.3860    27.2630    29.4030 
  123.8750     2.5550   -16.3360   305.4700    46.0960    24.0800    26.2630    26.2030    28.0900 
  124.0000     2.5440   -16.3110   303.2610    47.6200    24.0800    23.9200    25.3910    27.1670 
  124.1250     2.5510   -16.3100   293.5320    47.0120    24.0440    24.0210    24.9820    26.8030 
  124.2500     2.5720   -16.3020   286.5250    44.8580    23.9600    25.2450    24.9290    26.8860 
  124.3750     2.5930   -16.2990   290.3380    44.7510    23.8390    25.6840    25.1740    27.2970 
  124.5000     2.6020   -16.3050   306.4850    46.1550    23.6970    24.9560    25.5930    27.8430 
  124.6250     2.6010   -16.3130   324.3400    45.6100    23.5350    25.0870    26.0160    28.3150 
  124.7500     2.6000   -16.3240   330.0560    45.6710    23.4080    25.5920    26.3470    28.6490 
  124.8750     2.6020   -16.3430   323.8730    48.3960    23.3280    25.1950    26.5920    28.8910 
  125.0000     2.6000   -16.3780   314.1450    52.0430    23.3590    23.8550    26.8050    29.1200 
  125.1250     2.5930   -16.4440   305.9770    52.0190    23.4150    23.7430    27.0260    29.3840 
  125.2500     2.5850   -16.5190   299.1370    50.5480    23.3990    25.4090    27.2190    29.6210 
  125.3750     2.5790   -16.5660   296.2620    50.0690    23.2700    27.1750    27.3050    29.7180 
  125.5000     2.5760   -16.6160   299.5650    50.2630    23.0830    28.1030    27.2110    29.5830 
  125.6250     2.5720   -16.6710   304.9680    49.9070    22.9720    27.5060    26.9080    29.1730 
  125.7500     2.5620   -16.6930   305.9720    47.0070    23.0020    26.3970    26.5010    28.6350 
  125.8750     2.5460   -16.7090   301.7960    43.2740    23.1560    25.0530    26.0930    28.1170 
  126.0000     2.5240   -16.7200   295.8340    41.4780    23.3450    24.6790    25.7720    27.7420 
  126.1250     2.5030   -16.6880   293.1950    42.9860    23.4230    25.4330    25.5930    27.5650 
  126.2500     2.4910   -16.6620   293.7270    46.5300    23.3910    26.1500    25.5020    27.4940 
  126.3750     2.4960   -16.6550   293.3650    51.4880    23.2720    25.8210    25.4740    27.4950 
  126.5000     2.5220   -16.6220   288.7510    56.3040    23.1910    24.9040    25.5360    27.6160 
  126.6250     2.5650   -16.5900   280.6920    57.3750    23.1790    24.8340    25.7670    27.9730 
  126.7500     2.6110   -16.5860   273.6080    54.5090    23.1680    25.6720    26.1500    28.5340 
  126.8750     2.6460   -16.5810   269.3760    52.5410    23.0960    28.0300    26.6260    29.1880 
  127.0000     2.6540   -16.5860   267.7870    54.1570    23.0300    30.4710    27.0780    29.7350 
  127.1250     2.6380   -16.6000   268.0410    55.5490    23.0100    30.5640    27.3420    29.9090 
  127.2500     2.6280   -16.6100   268.6320    53.0270    23.1080    29.1660    27.4200    29.7330 
  127.3750     2.6400   -16.6440   268.6620    47.6930    23.2680    28.3540    27.4310    29.3930 
  127.5000     2.6570   -16.7080   268.1010    41.9570    23.4180    28.3410    27.5750    29.1800 
  127.6250     2.6520   -16.8050   266.7980    38.1090    23.5240    29.3610    28.1180    29.4550 
  127.7500     2.6330   -16.9430   263.8990    38.4350    23.6450    30.4430    29.0650    30.2070 
  127.8750     2.6140   -17.1170   260.0960    43.9130    23.7150    31.0860    30.2190    31.1730 
  128.0000     2.6070   -17.3180   259.8060    50.4270    23.6790    31.3310    31.1430    31.8270 
  128.1250     2.6070   -17.5830   270.7690    52.3330    23.6780    31.2680    31.0090    31.2700 
  128.2500     2.5930   -17.8640   291.6680    51.3180    23.6600    29.4260    29.3840    29.1410 
  128.3750     2.5540   -18.1170   317.7190    52.1030    23.6100    25.3380    26.2030    25.4640 
  128.5000     2.4920   -18.3550   344.5960    58.4250    23.5460    20.4770    21.9790    20.7970 
  128.6250     2.4290   -18.5210   370.6360    68.7090    23.3870    16.2650    17.6500    16.0850 
  128.7500     2.3870   -18.6050   394.3000    76.9730    23.2580    12.5390    13.9660    12.0960 
  128.8750     2.3670   -18.6520   412.2910    82.2720    23.1910     9.5280    11.1940     9.1350 
  129.0000     2.3530   -18.6420   422.0850    84.9520    23.2460     7.8270     9.3700     7.2670 
  129.1250     2.3360   -18.5530   421.1880    84.7660    23.3330     7.7330     8.5930     6.6430 
  129.2500     2.3310   -18.4400   409.4850    81.2050    23.3740     8.4510     8.7040     7.1350 
  129.3750     2.3610   -18.3000   385.5620    76.3340    23.3900     9.8680     9.8020     8.8900 
  129.5000     2.4270   -18.1290   352.3060    71.6570    23.4150    13.1760    12.0400    11.9820 
  129.6250     2.4950   -17.9720   320.9950    64.9520    23.4440    20.6820    15.4680    16.0570 
  129.7500     2.5340   -17.8180   304.6270    60.0460    23.4700    28.2190    18.7790    19.4260 
  129.8750     2.5390   -17.6550   310.1930    63.4210    23.5190    30.0340    20.0350    20.2060 
