~V
VERS. 2.00: Ver 2.00
~W
STRT.M 105.0000:
STOP.M 279.0000:
STEP.M 0.1250:
NULL. -999.2500:
UWI. DF3027:
~C
DEPT.M :
DEN.GM/CC :
AC.US/MT :
GR.API :
CALI.CM :
RXO.OHMM :
RI. :
RML.OHMM :
SP.MV :
~A
# ...
  125.0000     2.3490   351.6440    67.3860    28.6940    13.9870     9.7140    12.2170   -13.8790 
  125.1250     2.3390   357.1310    70.4080    28.6940    12.2210     9.1690    11.4170   -13.7850 
  125.2500     2.3600   353.7390    72.0530    28.6940    10.0970     8.8290    10.9700   -13.5620 
  125.3750     2.4110   340.8160    70.6260    28.6940     9.2780     8.8220    11.0470   -13.2020 
  125.5000     2.4770   320.9610    66.7550    28.6940    10.2420     9.2160    11.7030   -12.7400 
  125.6250     2.5400   299.8670    63.0920    28.6940    12.2290    10.0850    12.9570   -12.2280 
  125.7500     2.5900   283.1650    61.0200    28.6940    14.1270    11.2930    14.5640   -11.6970 
  125.8750     2.6260   272.5790    59.1450    28.6940    15.6400    12.7170    16.3550   -11.1940 
  126.0000     2.6490   266.7000    57.8350    28.6930    16.7930    14.2090    18.1820   -10.7680 
  126.1250     2.6570   262.6730    57.3770    28.6960    17.6710    15.5700    19.8330   -10.4490 
  126.2500     2.6550   259.1050    55.4260    28.7120    18.5380    16.5380    20.9480   -10.2330 
  126.3750     2.6470   258.4090    52.4180    28.7440    19.4920    16.7000    20.9500   -10.1330 
  126.5000     2.6260   264.7470    51.7860    28.7950    20.1050    15.6880    19.3600   -10.1090 
  126.6250     2.5750   281.9530    54.5170    28.8820    18.7420    13.4930    16.2170   -10.1080 
  126.7500     2.5050   304.4970    60.2450    28.9800    15.0910    11.0480    12.8340   -10.1250 
  126.8750     2.4500   324.0440    69.3230    29.0550    10.5720     9.0260    10.1800   -10.1290 
  127.0000     2.4440   332.1990    79.2170    29.0820     7.3140     7.7810     8.7630   -10.0870 
  127.1250     2.4950   322.9960    84.6250    29.0450     7.2140     7.5610     8.9220   -10.0060 
  127.2500     2.5650   303.4320    80.4100    28.9720    10.2120     8.2130    10.3320    -9.9080 
  127.3750     2.6200   281.2980    69.7830    28.8960    15.4560     9.6950    12.7770    -9.8010 
  127.5000     2.6410   263.1420    59.2000    28.8540    20.4770    11.8460    15.8130    -9.7250 
  127.6250     2.6370   252.8660    55.1560    28.8480    21.9360    14.1370    18.4470    -9.7330 
  127.7500     2.6340   248.7630    58.3910    28.8530    20.4390    15.7020    19.7180    -9.8200 
  127.8750     2.6370   250.2420    60.0250    28.8720    18.4290    16.0550    19.3380   -10.0060 
  128.0000     2.6230   257.9310    59.4310    28.9010    17.7080    15.3020    17.7490   -10.3100 
  128.1250     2.5700   273.8960    59.7970    28.9230    17.3480    13.8690    15.6550   -10.7210 
  128.2500     2.4910   295.6040    60.7210    28.9580    15.4620    12.3270    13.6710   -11.1740 
  128.3750     2.4150   319.1850    60.0660    29.0330    12.5650    10.9260    12.0280   -11.6350 
  128.5000     2.3630   339.8510    60.5700    29.1360    10.3560     9.7730    10.7900   -12.0630 
  128.6250     2.3430   353.1690    64.3670    29.2200     9.5570     8.9050     9.9470   -12.3940 
  128.7500     2.3380   360.5390    68.7330    29.2740     9.2200     8.2240     9.3240   -12.6270 
  128.8750     2.3370   364.4690    71.3810    29.3250     8.8020     7.6730     8.7990   -12.7700 
  129.0000     2.3300   367.2230    72.8670    29.3830     8.0320     7.1980     8.2850   -12.8060 
  129.1250     2.3160   368.9680    73.8990    29.4420     7.0450     6.8340     7.8450   -12.7460 
  129.2500     2.3070   368.0710    75.2230    29.5070     6.4350     6.6660     7.6690   -12.6250 
  129.3750     2.3120   362.7920    75.6450    29.5700     6.5310     6.8020     7.9450   -12.4550 
  129.5000     2.3290   352.7470    74.4570    29.6130     7.4890     7.3340     8.8100   -12.2650 
  129.6250     2.3520   339.1910    72.2400    29.6250     9.7650     8.4130    10.4450   -12.0890 
  129.7500     2.3720   325.5160    69.0630    29.6360    12.8750     9.9590    12.6650   -11.9280 
  129.8750     2.3920   313.7270    63.4360    29.6620    15.6420    11.8440    15.2300   -11.7810 
  130.0000     2.4190   304.3820    57.0550    29.6840    17.0370    13.8060    17.7550   -11.6460 
  130.1250     2.4590   296.9370    54.0380    29.6920    17.4250    15.3320    19.5450   -11.4980 
  130.2500     2.4950   290.6090    56.5570    29.6890    18.3380    15.9830    20.1090   -11.3480 
  130.3750     2.5110   286.1570    60.8600    29.6760    20.2250    15.5840    19.2940   -11.2090 
  130.5000     2.5050   284.3820    63.6770    29.6570    21.6560    14.4080    17.5160   -11.0720 
  130.6250     2.4970   284.2720    64.0560    29.6500    19.6850    13.0310    15.6000   -10.9320 
  130.7500     2.5070   282.3420    64.3170    29.6620    15.7100    11.9740    14.2760   -10.8150 
  130.8750     2.5420   276.6400    64.5560    29.6800    13.5050    11.4910    13.9090   -10.7310 
  131.0000     2.6000   268.5440    62.5150    29.6900    15.2410    11.6830    14.5680   -10.6870 
  131.1250     2.6490   264.5710    58.4510    29.6910    18.6990    12.5720    16.0820   -10.7090 
  131.2500     2.6510   270.8100    56.8530    29.6900    20.4230    13.7960    17.7770   -10.8100 
  131.3750     2.6010   289.4790    57.2710    29.6900    20.5230    14.9800    19.0790   -10.9870 
  131.5000     2.5350   317.6310    57.2120    29.6900    20.1340    15.7120    19.5330   -11.2330 
  131.6250     2.4980   347.5010    57.9130    29.6900    19.0900    15.6570    18.9410   -11.5670 
  131.7500     2.4850   370.6360    59.4450    29.6910    17.6450    15.0730    17.8170   -11.9350 
  131.8750     2.4710   383.4130    60.9040    29.6860    16.4480    14.1790    16.4560   -12.2880 
  132.0000     2.4370   386.9080    63.7100    29.6650    15.3750    13.0720    14.9490   -12.6010 
  132.1250     2.3860   385.7870    69.9490    29.6370    14.0280    11.7890    13.3280   -12.8280 
  132.2500     2.3390   385.9710    79.2360    29.6180    12.4470    10.4560    11.7140   -12.9310 
  132.3750     2.3120   389.3020    87.0020    29.6340    10.6620     9.1770    10.2080   -12.9260 
  132.5000     2.3080   394.9950    89.1260    29.7090     8.8240     8.0420     8.8950   -12.8540 
  132.6250     2.3170   400.4720    86.1820    29.8370     7.4640     7.1550     7.8870   -12.7170 
  132.7500     2.3190   403.5160    82.6480    29.9440     6.7460     6.5230     7.1880   -12.5700 
  132.8750     2.3160   403.7050    83.3120    29.9880     6.4980     6.1640     6.8320   -12.4650 
  133.0000     2.3150   402.1490    87.7670    29.9980     6.5130     6.0910     6.8410   -12.4290 
  133.1250     2.3170   400.5490    92.5580    30.0420     6.9580     6.3650     7.3010   -12.5080 
  133.2500     2.3090   399.3660    91.7750    30.1270     8.1720     6.9490     8.1610   -12.6980 
  133.3750     2.2870   397.6930    85.4870    30.2250     9.9210     7.8340     9.3930   -12.9680 
  133.5000     2.2630   394.5660    79.9940    30.3080    11.3280     8.9740    10.9130   -13.2710 
  133.6250     2.2490   390.2970    79.2710    30.3730    11.9690    10.2690    12.5640   -13.4180 
  133.7500     2.2430   386.9810    78.8800    30.4420    12.6940    11.4830    14.0470   -13.6080 
  133.8750     2.2440   385.8600    77.5030    30.5170    13.8280    12.3440    15.0230   -13.8390 
  134.0000     2.2460   386.5030    77.5700    30.5800    14.9280    12.5900    15.1890   -14.0140 
  134.1250     2.2480   386.9710    79.4050    30.6060    15.1020    12.0200    14.3270   -14.0960 
  134.2500     2.2490   385.8340    79.4700    30.6100    13.9790    10.9680    12.8840   -14.1060 
  134.3750     2.2520   382.9660    79.7050    30.6080    11.8260     9.7960    11.3530   -14.0650 
  134.5000     2.2650   378.7800    81.4760    30.6080     9.5680     8.8510    10.2220   -13.9890 
  134.6250     2.2910   373.7300    81.8190    30.6100     8.3770     8.4400     9.9330   -13.9060 
  134.7500     2.3140   368.8120    78.9060    30.6120     8.6560     8.5690    10.4470   -13.8460 
  134.8750     2.3200   365.1560    76.8430    30.6200    10.5050     9.2220    11.6710   -13.7800 
