~V
VERS. 2.00: Ver 2.00
~W
STRT.M 120.0000:
STOP.M 271.0000:
STEP.M 0.1250:
NULL. -999.2500:
UWI. DF3037:
~C
DEPT.M :
GR.API :
RML.OHMM :
RI. :
RXO.OHMM :
CALI.CM :
SP.MV :
DEN.GM/CC :
AC.US/MT :
~A
# ...
  140.0000    74.7250     9.7950     8.6350     8.9560    24.6340   -23.0390     2.2070   432.2720 
  140.1250    74.0130     9.8920     8.6550     8.8100    24.6680   -23.0330     2.2110   431.0610 
  140.2500    74.7710    10.0280     8.7150     8.8300    24.7140   -22.9450     2.2110   429.9020 
  140.3750    76.6660    10.1030     8.7490     8.8670    24.7830   -22.8380     2.2100   429.1810 
  140.5000    77.5840    10.0100     8.6800     8.9360    24.8350   -22.7160     2.2130   429.1220 
  140.6250    76.3450     9.6500     8.4140     9.1800    24.9070   -22.5180     2.2240   429.6000 
  140.7500    76.3680     9.0950     7.9800     9.3200    25.0200   -22.4200     2.2460   429.9380 
  140.8750    81.6920     8.4530     7.4440     9.0060    25.1590   -22.2720     2.2740   429.6370 
  141.0000    91.9540     7.8530     6.9040     8.1980    25.2970   -22.1730     2.3040   428.6150 
  141.1250    99.6030     7.4350     6.4780     7.3630    25.3840   -21.9870     2.3270   427.3240 
  141.2500   100.8860     7.2110     6.2010     6.5710    25.4090   -21.8490     2.3410   426.4460 
  141.3750    96.4540     7.1520     6.0680     6.1430    25.3790   -21.7810     2.3460   426.1980 
  141.5000    91.2130     7.1960     6.0400     5.9750    25.3230   -21.7030     2.3460   426.3850 
  141.6250    90.4610     7.2630     6.0630     5.9660    25.2240   -21.7380     2.3390   426.6010 
  141.7500    93.7590     7.2790     6.0720     6.1220    25.1750   -21.6570     2.3300   426.4360 
  141.8750    97.2620     7.2130     6.0360     6.2350    25.3520   -21.6170     2.3190   425.6630 
  142.0000    97.0750     7.0660     5.9460     5.9330    25.7360   -21.5440     2.3120   424.2430 
  142.1250    96.0840     6.8790     5.8220     5.7330    25.9520   -21.5140     2.3120   422.5280 
  142.2500    97.9030     6.7410     5.7180     5.7050    25.9390   -21.4950     2.3180   421.1960 
  142.3750   100.0050     6.7190     5.6820     5.8060    25.9390   -21.4130     2.3280   419.9990 
  142.5000    98.7670     6.8340     5.7370     5.7450    26.0950   -21.3180     2.3420   417.5720 
  142.6250    92.7860     7.0410     5.8660     5.6240    26.2560   -21.1780     2.3570   411.8740 
  142.7500    87.9270     7.2060     5.9840     5.5550    26.2480   -21.0990     2.3700   404.0650 
  142.8750    86.9400     7.2330     6.0230     5.8440    26.0820   -21.0050     2.3750   397.6510 
  143.0000    89.9480     7.0870     5.9470     6.2310    25.9160   -20.9700     2.3710   396.7560 
  143.1250    96.0340     6.8170     5.7720     6.2260    25.8630   -20.9190     2.3560   404.0340 
  143.2500   102.6920     6.5640     5.5920     5.7820    25.9750   -20.9730     2.3400   414.9560 
  143.3750   106.4990     6.4220     5.4790     5.3240    26.0910   -21.0100     2.3290   424.3740 
  143.5000   105.4860     6.4260     5.4720     5.1390    26.0750   -21.1410     2.3230   428.8690 
  143.6250   102.2790     6.5670     5.5860     5.4440    25.9150   -21.2600     2.3210   428.0310 
  143.7500   100.5800     6.7520     5.7580     5.8670    25.8440   -21.4190     2.3190   425.5960 
  143.8750    98.8280     6.9200     5.9380     5.9630    25.8630   -21.5730     2.3170   423.8150 
  144.0000    94.2160     7.0310     6.0820     5.8500    25.8560   -21.6660     2.3180   423.2890 
  144.1250    90.0170     7.0630     6.1560     5.6900    25.8050   -21.8140     2.3230   423.5340 
  144.2500    92.2990     7.0380     6.1640     5.7450    25.8070   -21.7910     2.3320   423.8780 
  144.3750    97.7860     6.9670     6.1110     5.7350    25.9430   -21.7680     2.3430   424.3780 
  144.5000    98.9300     6.8560     6.0010     5.6240    26.2080   -21.7460     2.3530   425.4100 
  144.6250    95.7540     6.6910     5.8280     5.5860    26.4170   -21.7270     2.3570   427.5560 
  144.7500    96.6830     6.4760     5.6050     5.4560    26.4980   -21.6910     2.3530   430.9990 
  144.8750   100.6370     6.2150     5.3460     5.2470    26.4750   -21.6490     2.3410   435.7760 
  145.0000   102.2050     5.9240     5.0690     4.9840    26.4560   -21.6850     2.3260   441.3550 
  145.1250   102.1960     5.6400     4.8090     4.7400    26.4650   -21.6280     2.3170   446.1010 
  145.2500   103.1060     5.4180     4.6090     4.5670    26.4070   -21.6910     2.3210   448.3010 
  145.3750   103.0990     5.3190     4.5170     4.4860    26.3140   -21.7530     2.3390   446.6590 
  145.5000   102.2580     5.4060     4.5890     4.5180    26.2650   -21.7700     2.3670   440.3680 
  145.6250   104.3400     5.7720     4.9100     4.7600    26.2490   -21.7810     2.4000   428.3030 
  145.7500   107.3280     6.3740     5.4530     5.3400    26.2150   -21.8370     2.4290   411.6980 
  145.8750   106.1960     7.1260     6.1590     6.2770    26.1490   -21.9070     2.4470   392.2600 
  146.0000   100.1640     7.8730     6.9050     7.5420    26.0510   -21.9650     2.4500   373.5370 
  146.1250    93.5620     8.3690     7.4760     8.9790    25.8220   -22.0540     2.4310   362.0140 
  146.2500    89.6650     8.4980     7.7380    10.3340    25.4490   -22.1060     2.4010   360.6670 
  146.3750    89.3730     8.2480     7.6470    10.0760    24.9890   -22.2120     2.3680   369.1760 
  146.5000    90.2540     7.7210     7.2700     7.7840    24.6370   -22.2340     2.3400   383.7490 
  146.6250    89.3730     7.1010     6.7510     6.8190    24.4450   -22.2950     2.3180   398.4720 
  146.7500    89.4730     6.5940     6.2860     6.6280    24.3770   -22.2460     2.3030   408.9580 
  146.8750    93.6840     6.3420     6.0070     6.6330    24.3690   -22.2430     2.2960   413.8300 
  147.0000    99.5890     6.4510     6.0220     6.3640    24.3660   -22.1540     2.3030   412.8750 
  147.1250   100.7640     7.0450     6.4640     6.2830    24.3300   -22.0050     2.3250   404.4160 
  147.2500    96.2740     7.9510     7.2430     6.8680    24.2800   -21.9070     2.3490   388.6930 
  147.3750    89.5080     8.9520     8.2120     8.3540    24.3030   -21.6810     2.3580   367.0140 
  147.5000    84.0650     9.7820     9.1210    10.4830    24.4210   -21.5260     2.3460   344.0620 
  147.6250    82.7120    10.0620     9.5820    12.9770    24.5170   -21.4270     2.3200   328.7560 
  147.7500    85.9910     9.8380     9.4610    15.0970    24.5380   -21.2850     2.3020   325.7210 
  147.8750    89.8850     9.2400     8.8150    13.1260    24.4810   -21.0880     2.3030   334.6350 
  148.0000    90.1710     8.5160     7.8970     9.3060    24.3520   -20.8730     2.3200   350.4480 
  148.1250    88.6330     8.0290     7.0900     7.8700    24.2210   -20.7260     2.3360   364.7240 
  148.2500    89.2250     7.7160     6.6970     7.7440    24.1970   -20.5220     2.3430   370.9320 
  148.3750    89.5240     8.2550     6.9340     7.8620    24.2340   -20.3680     2.3490   366.1890 
  148.5000    85.0840     9.7560     7.9440     8.4800    24.2590   -20.2440     2.3650   350.3880 
  148.6250    77.6530    12.2000     9.8290     9.9810    24.2350   -20.0000     2.4000   325.6890 
  148.7500    71.6340    14.9070    12.1350    12.9410    24.1550   -19.8440     2.4400   299.8490 
  148.8750    66.2050    17.1210    14.2820    17.3880    24.1270   -19.6660     2.4690   279.4350 
  149.0000    61.5730    18.0880    15.5850    20.0280    24.2130   -19.5540     2.4760   269.4370 
  149.1250    60.3880    17.2230    15.3670    20.7130    24.3320   -19.3620     2.4630   273.0390 
  149.2500    62.3840    15.3560    14.1270    17.5080    24.3910   -19.2030     2.4460   284.8290 
  149.3750    67.2850    13.4950    12.6460    13.8310    24.4300   -19.0450     2.4370   298.9190 
  149.5000    72.9190    12.5140    11.6720    11.2110    24.4540   -18.8590     2.4430   308.8210 
  149.6250    74.2230    13.0620    11.8210    10.9530    24.4810   -18.6740     2.4660   307.9740 
  149.7500    69.8890    14.8580    13.0300    12.5930    24.5310   -18.4620     2.5000   297.7450 
  149.8750    63.5290    17.5370    15.1410    16.3360    24.5700   -18.2730     2.5350   282.2530 
