~V
VERS. 2.00: Ver 2.00
~W
STRT.M 120.0000:
STOP.M 235.0000:
STEP.M 0.1250:
NULL. -999.2500:
UWI. DF3022:
~C
DEPT.M :
SP.MV :
GR.API :
CALI.CM :
RXO.OHMM :
RI. :
RML.OHMM :
DEN.GM/CC :
~A
# ...
  221.2500    -6.8660    60.4490    24.6390     8.3540     7.4240     7.9770     2.3870 
  221.3750    -6.8360    60.4190    24.6390     8.4380     7.4580     8.0760     2.4000 
  221.5000    -6.8390    58.3320    24.6390     8.0170     7.5150     8.1670     2.4320 
  221.6250    -6.8910    55.9740    24.6390     7.6020     7.5160     8.1560     2.4520 
  221.7500    -6.9650    56.2580    24.6390     7.2730     7.4680     8.0750     2.4550 
  221.8750    -7.0510    57.7710    24.6390     7.1410     7.4070     7.9810     2.4490 
  222.0000    -7.1440    57.5470    24.6390     7.1430     7.3590     7.9180     2.4430 
  222.1250    -7.2510    56.1340    24.6390     7.2260     7.3270     7.9030     2.4370 
  222.2500    -7.3580    55.7740    24.6390     7.2990     7.2950     7.9110     2.4340 
  222.3750    -7.4360    56.9630    24.6390     7.3070     7.2460     7.9130     2.4370 
  222.5000    -7.4870    58.5800    24.6390     7.2640     7.1670     7.8870     2.4440 
  222.6250    -7.5160    60.6470    24.6390     7.3660     7.0560     7.8220     2.4490 
  222.7500    -7.5410    63.0950    24.6390     7.7770     6.9260     7.7300     2.4510 
  222.8750    -7.5660    63.7900    24.6370     8.1220     6.7940     7.6240     2.4450 
  223.0000    -7.5790    61.7700    24.6260     8.0080     6.6750     7.5230     2.4290 
  223.1250    -7.5620    58.8710    24.5990     7.6610     6.5910     7.4530     2.4110 
  223.2500    -7.5450    57.5660    24.5750     7.4500     6.5460     7.4260     2.3980 
  223.3750    -7.5330    58.1110    24.5660     7.4040     6.5440     7.4490     2.3920 
  223.5000    -7.5330    58.5860    24.5640     7.4880     6.5850     7.5200     2.3860 
  223.6250    -7.5140    59.1030    24.5640     7.7220     6.6660     7.6390     2.3810 
  223.7500    -7.4880    59.6280    24.5610     7.8840     6.7650     7.7790     2.3820 
  223.8750    -7.4440    59.7690    24.5450     7.8400     6.8630     7.9150     2.3910 
  224.0000    -7.3960    59.6930    24.5070     7.6420     6.9380     8.0160     2.4030 
  224.1250    -7.3580    57.5720    24.4820     7.3940     6.9700     8.0490     2.4090 
  224.2500    -7.3200    56.5150    24.4730     7.2270     6.9690     8.0330     2.4060 
  224.3750    -7.2700    58.9840    24.4720     7.1460     6.9550     8.0000     2.3940 
  224.5000    -7.2210    62.7260    24.4720     7.1370     6.9510     7.9900     2.3790 
  224.6250    -7.1810    61.2480    24.4720     7.1980     6.9870     8.0450     2.3740 
  224.7500    -7.1440    58.4790    24.4720     7.2780     7.0640     8.1540     2.3820 
  224.8750    -7.1310    58.4790    24.4720     7.3460     7.1680     8.2910     2.3940 
  225.0000    -7.1210    58.4790    24.4720     7.4000     7.2780     8.4190     2.3980 
  225.1250    -7.0890    58.4790    24.4720     7.2960     7.3590     8.4960     2.3920 
  225.2500    -7.0490    58.4790    24.4720     7.1420     7.3980     8.5150     2.3890 
  225.3750    -7.0150    58.4790    24.4720     7.0410     7.3960     8.4830     2.3930 
  225.5000    -6.9460    58.4790    24.4720     6.9330     7.3720     8.4320     2.3940 
  225.6250    -6.8580    58.4790    24.4720     6.5960     7.3620     8.4060     2.3810 
  225.7500    -6.7520    58.4790    24.4720     6.2710     7.3940     8.4340     2.3590 
  225.8750    -6.6220    58.4790    24.4720     6.3150     7.4800     8.5260     2.3430 
  226.0000    -6.4890    58.4790    24.4720     6.9210     7.6060     8.6640     2.3430 
  226.1250    -6.3970    58.4790    24.4720     7.6040     7.7380     8.7950     2.3490 
  226.2500    -6.3130    58.4790    24.4720     8.0050     7.8370     8.8740     2.3580 
  226.3750    -6.2350    58.4790    24.4720     8.0510     7.8890     8.8940     2.3720 
  226.5000    -6.1990    58.4790    24.4710     8.0300     7.9060     8.8850     2.3900 
  226.6250    -6.1840    58.4790    24.4690     8.1950     7.9310     8.9110     2.4040 
  226.7500    -6.1950    58.4790    24.4680     8.4800     8.0010     9.0150     2.4090 
  226.8750    -6.2240    58.4790    24.4570     8.6850     8.1350     9.2130     2.4060 
  227.0000    -6.2670    58.4790    24.4120     8.4960     8.3270     9.4890     2.3970 
  227.1250    -6.3000    58.4790    24.3070     8.3030     8.5530     9.8050     2.3890 
  227.2500    -6.3130    58.4790    24.2120     8.8510     8.7750    10.1150     2.3800 
  227.3750    -6.3320    58.4790    24.1450     9.9580     8.9840    10.4040     2.3700 
  227.5000    -6.3360    58.4790    24.0930    11.1240     9.1940    10.6870     2.3550 
  227.6250    -6.3190    58.4790    24.0570    12.2150     9.4360    11.0050     2.3410 
  227.7500    -6.3090    58.4790    24.0120    14.1990     9.7170    11.3720     2.3360 
  227.8750    -6.2940    58.4790    23.9280    15.3910    10.0230    11.7730     2.3450 
  228.0000    -6.2680    58.4790    23.7330    14.9550    10.3160    12.1500     2.3580 
  228.1250    -6.2200    58.4790    23.3410    13.5100    10.5220    12.3940     2.3580 
  228.2500    -6.1760    58.4790    22.8290    11.9210    10.6110    12.4700     2.3390 
  228.3750    -6.1380    58.4790    22.1500     9.8170    10.5920    12.3960     2.3050 
  228.5000    -6.1150    58.4790    21.2090     7.9480    10.5060    12.2330     2.2620 
  228.6250    -6.0940    58.4790    19.9840     7.0000    10.4090    12.0560     2.2150 
  228.7500    -6.0650    58.4790    18.8120     6.5090    10.3430    11.9080     2.1680 
  228.8750    -6.0430    58.4790    17.8850     6.2570    10.3140    11.7980     2.1210 
  229.0000    -6.0240    58.4790    17.1540     6.1340    10.3040    11.7200     2.0760 
  229.1250    -6.0180    58.4790    16.6380     6.0530    10.2980    11.6790     2.0400 
  229.2500    -6.0200    58.4790    16.3200     6.0160    10.2910    11.6650     2.0160 
  229.3750    -6.0040    58.4790    16.1640     6.0250    10.2830    11.6590     2.0040 
  229.5000    -5.9780    58.4790    16.1110     6.0310    10.2760    11.6450     1.9980 
  229.6250    -5.9680    58.4790    16.1030     5.9990    10.2700    11.6160     1.9940 
  229.7500    -5.9510    58.4790    16.0960     5.9500    10.2650    11.5870     1.9910 
  229.8750    -5.9170    58.4790    16.0740     5.8670    10.2600    11.5680     1.9910 
  230.0000    -5.8790    58.4790    16.0350     5.7610    10.2580    11.5570     1.9940 
  230.1250    -5.8460    58.4790    16.0160     5.6480    10.2580    11.5470     1.9910 
  230.2500    -5.8020    58.4790    16.0110     5.5900    10.2590    11.5340     1.9800 
  230.3750    -5.7760    58.4790    16.0110     5.5710    10.2590    11.5230     1.9640 
  230.5000    -5.7570    58.4790    16.0110     5.5790    10.2580    11.5180     1.9520 
  230.6250    -5.7190    58.4790    16.0110     5.6080    10.2550    11.5210     1.9490 
  230.7500    -5.6880    58.4790    16.0110     5.6980    10.2530    11.5240     1.9530 
  230.8750    -5.6750    58.4790    16.0110     5.8470    10.2530    11.5240     1.9570 
  231.0000    -5.6650    58.4790    16.0110     5.9790    10.2530    11.5240     1.9540 
  231.1250    -5.6350    58.4790    16.0110     6.0500    10.2530    11.5240     1.9480 
  231.2500    -5.6350    58.4790    16.0110     6.0970    10.2530    11.5240     1.9430 
  231.3750    -5.6350    58.4790    16.0110     6.1040    10.2530    11.5240     1.9420 
  231.5000  -999.2500    58.4790    16.0180     6.0450    10.2530    11.5240     1.9420 
  231.6250  -999.2500    58.4790    16.0480     5.9750    10.2530    11.5240     1.9410 
  231.7500  -999.2500    58.4790    16.1340     5.9750    10.2530    11.5240     1.9410 
  231.8750  -999.2500    58.4790    16.2880     6.0370    10.2530    11.5240     1.9470 
  232.0000  -999.2500    58.4790    16.4350     6.0930    10.2530    11.5240     1.9610 
  232.1250  -999.2500    58.4790    16.4930     6.0870    10.2530    11.5240     1.9700 
  232.2500  -999.2500    58.4790    16.5030     6.0580    10.2530    11.5240     1.9630 
  232.3750  -999.2500    58.4790    16.5030     6.0690    10.2530    11.5240     1.9440 
