~V
VERS. 2.00: Ver 2.00
~W
STRT.M 65.0000:
STOP.M 252.0000:
STEP.M 0.1250:
NULL. -999.2500:
UWI. DF3012:
~C
DEPT.M :
GR.API :
RML.OHMM :
RI. :
RXO.OHMM :
CALI.CM :
DEN.GM/CC :
SP.MV :
~A
# ...
  211.2500    63.7830   201.7540   174.6970   190.2110    24.6040     2.1980   -31.8480 
  211.3750    64.2290   201.7430   175.0060   195.8330    24.4900     2.1990   -31.7240 
  211.5000    64.5100   192.5470   168.1700   194.6830    24.6240     2.2010   -31.6410 
  211.6250    65.1770   173.4050   153.3690   184.6710    24.8440     2.2040   -31.5260 
  211.7500    66.9770   148.7640   133.7610   164.7190    24.9290     2.2060   -31.3260 
  211.8750    69.0460   122.7370   112.3710   138.9190    24.9150     2.2110   -31.1770 
  212.0000    69.2790    99.2050    92.3550   109.7440    24.8970     2.2190   -31.0360 
  212.1250    66.7730    81.5020    76.7520    80.8990    24.8400     2.2300   -30.9130 
  212.2500    63.7990    69.2200    65.6910    60.5760    24.7490     2.2370   -30.8380 
  212.3750    62.0900    61.6200    58.7580    49.9890    24.6140     2.2340   -30.7400 
  212.5000    62.7410    57.6120    55.0980    45.6560    24.4790     2.2180   -30.6820 
  212.6250    65.7290    56.2970    53.9730    45.0510    24.4600     2.1970   -30.6750 
  212.7500    67.8960    56.1180    53.9600    46.0930    24.4610     2.1790   -30.7370 
  212.8750    69.9810    56.2180    54.2420    47.6580    24.3890     2.1790   -30.8820 
  213.0000    71.2610    55.9680    54.1750    47.4950    24.2350     2.1950   -30.9810 
  213.1250    69.8500    54.9390    53.2520    43.6460    23.9730     2.2210   -31.1020 
  213.2500    67.3430    53.3690    51.6390    38.9150    23.8340     2.2470   -31.2740 
  213.3750    67.7540    51.7240    49.7330    36.0210    23.8990     2.2610   -31.4470 
  213.5000    70.5060    50.6720    48.1420    36.0630    24.1250     2.2600   -31.5980 
  213.6250    71.0160    51.3000    47.8360    38.2650    24.3680     2.2460   -31.7210 
  213.7500    70.6440    54.1400    49.3570    41.1750    24.5270     2.2270   -31.8080 
  213.8750    71.5940    59.6120    53.1350    45.4180    24.5870     2.2100   -31.7810 
  214.0000    72.9410    67.6580    59.2200    51.6110    24.6140     2.1980   -31.8240 
  214.1250    72.0170    77.5940    67.2080    59.5780    24.6740     2.1930   -31.8650 
  214.2500    68.6660    87.3460    75.4230    69.4890    24.7300     2.1910   -31.7720 
  214.3750    64.9710    95.0280    82.3200    83.4780    24.7340     2.1920   -31.7110 
  214.5000    62.7880    99.1550    86.5910   100.7390    24.6400     2.1940   -31.5730 
  214.6250    65.6650    98.7640    87.1970   100.4670    24.4990     2.1980   -31.3580 
  214.7500    71.1330    95.6430    85.2910    83.1620    24.4210     2.2010   -31.1340 
  214.8750    77.0260    91.2510    81.9190    72.0690    24.4400     2.2010   -30.9100 
  215.0000    80.3110    86.5410    77.8950    70.8640    24.5160     2.2000   -30.5910 
  215.1250    77.9340    81.5690    73.3880    70.4130    24.6090     2.2010   -30.2050 
  215.2500    74.5580    75.8660    68.1990    65.8980    24.6570     2.2080   -29.8580 
  215.3750    74.0150    69.0520    62.0670    61.4810    24.6100     2.2220   -29.4430 
  215.5000    75.0640    61.2610    55.0980    57.2660    24.5110     2.2370   -29.1690 
  215.6250    74.3430    53.3380    47.9690    47.9460    24.4700     2.2540   -28.9170 
  215.7500    74.1360    46.4610    41.6770    37.9080    24.4340     2.2700   -28.7080 
  215.8750    76.4160    41.5490    37.0030    30.6730    24.3970     2.2850   -28.6540 
  216.0000    78.7230    39.3110    34.5610    26.6580    24.3650     2.2990   -28.6190 
  216.1250    78.1880    40.7860    35.2910    26.3980    24.3870     2.3060   -28.7290 
  216.2500    76.0310    45.5440    38.9580    29.8410    24.4510     2.3050   -28.9150 
  216.3750    73.0940    53.1270    45.3310    38.1100    24.5370     2.2950   -29.1290 
  216.5000    70.0440    62.4210    53.5680    52.1230    24.5920     2.2800   -29.3520 
  216.6250    69.2940    71.3870    61.9540    69.6530    24.5670     2.2640   -29.5850 
  216.7500    69.6030    78.0220    68.5170    80.4970    24.5240     2.2490   -29.7520 
  216.8750    69.3040    81.3190    72.1660    79.7540    24.4880     2.2390   -29.8170 
  217.0000    68.4180    81.4620    72.8600    75.1020    24.4350     2.2330   -29.9320 
  217.1250    70.3350    79.5070    71.3450    71.0280    24.3610     2.2330   -29.9040 
  217.2500    72.9580    77.2160    69.2450    68.7550    24.2670     2.2380   -29.7880 
  217.3750    73.4860    75.3120    67.3150    68.9020    24.1810     2.2440   -29.6580 
  217.5000    73.5870    74.1440    65.9620    69.4270    24.1360     2.2460   -29.3880 
  217.6250    75.4580    74.8780    66.1520    69.1800    24.1410     2.2400   -29.0770 
  217.7500    76.2870    79.3230    69.2920    70.0650    24.1720     2.2280   -28.7140 
  217.8750    74.1340    89.3800    77.0120    73.7650    24.2020     2.2150   -28.2730 
  218.0000    71.9740   105.1150    89.6740    81.6460    24.2160     2.2180   -27.7400 
  218.1250    72.4360   122.1960   104.3590    96.4910    24.2110     2.2510   -27.1710 
  218.2500    73.5100   131.5910   113.7020   119.5130    24.1840     2.3250   -26.5870 
  218.3750    73.8690   125.1710   110.7270   148.6110    24.1160     2.4360   -25.9430 
  218.5000    73.1280   100.4570    92.5120   187.6100    24.0070     2.5430   -25.3170 
  218.6250    71.4840    66.7970    64.6900   220.8990    23.9140     2.6090   -24.6920 
  218.7500    72.0730    40.2750    40.6300   135.6720    23.8000     2.6110   -24.1610 
  218.8750    77.1760    24.5590    25.1240    40.6670    23.7040     2.5680   -23.7670 
  219.0000    82.7170    16.9050    17.0100    15.8600    23.7130     2.5330   -23.4070 
  219.1250    80.1220    14.1750    13.8060    12.3600    23.8880     2.5350   -23.2530 
  219.2500    72.9000    13.2000    12.4830    12.8780    24.0880     2.5720   -23.1810 
  219.3750    68.7370    12.8600    11.9830    13.2990    24.2480     2.6120   -23.1920 
  219.5000    71.9750    12.6100    11.7850    11.7360    24.4520     2.6190   -23.3520 
  219.6250    80.9060    12.2830    11.6610    10.3430    24.6590     2.5870   -23.5370 
  219.7500    89.6840    11.9990    11.5870     9.9570    24.7620     2.5340   -23.7670 
  219.8750    97.1040    11.8910    11.6290    10.0890    24.7890     2.4870   -24.0200 
  220.0000   103.7660    11.9800    11.8060    10.4540    24.7920     2.4590   -24.3290 
  220.1250   109.7950    12.1500    12.0200    10.7480    24.7920     2.4470   -24.5510 
  220.2500   113.0190    12.2220    12.1080    10.8830    24.7920     2.4460   -24.8050 
  220.3750   113.0740    12.1190    11.9790    10.7810    24.7900     2.4490   -25.1130 
  220.5000   114.6180    11.8480    11.6310    10.5240    24.7750     2.4520   -25.3230 
  220.6250   122.8650    11.4890    11.1380    10.4100    24.7370     2.4540   -25.6530 
  220.7500   133.2800    11.1950    10.6660    10.4490    24.6980     2.4540   -26.0340 
  220.8750   140.5260    11.1210    10.3630    10.5580    24.6820     2.4530   -26.4110 
  221.0000   140.6080    11.4490    10.3800    10.8980    24.6770     2.4500   -26.8190 
  221.1250   133.9690    12.4870    10.9630    12.0330    24.6780     2.4440   -27.2800 
  221.2500   125.5660    14.2850    12.1710    14.2140    24.6980     2.4310   -27.7560 
  221.3750   117.4400    16.8550    14.0570    17.6850    24.7450     2.4110   -28.2040 
  221.5000   109.2030    20.0360    16.5510    22.4220    24.7760     2.3900   -28.7350 
  221.6250   101.9710    23.4370    19.4040    27.5470    24.7650     2.3740   -29.0920 
  221.7500    96.5080    26.4650    22.0860    31.3180    24.7220     2.3660   -29.3730 
  221.8750    91.9190    28.6940    24.1700    33.4400    24.6880     2.3660   -29.6080 
  222.0000    86.3210    29.9300    25.3950    34.5600    24.6880     2.3670   -29.6810 
  222.1250    83.6100    30.1790    25.6730    34.2120    24.7220     2.3640   -29.7330 
  222.2500    85.4980    29.9690    25.4530    32.7150    24.7470     2.3550   -29.6420 
  222.3750    88.6390    29.6390    25.0520    31.2380    24.7180     2.3450   -29.5130 
