~V
VERS. 2.00: Ver 2.00
~W
STRT.M 60.0000:
STOP.M 258.0000:
STEP.M 0.1250:
NULL. -999.2500:
UWI. DF3032:
~C
DEPT.M :
GR.API :
RML.OHMM :
RI. :
RXO.OHMM :
CALI.CM :
DEN.GM/CC :
SP.MV :
~A
# ...
  150.0000    64.4790    21.0880    21.3130    21.9060    24.7230     2.5190   -10.8090 
  150.1250    65.8050    20.3390    20.5870    20.7570    24.7230     2.5160   -10.7210 
  150.2500    67.1620    19.7520    19.9490    19.0010    24.7230     2.5150   -10.6260 
  150.3750    67.0500    19.3700    19.4790    18.0320    24.7280     2.5190   -10.7100 
  150.5000    65.0900    19.1720    19.1910    17.8510    24.7420     2.5270   -10.7180 
  150.6250    61.7710    19.1360    19.0790    19.2330    24.7630     2.5320   -10.7010 
  150.7500    58.6240    19.1880    19.0700    20.1670    24.7610     2.5300   -10.8400 
  150.8750    55.8040    19.2930    19.1250    19.3750    24.7500     2.5220   -10.9050 
  151.0000    54.7190    19.4330    19.2240    18.5620    24.7230     2.5110   -10.8340 
  151.1250    58.5950    19.6020    19.3660    18.3870    24.6520     2.5030   -10.8690 
  151.2500    64.7410    19.7730    19.5280    18.8380    24.5560     2.4990   -10.9830 
  151.3750    69.5970    19.9110    19.6730    18.5290    24.4870     2.4970   -10.9740 
  151.5000    70.6780    19.9840    19.7620    18.1000    24.4570     2.4970   -10.9130 
  151.6250    68.7260    19.9760    19.7590    18.6150    24.4500     2.4990   -10.8570 
  151.7500    66.7780    19.9350    19.7020    19.4260    24.4620     2.5080   -10.7820 
  151.8750    65.9110    19.9280    19.6500    19.5360    24.5210     2.5220   -10.6800 
  152.0000    65.8530    20.0160    19.6640    19.0730    24.6710     2.5390   -10.6080 
  152.1250    63.4440    20.2340    19.7890    19.3350    24.8510     2.5530   -10.6000 
  152.2500    59.8910    20.5090    19.9810    20.3280    24.9830     2.5600   -10.4920 
  152.3750    57.9740    20.7520    20.1710    21.1430    25.0050     2.5570   -10.3700 
  152.5000    58.6430    20.8810    20.2850    21.7330    24.9120     2.5470   -10.4060 
  152.6250    60.7230    20.8330    20.2480    21.2540    24.7530     2.5320   -10.4110 
  152.7500    61.5290    20.6640    20.0890    21.0210    24.5940     2.5190   -10.3030 
  152.8750    60.1750    20.4420    19.8580    20.2770    24.4530     2.5130   -10.3360 
  153.0000    58.1730    20.2310    19.6130    19.8840    24.3890     2.5160   -10.4190 
  153.1250    60.4290    20.0680    19.3980    20.1950    24.4000     2.5250   -10.3350 
  153.2500    66.8360    19.9410    19.2170    20.1970    24.4380     2.5340   -10.3480 
  153.3750    72.5460    19.8330    19.0600    19.8850    24.4760     2.5380   -10.4400 
  153.5000    72.8040    19.7300    18.9200    19.4350    24.5330     2.5370   -10.3760 
  153.6250    70.2210    19.6340    18.7990    19.1620    24.5480     2.5340   -10.3480 
  153.7500    70.5650    19.5650    18.7090    18.8450    24.5070     2.5320   -10.4280 
  153.8750    73.5690    19.5520    18.6710    18.6330    24.5270     2.5280   -10.3700 
  154.0000    75.0470    19.6110    18.7000    18.7200    24.7000     2.5210   -10.2780 
  154.1250    74.5800    19.7560    18.8060    19.0080    24.8470     2.5120   -10.3820 
  154.2500    74.8590    19.9590    18.9680    19.0120    24.9060     2.5040   -10.4550 
  154.3750    75.4600    20.2000    19.1670    19.3740    24.9250     2.5000   -10.4230 
  154.5000    75.9520    20.4500    19.3760    19.9890    24.9470     2.5000   -10.4130 
  154.6250    79.2010    20.6650    19.5470    20.1730    24.9330     2.5010   -10.4890 
  154.7500    81.9240    20.7970    19.6380    20.1590    24.9140     2.4990   -10.5560 
  154.8750    80.4010    20.7940    19.6050    20.6590    24.9050     2.4940   -10.6090 
  155.0000    76.0010    20.6150    19.4160    21.4670    24.9150     2.4870   -10.6750 
  155.1250    74.4790    20.2420    19.0540    21.2190    24.9380     2.4850   -10.7240 
  155.2500    75.1250    19.7790    18.6020    20.2310    24.9570     2.4880   -10.7060 
  155.3750    75.4140    19.3350    18.1490    19.1780    24.9310     2.4940   -10.7240 
  155.5000    76.6230    19.0210    17.7850    18.4600    24.8600     2.4990   -10.8890 
  155.6250    77.8610    18.9450    17.6110    18.3700    24.8000     2.5020   -10.9420 
  155.7500    76.0500    19.0590    17.6110    18.5780    24.7470     2.5040   -10.9100 
  155.8750    72.3420    19.2850    17.7380    19.0660    24.7070     2.5050   -11.0380 
  156.0000    71.0260    19.5260    17.9190    19.6450    24.6660     2.5050   -11.2370 
  156.1250    73.3640    19.7030    18.0860    20.1180    24.6460     2.5020   -11.2470 
  156.2500    75.5430    19.8300    18.2240    20.3840    24.5890     2.5010   -11.3130 
  156.3750    75.6030    19.9610    18.3600    20.4090    24.5240     2.5020   -11.4700 
  156.5000    74.9150    20.1490    18.5270    20.1010    24.5040     2.5080   -11.4620 
  156.6250    75.2490    20.4130    18.7450    20.3050    24.4670     2.5160   -11.4940 
  156.7500    76.7520    20.6860    18.9670    20.8200    24.3880     2.5220   -11.6240 
  156.8750    77.6580    20.8990    19.1360    21.1590    24.3260     2.5260   -11.5980 
  157.0000    76.7750    21.0070    19.2070    21.2750    24.3280     2.5240   -11.5170 
  157.1250    74.7140    21.0090    19.1640    20.8550    24.4250     2.5180   -11.6070 
  157.2500    73.4520    20.9880    19.0730    20.5240    24.5690     2.5080   -11.5870 
  157.3750    73.5120    21.0090    18.9960    20.4890    24.6680     2.4990   -11.4810 
  157.5000    73.1170    21.0920    18.9690    20.8330    24.6570     2.4930   -11.5360 
  157.6250    72.0710    21.1970    18.9850    20.8880    24.5830     2.4940   -11.6030 
  157.7500    73.2470    21.2470    18.9840    21.0630    24.5370     2.4990   -11.5300 
  157.8750    75.5450    21.1970    18.9230    20.9810    24.5090     2.5090   -11.5070 
  158.0000    74.8750    21.0470    18.7850    20.3450    24.4730     2.5210   -11.5600 
  158.1250    71.1620    20.8270    18.5700    19.7760    24.4560     2.5330   -11.5400 
  158.2500    70.5130    20.5890    18.3230    19.1790    24.4560     2.5440   -11.5140 
  158.3750    74.1470    20.3510    18.0670    18.9300    24.4920     2.5500   -11.5200 
  158.5000    76.0280    20.1150    17.8140    18.7980    24.6030     2.5480   -11.4930 
  158.6250    72.8020    19.8830    17.5720    18.1340    24.7730     2.5310   -11.3330 
  158.7500    70.3350    19.6680    17.3460    17.4970    24.9100     2.5060   -11.2670 
  158.8750    70.2780    19.4770    17.1340    16.7740    24.9530     2.4790   -11.2790 
  159.0000    70.5610    19.3050    16.9310    16.1900    24.8860     2.4610   -11.1450 
  159.1250    68.9850    19.1450    16.7320    16.3550    24.6950     2.4630   -10.9830 
  159.2500    66.7000    18.9960    16.5420    16.5780    24.5460     2.4820   -10.9500 
  159.3750    63.9530    18.8830    16.3780    16.3020    24.5490     2.5130   -10.8380 
  159.5000    60.8080    18.8330    16.2600    15.0600    24.6620     2.5420   -10.6320 
  159.6250    58.4230    18.8510    16.1990    14.8010    24.8020     2.5620   -10.5760 
  159.7500    55.1250    18.8640    16.1500    15.3160    24.8800     2.5710   -10.4400 
  159.8750    51.7390    18.7900    16.0650    16.0400    24.9030     2.5720   -10.2260 
  160.0000    50.8600    18.5760    15.9120    16.4780    24.9150     2.5690   -10.1750 
  160.1250    53.1850    18.2320    15.6950    16.5500    24.9390     2.5670   -10.1270 
  160.2500    55.5080    17.8970    15.4920    16.1290    24.9710     2.5690    -9.9730 
  160.3750    57.8490    17.7000    15.3840    15.6930    24.9850     2.5760    -9.9610 
  160.5000    60.6960    17.7220    15.4290    15.7690    24.9870     2.5850    -9.9850 
  160.6250    62.3440    17.9790    15.6510    16.3680    24.9940     2.5890    -9.8590 
  160.7500    61.3240    18.3380    15.9620    16.8910    25.0050     2.5850    -9.8720 
  160.8750    59.6040    18.6910    16.2820    17.3000    24.9960     2.5700    -9.9550 
  161.0000    58.7130    18.9640    16.5450    17.5880    24.9450     2.5450    -9.8820 
  161.1250    57.7120    19.1310    16.7070    17.5310    24.9150     2.5210    -9.8340 
