~V
VERS. 2.00: Ver 2.00
~W
STRT.M 59.0000:
STOP.M 281.0000:
STEP.M 0.1250:
NULL. -999.2500:
UWI. DF3005:
~C
DEPT.M :
DEN.GM/CC :
SP.MV :
AC.US/MT :
GR.API :
CALI.CM :
RXO.OHMM :
RI. :
RML.OHMM :
~A
# ...
  209.0000     2.2680   -31.8890   388.8450    64.4980    24.5580    61.6030    49.5950    57.6920 
  209.1250     2.2600   -32.1040   396.8500    64.2440    24.6210    62.5810    53.9750    61.3030 
  209.2500     2.2520   -32.3140   402.6250    63.0820    24.6710    61.0610    55.9530    62.4080 
  209.3750     2.2390   -32.5170   405.7940    61.7750    24.7260    57.9950    56.2480    62.0820 
  209.5000     2.2270   -32.7200   405.9540    62.6270    24.7770    60.5340    55.2980    60.6470 
  209.6250     2.2270   -32.9120   404.7630    65.6370    24.8100    71.3800    53.1030    57.8490 
  209.7500     2.2350   -33.0910   404.3440    68.4150    24.8180    67.1330    50.2140    54.3400 
  209.8750     2.2430   -33.2420   404.6920    70.7290    24.7950    52.6540    47.3220    51.0860 
  210.0000     2.2470   -33.3730   404.5670    73.3550    24.7400    44.4920    45.2020    48.9880 
  210.1250     2.2480   -33.5000   403.0220    74.7070    24.6890    42.0510    44.6960    48.8650 
  210.2500     2.2470   -33.6230   400.8420    73.3700    24.6700    49.7160    45.8470    50.5620 
  210.3750     2.2430   -33.7530   399.5130    71.0690    24.6630    63.2410    48.6150    53.9360 
  210.5000     2.2340   -33.8940   400.1530    68.6210    24.6430    74.9570    52.6960    58.6190 
  210.6250     2.2220   -34.0580   403.3800    65.7520    24.6030    77.4770    57.6770    64.1220 
  210.7500     2.2110   -34.2480   408.0800    64.3360    24.5680    75.7440    62.9550    69.7940 
  210.8750     2.2030   -34.4420   412.9420    65.9930    24.5460    74.7940    68.2270    75.2570 
  211.0000     2.2020   -34.6210   416.5200    68.9130    24.5340    85.2750    73.1480    80.0990 
  211.1250     2.2070   -34.7430   415.6290    69.9700    24.5650    86.1700    77.0380    83.6530 
  211.2500     2.2170   -34.8020   408.1090    69.0430    24.6360    86.8640    79.5680    85.8030 
  211.3750     2.2310   -34.8240   394.0220    67.4500    24.6810    84.6880    80.6980    86.6860 
  211.5000     2.2470   -34.8280   377.9210    66.0430    24.6360    77.6440    80.9820    87.0130 
  211.6250     2.2530   -34.8430   369.1790    64.8220    24.5280    72.3270    81.6630    88.1340 
  211.7500     2.2440   -34.8730   370.7550    63.8080    24.4480    72.0270    83.7950    90.9290 
  211.8750     2.2250   -34.9110   379.9050    63.9560    24.4050    75.6680    87.8750    95.7940 
  212.0000     2.2110   -34.9560   390.9590    64.9560    24.3610    82.4800    93.9410   102.7750 
  212.1250     2.2120   -34.9890   398.3150    63.5500    24.3100    94.5360   101.7940   111.7530 
  212.2500     2.2180   -35.0070   401.1950    60.2990    24.3230   117.0890   110.2770   121.4580 
  212.3750     2.2190   -35.0220   400.3900    59.1470    24.4660   136.6380   118.4430   130.6230 
  212.5000     2.2170   -35.0210   397.6740    60.8510    24.6940   142.2680   125.4620   138.0430 
  212.6250     2.2210   -35.0070   395.6840    61.2700    24.8400   126.6380   130.4050   142.5240 
  212.7500     2.2270   -34.9830   395.8610    59.4830    24.8670   130.4880   133.3270   144.6000 
  212.8750     2.2220   -34.9570   397.5210    58.0140    24.8500   128.0660   134.3970   144.9860 
  213.0000     2.2010   -34.9440   398.4380    59.7970    24.7720   130.5090   134.0820   144.4970 
  213.1250     2.1810   -34.9300   397.1190    63.9590    24.5370   137.0140   133.1000   143.8920 
  213.2500     2.1790   -34.9090   395.0430    67.0530    24.2330   130.0590   132.6200   143.9150 
  213.3750     2.1890   -34.8810   393.9000    67.6610    24.0220   116.5980   133.6450   145.3020 
  213.5000     2.1890   -34.8420   394.8790    66.5260    24.0080   122.2040   136.8090   148.6270 
  213.6250     2.1720   -34.8090   398.3000    65.2820    24.1890   122.4920   141.8880   153.5070 
  213.7500     2.1610   -34.7710   402.4350    63.5600    24.4390   129.3100   146.6070   157.3000 
  213.8750     2.1650   -34.7290   405.0640    61.7180    24.6290   141.2130   148.6280   157.2430 
  214.0000     2.1810   -34.6910   403.9250    60.9350    24.6320   147.4680   146.5560   152.1000 
  214.1250     2.2020   -34.6530   398.4520    63.0870    24.4330   129.3230   140.8540   143.4350 
  214.2500     2.2230   -34.6260   392.6600    66.3670    24.1730   102.3570   134.0850   136.5810 
  214.3750     2.2330   -34.5870   390.0920    67.8280    23.9300    80.4310   129.3340   133.5510 
  214.5000     2.2280   -34.5060   391.7650    66.7200    23.7330    81.3640   128.8300   133.7300 
  214.6250     2.2170   -34.3890   395.7960    64.7450    23.6220   106.3470   130.5370   136.5910 
  214.7500     2.2130   -34.2690   399.1560    64.2950    23.6040   131.8310   130.3900   138.2870 
  214.8750     2.2160   -34.1880   400.7870    65.4120    23.6400   144.0800   125.1360   135.4160 
  215.0000     2.2190   -34.1490   400.7470    66.5770    23.6690   134.2580   113.9640   126.3130 
  215.1250     2.2160   -34.1620   399.6650    65.3190    23.6500   109.9750    99.4220   112.0930 
  215.2500     2.2140   -34.2250   398.6350    63.3410    23.6030    91.0180    86.2140    97.6380 
  215.3750     2.2190   -34.3050   397.9940    62.9160    23.5630    84.3420    76.7000    86.1230 
  215.5000     2.2250   -34.3830   397.9580    65.0800    23.5430    78.6930    71.8590    79.3350 
  215.6250     2.2220   -34.4210   399.6940    67.0450    23.5360    67.0070    72.7340    79.0390 
  215.7500     2.2090   -34.4180   403.4920    68.6130    23.5520    59.0210    78.1980    84.3470 
  215.8750     2.1980   -34.4040   408.6110    69.1090    23.5850    70.5330    87.1380    94.1700 
  216.0000     2.1920   -34.4030   413.2170    66.7240    23.6110   101.3290    96.9820   105.7710 
  216.1250     2.1850   -34.4400   415.2810    62.8960    23.7030   126.3850   102.3580   113.6580 
  216.2500     2.1770   -34.4760   414.8690    61.6460    23.9160   125.5030   100.3800   114.2440 
  216.3750     2.1750   -34.4990   413.2020    63.4560    24.1680   109.4540    92.2360   107.6370 
  216.5000     2.1790   -34.5450   412.2780    66.4640    24.3050    79.5310    81.9990    97.2350 
  216.6250     2.1850   -34.6390   413.3370    67.4180    24.2730    59.1480    73.7620    87.4530 
  216.7500     2.1880   -34.7630   415.0320    65.7590    24.2220    55.1100    68.4600    80.3400 
  216.8750     2.1850   -34.8580   415.9400    64.3290    24.2330    57.5250    65.6520    75.9440 
  217.0000     2.1780   -34.8760   415.5790    66.4030    24.3160    60.3490    64.4760    73.6200 
  217.1250     2.1770   -34.8300   414.2550    69.5370    24.4410    60.6570    64.1740    72.7270 
  217.2500     2.1860   -34.7650   412.8370    69.6040    24.5450    58.5160    64.1680    72.4990 
  217.3750     2.2030   -34.7220   411.8690    67.2460    24.6020    56.5020    64.4710    72.8130 
  217.5000     2.2190   -34.7180   411.7620    64.9220    24.6250    63.8120    65.2350    73.7350 
  217.6250     2.2210   -34.7310   412.8200    65.2040    24.5760    86.5480    66.5600    75.3210 
  217.7500     2.2140   -34.7470   414.2890    69.0240    24.3870   104.1240    68.1600    77.2020 
  217.8750     2.2080   -34.7580   415.5670    72.8140    24.0640   105.4900    69.7950    79.0920 
  218.0000     2.2100   -34.7760   416.2140    72.2680    23.7380    86.1300    71.3600    80.8560 
  218.1250     2.2190   -34.8110   416.9040    69.5840    23.5570    77.8470    72.9640    82.5960 
  218.2500     2.2260   -34.8390   418.4480    68.1010    23.4800    64.9200    74.7530    84.4940 
  218.3750     2.2240   -34.8690   420.5470    66.3280    23.4520    71.6060    76.6920    86.4940 
  218.5000     2.2140   -34.9150   422.1650    63.8150    23.4550    90.3380    78.4810    88.2170 
  218.6250     2.2020   -34.9720   421.8870    63.2840    23.4750   123.5500    79.4940    88.8990 
  218.7500     2.1980   -35.0410   420.3720    63.9590    23.4890   179.4900    79.5230    88.3130 
  218.8750     2.2010   -35.0970   418.8160    63.8500    23.4940   188.7150    78.7350    86.6190 
