~V
VERS. 2.00: Ver 2.00
~W
STRT.M 125.0000:
STOP.M 275.0000:
STEP.M 0.1250:
NULL. -999.2500:
UWI. DF3046:
~C
DEPT.M :
GR.API :
CALI.CM :
RXO.OHMM :
RI. :
RML.OHMM :
DEN.GM/CC :
SP.MV :
~A
# ...
  248.7500    74.0590    24.3850   166.1430    86.4540    91.0780     2.5910   -15.7820 
  248.8750    74.3430    24.5320   212.2590    97.1850   102.8430     2.6280   -15.5830 
  249.0000    74.8600    24.5360   233.3720   110.9810   117.4950     2.6370   -15.3140 
  249.1250    74.2860    24.4190   248.7000   125.9050   131.0800     2.6260   -15.0080 
  249.2500    71.2310    24.2530   632.8450   134.4300   134.5610     2.6000   -14.7140 
  249.3750    67.9310    24.0700  1350.4110   127.0090   121.2620     2.5730   -14.4580 
  249.5000    66.5220    23.9420  1375.4840   100.7540    93.3380     2.5450   -14.2080 
  249.6250    65.0300    23.9270   596.8360    67.1820    62.2610     2.5090   -13.9600 
  249.7500    61.0980    24.0120    77.4300    40.9730    38.5850     2.4600   -13.6740 
  249.8750    56.1380    24.0970    19.9550    24.6920    23.8170     2.4130   -13.3690 
  250.0000    52.6290    24.1490    16.5670    15.8870    15.5900     2.3880   -13.1210 
  250.1250    53.0380    24.1520    12.2000    11.8640    11.6890     2.3810   -12.9170 
  250.2500    56.1320    24.1130    11.1370     9.8400     9.7470     2.3770   -12.7070 
  250.3750    59.9940    24.0710    10.7760     8.9310     8.8870     2.3670   -12.4680 
  250.5000    63.7730    24.0250    10.4590     8.6590     8.5730     2.3610   -12.2600 
  250.6250    65.4860    23.9120    10.2250     8.7260     8.5240     2.3710   -12.1600 
  250.7500    64.3650    23.6780    10.0990     8.8590     8.5930     2.3920   -12.1250 
  250.8750    62.3760    23.3920    10.0060     8.9640     8.7630     2.4100   -12.1610 
  251.0000    60.7480    23.0880     9.9060     8.9910     8.9980     2.4130   -12.2100 
  251.1250    58.4050    22.7210     9.8720     8.9230     9.1910     2.4040   -12.2230 
  251.2500    56.0830    22.7590     9.9660     8.8200     9.2450     2.3930   -12.2290 
  251.3750    56.9320    23.0160    10.1470     8.7350     9.1500     2.3900   -12.2640 
  251.5000    59.6720    23.0800    10.4210     8.6910     9.0000     2.3990   -12.3230 
  251.6250    59.6840    22.9790    10.8240     8.6630     8.9730     2.4050   -12.3630 
  251.7500    58.6050    23.1020    11.2070     8.6100     9.1240     2.3990   -12.3360 
  251.8750    58.6560    23.4680    11.2480     8.5210     9.3790     2.3830   -12.2100 
  252.0000    59.0870    23.8560    11.0070     8.4100     9.5990     2.3690   -12.0530 
  252.1250    59.0790    24.0810    10.7460     8.3060     9.6660     2.3690   -11.9340 
  252.2500    59.1050    24.1620    10.4600     8.2240     9.6280     2.3850   -11.8390 
  252.3750    58.2360    24.1810    10.2130     8.1610     9.5580     2.4130   -11.7400 
  252.5000    56.3610    24.1850    10.0830     8.1110     9.5020     2.4390   -11.6010 
  252.6250    56.3160    24.1910    10.0660     8.0840     9.4760     2.4520   -11.3920 
  252.7500    58.2070    24.2090    10.0940     8.0870     9.4810     2.4550   -11.2300 
  252.8750    58.7520    24.2530    10.1470     8.1230     9.5170     2.4590   -11.1620 
  253.0000    58.1640    24.3100    10.1570     8.1810     9.5700     2.4660   -11.1420 
  253.1250    59.5870    24.3470    10.1520     8.2240     9.6030     2.4650   -11.0870 
  253.2500    60.8510    24.3540    10.2800     8.2100     9.5830     2.4560   -10.9440 
  253.3750    58.8950    24.3410    10.5170     8.1270     9.5020     2.4440   -10.7400 
  253.5000    54.8610    24.3150    10.7470     8.0030     9.3830     2.4290   -10.5450 
  253.6250    54.1520    24.2940    10.8920     7.8950     9.2750     2.4140   -10.4130 
  253.7500    56.6770    24.3020    10.9980     7.8360     9.2120     2.4110   -10.2880 
  253.8750    60.5780    24.3190    11.1160     7.8340     9.2050     2.4210   -10.1570 
  254.0000    63.4080    24.3430    11.1190     7.8760     9.2440     2.4310   -10.0050 
  254.1250    63.5350    24.3660    10.7230     7.9420     9.3090     2.4290    -9.8760 
  254.2500    61.7910    24.3820     9.9810     8.0020     9.3690     2.4190    -9.8040 
  254.3750    59.7480    24.3940     9.4870     8.0380     9.4050     2.4120    -9.7460 
  254.5000    58.8210    24.4080     9.7060     8.0380     9.4070     2.4160    -9.6840 
  254.6250    58.6570    24.4320    10.1460     8.0060     9.3780     2.4260    -9.6010 
  254.7500    58.9710    24.4420    10.0720     7.9650     9.3360     2.4320    -9.5400 
  254.8750    59.5350    24.4380     9.8200     7.9250     9.2910     2.4300    -9.5020 
  255.0000    59.6520    24.4270     9.8850     7.8840     9.2470     2.4260    -9.4460 
  255.1250    58.8520    24.4390     9.9270     7.8470     9.2100     2.4270    -9.3720 
  255.2500    57.6800    24.4760     9.7310     7.8270     9.1970     2.4300    -9.3420 
  255.3750    57.7720    24.5080     9.5510     7.8490     9.2290     2.4290    -9.3920 
  255.5000    60.0500    24.5190     9.7740     7.9340     9.3250     2.4210    -9.4640 
  255.6250    62.6150    24.5110    10.3030     8.1000     9.5000     2.4100    -9.5180 
  255.7500    63.1550    24.4950    10.7990     8.3100     9.7160     2.4040    -9.5520 
  255.8750    62.3270    24.4830    10.9570     8.5190     9.9280     2.4040    -9.5680 
  256.0000    61.4730    24.4580    11.1430     8.6720    10.0790     2.4080    -9.6470 
  256.1250    60.8610    24.4440    12.1780     8.6990    10.1080     2.4130    -9.8320 
  256.2500    61.1150    24.4370    13.0450     8.6120    10.0240     2.4200   -10.0300 
  256.3750    62.6900    24.4390    13.1530     8.4460     9.8570     2.4300   -10.1950 
  256.5000    63.9510    24.4330    12.9140     8.2450     9.6480     2.4420   -10.3380 
  256.6250    63.5160    24.4090    12.8870     8.0540     9.4450     2.4460   -10.4630 
  256.7500    62.7700    24.3870    13.0340     7.8980     9.2750     2.4380   -10.5480 
  256.8750    61.5140    24.3690    13.1760     7.7820     9.1460     2.4230   -10.6140 
  257.0000    58.3570    24.3570    13.0580     7.7060     9.0600     2.4100   -10.6650 
  257.1250    55.6110    24.3550    12.2910     7.6680     9.0160     2.4070   -10.6330 
  257.2500    56.1580    24.3540    11.0430     7.6540     8.9970     2.4110   -10.5140 
  257.3750    58.1700    24.3500     9.6930     7.6520     8.9910     2.4180   -10.3330 
  257.5000    59.3130    24.3580     8.5750     7.6510     8.9890     2.4230   -10.1430 
  257.6250    60.1660    24.3780     7.7880     7.6500     8.9920     2.4220   -10.0080 
  257.7500    62.3570    24.3980     7.1620     7.6590     9.0030     2.4130    -9.9010 
  257.8750    63.3420    24.4150     6.6660     7.6810     9.0270     2.3950    -9.7940 
  258.0000    60.5520    24.4410     6.4640     7.7170     9.0640     2.3760    -9.6400 
  258.1250    56.7310    24.4620     6.8020     7.7600     9.1090     2.3670    -9.4380 
  258.2500    54.9930    24.4760     7.2760     7.8000     9.1520     2.3660    -9.2630 
  258.3750    54.7270    24.4730     7.5550     7.8330     9.1890     2.3570    -9.1550 
  258.5000    54.9720    24.4710     7.6430     7.8620     9.2240     2.3360    -9.0870 
  258.6250    56.9910    24.4560     7.9870     7.8970     9.2650     2.3300    -8.9980 
  258.7500    58.5690    24.4400     8.9810     7.9470     9.3220     2.3480    -8.8420 
  258.8750    58.2940    24.4130    10.7660     8.0170     9.4010     2.3810    -8.6450 
  259.0000    57.5060    24.3870    12.7040     8.1110     9.5040     2.4120    -8.5030 
  259.1250    57.6340    24.3900    13.1450     8.2310     9.6330     2.4300    -8.4510 
  259.2500    57.9580    24.4160    12.4900     8.3650     9.7780     2.4380    -8.4030 
  259.3750    58.3070    24.4470    11.8470     8.5020     9.9240     2.4400    -8.3210 
  259.5000    58.5780    24.4750    11.3700     8.6270    10.0580     2.4450    -8.2330 
  259.6250    58.4650    24.4660    10.7600     8.7220    10.1580     2.4510    -8.1750 
  259.7500    57.6230    24.4530    10.3590     8.7790    10.2220     2.4510    -8.1980 
  259.8750    55.8390    24.4240    10.6080     8.8020    10.2550     2.4440    -8.2740 
