~V
VERS. 2.00: Ver 2.00
~W
STRT.M 64.0000:
STOP.M 262.0000:
STEP.M 0.1250:
NULL. -999.2500:
UWI. DF3019:
~C
DEPT.M :
GR.API :
RML.OHMM :
RI. :
RXO.OHMM :
CALI.CM :
DEN.GM/CC :
SP.MV :
~A
# ...
  176.5000    78.0550    72.7250    61.3540    61.0100    24.9350     2.2560   -29.8260 
  176.6250    80.5070    70.4690    59.6420    60.7320    24.9210     2.2660   -29.7340 
  176.7500    83.6450    67.7210    57.4860    58.8050    24.8780     2.2740   -29.6790 
  176.8750    86.0280    64.8710    55.1940    55.6620    24.8270     2.2790   -29.6060 
  177.0000    84.1370    62.3070    53.0780    51.9430    24.7980     2.2840   -29.5390 
  177.1250    79.5660    60.5040    51.5240    49.5790    24.7920     2.2870   -29.4430 
  177.2500    77.6020    59.5870    50.6670    48.9930    24.7920     2.2890   -29.4410 
  177.3750    79.1780    59.6020    50.5770    49.3670    24.7920     2.2890   -29.4260 
  177.5000    80.4410    60.4440    51.2020    50.2410    24.7920     2.2880   -29.4900 
  177.6250    79.3600    61.9100    52.4150    51.6810    24.7900     2.2820   -29.4670 
  177.7500    76.6400    63.5110    53.8100    53.2370    24.7780     2.2760   -29.4960 
  177.8750    73.9810    64.8880    55.0710    54.6680    24.7380     2.2710   -29.4880 
  178.0000    74.0390    65.7750    55.9470    55.5110    24.6720     2.2710   -29.5200 
  178.1250    76.4640    66.0020    56.2420    55.6410    24.6190     2.2750   -29.5510 
  178.2500    78.2500    65.8320    56.1410    55.4490    24.6090     2.2790   -29.4990 
  178.3750    79.3670    65.5460    55.8640    54.9050    24.6420     2.2800   -29.5200 
  178.5000    80.9890    65.4050    55.6410    54.4510    24.7190     2.2780   -29.4590 
  178.6250    83.6150    65.5960    55.6670    54.3020    24.7710     2.2740   -29.4820 
  178.7500    84.1810    66.0330    55.9240    55.1290    24.7900     2.2710   -29.5020 
  178.8750    80.2610    66.5980    56.3450    56.2350    24.7850     2.2720   -29.5170 
  179.0000    74.5780    67.1830    56.8510    56.3370    24.7630     2.2760   -29.5450 
  179.1250    74.5650    67.7620    57.4170    55.9430    24.7200     2.2790   -29.4900 
  179.2500    78.8730    68.4100    58.0740    55.6840    24.6980     2.2800   -29.5510 
  179.3750    80.8650    69.2310    58.8950    55.8790    24.6890     2.2790   -29.5340 
  179.5000    79.1700    70.2770    59.9250    56.7090    24.6860     2.2780   -29.5750 
  179.6250    78.3540    71.4740    61.1260    57.0450    24.6840     2.2770   -29.5710 
  179.7500    79.1600    72.5460    62.2800    57.3680    24.6840     2.2770   -29.5200 
  179.8750    78.7820    73.2140    63.1460    59.0350    24.6820     2.2810   -29.5520 
  180.0000    76.3920    73.2550    63.5080    61.4470    24.6800     2.2860   -29.5630 
  180.1250    74.7500    72.4880    63.1510    60.9630    24.6800     2.2910   -29.6700 
  180.2500    75.1890    71.1470    62.2300    59.2150    24.6620     2.2940   -29.6970 
  180.3750    76.5980    69.4340    60.9010    57.5120    24.6140     2.2940   -29.7890 
  180.5000    75.9670    67.5720    59.3630    55.4200    24.5520     2.2920   -29.8440 
  180.6250    73.6580    65.8180    57.8430    54.0080    24.4960     2.2910   -29.9810 
  180.7500    73.2370    64.3940    56.5580    52.9510    24.4340     2.2940   -30.0820 
  180.8750    74.8780    63.5620    55.7330    51.5340    24.3430     2.3000   -30.1410 
  181.0000    77.8290    63.6690    55.6580    49.7980    24.1970     2.3070   -30.1370 
  181.1250    79.8250    65.4300    56.9290    49.1620    24.1110     2.3100   -30.1800 
  181.2500    79.4690    69.0420    59.7500    48.6610    24.0810     2.3070   -30.2470 
  181.3750    77.1430    74.6340    64.2940    48.7040    24.0870     2.2980   -30.2540 
  181.5000    75.3560    81.9270    70.4160    51.7990    24.1380     2.2870   -30.3810 
  181.6250    73.3550    90.1760    77.6190    57.9080    24.3010     2.2820   -30.3930 
  181.7500    69.0800    97.9540    84.7110    69.0970    24.5060     2.2850   -30.4390 
  181.8750    64.5430   104.0680    90.6530    88.2580    24.6380     2.2960   -30.5580 
  182.0000    63.4260   107.6570    94.6090    96.7600    24.6650     2.3070   -30.7050 
  182.1250    66.3820   108.2210    95.9680    88.3210    24.6120     2.3080   -30.8050 
  182.2500    69.7380   107.1920    95.7830    83.4290    24.5350     2.2960   -30.8390 
  182.3750    70.7770   106.1010    95.2890    81.4920    24.4840     2.2780   -30.8680 
  182.5000    69.6590   106.5360    95.8740    74.6880    24.4230     2.2590   -30.7230 
  182.6250    67.1920   109.9100    98.8780    69.1210    24.3560     2.2460   -30.6420 
  182.7500    66.0840   115.2460   103.6820    73.0170    24.2020     2.2390   -30.4940 
  182.8750    65.7850   120.5730   108.7390    79.2440    24.0030     2.2370   -30.2220 
  183.0000    66.6810   123.0810   111.6880    82.1880    23.8620     2.2400   -29.9230 
  183.1250    69.8310   119.0820   109.2290    82.5890    23.8210     2.2480   -29.6030 
  183.2500    71.6040   109.0710   101.3900    79.6020    23.8030     2.2610   -29.3250 
  183.3750    69.7170    95.4710    89.8950    77.3230    23.7560     2.2780   -29.0700 
  183.5000    66.7910    82.0880    77.8920    69.0780    23.6480     2.2940   -28.9100 
  183.6250    68.1860    72.9540    69.0900    53.0120    23.5900     2.3040   -28.6740 
  183.7500    70.9660    68.6510    64.5270    41.1350    23.5630     2.3040   -28.5560 
  183.8750    70.7620    68.6210    63.9960    38.7750    23.5430     2.2940   -28.4660 
  184.0000    68.2720    71.5960    66.4960    40.8940    23.5250     2.2780   -28.4710 
  184.1250    66.6340    76.1550    70.7940    43.9110    23.5030     2.2660   -28.4030 
  184.2500    65.2240    80.7360    75.3030    45.5860    23.4380     2.2590   -28.4070 
  184.3750    63.7430    84.8180    79.3760    45.8360    23.3470     2.2580   -28.4140 
  184.5000    63.9590    88.6110    83.0290    47.8540    23.3730     2.2590   -28.3610 
  184.6250    66.4640    93.0430    86.9640    55.7260    23.6350     2.2570   -28.4390 
  184.7500    68.7590    98.6100    91.7140    63.9970    24.0340     2.2510   -28.4340 
  184.8750    69.0200   104.8310    96.9680    74.6890    24.4960     2.2410   -28.4890 
  185.0000    68.1790   110.1430   101.4450    89.4190    24.8610     2.2310   -28.5010 
  185.1250    67.6060   111.5950   102.6220    97.3370    25.0170     2.2280   -28.5470 
  185.2500    67.3310   108.1160    99.5410   101.2950    25.0600     2.2330   -28.6080 
  185.3750    66.8610   100.0950    92.4390   102.4570    25.0460     2.2440   -28.6190 
  185.5000    65.0900    89.7100    83.0440    90.6090    24.9870     2.2570   -28.7090 
  185.6250    65.0560    80.6160    74.4080    68.7870    24.9090     2.2640   -28.6890 
  185.7500    67.8100    75.6130    69.2060    56.4830    24.8310     2.2650   -28.7420 
  185.8750    71.1350    76.6650    69.4240    51.6960    24.7130     2.2630   -28.7500 
  186.0000    70.1790    85.4230    76.7090    52.5400    24.5740     2.2660   -28.7390 
  186.1250    63.4020   103.9970    93.0640    58.1600    24.4770     2.2780   -28.6870 
  186.2500    56.7620   128.7890   115.2130    73.4140    24.4490     2.2960   -28.5160 
  186.3750    52.8440   154.2630   138.1630    95.7810    24.4590     2.3120   -28.3730 
  186.5000    52.9630   172.3800   154.7940   121.3900    24.4950     2.3190   -28.1470 
  186.6250    56.2580   172.3590   155.8910   144.3310    24.4930     2.3140   -27.9500 
  186.7500    60.3550   155.7760   142.6330   158.6650    24.4040     2.3020   -27.6530 
  186.8750    63.8560   130.1510   120.6670   127.9010    24.1980     2.2860   -27.3510 
  187.0000    65.7810   105.1040    97.8060    79.6550    23.9670     2.2670   -27.0240 
  187.1250    66.9090    87.1720    80.3750    56.4520    23.8500     2.2530   -26.8090 
  187.2500    68.5530    75.6320    68.7200    45.4300    23.8180     2.2510   -26.5450 
  187.3750    70.0900    69.2640    61.9620    42.3730    23.8150     2.2770   -26.2810 
  187.5000    71.0980    66.7160    58.8330    43.5820    23.8070     2.3370   -26.0230 
  187.6250    71.5400    66.5240    57.8920    48.8910    23.7640     2.4270   -25.7100 
