~V
VERS. 2.00: Ver 2.00
~W
STRT.M 125.0000:
STOP.M 276.0000:
STEP.M 0.1250:
NULL. -999.2500:
UWI. DF3039:
~C
DEPT.M :
SP.MV :
GR.API :
CALI.CM :
RXO.OHMM :
RI. :
RML.OHMM :
DEN.GM/CC :
~A
# ...
  136.2500   -22.0060    79.4240    23.5300     5.0590     5.2010     5.7980     2.3100 
  136.3750   -21.9750    80.6960    24.2550     4.8440     4.9350     5.6080     2.3070 
  136.5000   -22.0520    84.3780    24.6390     4.8640     4.9310     5.8130     2.3230 
  136.6250   -22.2990    88.5300    24.7530     4.9040     5.3690     6.6630     2.3510 
  136.7500   -22.6160    88.4560    24.7400     5.5310     6.2730     8.1220     2.3770 
  136.8750   -22.8920    81.5550    24.6210     7.7070     7.6440    10.0580     2.4020 
  137.0000   -23.1190    71.4760    24.5600    13.1920     9.3860    12.2120     2.4250 
  137.1250   -23.3660    66.5100    24.5190    21.9030    11.1890    14.0760     2.4440 
  137.2500   -23.6860    64.9790    24.3530    28.3540    12.5270    15.1690     2.4570 
  137.3750   -24.0800    62.3450    24.0910    28.6800    13.0250    15.2650     2.4600 
  137.5000   -24.4730    59.5450    23.6900    22.6990    12.7070    14.5120     2.4420 
  137.6250   -24.7610    57.9040    23.5710    15.2210    11.8400    13.2730     2.3900 
  137.7500   -24.9030    59.5970    23.5540    11.3390    10.9200    12.1270     2.3190 
  137.8750   -24.9440    65.1060    23.4250    10.4270    10.2080    11.3980     2.2550 
  138.0000   -24.9980    69.5520    23.3790    10.2010     9.7900    11.1410     2.2120 
  138.1250   -25.1000    67.5310    23.5810    10.3040     9.6680    11.2660     2.1970 
  138.2500   -25.1930    64.5730    23.6090    10.5630     9.7140    11.5340     2.1970 
  138.3750   -25.1850    64.5390    23.6280    10.8330     9.8250    11.7660     2.2050 
  138.5000   -25.0530    64.0060    23.6770    10.8750     9.9010    11.8470     2.2120 
  138.6250   -24.8390    61.4440    23.6570    10.6560     9.8880    11.7640     2.2100 
  138.7500   -24.6650    62.3180    23.3310    10.4500     9.8350    11.6170     2.1970 
  138.8750   -24.6010    65.0330    23.0780    10.3900     9.7840    11.4980     2.1810 
  139.0000   -24.5460    66.5620    23.2450    10.3830     9.8000    11.5100     2.1720 
  139.1250   -24.3630    69.9020    23.2750    10.3480    10.0020    11.7920     2.1780 
  139.2500   -24.0680    71.8240    23.2520    10.1080    10.3170    12.1840     2.1910 
  139.3750   -23.7530    68.4320    23.2460    10.0640    10.5970    12.4910     2.2020 
  139.5000   -23.5220    62.7090    23.3810    10.4400    10.6780    12.5470     2.2130 
  139.6250   -23.4070    62.6220    23.5820    11.4230    10.3730    12.1210     2.2350 
  139.7500   -23.3020    68.0760    23.7560    12.6210     9.7080    11.2520     2.2810 
  139.8750   -23.1140    74.8880    23.8880    13.7580     8.8250    10.1100     2.3490 
  140.0000   -22.8630    81.5500    23.9260    12.1170     7.9550     9.0240     2.4110 
  140.1250   -22.6650    85.5210    24.0650     8.6480     7.3350     8.3370     2.4280 
  140.2500   -22.6010    83.5350    24.1010     6.1380     7.0640     8.1340     2.4040 
  140.3750   -22.6420    76.7550    24.0690     6.6050     7.1890     8.3950     2.3550 
  140.5000   -22.6980    68.2370    23.9040     7.9480     7.6510     8.9640     2.3000 
  140.6250   -22.6490    63.0560    23.6320     8.8010     8.3110     9.6240     2.2520 
  140.7500   -22.5060    62.2820    23.5520     9.0080     8.8950    10.1000     2.2240 
  140.8750   -22.3350    63.3380    23.4940     8.9360     9.1810    10.1890     2.2220 
  141.0000   -22.2220    66.8830    23.4720     8.8780     9.0160     9.7770     2.2400 
  141.1250   -22.1540    73.9920    23.4980     8.5210     8.4430     9.0070     2.2730 
  141.2500   -22.0240    82.0410    23.6710     7.6620     7.7380     8.2080     2.3120 
  141.3750   -21.7850    86.0220    23.9730     6.7250     7.0430     7.5120     2.3440 
  141.5000   -21.4660    83.4120    24.2700     6.1830     6.4570     6.9680     2.3540 
  141.6250   -21.2130    80.2250    24.4150     5.7640     6.0140     6.6070     2.3410 
  141.7500   -21.1030    81.1980    24.3890     5.5450     5.6870     6.3760     2.3270 
  141.8750   -21.1490    85.5820    24.1930     5.5020     5.4380     6.2180     2.3340 
  142.0000   -21.2520    88.7230    24.1130     5.5500     5.2200     6.0840     2.3610 
  142.1250   -21.3290    90.3110    24.1640     5.2660     5.0410     5.9710     2.3870 
  142.2500   -21.3740    94.2030    24.3270     5.0870     4.9470     5.9560     2.3950 
  142.3750   -21.4750    96.9900    24.4400     4.9860     4.9930     6.1360     2.3920 
  142.5000   -21.7100    95.6850    24.4580     5.3350     5.2380     6.6040     2.3880 
  142.6250   -22.0560    92.3080    24.3830     5.8690     5.7920     7.4700     2.3840 
  142.7500   -22.3780    88.9860    24.2310     6.0380     6.6140     8.6080     2.3780 
  142.8750   -22.5720    81.6270    24.0480     6.8080     7.6290     9.8880     2.3740 
  143.0000   -22.6740    70.2100    23.6890     8.3710     8.7280    11.1360     2.3770 
  143.1250   -22.7800    61.9850    23.6710     9.6780     9.6890    12.0680     2.3740 
  143.2500   -22.9730    58.1060    23.6900    10.1280    10.3220    12.5490     2.3440 
  143.3750   -23.1740    56.4790    23.6400    10.2310    10.5460    12.5380     2.2830 
  143.5000   -23.2590    56.5030    23.5960     9.9120    10.3840    12.1080     2.2130 
  143.6250   -23.1400    58.4130    23.5990     9.6690     9.9020    11.4090     2.1650 
  143.7500   -22.8900    60.6720    23.5800     9.5540     9.2980    10.6720     2.1460 
  143.8750   -22.6130    62.3750    23.5450     9.3290     8.6700    10.0000     2.1500 
  144.0000   -22.3440    65.6450    23.5580     8.5860     8.0460     9.4030     2.1710 
  144.1250   -22.0960    73.4710    23.7330     7.2010     7.4880     8.9360     2.2130 
  144.2500   -21.8010    81.6750    24.0680     6.1650     7.0410     8.6070     2.2610 
  144.3750   -21.4430    84.5800    24.4110     5.8950     6.7310     8.4190     2.3000 
  144.5000   -21.0570    81.8870    24.5080     6.0590     6.5660     8.3770     2.3180 
  144.6250   -20.7420    79.2510    24.4410     6.1280     6.5390     8.4610     2.3140 
  144.7500   -20.5810    79.8960    24.1970     6.1060     6.5880     8.5740     2.2940 
  144.8750   -20.5270    83.9080    23.6670     6.2590     6.6410     8.6330     2.2720 
  145.0000   -20.4840    89.5270    23.3670     6.6230     6.6480     8.5760     2.2620 
  145.1250   -20.3500    92.2620    23.5400     6.5120     6.5600     8.3800     2.2770 
  145.2500   -20.1670    92.2960    24.1640     6.1910     6.3990     8.1020     2.3000 
  145.3750   -20.0200    92.6620    24.5330     5.8970     6.2090     7.8070     2.3170 
  145.5000   -19.9710    94.3160    24.5740     5.5640     6.0150     7.5430     2.3250 
  145.6250   -20.0160    94.0080    24.5670     5.4210     5.8520     7.3460     2.3310 
  145.7500   -20.0320    91.0670    24.5350     5.3910     5.7290     7.2220     2.3380 
  145.8750   -19.9670    86.7790    24.4820     5.4280     5.6470     7.1510     2.3380 
  146.0000   -19.8490    84.1670    24.4770     5.3760     5.5870     7.0860     2.3290 
  146.1250   -19.8080    86.9080    24.4820     5.3690     5.5280     7.0070     2.3150 
  146.2500   -19.8800    92.2880    24.3850     5.3560     5.4790     6.9380     2.3090 
  146.3750   -20.0060    96.6960    24.3290     5.3760     5.4370     6.8880     2.3150 
  146.5000   -20.0810    99.0040    24.3830     5.3840     5.4180     6.8790     2.3340 
  146.6250   -20.0400   101.3090    24.4970     5.3330     5.4460     6.9240     2.3600 
  146.7500   -19.9620   102.5220    24.6450     5.4590     5.5050     7.0160     2.3790 
  146.8750   -19.9620    99.4210    24.6150     5.6370     5.6090     7.1600     2.3810 
  147.0000   -20.0990    92.6940    24.5740     5.8310     5.7620     7.3600     2.3640 
  147.1250   -20.2790    87.8080    24.6600     5.7850     5.9690     7.6090     2.3400 
  147.2500   -20.3800    86.0990    24.5340     6.1610     6.2110     7.8780     2.3240 
  147.3750   -20.3800    84.7740    24.1790     6.6140     6.4840     8.1710     2.3120 
