~V
VERS. 2.00: Ver 2.00
~W
STRT.M 120.0000:
STOP.M 268.0000:
STEP.M 0.1250:
NULL. -999.2500:
UWI. DF3028:
~C
DEPT.M :
DEN.GM/CC :
GR.API :
CALI.CM :
RXO.OHMM :
RI. :
RML.OHMM :
SP.MV :
~A
# ...
  210.0000     2.1980    64.2330    27.5210    75.3310   140.7530   171.2530   -32.3320 
  210.1250     2.1900    62.2350    27.5210    75.9990   146.0080   176.5460   -32.4460 
  210.2500     2.1870    60.2390    27.5210    76.2970   147.1940   175.5860   -32.5520 
  210.3750     2.1920    60.3710    27.5210    76.3620   142.1470   165.8740   -32.6750 
  210.5000     2.2020    63.3380    27.5210    74.7500   131.0780   149.1430   -32.7770 
  210.6250     2.2120    66.3450    27.5210    70.1410   116.9220   130.8230   -32.8210 
  210.7500     2.2150    67.6940    27.5190    64.7360   104.1610   115.8600   -32.8210 
  210.8750     2.2140    69.2690    27.5150    61.2810    94.9480   105.8170   -32.7860 
  211.0000     2.2090    71.4560    27.5130    61.0740    89.8070   100.5010   -32.7170 
  211.1250     2.2050    71.7020    27.5150    62.9320    88.3830    99.0470   -32.6250 
  211.2500     2.2050    69.7070    27.5190    64.4270    88.5660    98.9980   -32.5350 
  211.3750     2.2140    66.6230    27.5210    65.4780    88.9610    98.8190   -32.4680 
  211.5000     2.2270    63.1490    27.5200    66.8660    88.6480    97.6580   -32.4220 
  211.6250     2.2310    63.1500    27.5220    67.8930    87.4290    95.6190   -32.3940 
  211.7500     2.2280    66.4770    27.5320    67.3270    86.1640    93.8330   -32.3920 
  211.8750     2.2250    70.0260    27.5370    65.8120    85.6030    93.1010   -32.3960 
  212.0000     2.2280    69.9760    27.5140    65.3060    86.0510    93.6170   -32.3880 
  212.1250     2.2350    67.9120    27.4600    66.9390    87.1740    94.8450   -32.3620 
  212.2500     2.2400    68.0790    27.3990    68.8500    88.0230    95.6710   -32.3110 
  212.3750     2.2410    70.4140    27.3410    69.0260    88.0910    95.5940   -32.2210 
  212.5000     2.2310    74.2040    27.2910    66.3580    87.4570    94.8170   -32.0890 
  212.6250     2.2150    76.1770    27.2670    61.8520    86.6290    93.9810   -31.9390 
  212.7500     2.2090    74.1410    27.2900    59.5070    85.8520    93.2690   -31.7430 
  212.8750     2.2180    69.7990    27.3880    62.1800    84.6240    92.0070   -31.4930 
  213.0000     2.2300    65.7150    27.5580    69.1400    82.1230    89.2170   -31.2050 
  213.1250     2.2270    64.1000    27.7360    72.7670    77.8700    84.4770   -30.8990 
  213.2500     2.2230    64.8560    27.8460    67.4200    73.2480    79.5610   -30.5730 
  213.3750     2.2230    67.4560    27.8750    55.3030    70.0060    76.5490   -30.2220 
  213.5000     2.2220    68.8130    27.8350    43.0440    69.7730    77.2120   -29.8600 
  213.6250     2.2140    65.0250    27.7230    40.0490    74.3370    83.3580   -29.5120 
  213.7500     2.2150    60.6470    27.5910    56.1680    82.8310    93.8000   -29.1880 
  213.8750     2.2370    59.2420    27.4710   108.2730    93.4380   106.2960   -28.9080 
  214.0000     2.2710    60.0240    27.3650   191.6370   102.9100   116.8100   -28.6860 
  214.1250     2.2920    61.6220    27.3790   219.0800   106.9380   120.0550   -28.5260 
  214.2500     2.2920    63.4280    27.5450   175.6690   105.6020   116.9110   -28.4250 
  214.3750     2.2770    65.2620    27.7640   117.5090   100.9110   110.4610   -28.3960 
  214.5000     2.2580    67.4680    27.9000    87.6660    95.2010   103.5210   -28.4380 
  214.6250     2.2490    69.8860    27.9360    80.9860    89.7500    97.1820   -28.5110 
  214.7500     2.2480    70.6210    27.9670    81.3660    84.4570    90.9400   -28.6000 
  214.8750     2.2430    68.7350    27.9910    78.4490    79.0350    84.4060   -28.6900 
  215.0000     2.2240    67.3290    28.0000    69.0080    73.4810    77.6360   -28.7630 
  215.1250     2.2000    69.6790    28.0130    59.0550    67.9790    70.9550   -28.7880 
  215.2500     2.1910    70.9840    28.0300    54.3940    62.5790    64.5050   -28.7840 
  215.3750     2.1960    70.0340    28.0380    53.0490    57.2170    58.2550   -28.7510 
  215.5000     2.2070    70.2490    28.0310    50.0200    51.9290    52.2660   -28.6900 
  215.6250     2.2260    73.7620    28.0280    42.7340    47.1540    47.0540   -28.6150 
  215.7500     2.2490    75.5020    28.0390    35.0660    43.4070    43.1430   -28.5580 
  215.8750     2.2630    74.4260    28.0460    30.1590    41.1520    41.0130   -28.5350 
  216.0000     2.2590    72.4100    28.0320    28.8670    40.5950    40.8450   -28.5360 
  216.1250     2.2410    71.6270    28.0130    31.0660    41.7240    42.5620   -28.5780 
  216.2500     2.2280    70.7040    28.0210    35.1090    43.5190    44.9790   -28.6450 
  216.3750     2.2250    69.7050    28.0450    38.8830    45.0180    47.0030   -28.7290 
  216.5000     2.2270    68.8270    28.0400    39.3960    45.4720    47.8190   -28.8180 
  216.6250     2.2240    68.2050    27.9810    35.4380    44.8110    47.4780   -28.9290 
  216.7500     2.2210    70.4890    27.9220    31.3950    44.2560    47.4840   -29.0640 
  216.8750     2.2180    74.0260    27.9060    30.8090    45.0690    49.3060   -29.2240 
  217.0000     2.2170    74.4600    27.9230    35.2020    48.4160    54.2040   -29.4460 
  217.1250     2.2180    71.6700    27.9340    46.4820    56.0110    64.0430   -29.7700 
  217.2500     2.2170    69.0240    27.9350    63.3670    67.9920    79.0480   -30.1820 
  217.3750     2.2090    66.7270    27.9440    80.4650    84.2110    99.4660   -30.6680 
  217.5000     2.1960    65.1450    27.9670    90.1720   103.2850   124.2510   -31.2140 
  217.6250     2.1850    65.0190    27.9850    90.7800   122.0060   149.7640   -31.8080 
  217.7500     2.1850    64.6440    27.9840    90.0600   136.8470   170.5250   -32.3620 
  217.8750     2.1910    62.9800    27.9640    89.9090   145.6030   182.7020   -32.8360 
  218.0000     2.1970    63.2980    27.9210    89.5170   147.1990   184.3810   -33.1910 
  218.1250     2.1940    67.2110    27.8800    88.8660   140.4820   174.1610   -33.3520 
  218.2500     2.1830    68.6780    27.8850    88.0770   128.4470   157.2630   -33.3210 
  218.3750     2.1660    67.7260    27.9380    85.3520   114.2740   138.7910   -33.1140 
  218.5000     2.1530    68.0690    27.9930    77.6000   101.3140   123.0380   -32.7470 
  218.6250     2.1580    70.2360    27.9960    65.7790    92.5290   112.9640   -32.1890 
  218.7500     2.1800    71.4400    27.9740    59.5470    87.8070   107.6250   -31.5380 
  218.8750     2.2110    70.6470    27.9680    64.1510    86.1430   105.5320   -30.8390 
  219.0000     2.2450    70.0250    27.9760    73.6120    85.7740   104.5090   -30.1160 
  219.1250     2.2880    71.7730    27.9320    75.1270    84.6560   102.1010   -29.3840 
  219.2500     2.3470    74.7310    27.8280    69.8240    81.7340    97.3100   -28.6880 
  219.3750     2.4150    77.1590    27.7560    65.2470    76.5890    89.8730   -28.0430 
  219.5000     2.4640    77.4820    27.7970    65.3940    69.2270    80.0290   -27.4430 
  219.6250     2.4630    78.3350    27.8990    67.6560    60.0850    68.5430   -26.9120 
  219.7500     2.4340    79.9260    27.9300    62.9040    50.6800    57.1900   -26.4610 
  219.8750     2.4100    79.3380    27.8570    48.1400    42.2490    47.3340   -26.0810 
  220.0000     2.4030    76.5990    27.7610    31.4580    35.7620    39.9440   -25.7780 
  220.1250     2.3970    75.5900    27.7730    23.7630    32.0630    35.8870   -25.5920 
  220.2500     2.3920    76.4630    27.8460    22.8210    30.6710    34.5900   -25.4660 
  220.3750     2.4090    77.2890    27.8770    26.0190    31.3860    35.8350   -25.3630 
  220.5000     2.4520    77.4720    27.8290    34.8760    34.0380    39.3700   -25.2740 
  220.6250     2.4950    75.4950    27.7550    52.2810    38.4510    44.8570   -25.1840 
  220.7500     2.5150    70.2890    27.6770    69.8630    43.1950    50.4940   -25.0260 
  220.8750     2.5140    65.2630    27.5830    78.7920    46.1110    53.5810   -24.7950 
  221.0000     2.5100    66.9410    27.4920    78.1920    44.4610    50.9080   -24.4970 
  221.1250     2.5240    76.8890    27.4160    67.9220    36.6270    41.0740   -24.1360 
