~V
VERS. 2.00: Ver 2.00
~W
STRT.M 125.0000:
STOP.M 269.0000:
STEP.M 0.1250:
NULL. -999.2500:
UWI. DF3036:
~C
DEPT.M :
GR.API :
RML.OHMM :
RI. :
RXO.OHMM :
CALI.CM :
DEN.GM/CC :
SP.MV :
~A
# ...
  192.5000    55.3820   301.3670   253.2400   253.2320    24.9410     2.1760   -36.1450 
  192.6250    55.7950   260.2750   221.7490   259.7310    24.8990     2.1640   -35.9300 
  192.7500    57.8700   220.3330   189.1740   242.4870    24.7760     2.1540   -35.7180 
  192.8750    60.7360   190.1090   162.4330   199.3820    24.5760     2.1520   -35.4690 
  193.0000    62.1590   171.9840   144.7480   139.5740    24.3550     2.1600   -35.1930 
  193.1250    63.8200   162.7000   135.0240   104.9090    24.2250     2.1830   -34.8600 
  193.2500    66.9990   153.4440   126.3770    94.1860    24.2290     2.2200   -34.4940 
  193.3750    69.5680   138.6960   114.0680   108.3840    24.3800     2.2760   -34.0910 
  193.5000    68.9940   116.6700    96.2270   136.4820    24.5070     2.3500   -33.6670 
  193.6250    64.1650    90.5690    74.7850   141.0510    24.5250     2.4310   -33.1910 
  193.7500    60.7900    66.6570    54.9440    91.7480    24.5250     2.4960   -32.7570 
  193.8750    61.7410    47.9490    39.5840    49.1590    24.5430     2.5280   -32.3200 
  194.0000    63.6990    34.9670    29.3120    32.6130    24.5380     2.5300   -31.9210 
  194.1250    64.1790    27.5720    23.7840    28.2340    24.4230     2.5180   -31.5230 
  194.2500    65.9100    24.7320    21.0100    25.2590    24.1840     2.5140   -31.1580 
  194.3750    69.7580    23.9190    20.0150    19.8760    23.9280     2.5240   -30.8210 
  194.5000    71.9790    24.0320    19.8850    15.5800    23.8120     2.5440   -30.5110 
  194.6250    71.1700    23.6920    19.5720    16.2500    23.8940     2.5650   -30.2840 
  194.7500    70.0560    22.0080    18.3340    18.6220    24.0030     2.5800   -30.0080 
  194.8750    67.3950    18.8080    16.0340    20.9600    24.0620     2.5850   -29.7230 
  195.0000    63.0910    14.5990    13.1180    20.4560    24.1590     2.5770   -29.4010 
  195.1250    61.7340    10.5820    10.4530    13.8240    24.3210     2.5560   -29.1580 
  195.2500    63.5960     7.8180     8.5560     8.2770    24.4580     2.5350   -28.9400 
  195.3750    65.6060     6.7980     7.4980     6.4890    24.5360     2.5200   -28.7670 
  195.5000    65.6120     6.6220     7.1200     6.4330    24.5820     2.5130   -28.6190 
  195.6250    63.7890     6.8090     7.2000     6.8320    24.5700     2.5050   -28.4650 
  195.7500    62.6380     7.0070     7.3740     7.1310    24.6640     2.4870   -28.3630 
  195.8750    63.1650     7.0530     7.4360     7.1970    24.8200     2.4570   -28.3290 
  196.0000    64.3850     6.9020     7.2940     6.9060    24.8250     2.4190   -28.3510 
  196.1250    62.8830     6.6120     6.9760     6.5690    24.6510     2.3840   -28.4060 
  196.2500    60.5710     6.3210     6.6340     6.3220    24.4290     2.3540   -28.4820 
  196.3750    59.7440     6.1050     6.3600     5.8750    24.2230     2.3290   -28.6270 
  196.5000    58.7460     6.0020     6.2030     5.3480    24.0780     2.3100   -28.8090 
  196.6250    54.8830     6.0410     6.1880     5.1710    24.0950     2.2990   -29.1410 
  196.7500    49.2280     6.1900     6.2720     5.3490    24.1810     2.2930   -29.5230 
  196.8750    46.3580     6.4300     6.4300     5.6050    24.3480     2.2880   -29.9820 
  197.0000    49.0670     6.7340     6.6330     5.8940    24.7180     2.2810   -30.4500 
  197.1250    55.8790     7.0670     6.8510     6.1240    25.3680     2.2730   -31.0100 
  197.2500    58.9520     7.3840     7.0510     6.3180    25.6180     2.2730   -31.6010 
  197.3750    57.5310     7.6530     7.2080     6.5490    24.9800     2.2820   -32.1820 
  197.5000    57.4650     7.8570     7.3060     6.8550    24.2930     2.2960   -32.8250 
  197.6250    64.3740     8.0060     7.3470     7.1730    24.3300     2.3020   -33.3850 
  197.7500    75.2780     8.1580     7.3770     7.3590    24.7310     2.2970   -33.9350 
  197.8750    86.7560     8.3720     7.4410     7.4220    24.9430     2.2870   -34.4130 
  198.0000    98.2950     8.6860     7.5770     7.6940    24.9530     2.2830   -34.8940 
  198.1250   108.1210     9.1260     7.8200     8.3080    24.8470     2.2950   -35.2570 
  198.2500   111.3970     9.6510     8.1510     9.2230    24.7070     2.3190   -35.5900 
  198.3750   107.8120    10.2310     8.5580    10.1290    24.4340     2.3440   -35.9400 
  198.5000   103.0740    10.8460     9.0300    10.6040    24.1780     2.3600   -36.2790 
  198.6250   102.5940    11.4950     9.5660    10.9250    24.0920     2.3630   -36.7030 
  198.7500   101.2210    12.1720    10.1450    11.5700    24.0850     2.3590   -37.1210 
  198.8750    98.3570    12.8730    10.7520    12.7200    24.0520     2.3530   -37.5300 
  199.0000    95.7410    13.5710    11.3600    14.7260    23.9910     2.3520   -37.8720 
  199.1250    92.7530    14.1850    11.8920    15.7360    23.9600     2.3570   -38.2020 
  199.2500    88.7520    14.6200    12.2630    16.0570    23.9590     2.3660   -38.4460 
  199.3750    87.3160    14.7830    12.3950    16.3520    23.9880     2.3740   -38.5990 
  199.5000    91.1930    14.6250    12.2460    17.1890    24.0840     2.3790   -38.6230 
  199.6250    95.4210    14.1480    11.8150    17.6460    24.2740     2.3760   -38.5280 
  199.7500    96.4480    13.5640    11.2760    16.4010    24.5130     2.3670   -38.3820 
  199.8750    95.9630    13.0780    10.7900    14.2640    24.6700     2.3520   -38.2490 
  200.0000    96.1420    12.8750    10.5070    12.5420    24.6610     2.3380   -38.1590 
  200.1250    96.2830    13.1020    10.5690    12.0910    24.4880     2.3300   -38.0580 
  200.2500    95.5020    13.6180    10.9000    12.5430    24.2070     2.3320   -37.9550 
  200.3750    95.1770    14.2360    11.3860    13.6200    23.9420     2.3430   -37.8140 
  200.5000    96.5820    14.7500    11.8640    15.0780    23.7930     2.3580   -37.5910 
  200.6250   100.0860    14.9540    12.1340    16.1680    23.8450     2.3720   -37.3180 
  200.7500   103.3750    14.8530    12.1330    16.4250    24.0020     2.3810   -36.9050 
  200.8750   103.6550    14.4880    11.8580    15.5330    24.2170     2.3870   -36.3590 
  201.0000   104.4610    13.9140    11.3510    14.6590    24.4640     2.3930   -35.6690 
  201.1250   108.4590    13.1390    10.6510    13.8020    24.6930     2.4010   -34.8710 
  201.2500   110.0690    12.2510     9.8730    12.5760    24.8620     2.4100   -34.0270 
  201.3750   105.8720    11.3800     9.1280    11.8750    24.9810     2.4140   -33.1510 
  201.5000   100.4170    10.7170     8.5530    11.2450    25.0580     2.4130   -32.3730 
  201.6250   100.0520    10.5270     8.3300    10.1000    25.1120     2.4090   -31.6470 
  201.7500    98.6480    10.7980     8.4600     8.9890    25.1350     2.4090   -31.0580 
  201.8750    93.5810    11.3790     8.8640     8.9590    25.1500     2.4170   -30.5370 
  202.0000    89.0800    11.9800     9.3630     9.8800    25.1420     2.4300   -30.0720 
  202.1250    88.8090    12.1910     9.6690    10.8270    24.9590     2.4440   -29.6290 
  202.2500    90.3780    11.8800     9.6170    11.1660    24.4510     2.4540   -29.1960 
  202.3750    90.4010    11.1290     9.2010    10.3500    23.6480     2.4570   -28.7860 
  202.5000    86.3590    10.2000     8.5680     8.8090    22.9950     2.4470   -28.3450 
  202.6250    77.0360     9.4470     7.9630     7.3130    23.2690     2.4100   -27.9170 
  202.7500    67.0080     9.0210     7.5450     6.6570    24.4460     2.3570   -27.5080 
  202.8750    61.4320     8.8990     7.3470     6.4540    26.2330     2.3050   -27.1680 
  203.0000    59.1360     8.9660     7.3260     6.4010    27.8930     2.2750   -26.8800 
  203.1250    56.5450     9.0770     7.4100     6.3800    28.4180     2.2850   -26.7360 
  203.2500    55.8480     9.1270     7.5050     6.4220    27.7940     2.3200   -26.6540 
  203.3750    57.6280     9.0990     7.5740     6.5130    26.6350     2.3560   -26.6720 
  203.5000    62.3420     9.0190     7.6140     6.5760    25.5720     2.3750   -26.7030 
  203.6250    69.1390     8.9290     7.6360     6.5990    25.0060     2.3720   -26.7930 
