~V
VERS. 2.00: Ver 2.00
~W
STRT.M 120.0000:
STOP.M 272.0000:
STEP.M 0.1250:
NULL. -999.2500:
UWI. DF3038:
~C
DEPT.M :
GR.API :
RML.OHMM :
RI. :
RXO.OHMM :
CALI.CM :
DEN.GM/CC :
SP.MV :
~A
# ...
  198.7500    99.2610    13.5860    11.1830    16.2950    24.4430     2.3580   -28.4990 
  198.8750   100.8540    13.7210    11.3690    16.5750    24.4710     2.3600   -28.9140 
  199.0000    96.7580    13.8790    11.5300    16.7850    24.4530     2.3650   -29.1700 
  199.1250    91.6890    14.2260    11.7830    17.0600    24.4020     2.3720   -29.1140 
  199.2500    91.5600    14.7690    12.1630    17.2000    24.3390     2.3820   -28.9720 
  199.3750    94.8370    15.3920    12.6110    17.4750    24.2940     2.3950   -28.6610 
  199.5000    96.3440    15.8850    12.9820    17.9680    24.2950     2.4090   -28.3160 
  199.6250    93.7300    15.9540    13.0400    19.4330    24.3200     2.4180   -27.8060 
  199.7500    89.5000    15.5720    12.7330    19.5460    24.3920     2.4200   -27.2020 
  199.8750    87.2440    14.8530    12.1200    18.1920    24.5320     2.4140   -26.5660 
  200.0000    90.2560    14.0320    11.3770    15.0050    24.7090     2.4060   -25.9420 
  200.1250    95.5530    13.3960    10.7420    11.9970    24.7970     2.3980   -25.4750 
  200.2500    96.7960    13.0590    10.3440    10.6500    24.8240     2.3950   -25.0660 
  200.3750    95.7270    13.0120    10.2160    10.6990    24.8230     2.3980   -24.8310 
  200.5000    95.7600    13.1860    10.3310    11.6040    24.7980     2.4070   -24.7090 
  200.6250    95.8510    13.5510    10.6870    12.8350    24.7010     2.4200   -24.7270 
  200.7500    95.1250    14.1280    11.2570    13.8590    24.5180     2.4340   -24.7910 
  200.8750    94.4350    15.0350    12.0940    15.0890    24.3090     2.4450   -24.8320 
  201.0000    94.8610    16.3490    13.2370    16.8940    24.2000     2.4510   -24.7510 
  201.1250    94.3650    17.9460    14.6010    19.0380    24.2680     2.4500   -24.4690 
  201.2500    91.6990    19.2840    15.7980    21.7780    24.4050     2.4440   -23.9030 
  201.3750    86.1040    19.7730    16.3710    24.9120    24.5200     2.4360   -23.0390 
  201.5000    79.2770    18.9880    15.9500    26.8220    24.5810     2.4300   -21.8770 
  201.6250    74.6170    16.8210    14.3600    24.4390    24.6160     2.4270   -20.5290 
  201.7500    72.1730    14.1450    12.2450    18.8310    24.6270     2.4260   -19.1330 
  201.8750    68.8180    11.6780    10.1700    12.2710    24.6210     2.4260   -17.7960 
  202.0000    62.7150     9.8760     8.5310     7.5840    24.5750     2.4240   -16.6090 
  202.1250    55.3370     8.9570     7.5570     6.3320    24.3380     2.4220   -15.6430 
  202.2500    52.4490     8.6260     7.0860     6.0290    23.8770     2.4250   -14.8970 
  202.3750    54.9340     8.6550     6.9890     5.8870    23.4150     2.4360   -14.4530 
  202.5000    60.0430     8.8300     7.1190     5.7380    23.2670     2.4550   -14.2290 
  202.6250    68.2700     8.9660     7.3330     5.7210    23.4150     2.4690   -14.2300 
  202.7500    77.3290     9.0020     7.5170     5.8400    23.6960     2.4630   -14.3820 
  202.8750    85.5120     8.9660     7.6480     6.0260    23.9900     2.4310   -14.5780 
  203.0000    90.7140     8.9300     7.7490     6.2900    24.1860     2.3830   -14.8270 
  203.1250    90.7840     8.9650     7.8600     6.6780    24.2270     2.3410   -15.0470 
  203.2500    87.4480     9.0680     7.9900     7.0720    24.1600     2.3210   -15.3250 
  203.3750    84.3640     9.1870     8.1070     7.2970    24.0800     2.3300   -15.5560 
  203.5000    85.2990     9.2400     8.1530     7.5180    24.2520     2.3580   -15.8100 
  203.6250    86.4990     9.1300     8.0540     7.5100    24.5420     2.3880   -15.9750 
  203.7500    85.9370     8.8850     7.8380     7.4610    24.7140     2.4100   -16.1240 
  203.8750    85.7700     8.5930     7.5740     7.4380    24.7740     2.4230   -16.2420 
  204.0000    87.8640     8.3950     7.3780     7.2830    24.7650     2.4330   -16.3160 
  204.1250    92.2530     8.4880     7.4170     7.4430    24.7220     2.4420   -16.4350 
  204.2500    95.0480     8.9110     7.7450     8.0280    24.6180     2.4470   -16.5330 
  204.3750    93.9290     9.6330     8.3670     8.9820    24.5430     2.4450   -16.6260 
  204.5000    90.0160    10.5320     9.2120    10.2320    24.4950     2.4340   -16.7190 
  204.6250    87.9910    11.3910    10.1300    11.8510    24.4800     2.4160   -16.8700 
  204.7500    86.7950    12.0340    10.9220    12.7680    24.4720     2.3980   -17.0580 
  204.8750    84.2630    12.4220    11.4940    13.2470    24.4480     2.3840   -17.2910 
  205.0000    84.1140    12.6570    11.8650    13.5640    24.3830     2.3790   -17.5550 
  205.1250    88.5360    12.9540    12.1660    13.2170    24.2830     2.3850   -17.7800 
  205.2500    92.2240    13.4200    12.5260    12.9500    24.2370     2.3990   -18.0470 
  205.3750    91.7100    13.9690    12.9250    13.5090    24.2280     2.4180   -18.2730 
  205.5000    88.1290    14.3570    13.2160    15.0010    24.2250     2.4370   -18.5690 
  205.6250    85.9040    14.2400    13.1350    16.7500    24.2220     2.4510   -18.8540 
  205.7500    86.6630    13.6020    12.6510    17.5380    24.2210     2.4590   -19.1210 
  205.8750    89.7110    12.6020    11.9300    15.8070    24.2240     2.4650   -19.3650 
  206.0000    91.8580    11.8560    11.3660    13.3840    24.2370     2.4720   -19.5760 
  206.1250    92.0220    12.5430    11.8740    14.0500    24.2640     2.4820   -19.8040 
  206.2500    90.8800    16.1430    14.4850    19.4400    24.2940     2.4880   -19.9940 
  206.3750    87.3980    24.2090    20.5600    32.1170    24.3070     2.4820   -20.2790 
  206.5000    81.0460    38.2520    31.3120    56.1410    24.3090     2.4580   -20.5280 
  206.6250    73.2550    58.9790    47.6990    94.1200    24.3030     2.4140   -20.8100 
  206.7500    68.3150    81.6710    67.0160   128.9160    24.2930     2.3630   -21.0160 
  206.8750    67.6870   102.8920    85.9820   143.9090    24.2860     2.3160   -21.2170 
  207.0000    68.8690   119.7740   101.2660   140.4200    24.2790     2.2830   -21.3880 
  207.1250    69.8540   129.6890   110.6350   130.3890    24.2870     2.2660   -21.5620 
  207.2500    70.3600   135.6480   116.3920   127.2740    24.3010     2.2590   -21.7030 
  207.3750    69.5360   140.2120   120.4590   132.1320    24.3080     2.2580   -21.7700 
  207.5000    67.6290   144.5580   123.9100   140.4180    24.3150     2.2580   -21.7970 
  207.6250    68.7170   148.6540   126.9990   144.6910    24.3370     2.2550   -21.8030 
  207.7500    71.9220   152.3970   129.9230   141.2800    24.3600     2.2480   -21.8030 
  207.8750    72.4060   155.9260   132.9480   130.9660    24.3540     2.2360   -21.7990 
  208.0000    69.8130   159.4100   136.3130   121.7540    24.3260     2.2200   -21.8090 
  208.1250    68.1110   162.5510   139.9080   127.3990    24.3120     2.2040   -21.7990 
  208.2500    66.0860   164.5870   142.9850   136.9960    24.3090     2.1950   -21.7790 
  208.3750    64.1810   164.5790   144.6080   143.0800    24.3150     2.1990   -21.7450 
  208.5000    64.7190   161.6520   143.8340   144.3990    24.3350     2.2130   -21.6630 
  208.6250    67.8520   154.5810   139.3530   138.8230    24.3740     2.2340   -21.6190 
  208.7500    69.2290   144.1560   131.6260   128.6780    24.4010     2.2490   -21.5530 
  208.8750    68.5650   131.6480   121.5630   122.5250    24.4610     2.2530   -21.5100 
  209.0000    66.7220   119.1780   110.9040   121.0520    24.6180     2.2460   -21.4550 
  209.1250    66.4490   109.8230   102.3780   108.7400    24.8260     2.2350   -21.3200 
  209.2500    68.3180   105.0980    97.7430    89.4000    24.9720     2.2270   -21.2570 
  209.3750    70.7270   105.8160    98.0290    78.3910    25.0400     2.2240   -21.2220 
  209.5000    70.8670   112.0110   103.4300    83.7170    25.0740     2.2230   -21.3150 
  209.6250    68.7190   123.5120   113.8150   102.4050    25.0870     2.2200   -21.2970 
  209.7500    66.4370   137.7000   126.6970   124.9100    25.0900     2.2150   -21.3580 
  209.8750    64.9860   152.4070   140.0480   139.0740    25.0900     2.2110   -21.3500 
