~V
VERS. 2.00: Ver 2.00
~W
STRT.M 64.0000:
STOP.M 268.0000:
STEP.M 0.1250:
NULL. -999.2500:
UWI. DF3002:
~C
DEPT.M :
GR.API :
RML.OHMM :
RI. :
RXO.OHMM :
DEN.GM/CC :
SP.MV :
~A
# ...
  102.6250    88.0680     6.8730     5.3950     5.8170  -999.2500   -28.1570 
  102.7500    80.8860     7.2080     5.7190     6.3810  -999.2500   -28.8240 
  102.8750    77.6870     7.4700     6.0290     6.9480  -999.2500   -29.4770 
  103.0000    77.9460     7.7350     6.3480     7.5970  -999.2500   -30.0050 
  103.1250    77.7730     8.2580     6.8330     8.2310  -999.2500   -30.6350 
  103.2500    76.8010     9.1960     7.6070     9.1920  -999.2500   -31.1460 
  103.3750    77.9080    10.5280     8.6940    10.4980  -999.2500   -31.4190 
  103.5000    80.6150    11.9940     9.9420    12.8510  -999.2500   -31.7380 
  103.6250    80.6540    13.0520    10.9570    16.8980  -999.2500   -32.0390 
  103.7500    77.4540    13.3410    11.3940    21.2700  -999.2500   -32.2570 
  103.8750    75.6350    12.7990    11.1150    21.8440  -999.2500   -32.5900 
  104.0000    76.6570    11.7040    10.2860    17.4590  -999.2500   -32.9100 
  104.1250    75.4630    10.5820     9.3060    12.7880     2.2150   -33.1270 
  104.2500    73.0030     9.8350     8.5520    10.5160     2.2150   -33.3500 
  104.3750    73.2220     9.5690     8.1520     9.9420     2.2050   -33.5220 
  104.5000    76.4990     9.7210     8.1040     9.9310     2.1960   -33.6060 
  104.6250    77.4600    10.1600     8.3520    10.0090     2.1960   -33.5450 
  104.7500    77.6880    10.6420     8.7090    10.1550     2.1980   -33.3590 
  104.8750    80.3650    11.0020     9.0350    10.3610     2.2010   -33.0670 
  105.0000    81.9430    11.1110     9.2070    10.5360     2.2040   -32.6960 
  105.1250    80.2860    10.8560     9.1060    10.5790     2.2060   -32.2810 
  105.2500    79.4170    10.3510     8.7880    10.3510     2.2070   -31.8630 
  105.3750    82.9690     9.7430     8.3480     9.6200     2.2070   -31.4410 
  105.5000    88.5940     9.2020     7.9120     8.5230     2.2040   -31.0000 
  105.6250    93.0310     8.9090     7.6220     7.5590     2.1960   -30.7560 
  105.7500    93.3010     8.8740     7.5170     7.4480     2.1850   -30.5510 
  105.8750    88.8900     9.0490     7.5870     7.8930     2.1760   -30.2730 
  106.0000    83.7460     9.3280     7.7680     8.1790     2.1720   -30.1510 
  106.1250    81.9010     9.5530     7.9480     8.2410     2.1760   -30.0430 
  106.2500    81.0430     9.6000     8.0110     8.2150     2.1860   -29.8130 
  106.3750    79.1460     9.4230     7.8980     8.2020     2.1970   -29.6920 
  106.5000    78.7050     9.0570     7.6170     8.1050     2.2060   -29.6140 
  106.6250    81.3770     8.6120     7.2400     7.7470     2.2120   -29.3940 
  106.7500    83.8990     8.2450     6.8960     7.2570     2.2140   -29.3180 
  106.8750    84.1100     8.0560     6.6740     6.9540     2.2120   -29.3610 
  107.0000    84.6260     8.0860     6.6200     6.9200     2.2080   -29.3940 
  107.1250    86.9070     8.3190     6.7480     7.0620     2.2020   -29.5900 
  107.2500    87.7380     8.6160     6.9640     7.3420     2.1950   -29.8830 
  107.3750    85.5710     8.8600     7.1840     7.6970     2.1890   -30.1210 
  107.5000    82.9510     8.9700     7.3320     8.0350     2.1860   -30.3890 
  107.6250    85.2560     8.9060     7.3560     8.2250     2.1890   -30.6460 
  107.7500    89.0380     8.7630     7.3060     8.1670     2.1970   -30.7460 
  107.8750    89.5500     8.6410     7.2490     7.9980     2.2070   -30.8330 
  108.0000    86.6820     8.6400     7.2630     7.9270     2.2180   -30.8230 
  108.1250    85.1020     8.8720     7.4410     8.2410     2.2240   -30.6530 
  108.2500    83.8890     9.3100     7.7800     8.8060     2.2250   -30.5050 
  108.3750    78.0690     9.8740     8.2320     9.3310     2.2170   -30.2570 
  108.5000    70.3150    10.4090     8.6860     9.6690     2.2010   -29.8640 
  108.6250    69.3610    10.6520     8.9370     9.8660     2.1820   -29.4400 
  108.7500    74.2540    10.4770     8.8630     9.9170     2.1670   -28.8670 
  108.8750    79.7740     9.8850     8.4370     9.7810     2.1650   -28.1830 
  109.0000    85.4740     9.0330     7.7590     9.3860     2.1780   -27.5630 
  109.1250    96.6660     8.1950     7.0300     8.4440     2.2050   -26.8490 
  109.2500   108.6150     7.5950     6.4460     7.2120     2.2320   -26.0680 
  109.3750   113.8590     7.3030     6.0860     6.4470     2.2530   -25.4840 
  109.5000   111.6460     7.2770     5.9510     6.4210     2.2640   -25.0060 
  109.6250   107.5780     7.4040     5.9950     6.7140     2.2670   -24.5100 
  109.7500   106.0630     7.5200     6.0890     6.6830     2.2700   -24.2250 
  109.8750   106.8770     7.5380     6.1540     6.5550     2.2730   -24.0810 
  110.0000   108.5520     7.4330     6.1420     6.3470     2.2770   -23.9010 
  110.1250   109.3660     7.2320     6.0440     6.1810     2.2790   -23.8910 
  110.2500   108.0700     7.0190     5.9140     6.0790     2.2780   -23.9960 
  110.3750   106.7770     6.8500     5.8010     6.0170     2.2760   -24.0140 
  110.5000   107.3820     6.7690     5.7450     6.0310     2.2740   -24.0910 
  110.6250   108.1190     6.8380     5.8020     6.1620     2.2720   -24.3000 
  110.7500   106.2170     7.0580     5.9790     6.3730     2.2690   -24.4840 
  110.8750   102.4170     7.4040     6.2620     6.6350     2.2650   -24.6830 
  111.0000    98.7790     7.7930     6.5950     6.9510     2.2610   -24.8840 
  111.1250    95.1770     8.0610     6.8590     7.3610     2.2560   -25.0170 
  111.2500    91.6510     8.1030     6.9580     7.9610     2.2510   -25.1340 
  111.3750    90.9420     7.9070     6.8590     8.4880     2.2450   -25.2010 
  111.5000    93.4990     7.5710     6.6110     8.1880     2.2410   -25.1590 
  111.6250    97.9460     7.2840     6.3470     7.1210     2.2470   -25.1680 
  111.7500   102.6230     7.1660     6.1820     6.7470     2.2610   -25.1400 
  111.8750   105.4290     7.2140     6.1440     6.8800     2.2740   -25.0760 
  112.0000   106.3940     7.3340     6.1910     7.3480     2.2770   -25.1220 
  112.1250   105.7990     7.3990     6.2460     7.8230     2.2630   -25.0550 
  112.2500   103.7310     7.3760     6.2620     7.8730     2.2440   -24.9050 
  112.3750   102.0640     7.3270     6.2650     7.7270     2.2380   -24.8840 
  112.5000   104.1150     7.3610     6.3210     7.3260     2.2590   -24.8410 
  112.6250   108.1120     7.5720     6.5060     7.0540     2.3090   -24.6750 
  112.7500   108.0050     7.8870     6.7810     7.3200     2.3650   -24.6520 
  112.8750   106.0490     8.1800     7.0630     8.1290     2.4020   -24.6250 
  113.0000   107.6620     8.3210     7.2470     9.0130     2.4020   -24.5240 
  113.1250   110.8820     8.2140     7.2340     9.0450     2.3640   -24.6840 
  113.2500   109.0310     7.9610     7.0770     8.1800     2.3130   -24.9240 
  113.3750   104.0210     7.6920     6.8710     7.3440     2.2680   -25.0670 
  113.5000   100.2150     7.5330     6.7190     7.0180     2.2380   -25.3230 
  113.6250   102.1340     7.5710     6.7110     7.0610     2.2260   -25.6580 
  113.7500   105.3280     7.7380     6.8150     7.1800     2.2250   -25.8360 
  113.8750   104.4580     7.9360     6.9600     7.1800     2.2280   -26.0150 
  114.0000    98.5270     8.0570     7.0600     7.0610     2.2300   -26.1470 
  114.1250    91.5530     7.9990     7.0220     7.2690     2.2290   -26.0670 
  114.2500    88.4320     7.7920     6.8550     7.5010     2.2270   -26.0010 
  114.3750    90.2300     7.5020     6.6050     7.3290     2.2250   -25.9630 
  114.5000    96.3520     7.2280     6.3480     6.7050     2.2250   -25.8610 
  114.6250   101.4750     7.0900     6.1810     6.4460     2.2280   -25.8160 
  114.7500   102.7840     7.1150     6.1370     6.4850     2.2300   -25.7840 
  114.8750   103.0580     7.2840     6.2170     6.5860     2.2310   -25.7290 
  115.0000   105.0110     7.5280     6.3770     6.7550     2.2300   -25.7630 
  115.1250   105.4240     7.7250     6.5330     6.8700     2.2300   -25.7540 
  115.2500   102.2850     7.7850     6.6060     6.9520     2.2340   -25.6500 
  115.3750    98.9100     7.6890     6.5630     7.1950     2.2450   -25.6100 
