~V
VERS. 2.00: Ver 2.00
~W
STRT.M 60.0000:
STOP.M 280.0000:
STEP.M 0.1250:
NULL. -999.2500:
UWI. DF3041:
~C
DEPT.M :
SP.MV :
GR.API :
RML.OHMM :
RI. :
RXO.OHMM :
CALI.CM :
DEN.GM/CC :
~A
# ...
  105.0000   -15.5820    67.5180     9.7270     7.9770    16.0290    24.0000  -999.2500 
  105.1250   -16.2090    73.7300     9.5010     7.9570    12.9360    24.8680  -999.2500 
  105.2500   -16.6750    75.7190     9.9460     8.4100    12.8860    25.6700     0.0000 
  105.3750   -16.9570    72.5500    11.3450     9.5980    15.4520    25.7230     0.0000 
  105.5000   -17.1390    68.7640    13.6310    11.5380    20.7460    24.8540     2.3480 
  105.6250   -17.2900    68.2690    16.2800    13.9080    29.5460    24.0170     2.4650 
  105.7500   -17.4290    68.5920    18.3190    15.9140    40.5510    23.6650     2.5500 
  105.8750   -17.5490    68.9620    18.9940    16.8830    45.3550    23.8440     2.5640 
  106.0000   -17.6880    71.4670    18.0800    16.5030    38.0600    24.2360     2.5150 
  106.1250   -17.8150    76.2030    16.1110    15.0070    27.1930    24.6960     2.4540 
  106.2500   -17.9990    77.9520    14.2440    13.3330    22.1270    24.4850     2.4190 
  106.3750   -18.2570    74.7890    12.9220    11.9500    23.9220    23.9090     2.4110 
  106.5000   -18.5120    69.6730    12.1350    10.9800    30.8940    23.3780     2.4100 
  106.6250   -18.6900    66.7030    11.6990    10.3770    28.9210    23.3970     2.3880 
  106.7500   -18.7930    66.1250    11.3580     9.9450    19.4460    23.4470     2.3450 
  106.8750   -18.8310    66.3730    11.0370     9.6020    14.1930    23.0720     2.2950 
  107.0000   -18.8050    67.7100    10.7440     9.3200    12.4700    22.7240     2.2560 
  107.1250   -18.7160    71.0720    10.5460     9.1240    12.0910    22.7050     2.2340 
  107.2500   -18.5970    73.7870    10.4450     9.0150    11.7260    22.7430     2.2250 
  107.3750   -18.4330    73.7810    10.4120     8.9790    11.2410    22.8010     2.2230 
  107.5000   -18.2250    71.5510    10.4020     8.9840    10.8140    22.8290     2.2240 
  107.6250   -18.0300    71.0340    10.3860     9.0060    10.6700    22.7690     2.2280 
  107.7500   -17.8130    73.4660    10.3590     9.0340    10.6930    22.6610     2.2330 
  107.8750   -17.5780    75.9520    10.3240     9.0680    10.8340    22.6310     2.2350 
  108.0000   -17.3400    77.0330    10.2830     9.1060    10.9190    22.6610     2.2340 
  108.1250   -17.0780    78.6440    10.2210     9.1300    10.7090    22.6550     2.2290 
  108.2500   -16.7390    82.3160    10.1160     9.1130    10.2930    22.5890     2.2240 
  108.3750   -16.3630    85.8800     9.9410     9.0190    10.0480    22.5520     2.2210 
  108.5000   -15.9480    85.4270     9.6820     8.8270     9.9320    22.6620     2.2240 
  108.6250   -15.4360    81.7340     9.3310     8.5290     9.5910    22.9320     2.2350 
  108.7500   -14.9260    81.8080     8.9370     8.1780     9.1890    22.9520     2.2530 
  108.8750   -14.4440    87.4020     8.5510     7.8170     8.6640    22.7820     2.2740 
  109.0000   -13.9830    93.5870     8.2270     7.4870     7.8570    22.6280     2.2960 
  109.1250   -13.5850    93.6490     8.0080     7.2160     7.4340    22.6320     2.3110 
  109.2500   -13.3000    92.4760     7.8550     6.9870     7.2970    22.5870     2.3180 
  109.3750   -13.1380    94.0550     7.7140     6.7760     7.0310    22.5070     2.3190 
  109.5000   -13.0980    96.4770     7.5350     6.5740     6.9760    22.3940     2.3170 
  109.6250   -13.2080    95.0720     7.3030     6.3900     7.1410    22.3500     2.3130 
  109.7500   -13.4340    92.2330     7.0840     6.2560     7.1920    22.4110     2.3070 
  109.8750   -13.8060    92.0260     6.9740     6.2130     7.0190    22.5780     2.2970 
  110.0000   -14.3370    94.0680     7.0760     6.3170     7.0820    22.8380     2.2820 
  110.1250   -14.9920    93.8310     7.5360     6.6740     7.6970    23.1480     2.2680 
  110.2500   -15.7170    89.0130     8.3130     7.2860     8.7630    23.5100     2.2660 
  110.3750   -16.4870    81.5620     9.3010     8.1070     9.9550    23.7970     2.2850 
  110.5000   -17.3030    75.6060    10.2930     8.9990    11.0840    23.8660     2.3220 
  110.6250   -18.1700    73.4190    10.9540     9.6900    13.3220    23.7730     2.3590 
  110.7500   -19.0460    72.6720    11.1300    10.0040    16.4740    23.6480     2.3710 
  110.8750   -19.8580    73.2640    10.8350     9.9030    16.7580    23.6040     2.3500 
  111.0000   -20.5630    75.3870    10.2680     9.5180    13.5110    23.5250     2.3070 
  111.1250   -21.1790    76.2110     9.7220     9.0870    11.7460    23.3410     2.2600 
  111.2500   -21.7250    73.5810     9.3660     8.7890    11.3200    23.4190     2.2230 
  111.3750   -22.1800    69.9550     9.2100     8.6590    11.5190    23.6220     2.1980 
  111.5000   -22.4970    68.0920     9.1910     8.6490    11.8680    23.6240     2.1840 
  111.6250   -22.6990    68.7180     9.2310     8.6790    12.0020    23.4710     2.1810 
  111.7500   -22.7450    70.1750     9.2740     8.6840    11.8700    23.1030     2.1880 
  111.8750   -22.6620    71.2820     9.3260     8.6630    11.6220    22.9510     2.2000 
  112.0000   -22.4850    72.1520     9.4060     8.6380    11.4930    22.9610     2.2110 
  112.1250   -22.2230    72.8800     9.5170     8.6360    11.6220    23.0390     2.2170 
  112.2500   -21.8720    72.9650     9.6200     8.6500    11.7720    23.1500     2.2180 
  112.3750   -21.4660    72.9490     9.6760     8.6580    11.6970    23.2480     2.2170 
  112.5000   -21.0750    75.4140     9.6540     8.6360    11.3070    23.2470     2.2180 
  112.6250   -20.6510    79.3200     9.5360     8.5560    10.8940    23.1570     2.2220 
  112.7500   -20.2940    77.8700     9.3650     8.4250    10.7520    23.0470     2.2270 
  112.8750   -20.0240    72.0750     9.1860     8.2620    10.8050    23.0440     2.2320 
  113.0000   -19.8300    69.0450     9.0510     8.1030    10.9070    23.1720     2.2360 
  113.1250   -19.7510    71.7670     9.0210     7.9990    10.7090    23.2450     2.2350 
  113.2500   -19.7480    74.2290     9.0980     7.9700    10.5390    23.2260     2.2280 
  113.3750   -19.8130    74.6280     9.2500     8.0110    10.6140    23.2320     2.2150 
  113.5000   -19.9100    75.6230     9.4100     8.0850    10.9420    23.3230     2.2000 
  113.6250   -20.0290    76.2790     9.4630     8.1240    11.3530    23.4600     2.1900 
  113.7500   -20.1690    75.1300     9.3670     8.0890    11.5450    23.5800     2.1890 
  113.8750   -20.3280    73.3270     9.1510     7.9830    11.4460    23.5660     2.1980 
  114.0000   -20.5630    73.4080     8.9180     7.8550    11.0890    23.1880     2.2110 
  114.1250   -20.8470    76.2310     8.8420     7.7940    10.4600    22.9550     2.2200 
  114.2500   -21.2040    77.2050     8.9940     7.8500    10.0810    22.8670     2.2260 
  114.3750   -21.5970    75.2000     9.3490     8.0230    10.5930    22.8790     2.2380 
  114.5000   -21.9970    73.7000     9.7920     8.2700    11.3830    22.9360     2.2590 
  114.6250   -22.4470    75.8390    10.1290     8.5080    12.1100    23.0960     2.2800 
  114.7500   -22.8640    76.6910    10.2430     8.6580    12.1540    23.4100     2.2860 
  114.8750   -23.2390    73.5380    10.1250     8.6870    11.6110    24.0490     2.2670 
  115.0000   -23.4800    70.6180     9.8600     8.6070    11.1390    24.8840     2.2290 
  115.1250   -23.5760    70.7370     9.5790     8.4460    10.8880    25.3050     2.1900 
  115.2500   -23.5170    71.0960     9.3710     8.2540    10.5830    25.0710     2.1650 
  115.3750   -23.3840    71.8260     9.2480     8.0520    10.3370    24.5880     2.1580 
  115.5000   -23.2360    73.0170     9.1930     7.8660    10.3150    23.8370     2.1660 
  115.6250   -23.0320    73.7390     9.1930     7.7420    10.4620    23.4930     2.1830 
  115.7500   -22.8730    74.7070     9.2380     7.7070    10.2860    23.6520     2.2060 
  115.8750   -22.7650    77.8700     9.3340     7.7760    10.0990    23.6750     2.2290 
  116.0000   -22.7420    82.0790     9.4650     7.9320    10.0790    23.6300     2.2480 
  116.1250   -22.7550    80.0410     9.5860     8.1220    10.4470    23.5900     2.2510 
