~V
VERS. 2.00: Ver 2.00
~W
STRT.M 60.0000:
STOP.M 238.0000:
STEP.M 0.1250:
NULL. -999.2500:
UWI. DF308:
~C
DEPT.M :
DEN.GM/CC :
SP.MV :
AC.US/MT :
GR.API :
CALI.CM :
RXO.OHMM :
RI. :
RML.OHMM :
~A
# ...
  160.0000     2.2520   -30.0420   418.7870    63.5770    24.4400   154.3670   139.1730   139.5200 
  160.1250     2.2350   -30.0930   418.5940    60.3810    24.4520   153.7120   147.6440   148.0190 
  160.2500     2.2250   -30.1710   420.0110    59.0680    24.4530   162.5620   157.4770   157.9620 
  160.3750     2.2190   -30.2390   422.3380    58.8130    24.4450   176.8800   167.0820   167.6530 
  160.5000     2.2150   -30.2500   424.7120    59.2550    24.4230   180.3370   174.1750   174.6120 
  160.6250     2.2190   -30.2500   426.4350    60.1670    24.3850   161.7770   175.5340   175.4310 
  160.7500     2.2360   -30.2320   426.9430    61.7180    24.3620   141.4600   171.0780   170.2450 
  160.8750     2.2590   -30.1630   425.5500    62.8970    24.3640   133.8330   161.6870   160.2530 
  161.0000     2.2760   -30.0850   422.2150    62.2880    24.3860   134.2850   149.2890   147.6270 
  161.1250     2.2810   -30.0040   418.3690    59.6340    24.4170   134.0120   136.5990   135.1970 
  161.2500     2.2740   -29.9020   416.6260    57.1930    24.4260   124.9230   126.2530   125.3400 
  161.3750     2.2550   -29.8050   418.7990    57.1700    24.3920   100.6630   119.7520   119.2660 
  161.5000     2.2310   -29.7250   423.8590    60.0580    24.3120    69.1090   117.4620   117.0440 
  161.6250     2.2090   -29.6430   421.2600    62.1430    24.2060    58.2130   118.5050   117.4900 
  161.7500     2.1930   -29.5730   399.9370    62.9650    24.1960    81.2900   119.5710   117.3780 
  161.8750     2.1800   -29.4940   361.8940    64.3560    24.2730   119.2660   117.9950   114.2760 
  162.0000     2.1730   -29.3960   324.1620    66.3590    24.2980   125.1790   112.5120   107.3860 
  162.1250     2.1710   -29.3210   313.2980    67.1800    24.2880    86.3800   103.8870    98.0960 
  162.2500     2.1700   -29.2070   333.6060    65.1900    24.2910    50.8250    95.2250    89.5290 
  162.3750     2.1710   -29.0790   373.1540    63.7100    24.1640    41.0210    88.4190    83.3280 
  162.5000     2.1800   -28.9570   411.4950    65.3390    23.7650    49.4400    84.0840    79.7530 
  162.6250     2.1980   -28.7950   430.8650    69.4580    23.5280    61.4910    81.5930    77.8690 
  162.7500     2.2160   -28.6360   437.1900    72.8090    23.4460    62.1920    78.9810    75.6320 
  162.8750     2.2350   -28.4960   439.5390    73.5160    23.4350    53.6650    75.0550    71.9140 
  163.0000     2.2550   -28.3350   441.8110    72.6400    23.4130    46.2290    69.6320    66.6870 
  163.1250     2.2710   -28.1390   444.5270    72.5670    23.3810    42.7680    63.6950    61.1040 
  163.2500     2.2780   -27.9590   447.7620    73.7260    23.3590    41.6510    58.7220    56.6450 
  163.3750     2.2770   -27.7840   451.3850    73.2830    23.3540    43.5410    55.5360    54.0870 
  163.5000     2.2700   -27.6210   454.6070    70.9790    23.4350    48.0780    54.5120    53.7740 
  163.6250     2.2520   -27.4610   456.5070    69.7630    23.6380    54.0040    56.1750    56.2070 
  163.7500     2.2280   -27.3070   457.0430    68.2120    23.8680    60.9450    60.0690    60.8740 
  163.8750     2.2040   -27.1620   456.0760    64.8060    24.0410    70.8530    65.8640    67.4050 
  164.0000     2.1920   -27.0230   453.6330    62.0230    24.1720    84.6480    72.9360    75.1460 
  164.1250     2.1970   -26.9320   450.3540    64.1690    24.2830    96.1100    80.2660    83.0460 
  164.2500     2.2070   -26.8770   447.3390    66.9710    24.3260    97.4630    86.6530    89.9200 
  164.3750     2.2170   -26.8130   444.8680    66.4560    24.3040    95.2070    91.3500    95.0420 
  164.5000     2.2230   -26.7240   442.8230    64.4700    24.2600    99.0310    94.0640    98.1540 
  164.6250     2.2290   -26.6590   441.3490    65.3700    24.2320   107.8980    94.6050    99.0930 
  164.7500     2.2350   -26.5530   440.2900    66.6690    24.2210   111.3900    93.6030    98.4680 
  164.8750     2.2440   -26.4160   438.9470    65.4350    24.2150   110.7130    91.4030    96.5820 
  165.0000     2.2510   -26.2790   436.6530    65.1820    24.2070   108.0710    88.3990    93.8130 
  165.1250     2.2520   -26.0700   433.8340    69.2180    24.1830   101.3420    85.1530    90.7760 
  165.2500     2.2500   -25.8210   431.9580    72.2700    24.1690    91.2230    82.5140    88.4550 
  165.3750     2.2530   -25.5860   431.2770    70.3940    24.1530    82.8780    81.2670    87.7530 
  165.5000     2.2610   -25.3330   430.4320    66.6120    24.1470    83.2450    82.0780    89.4090 
  165.6250     2.2640   -25.0560   427.1310    66.4640    24.1340    93.4750    85.9140    94.3650 
  165.7500     2.2570   -24.8030   421.0880    69.7950    24.1000   108.2260    92.3410   101.8720 
  165.8750     2.2480   -24.5680   412.7860    73.0510    24.0590   127.2270   100.0130   110.2080 
  166.0000     2.2470   -24.3570   403.6130    71.2140    24.0260   151.9240   105.9370   115.9050 
  166.1250     2.2600   -24.1790   397.6850    65.1780    24.0370   174.9160   105.2290   113.5770 
  166.2500     2.2800   -24.0190   398.4190    62.5380    24.0390   182.3010    97.4790   103.5900 
  166.3750     2.3010   -23.8450   405.8710    64.2160    24.0150   173.5820    85.0110    89.2110 
  166.5000     2.3190   -23.6680   416.4540    66.9350    24.0140   151.6230    71.7120    74.7510 
  166.6250     2.3350   -23.5260   424.3970    70.1430    24.0680   119.8650    61.4190    63.9810 
  166.7500     2.3580   -23.4000   424.6790    74.4230    24.1430    86.3160    54.8360    57.3140 
  166.8750     2.4030   -23.2730   411.7550    75.8470    24.1580    60.9670    51.5870    54.3080 
  167.0000     2.4750   -23.1560   382.2940    73.0820    24.2010    51.3100    50.7560    53.8700 
  167.1250     2.5650   -23.0820   341.2500    71.0620    24.2350    64.5990    50.6320    53.9480 
  167.2500     2.6320   -23.0340   308.5080    70.5800    24.2110    79.4850    48.7100    51.9160 
  167.3750     2.6490   -23.0440   301.0450    71.3480    24.1640    78.0180    43.6500    46.5270 
  167.5000     2.6140   -23.1250   324.6740    73.3460    24.1300    58.0510    36.0500    38.4690 
  167.6250     2.5420   -23.2070   369.1550    76.6550    24.1150    36.1130    28.1130    29.9570 
  167.7500     2.4660   -23.3020   409.2720    78.8490    24.1250    22.6470    21.6350    22.9340 
  167.8750     2.4110   -23.4380   433.1690    79.8680    24.1760    16.3720    17.0270    17.9740 
  168.0000     2.3920   -23.5580   441.3570    84.3610    24.2430    14.0300    14.0820    14.9350 
  168.1250     2.4040   -23.6700   440.5740    90.6610    24.3850    12.8040    12.5940    13.5910 
  168.2500     2.4210   -23.7870   438.0470    94.0170    24.6080    12.4270    12.0130    13.2550 
  168.3750     2.4310   -23.8590   435.5030    93.8580    24.7600    12.7230    12.1210    13.6350 
  168.5000     2.4310   -23.9060   433.3980    93.4450    24.7480    13.5290    12.7390    14.5070 
  168.6250     2.4290   -23.9580   431.7670    95.6500    24.5240    14.7550    13.7160    15.6810 
  168.7500     2.4310   -23.9910   429.9000    96.6080    24.2150    16.0330    14.7510    16.8390 
  168.8750     2.4340   -23.9930   427.3890    94.3230    23.9630    17.0640    15.5730    17.6990 
  169.0000     2.4280   -23.9850   424.7250    90.6050    23.9170    17.5570    15.9310    18.0290 
  169.1250     2.4110   -23.9730   423.0940    87.8260    24.1190    17.1080    15.6200    17.6620 
  169.2500     2.3980   -23.9390   422.5470    85.1190    24.3000    15.9340    14.8600    16.8630 
  169.3750     2.3990   -23.9200   422.5900    83.0600    24.3160    14.6940    13.9040    15.9120 
  169.5000     2.4150   -23.9180   422.8730    84.5110    24.1500    13.8570    13.0110    15.0880 
  169.6250     2.4380   -23.9040   423.1530    88.1910    23.9360    13.7010    12.4200    14.6490 
  169.7500     2.4490   -23.9060   422.9970    89.7870    23.8850    14.2510    12.1800    14.6300 
  169.8750     2.4430   -23.9440   422.0460    91.0050    24.0500    15.4050    12.3320    15.0920 
