~V
VERS. 2.00: Ver 2.00
~W
STRT.M 110.0000:
STOP.M 242.0000:
STEP.M 0.1250:
NULL. -999.2500:
UWI. DF306:
~C
DEPT.M :
DEN.GM/CC :
AC.US/MT :
GR.API :
CALI.CM :
RXO.OHMM :
RI. :
RML.OHMM :
SP.MV :
~A
# ...
  170.0000     2.3100   403.7940    64.4290    25.5530     4.2440     4.0590     4.0340   -16.6380 
  170.1250     2.2930   411.1300    71.0330    25.5170     4.5130     4.3170     4.5240   -17.0350 
  170.2500     2.2780   416.4040    76.9260    25.4240     5.1650     4.5980     5.0410   -17.4470 
  170.3750     2.2600   419.5030    76.1750    25.3040     5.7140     4.8280     5.4550   -17.8450 
  170.5000     2.2470   421.5510    67.2270    25.1780     5.6760     4.9440     5.6550   -18.2160 
  170.6250     2.2530   423.8190    57.4470    25.1090     5.1220     4.9180     5.5950   -18.5220 
  170.7500     2.2700   426.3560    53.5300    25.1350     4.6800     4.8250     5.4290   -18.7720 
  170.8750     2.2890   428.2050    54.1470    25.2170     4.5550     4.7410     5.3050   -18.9640 
  171.0000     2.3090   428.0660    54.7370    25.3040     4.6250     4.7230     5.3350   -19.1020 
  171.1250     2.3380   424.3770    53.8270    25.4070     4.7860     4.8200     5.5980   -19.2100 
  171.2500     2.3690   417.6650    52.9260    25.5710     5.0770     5.0130     6.0250   -19.3170 
  171.3750     2.3860   409.0820    52.5160    25.7490     5.5380     5.2720     6.5380   -19.4330 
  171.5000     2.3840   400.5060    51.9900    25.8590     6.0740     5.5480     7.0430   -19.5410 
  171.6250     2.3710   394.6860    51.4670    25.8870     6.4050     5.7670     7.4110   -19.6540 
  171.7500     2.3580   392.9660    52.4630    25.8840     6.4010     5.8950     7.5970   -19.7620 
  171.8750     2.3400   395.5190    54.5590    25.8960     6.1520     5.9320     7.6150   -19.8590 
  172.0000     2.3090   400.8130    55.4950    26.0480     5.9060     5.9080     7.5350   -19.9360 
  172.1250     2.2700   405.6870    53.6470    26.4410     5.9500     5.8670     7.4510   -19.9960 
  172.2500     2.2360   407.9610    52.6410    26.8780     6.2140     5.8460     7.4240   -20.0350 
  172.3750     2.2050   407.9340    55.4840    27.3460     6.3910     5.8590     7.4730   -20.0600 
  172.5000     2.1700   407.4610    61.3120    27.9830     6.2430     5.9130     7.6100   -20.1010 
  172.6250     2.1400   408.2590    68.0710    28.7060     5.9890     6.0200     7.8620   -20.1510 
  172.7500     2.1380   409.3140    74.7180    28.8950     6.2030     6.1700     8.2130   -20.2340 
  172.8750     2.1840   408.7140    81.2400    28.2350     7.0280     6.3520     8.6300   -20.3610 
  173.0000     2.2780   405.8310    87.3760    27.0870     8.0270     6.5410     9.0360   -20.5360 
  173.1250     2.3670   403.0610    93.7550    26.2080     8.4760     6.6890     9.3140   -20.7880 
  173.2500     2.3960   403.7040   100.7170    25.8810     8.3760     6.7710     9.4380   -21.1260 
  173.3750     2.3640   408.2130   106.4560    25.9060     8.0760     6.7890     9.4450   -21.5650 
  173.5000     2.3210   413.9930   106.5480    26.0450     7.9170     6.7720     9.4210   -22.1100 
  173.6250     2.3180   417.3560    99.5730    26.1580     8.2210     6.7770     9.4790   -22.8050 
  173.7500     2.3380   418.9880    91.2030    26.0800     9.0330     6.8460     9.6670   -23.5940 
  173.8750     2.3600   422.4510    84.8930    25.7410    10.2750     6.9880     9.9840   -24.4550 
  174.0000     2.3740   430.9690    82.7330    25.2680    11.7740     7.1850    10.3970   -25.3670 
  174.1250     2.3800   444.6460    86.9550    24.8360    13.1840     7.3960    10.8440   -26.2830 
  174.2500     2.3760   457.9770    90.9320    24.4620    14.0050     7.5760    11.2350   -27.1740 
  174.3750     2.3640   466.5630    87.7280    24.1540    13.9990     7.6950    11.5050   -28.0170 
  174.5000     2.3470   468.9310    79.7520    24.0010    13.5160     7.7480    11.6220   -28.7900 
  174.6250     2.3330   466.6240    79.1560    24.0270    13.3110     7.7350    11.5750   -29.4050 
  174.7500     2.3290   463.1730    84.1260    24.0690    13.5990     7.6920    11.4460   -29.8730 
  174.8750     2.3350   458.9730    86.8980    24.0570    14.0950     7.6650    11.3400   -30.1790 
  175.0000     2.3510   452.3560    87.2350    23.9980    14.4200     7.7180    11.3950   -30.3050 
  175.1250     2.3730   439.9490    90.1240    23.9350    14.6500     7.9550    11.8180   -30.2340 
  175.2500     2.3960   421.3930    92.6480    23.8920    15.5380     8.4020    12.6560   -29.9860 
  175.3750     2.4220   397.7880    91.8760    23.8620    17.4810     9.0490    13.8720   -29.5570 
  175.5000     2.4540   372.0520    90.6830    23.8550    19.9220     9.8090    15.2480   -28.9580 
  175.6250     2.4840   349.0670    92.7950    23.9930    21.2310    10.4420    16.2430   -28.2170 
  175.7500     2.5080   332.6470    95.2340    24.3060    20.7760    10.6980    16.3990   -27.4020 
  175.8750     2.5270   325.2230    96.0880    24.6820    18.9000    10.4410    15.5580   -26.5550 
  176.0000     2.5310   327.4550    96.9830    24.9600    16.2950     9.7230    13.9630   -25.7190 
  176.1250     2.5070   339.0680    99.5080    25.1000    13.5960     8.7440    12.1080   -24.9030 
  176.2500     2.4680   355.7820   101.4820    25.2490    11.2130     7.7840    10.4650   -24.1270 
  176.3750     2.4300   374.9660    99.3890    25.4780     9.2130     6.9720     9.2060   -23.3730 
  176.5000     2.4010   394.0470    90.9710    25.7900     7.6150     6.3590     8.3660   -22.6220 
  176.6250     2.3740   409.1490    77.5960    26.1340     6.6320     5.9730     7.9370   -21.9080 
  176.7500     2.3480   418.0020    65.9940    26.3820     6.2150     5.7390     7.7280   -21.2440 
  176.8750     2.3240   420.1710    60.1290    26.3870     6.2160     5.6100     7.6160   -20.6330 
  177.0000     2.3010   417.6910    58.7290    26.1310     6.3170     5.5460     7.5160   -20.0710 
  177.1250     2.2810   414.2440    58.7810    25.9930     6.1300     5.5330     7.4170   -19.6000 
  177.2500     2.2760   412.4500    58.3320    26.3390     5.7380     5.5660     7.3760   -19.1880 
  177.3750     2.2870   411.9210    57.4730    27.0850     5.4570     5.6530     7.4420   -18.8460 
  177.5000     2.2990   410.8080    56.6100    27.7940     5.4630     5.7920     7.6230   -18.5780 
  177.6250     2.2940   407.3990    57.2140    28.0370     5.5940     5.9560     7.8640   -18.3420 
  177.7500     2.2740   402.7890    59.3420    28.1700     5.6190     6.0870     8.0390   -18.0880 
  177.8750     2.2470   398.8870    60.2970    28.7370     5.5080     6.1380     8.0550   -17.8200 
  178.0000     2.2160   397.4370    59.6760    29.7320     5.3480     6.0840     7.8760   -17.5420 
  178.1250     2.1770   399.7410    61.1430    30.6570     5.2840     5.9290     7.5380   -17.2480 
  178.2500     2.1310   404.5460    64.5540    31.3390     5.3280     5.7430     7.1910   -16.9750 
  178.3750     2.0880   410.1640    66.4520    31.5960     5.4030     5.5790     6.9420   -16.7410 
  178.5000     2.0670   414.5400    66.5300    30.8480     5.4720     5.4790     6.8500   -16.5510 
  178.6250     2.0950   415.4160    68.9900    28.8900     5.6230     5.4770     6.9450   -16.4370 
  178.7500     2.1690   412.8480    72.7070    27.0460     5.9150     5.5510     7.1570   -16.3780 
  178.8750     2.2730   407.5430    74.6460    26.1110     6.2680     5.6770     7.4280   -16.3530 
  179.0000     2.3730   400.6970    75.6720    25.9190     6.5010     5.8200     7.7010   -16.3420 
  179.1250     2.4230   393.7860    80.9620    25.9100     6.5060     5.9330     7.8990   -16.3330 
  179.2500     2.4220   388.2500    89.0460    25.8360     6.4640     5.9910     7.9840   -16.2960 
  179.3750     2.4030   385.1000    94.8130    25.6810     6.4840     5.9830     7.9380   -16.2380 
  179.5000     2.3990   384.8400    97.8260    25.5350     6.4830     5.9160     7.7800   -16.1850 
  179.6250     2.4190   387.5370   100.1870    25.4740     6.3220     5.8070     7.5660   -16.1380 
  179.7500     2.4340   391.6090   101.2760    25.4700     6.0730     5.6970     7.3810   -16.1220 
  179.8750     2.4310   395.8600   100.3460    25.4610     5.8940     5.6200     7.2890   -16.1670 
