~V
VERS. 2.00: Ver 2.00
~W
STRT.M 70.0000:
STOP.M 278.0000:
STEP.M 0.1250:
NULL. -999.2500:
UWI. DF3060:
~C
DEPT.M :
SP.MV :
GR.API :
RML.OHMM :
RI. :
RXO.OHMM :
CALI.CM :
DEN.GM/CC :
~A
# ...
  148.7500   -30.5620    64.0280    10.6540     9.0400    10.9340    22.7740     2.1870 
  148.8750   -30.4800    63.4370    10.7910     9.1820    11.0640    22.7740     2.1850 
  149.0000   -30.3970    62.0240    10.9360     9.4120    11.0060    22.7740     2.1850 
  149.1250   -30.3210    60.6460    11.0350     9.6530    10.2100    22.7740     2.1900 
  149.2500   -30.2510    59.9940    11.0670     9.8350     9.8140    22.7790     2.1950 
  149.3750   -30.1940    60.2530    11.0260     9.9190     9.9570    22.7910     2.2010 
  149.5000   -30.1710    61.4800    10.9220     9.8980    10.3900    22.8210     2.2060 
  149.6250   -30.1220    63.4050    10.7920     9.8060    10.8190    22.8890     2.2120 
  149.7500   -30.0520    64.5200    10.7150     9.7430    10.9420    22.9890     2.2180 
  149.8750   -29.9550    63.7400    10.7640     9.7950    10.8810    23.0920     2.2290 
  150.0000   -29.8290    61.7540    10.9860    10.0170    11.2150    23.1540     2.2440 
  150.1250   -29.6780    61.4770    11.3910    10.4280    12.2160    23.1850     2.2620 
  150.2500   -29.5240    63.6790    11.8810    10.9410    13.4460    23.2060     2.2840 
  150.3750   -29.3610    65.8380    12.3860    11.4870    14.3810    23.2160     2.3080 
  150.5000   -29.1760    65.2640    12.8810    12.0300    14.5570    23.2230     2.3390 
  150.6250   -29.0020    62.0240    13.4120    12.5740    14.0000    23.2340     2.3780 
  150.7500   -28.8410    60.1480    14.0250    13.1500    14.5650    23.2490     2.4190 
  150.8750   -28.6930    60.2690    14.6950    13.7540    16.2740    23.2650     2.4480 
  151.0000   -28.5780    61.4670    15.3070    14.3340    18.6510    23.2760     2.4560 
  151.1250   -28.4910    63.3330    15.6460    14.7660    20.5470    23.2790     2.4370 
  151.2500   -28.4260    64.8220    15.6680    14.9930    21.4060    23.2790     2.4050 
  151.3750   -28.3690    64.9820    15.4720    15.0470    21.5340    23.2790     2.3720 
  151.5000   -28.3220    64.6200    15.3290    15.0850    21.7310    23.2790     2.3470 
  151.6250   -28.2760    64.6680    15.6920    15.4290    21.2150    23.2830     2.3380 
  151.7500   -28.2270    64.5680    16.6830    16.2340    20.8010    23.2930     2.3470 
  151.8750   -28.1830    64.9310    18.1020    17.4200    20.1200    23.3190     2.3730 
  152.0000   -28.1270    67.4090    19.3700    18.5770    19.8260    23.3650     2.4110 
  152.1250   -28.0320    70.2940    19.4380    18.8380    20.7920    23.4490     2.4500 
  152.2500   -27.8950    70.3260    17.8950    17.7200    22.6950    23.4850     2.4680 
  152.3750   -27.7480    69.1330    14.9230    15.2220    24.0450    23.4940     2.4530 
  152.5000   -27.5960    70.3780    11.3330    11.9440    21.9140    23.4940     2.4090 
  152.6250   -27.4050    74.9210     8.2750     8.8790    14.5740    23.4940     2.3540 
  152.7500   -27.2050    80.8850     6.2310     6.5980     8.8660    23.4940     2.3120 
  152.8750   -26.9730    87.1490     5.1650     5.1740     6.4930    23.4940     2.2900 
  153.0000   -26.7230    92.1690     4.8130     4.4590     5.5830    23.4940     2.2860 
  153.1250   -26.4660    92.5950     4.8830     4.2900     4.9590    23.4940     2.2920 
  153.2500   -26.2040    90.6470     5.0390     4.3610     4.6440    23.4940     2.2970 
  153.3750   -25.9100    91.6070     5.1630     4.5210     4.5760    23.4940     2.3000 
  153.5000   -25.5880    96.0720     5.2440     4.6860     4.7250    23.4940     2.3030 
  153.6250   -25.2880    98.8030     5.3210     4.8190     4.9100    23.4940     2.3070 
  153.7500   -24.9890    98.6390     5.3990     4.9070     5.0280    23.4940     2.3110 
  153.8750   -24.7000    97.4820     5.4460     4.9280     5.0720    23.4940     2.3120 
  154.0000   -24.4100    96.0570     5.4360     4.8720     5.0280    23.4940     2.3070 
  154.1250   -24.1240    94.1870     5.3690     4.7550     4.9230    23.4940     2.2970 
  154.2500   -23.8360    93.9160     5.2960     4.6310     4.7740    23.4940     2.2850 
  154.3750   -23.5700    95.3050     5.2590     4.5390     4.6820    23.4940     2.2750 
  154.5000   -23.3290    95.7380     5.2960     4.5100     4.7070    23.4940     2.2680 
  154.6250   -23.0970    93.3330     5.4330     4.5690     4.9140    23.4940     2.2650 
  154.7500   -22.8900    90.3770     5.6360     4.6940     5.1130    23.4940     2.2660 
  154.8750   -22.7140    89.6530     5.8610     4.8540     5.2870    23.4940     2.2710 
  155.0000   -22.5600    91.6440     6.0520     5.0040     5.3060    23.4940     2.2810 
  155.1250   -22.4350    93.5470     6.1300     5.0670     5.6970    23.4940     2.2950 
  155.2500   -22.3400    93.2200     6.0690     5.0010     6.5620    23.4940     2.3090 
  155.3750   -22.2550    93.0410     5.8630     4.7870     7.9910    23.4940     2.3180 
  155.5000   -22.1630    95.4110     5.5390     4.4400     9.8060    23.4940     2.3150 
  155.6250   -22.0750   100.3380     5.1380     4.0050    11.3390    23.4940     2.3030 
  155.7500   -21.9990   105.3510     4.7510     3.5770    12.0360    23.4940     2.2890 
  155.8750   -21.9220   108.4330     4.4600     3.2380    10.6550    23.4940     2.2840 
  156.0000   -21.8580   109.2670     4.3470     3.0580     7.0330    23.4930     2.2940 
  156.1250   -21.8110   107.1780     4.4980     3.1190     5.4930    23.4880     2.3190 
  156.2500   -21.7880   102.9280     4.8510     3.3860     4.6210    23.4750     2.3480 
  156.3750   -21.7840    98.4820     5.3170     3.8050     4.6850    23.4450     2.3710 
  156.5000   -21.8030    95.5500     5.7710     4.2870     5.2790    23.3920     2.3810 
  156.6250   -21.8750    94.9760     6.0740     4.7070     5.9360    23.3190     2.3730 
  156.7500   -21.9650    95.1370     6.2060     4.9970     6.4930    23.2810     2.3560 
  156.8750   -22.0690    95.3610     6.2050     5.1490     6.8820    23.2690     2.3380 
  157.0000   -22.1760    95.0530     6.1420     5.1980     6.7980    23.2670     2.3240 
  157.1250   -22.2700    92.0150     6.0770     5.1860     6.5490    23.2650     2.3170 
  157.2500   -22.3280    88.4010     6.0200     5.1430     6.2470    23.2620     2.3120 
  157.3750   -22.3540    86.8980     5.9560     5.0610     6.2090    23.2610     2.3080 
  157.5000   -22.3830    86.8870     5.8890     4.9430     6.3980    23.2600     2.3060 
  157.6250   -22.3860    86.0370     5.8780     4.8340     6.9260    23.2600     2.3110 
  157.7500   -22.3680    86.1210     5.9770     4.7930     7.1330    23.2600     2.3250 
  157.8750   -22.3400    88.8840     6.1920     4.8370     7.2690    23.2600     2.3430 
  158.0000   -22.3280    92.2750     6.4450     4.9310     8.5190    23.2600     2.3580 
  158.1250   -22.3150    92.5830     6.5570     4.9650    12.0210    23.2610     2.3570 
  158.2500   -22.3250    92.0520     6.4050     4.8610    17.5080    23.2590     2.3390 
  158.3750   -22.3730    91.9900     6.0110     4.6230    23.5890    23.2530     2.3150 
  158.5000   -22.4260    91.2690     5.6010     4.3700    29.1090    23.2360     2.3010 
  158.6250   -22.4790    89.2090     5.6210     4.3780    27.6820    23.1910     2.3150 
  158.7500   -22.5170    85.1440     6.4710     4.8760    31.9490    23.0970     2.3560 
  158.8750   -22.5460    78.7650     8.3640     6.0570    66.4530    22.9580     2.4150 
  159.0000   -22.5660    70.8830    11.2980     8.0210   135.2080    22.8390     2.4740 
  159.1250   -22.6140    63.7060    15.0750    10.7790   242.0030    22.7430     2.5120 
  159.2500   -22.6700    58.4170    18.5910    13.8020   336.9430    22.6330     2.5300 
  159.3750   -22.7360    55.2300    21.4850    16.4840   359.0670    22.5310     2.5330 
  159.5000   -22.7920    54.5840    23.0770    18.1850   301.2260    22.4830     2.5280 
  159.6250   -22.8610    55.6440    22.6760    18.2220   173.9020    22.4730     2.5150 
  159.7500   -22.9540    56.8420    20.6790    16.8440    90.6120    22.4570     2.4900 
  159.8750   -23.0840    58.4390    17.5990    14.4380    49.3760    22.4230     2.4570 
