~V
VERS. 2.00: Ver 2.00
~W
STRT.M 140.0000:
STOP.M 272.0000:
STEP.M 0.1250:
NULL. -999.2500:
UWI. DF3077:
~C
DEPT.M :
GR.API :
CALI.CM :
RXO.OHMM :
RI. :
RML.OHMM :
DEN.GM/CC :
SP.MV :
~A
# ...
  230.0000    64.9330    24.2400    27.7920    31.1670    34.1520     2.3150   -20.4470 
  230.1250    61.9720    24.3410    27.7480    31.3740    34.1700     2.3780   -20.3450 
  230.2500    58.8730    24.3110    26.4860    32.4960    35.1530     2.4020   -20.3100 
  230.3750    56.9650    24.0390    28.9020    34.2090    36.5660     2.4020   -20.3020 
  230.5000    56.0730    23.8790    37.6080    35.7760    37.4920     2.4320   -20.3070 
  230.6250    56.7000    23.9680    45.3450    35.6580    36.4850     2.5320   -20.3370 
  230.7500    59.0450    24.2100    48.7820    33.4010    33.4810     2.6510   -20.3590 
  230.8750    64.8560    24.3180    47.9000    29.2250    28.8600     2.7260   -20.3440 
  231.0000    74.0810    24.2110    41.9890    23.9880    25.9070     2.7170   -20.2830 
  231.1250    83.3530    24.4490    37.9260    19.0210    20.5430     2.6290   -20.1550 
  231.2500    88.2560    24.7730    28.4200    15.0160    16.2170     2.5260   -19.9990 
  231.3750    91.2830    24.8480    15.5290    12.1670    13.1400     2.4430   -19.8390 
  231.5000    96.9450    24.8510     8.4510    10.3960    11.2270     2.3900   -19.6790 
  231.6250   105.5440    24.8080     8.0820     9.5750    10.3410     2.3730   -19.5220 
  231.7500   111.2060    24.8140     8.1950     9.2920    10.0360     2.3760   -19.3890 
  231.8750   112.8300    24.8730     8.7220     9.3280    10.0740     2.3840   -19.2970 
  232.0000   113.5590    25.0790     9.2880     9.5600    10.3240     2.3870   -19.2820 
  232.1250   115.0880    25.1720     9.3850     9.9520    10.7480     2.3820   -19.3710 
  232.2500   114.9920    25.2700     8.9740    10.6160    11.4650     2.3780   -19.4960 
  232.3750   110.8810    25.2150     8.8420    12.0220    12.9840     2.3830   -19.6760 
  232.5000   102.9740    25.2030     9.4390    14.8670    16.0560     2.4060   -19.8920 
  232.6250    93.4880    25.1870    12.7800    20.2650    22.5440     2.4490   -20.1360 
  232.7500    85.3680    25.0600    23.5850    28.7070    34.3420     2.4860   -20.3770 
  232.8750    78.0540    25.2110    41.7940    40.9450    49.3820     2.4830   -20.6230 
  233.0000    72.0160    25.2710    59.3380    57.0700    68.7790     2.4250   -20.8560 
  233.1250    69.8520    25.3670    74.0220    75.5250    91.0750     2.3270   -21.0680 
  233.2500    68.4190    25.4120    87.0980    91.5770   110.7850     2.2460   -21.3010 
  233.3750    65.0500    25.5090    95.9090   101.5610   122.7460     2.2140   -21.5210 
  233.5000    62.1410    25.5850    95.6070   104.9330   125.2320     2.2210   -21.7160 
  233.6250    63.7300    25.5750    95.4890   105.0840   123.7270     2.2330   -21.8910 
  233.7500    65.1070    25.5100    98.9340   105.1550   123.2070     2.2280   -22.0640 
  233.8750    63.3290    25.4780   107.5120   105.9100   124.4110     2.2170   -22.2090 
  234.0000    62.4720    25.4840   106.6970   107.7590   127.5180     2.2140   -22.3260 
  234.1250    64.8520    25.5000    90.2830   110.4640   131.8810     2.2170   -22.4220 
  234.2500    66.1420    25.3640    85.6760   113.1670   136.2050     2.2120   -22.4600 
  234.3750    64.1220    25.3470    92.5090   115.3180   139.5070     2.2010   -22.4620 
  234.5000    59.9410    25.2990   106.4430   116.3450   140.9070     2.1980   -22.4300 
  234.6250    58.7370    25.3860   117.9290   116.1120   140.4440     2.2100   -22.3490 
  234.7500    62.5900    25.3840   112.1510   115.4660   139.3850     2.2200   -22.2440 
  234.8750    66.4860    25.3460    93.3520   114.7860   138.2930     2.2170   -22.1290 
  235.0000    65.1530    25.2880    81.9240   113.8440   137.0110     2.2010   -22.0150 
  235.1250    60.8210    25.3230    89.3720   113.1270   136.2660     2.1860   -21.9050 
  235.2500    60.2540    25.3970   105.4730   112.9460   136.0900     2.1800   -21.8170 
  235.3750    61.5960    25.3390   113.9370   113.7480   137.1160     2.1800   -21.7280 
  235.5000    62.1440    25.3480   103.5880   116.1890   140.2550     2.1850   -21.6430 
  235.6250    63.4330    25.2720    92.1320   120.3530   145.3430     2.1890   -21.5640 
  235.7500    64.2960    25.1470    92.5750   125.1080   151.1480     2.1870   -21.4600 
  235.8750    64.0080    25.1270   106.0940   129.9180   156.9100     2.1770   -21.3330 
  236.0000    64.7170    25.1260   116.4790   134.3380   162.0480     2.1590   -21.1850 
  236.1250    67.0550    25.1310   116.4450   137.3950   165.2200     2.1380   -20.9830 
  236.2500    66.7550    25.1140   109.3900   137.8930   165.1270     2.1260   -20.7580 
  236.3750    63.3970    25.1250   103.9060   135.3100   161.1120     2.1360   -20.5250 
  236.5000    62.3850    25.1120   100.7930   129.5620   153.3010     2.1720   -20.2950 
  236.6250    66.2850    25.0410    99.6880   121.7620   143.2370     2.2270   -20.0430 
  236.7500    67.5530    24.8850   103.5410   113.4750   132.9050     2.2790   -19.8190 
  236.8750    64.3960    24.7790   101.7240   105.3470   123.0520     2.3170   -19.6310 
  237.0000    61.3030    24.8160    91.7060    97.7230   114.0400     2.3390   -19.4350 
  237.1250    62.7230    25.0280    77.0360    91.1170   106.3670     2.3370   -19.3250 
  237.2500    64.7390    24.9490    67.8410    85.6800   100.1340     2.3120   -19.2670 
  237.3750    65.2080    24.8940    61.2600    81.3940    95.2440     2.2670   -19.2230 
  237.5000    66.6830    24.9020    59.7310    77.9670    91.3020     2.2160   -19.2090 
  237.6250    69.4370    25.0210    65.7080    75.0760    87.9210     2.1820   -19.2330 
  237.7500    70.4880    25.0910    69.8770    72.3770    84.7480     2.1750   -19.2580 
  237.8750    70.9260    25.1100    68.5590    69.6240    81.5030     2.1880   -19.2910 
  238.0000    73.3250    25.0930    65.8110    66.8780    78.4650     2.2060   -19.3610 
  238.1250    74.6160    24.9540    60.6470    64.8270    76.5280     2.2170   -19.4070 
  238.2500    73.3690    24.9870    52.8220    63.7890    76.0790     2.2200   -19.4230 
  238.3750    72.6310    24.9010    44.8330    63.8670    77.1010     2.2110   -19.4380 
  238.5000    72.5600    25.0620    43.4530    64.8770    79.1580     2.1940   -19.4290 
  238.6250    69.8160    25.0610    53.9280    66.3880    81.4320     2.1810   -19.4070 
  238.7500    67.8410    25.0690    64.7980    67.3610    82.4650     2.1830   -19.3830 
  238.8750    69.2140    24.9920    67.1400    67.2260    81.5690     2.1950   -19.3260 
  239.0000    70.4210    24.8780    61.8010    65.7790    78.7350     2.2070   -19.2520 
  239.1250    69.3100    24.8320    53.1710    62.5990    73.6150     2.2100   -19.1460 
  239.2500    71.1250    24.8520    46.9110    58.1770    67.0850     2.2070   -19.0080 
  239.3750    75.4130    24.8360    42.4550    53.2260    60.2040     2.2010   -18.8460 
  239.5000    76.8960    24.7120    38.1620    48.3030    53.5200     2.1980   -18.6720 
  239.6250    75.0420    24.6770    35.7450    43.7540    47.4060     2.2020   -18.5080 
  239.7500    76.4230    24.7520    34.1500    39.5930    41.8280     2.2120   -18.3090 
  239.8750    81.0810    24.7110    31.1370    35.8750    36.9190     2.2210   -18.0970 
  240.0000    84.1310    24.8250    27.2430    32.6530    32.7670     2.2270   -17.9040 
  240.1250    85.0640    24.7950    24.1410    30.0390    29.6130     2.2380   -17.7430 
  240.2500    87.3630    24.7090    22.2560    27.8900    27.1830     2.2550   -17.6260 
  240.3750    88.8290    24.6620    21.8120    26.0390    25.2050     2.2750   -17.5410 
  240.5000    86.2010    24.8610    21.8010    24.4270    23.5140     2.2910   -17.5130 
  240.6250    83.5900    25.0630    20.8730    23.0730    22.1420     2.2970   -17.5380 
  240.7500    85.9680    25.0810    19.1060    22.0050    21.1300     2.2910   -17.5830 
  240.8750    89.9740    24.9740    17.1050    21.2780    20.5230     2.2770   -17.6750 
  241.0000    92.4940    24.9280    15.7760    20.9810    20.4480     2.2640   -17.7820 
  241.1250    92.3330    24.9720    16.0820    21.3590    21.2580     2.2630   -17.8990 
