~V
VERS. 2.00: Ver 2.00
~W
STRT.M 64.0000:
STOP.M 268.0000:
STEP.M 0.1250:
NULL. -999.2500:
UWI. DF3073:
~C
DEPT.M :
SP.MV :
GR.API :
CALI.CM :
RXO.OHMM :
RI. :
RML.OHMM :
DEN.GM/CC :
~A
# ...
  176.5000   -33.6230    68.2050    24.9120    50.2830    98.6700   114.3080     2.2870 
  176.6250   -33.5070    72.3490    24.9050    58.8650    93.6330   108.6380     2.2880 
  176.7500   -33.3980    76.6950    24.9280    58.1080    90.7290   105.2130     2.2790 
  176.8750   -33.2330    77.8210    24.9240    55.0850    89.1670   103.1810     2.2680 
  177.0000   -33.0500    76.4050    24.8610    54.1720    88.1290   101.6110     2.2710 
  177.1250   -32.8840    74.0880    24.7200    53.2850    86.9880    99.8660     2.2930 
  177.2500   -32.7230    70.4400    24.7750    51.8480    85.4160    97.5700     2.3080 
  177.3750   -32.5680    67.3090    24.8780    50.6600    83.5350    94.8270     2.3020 
  177.5000   -32.4340    67.8130    24.9780    50.6260    81.3640    91.7880     2.2840 
  177.6250   -32.3270    70.0560    24.8310    49.1660    78.8650    88.4870     2.2820 
  177.7500   -32.2320    71.1630    24.4940    44.9820    75.9470    84.8160     2.2920 
  177.8750   -32.1560    71.0240    24.1920    45.3050    72.5200    80.7060     2.3000 
  178.0000   -32.0560    73.1390    24.1510    49.7700    68.8560    76.4960     2.2990 
  178.1250   -31.9320    77.3080    24.1310    47.6580    65.2030    72.5550     2.2970 
  178.2500   -31.8180    79.3250    24.1420    42.1110    61.9940    69.2370     2.3010 
  178.3750   -31.7440    79.6840    24.1480    38.2190    59.6310    67.0580     2.3060 
  178.5000   -31.6770    80.0910    24.1430    34.5500    58.5270    66.3760     2.3090 
  178.6250   -31.5810    78.4390    24.2310    32.9010    59.1430    67.5590     2.3090 
  178.7500   -31.4850    74.6480    24.5050    34.8620    61.1870    70.4410     2.3070 
  178.8750   -31.4810    72.9020    24.9470    40.4250    64.5840    74.9560     2.3000 
  179.0000   -31.5860    75.1040    25.1200    45.8940    68.9740    80.6820     2.2940 
  179.1250   -31.7320    76.9110    25.1360    47.8550    73.8430    86.9290     2.2900 
  179.2500   -31.8180    76.8380    25.1390    49.6880    78.5250    92.9480     2.2790 
  179.3750   -31.7840    74.9490    25.1360    54.2450    82.6690    98.2910     2.2610 
  179.5000   -31.6830    71.8790    25.1230    58.6260    86.0130   102.6320     2.2460 
  179.6250   -31.6250    68.4540    25.1330    58.0900    88.3990   105.9780     2.2480 
  179.7500   -31.6220    65.9820    25.1390    57.6320    90.5680   109.0180     2.2620 
  179.8750   -31.6470    63.4290    25.1390    58.0600    92.7820   111.7710     2.2770 
  180.0000   -31.6710    61.3280    25.1460    63.8320    94.2800   113.3800     2.2820 
  180.1250   -31.6440    64.0450    25.1430    67.7390    93.7350   112.2470     2.2730 
  180.2500   -31.5520    68.4350    25.1350    67.8820    90.8420   108.0900     2.2640 
  180.3750   -31.4840    70.1940    25.1330    65.2110    85.5330   100.7960     2.2630 
  180.5000   -31.5130    70.6630    25.1330    65.3620    78.1730    91.0920     2.2730 
  180.6250   -31.6250    73.2940    25.1340    59.6640    69.6460    80.2230     2.2840 
  180.7500   -31.7350    74.6420    25.1400    48.5620    61.4570    70.0210     2.2910 
  180.8750   -31.7440    73.2360    25.1380    37.4540    54.4300    61.4660     2.2940 
  181.0000   -31.6650    73.7860    25.1450    31.8320    49.0890    55.0730     2.2940 
  181.1250   -31.5430    77.3300    25.1400    31.1750    45.7350    50.9410     2.2920 
  181.2500   -31.4850    79.2500    25.1470    31.0340    43.6040    48.2500     2.2870 
  181.3750   -31.5050    78.9390    25.1480    30.4500    42.3500    46.6060     2.2830 
  181.5000   -31.5610    80.1950    25.1480    29.2770    41.7190    45.6590     2.2890 
  181.6250   -31.5690    84.8280    25.1450    28.0330    41.5040    45.1730     2.3040 
  181.7500   -31.5070    86.8070    25.1410    27.5530    41.4640    44.9060     2.3120 
  181.8750   -31.4440    85.0400    25.1370    27.4690    41.5900    44.8810     2.3040 
  182.0000   -31.4330    83.6980    25.1350    27.4940    41.9050    45.1310     2.2890 
  182.1250   -31.5160    84.1300    25.1340    27.5560    42.3170    45.5180     2.2900 
  182.2500   -31.6620    80.6320    25.1210    28.2570    42.7030    45.9500     2.3070 
  182.3750   -31.7720    73.5500    25.1260    28.6780    43.0270    46.3780     2.3210 
  182.5000   -31.7630    70.8400    25.0960    29.1930    43.2360    46.7360     2.3200 
  182.6250   -31.6860    75.8350    25.1060    29.7460    43.2530    46.9250     2.3170 
  182.7500   -31.6740    81.6920    25.1130    29.6400    43.1510    47.0390     2.3260 
  182.8750   -31.7440    85.4710    25.1350    27.8340    43.0020    47.1300     2.3380 
  183.0000   -31.8420    85.0340    25.1460    27.2300    42.9050    47.3190     2.3370 
  183.1250   -31.9610    80.0430    25.1420    28.7410    43.1530    47.9580     2.3240 
  183.2500   -32.0430    76.1130    25.1260    30.8820    43.9770    49.3110     2.3130 
  183.3750   -32.0800    76.8410    25.1170    31.3310    45.6150    51.6820     2.3040 
  183.5000   -32.1290    78.7470    25.1010    30.7630    48.4020    55.4610     2.2900 
  183.6250   -32.2170    75.7990    25.1380    30.8420    52.9710    61.3480     2.2730 
  183.7500   -32.3180    72.2590    25.1410    33.0290    59.3520    69.3640     2.2650 
  183.8750   -32.4140    72.3660    25.1460    40.2440    67.6160    79.5300     2.2680 
  184.0000   -32.5370    74.0220    25.1360    51.8500    77.1270    90.9230     2.2750 
  184.1250   -32.6410    72.0530    25.1340    59.9980    85.7950   101.1090     2.2710 
  184.2500   -32.7360    68.2430    25.1340    62.6540    91.9050   108.3040     2.2570 
  184.3750   -32.8350    67.1330    25.1350    62.7580    94.8810   111.8100     2.2410 
  184.5000   -32.9100    68.2870    25.1450    64.5190    94.9830   111.9610     2.2340 
  184.6250   -32.9430    67.8380    25.1420    70.7270    93.3070   110.3510     2.2400 
  184.7500   -32.9580    66.9640    25.1380    67.1360    92.4160   109.8590     2.2480 
  184.8750   -32.9740    66.1170    25.0500    52.4460    93.5980   111.9060     2.2500 
  185.0000   -32.9710    66.2640    24.9740    45.1670    97.1560   116.8740     2.2450 
  185.1250   -32.9640    66.6580    24.9470    61.9360   103.0820   124.4980     2.2440 
  185.2500   -32.9640    67.1260    24.9270    80.6640   109.4920   132.1850     2.2500 
  185.3750   -32.9600    67.1020    24.9170    88.9800   114.6890   137.8680     2.2590 
  185.5000   -32.9580    66.3020    24.9230    86.2190   118.2100   141.0560     2.2650 
  185.6250   -32.9460    65.6570    24.8960    77.8840   120.4610   142.0350     2.2640 
  185.7500   -32.9030    65.4580    24.8890    68.7650   122.4610   142.3930     2.2620 
  185.8750   -32.8290    65.2480    24.8900    64.9920   125.6850   144.0180     2.2630 
  186.0000   -32.7200    65.5770    24.8980    66.0470   132.3070   149.2660     2.2650 
  186.1250   -32.5800    66.7240    24.8990    66.7390   143.5490   159.3860     2.2630 
  186.2500   -32.4700    67.8950    24.9420    67.1440   157.2700   172.1530     2.2580 
  186.3750   -32.3740    68.6610    24.9100    69.7410   170.2990   183.9500     2.2590 
  186.5000   -32.2390    68.8140    24.8630    71.2950   176.3330   187.2410     2.2660 
  186.6250   -32.1090    68.1600    24.6740    72.3810   166.8770   173.2340     2.2690 
  186.7500   -32.0340    66.9410    24.6900    75.3020   144.5430   146.8220     2.2650 
  186.8750   -32.0140    68.2580    24.9650    75.0000   115.4290   115.4370     2.2690 
  187.0000   -32.0130    74.4480    25.1260    66.8090    86.9060    86.0740     2.2930 
  187.1250   -31.9610    83.8480    25.1580    53.2380    65.3230    64.2980     2.3340 
  187.2500   -31.7930    90.5630    25.0020    38.8090    51.1800    50.2620     2.3710 
  187.3750   -31.5930    91.4590    24.7510    24.7480    44.1820    43.6510     2.3890 
  187.5000   -31.4880    86.7910    24.6830    15.0620    44.7340    44.3230     2.3830 
  187.6250   -31.5230    79.6140    24.8270    14.8590    55.1470    53.3000     2.3480 
