~V
VERS. 2.00: Ver 2.00
~W
STRT.M 63.0000:
STOP.M 257.0000:
STEP.M 0.1250:
NULL. -999.2500:
UWI. DF3070:
~C
DEPT.M :
DEN.GM/CC :
GR.API :
RML.OHMM :
RI. :
RXO.OHMM :
CALI.CM :
SP.MV :
~A
# ...
  231.7500     2.2650    74.5640   195.5370   169.6620   184.9430    24.0140   -29.9900 
  231.8750     2.2460    73.6080   201.4050   173.9770   197.4420    24.0980   -30.0090 
  232.0000     2.2300    69.5000   202.0310   173.8080   194.4230    24.2100   -29.9800 
  232.1250     2.2170    66.2850   199.6440   170.9690   191.5260    24.2390   -30.0260 
  232.2500     2.2120    66.0470   196.6810   167.5620   188.0330    24.1720   -29.9710 
  232.3750     2.2110    69.7120   193.8910   164.2860   181.9100    24.0450   -29.9710 
  232.5000     2.2150    74.6680   191.4810   161.3580   173.1490    23.9030   -29.8710 
  232.6250     2.2210    75.7540   189.4630   158.8240   162.0930    23.8010   -29.7760 
  232.7500     2.2270    72.2430   187.4710   156.4240   151.2830    23.7420   -29.6360 
  232.8750     2.2320    67.7210   184.9780   153.8070   145.3660    23.7030   -29.4590 
  233.0000     2.2340    66.4550   181.3250   150.5270   147.4860    23.6720   -29.2420 
  233.1250     2.2310    69.4270   175.5370   145.8880   154.1360    23.6550   -28.9140 
  233.2500     2.2240    72.3840   167.6450   139.7980   154.9230    23.6640   -28.6250 
  233.3750     2.2160    73.3190   157.9690   132.3890   147.7030    23.7050   -28.2230 
  233.5000     2.2120    72.0730   147.2450   124.1350   141.6680    23.7560   -27.8260 
  233.6250     2.2160    70.9460   136.2800   115.6110   142.0380    23.7950   -27.3830 
  233.7500     2.2360    70.8720   125.6420   107.2740   139.0510    23.8150   -26.9410 
  233.8750     2.2640    71.3580   115.6030    99.3290   125.7330    23.8250   -26.4890 
  234.0000     2.2960    72.3480   106.3210    91.9030   110.8790    23.8090   -26.0190 
  234.1250     2.3280    77.5450    97.8430    85.0710   104.1750    23.8410   -25.5110 
  234.2500     2.3590    86.7430    89.6750    78.5000    97.9000    23.9940   -24.9850 
  234.3750     2.3850    93.6630    81.3670    71.8170    86.2190    24.0890   -24.4450 
  234.5000     2.4030    94.0220    72.6380    64.7110    76.0220    23.9530   -23.8950 
  234.6250     2.4080    89.4260    63.6220    57.1550    72.3080    23.7670   -23.2910 
  234.7500     2.3990    84.5310    54.9550    49.6750    69.0600    23.8290   -22.7360 
  234.8750     2.3830    81.3570    47.2330    42.8140    60.0720    24.0440   -22.2210 
  235.0000     2.3710    81.5240    40.9210    37.0280    46.9120    24.0960   -21.8380 
  235.1250     2.3690    84.1390    36.5540    32.8320    37.3360    23.9320   -21.5090 
  235.2500     2.3740    85.5370    33.8000    30.0140    31.1210    23.7720   -21.2650 
  235.3750     2.3820    84.6010    32.3790    28.3810    26.4980    23.7290   -21.0800 
  235.5000     2.3900    82.8530    31.8940    27.6290    22.3660    23.7390   -20.9660 
  235.6250     2.3950    83.1640    31.9710    27.4730    19.7370    23.7250   -20.9580 
  235.7500     2.3960    86.9800    32.2370    27.5620    18.4970    23.7540   -20.8950 
  235.8750     2.3930    91.0210    32.6960    27.8570    17.8590    23.8370   -20.8470 
  236.0000     2.3890    91.1290    33.6410    28.5440    17.6610    23.8920   -20.6790 
  236.1250     2.3880    87.7310    35.8580    30.2050    18.3480    23.8520   -20.5570 
  236.2500     2.3970    85.3090    39.6820    33.1270    20.5650    23.7990   -20.3280 
  236.3750     2.4180    83.7880    44.9840    37.2690    24.6560    23.8010   -20.1080 
  236.5000     2.4480    82.2870    50.6740    41.8680    30.8730    23.8560   -19.8550 
  236.6250     2.4830    81.6210    54.1840    44.8870    39.6410    23.9360   -19.6440 
  236.7500     2.5200    79.0540    53.4870    44.5640    49.0480    24.0130   -19.4400 
  236.8750     2.5540    72.2950    47.7980    40.1880    56.8180    24.0860   -19.2720 
  237.0000     2.5790    63.0630    38.6070    32.7670    62.8460    24.1250   -19.1530 
  237.1250     2.5820    58.0160    28.8950    24.8600    64.4190    24.0350   -19.0730 
  237.2500     2.5540    60.0760    21.2590    18.6530    48.5550    23.9040   -19.0580 
  237.3750     2.5040    66.0170    15.7670    14.6220    26.0560    23.8560   -19.0800 
  237.5000     2.4450    70.9550    12.1400    12.4340    14.6740    23.9010   -19.1280 
  237.6250     2.3870    72.6220    11.7750    11.6980    12.3800    23.9260   -19.1540 
  237.7500     2.3420    73.9250    12.0310    11.7090    12.8870    23.9030   -19.2110 
  237.8750     2.3160    76.1750    12.5390    12.1240    14.1110    23.8710   -19.2860 
  238.0000     2.3110    76.8670    13.0260    12.6530    15.2360    23.8960   -19.3360 
  238.1250     2.3230    74.6040    13.3040    13.0550    16.4980    24.2650   -19.4060 
  238.2500     2.3430    73.9180    13.3760    13.2560    18.5880    24.7590   -19.4640 
  238.3750     2.3600    75.8030    13.2880    13.2670    21.1920    24.8640   -19.5270 
  238.5000     2.3710    77.8450    13.1050    13.1340    21.5420    24.4320   -19.5500 
  238.6250     2.3790    79.2880    12.9180    12.9230    18.4130    23.9460   -19.5360 
  238.7500     2.3910    81.7540    12.8230    12.7330    16.5470    23.8040   -19.5740 
  238.8750     2.4070    82.2680    12.8710    12.6240    17.5060    23.8550   -19.5390 
  239.0000     2.4220    79.6840    13.0580    12.6170    20.5930    23.9220   -19.5620 
  239.1250     2.4290    78.4750    13.3280    12.6960    23.6750    23.9670   -19.4920 
  239.2500     2.4230    79.6390    13.5730    12.7920    23.6570    23.9270   -19.4700 
  239.3750     2.4080    79.8630    13.7350    12.8530    20.6040    23.8960   -19.3760 
  239.5000     2.3920    79.7400    13.8070    12.8580    17.9390    23.8410   -19.3180 
  239.6250     2.3830    82.6160    13.8300    12.8140    17.8680    23.9260   -19.2570 
  239.7500     2.3870    84.7270    13.8560    12.7580    18.7870    24.1010   -19.1650 
  239.8750     2.4020    84.0830    13.8830    12.6930    19.4050    24.1140   -19.0640 
  240.0000     2.4210    83.1230    13.8770    12.6020    19.3010    23.9630   -18.9700 
  240.1250     2.4370    81.9220    13.7810    12.4530    18.8920    23.9260   -18.8420 
  240.2500     2.4460    79.0200    13.6030    12.2480    18.9560    24.3260   -18.6920 
  240.3750     2.4470    75.5530    13.3910    12.0220    19.2370    24.5480   -18.5560 
  240.5000     2.4450    75.1410    13.2280    11.8370    18.5530    23.9820   -18.4450 
  240.6250     2.4410    81.0850    13.2390    11.7940    16.3520    23.2350   -18.3060 
  240.7500     2.4370    88.2170    13.4580    11.9300    14.3350    23.1880   -18.1820 
  240.8750     2.4330    92.2840    13.8830    12.2580    13.2800    23.7080   -18.0590 
  241.0000     2.4310    90.9610    14.4610    12.7500    13.0780    24.0700   -17.9200 
  241.1250     2.4310    85.6740    15.0850    13.3340    13.5980    24.1600   -17.8210 
  241.2500     2.4330    80.2250    15.6230    13.8850    14.6610    24.3570   -17.7180 
  241.3750     2.4360    75.9110    15.9850    14.3050    15.6310    24.4160   -17.6440 
  241.5000     2.4410    74.7160    16.1220    14.5230    15.6420    24.2290   -17.5540 
  241.6250     2.4440    76.6140    16.0080    14.4850    14.9290    24.0040   -17.5370 
  241.7500     2.4440    77.8450    15.7490    14.2760    14.7180    23.9410   -17.4770 
  241.8750     2.4400    77.1830    15.4320    13.9730    15.3030    23.9520   -17.5090 
  242.0000     2.4320    75.6120    15.1400    13.6560    16.4060    23.9080   -17.4740 
  242.1250     2.4240    75.5220    14.9340    13.3930    17.9680    23.8630   -17.5110 
  242.2500     2.4210    75.0810    14.8020    13.1930    19.1050    23.8800   -17.5410 
  242.3750     2.4230    73.6910    14.7120    13.0390    18.9050    23.9280   -17.6040 
  242.5000     2.4270    73.4910    14.6240    12.9040    17.8460    23.9570   -17.6570 
  242.6250     2.4300    75.3920    14.5090    12.7660    16.8730    23.9620   -17.7120 
  242.7500     2.4260    76.5370    14.3780    12.6260    15.8400    23.9700   -17.7950 
  242.8750     2.4180    75.8850    14.2580    12.5030    14.5810    23.9540   -17.8450 
