~V
VERS. 2.00: Ver 2.00
~W
STRT.M 56.0000:
STOP.M 296.0000:
STEP.M 0.1250:
NULL. -999.2500:
UWI. DF301:
~C
DEPT.M :
DEN.GM/CC :
SP.MV :
AC.US/MT :
GR.API :
CALI.CM :
RXO.OHMM :
RI. :
RML.OHMM :
~A
# ...
  156.0000     2.2650    -9.2960   423.6220    76.1690    22.1380    10.3320     8.9660    10.3590 
  156.1250     2.2620    -8.8240   424.6960    79.9300    22.3210    10.3350     8.6140     9.9250 
  156.2500     2.2730    -8.3230   424.5990    81.5570    22.7240     9.4970     8.2130     9.4080 
  156.3750     2.2960    -7.8220   421.9660    82.5930    23.0990     8.5070     7.8050     8.8770 
  156.5000     2.3200    -7.3890   416.5300    84.8090    23.3320     7.7720     7.4380     8.4030 
  156.6250     2.3360    -6.9490   409.3460    87.3060    23.6390     7.3030     7.1500     8.0430 
  156.7500     2.3360    -6.6260   402.7910    87.1080    23.9720     7.0670     6.9690     7.8330 
  156.8750     2.3260    -6.3410   399.0840    84.9780    24.1010     7.0670     6.8560     7.7150 
  157.0000     2.3150    -6.1250   399.3500    84.7670    24.1080     7.1090     6.7780     7.6390 
  157.1250     2.3140    -5.9600   403.3590    86.3100    24.1710     7.0340     6.7130     7.5680 
  157.2500     2.3220    -5.8630   409.6150    86.5040    24.2350     6.8370     6.6540     7.4780 
  157.3750     2.3300    -5.8140   415.3090    86.4420    24.2300     6.6990     6.5950     7.3640 
  157.5000     2.3330    -5.7170   418.5560    88.1260    24.0990     6.7370     6.5280     7.2230 
  157.6250     2.3370    -5.6100   418.4140    90.7960    23.8830     6.8410     6.4420     7.0550 
  157.7500     2.3520    -5.3970   414.7790    91.1230    23.7280     6.7710     6.3270     6.8680 
  157.8750     2.3710    -5.1550   409.6410    91.2650    23.7690     6.6710     6.1980     6.6860 
  158.0000     2.3870    -4.9070   404.6810    94.2240    23.9780     6.6050     6.0750     6.5330 
  158.1250     2.3980    -4.6600   401.4160    98.8620    24.2380     6.5500     5.9760     6.4270 
  158.2500     2.4070    -4.4480   401.5740   101.5790    24.4350     6.4040     5.9210     6.3800 
  158.3750     2.4080    -4.2200   405.0210   103.2120    24.5070     6.3150     5.9020     6.3680 
  158.5000     2.3950    -4.0600   410.9600   104.5250    24.5350     6.1960     5.9070     6.3690 
  158.6250     2.3640    -3.9420   417.8440   103.5860    24.6130     6.0780     5.9180     6.3750 
  158.7500     2.3260    -3.9410   423.5090    98.0580    24.6790     6.0130     5.9260     6.3870 
  158.8750     2.3000    -3.9580   426.8930    93.7240    24.7070     5.9650     5.9290     6.4060 
  159.0000     2.2940    -3.9810   428.1090    93.5980    24.6960     5.9430     5.9240     6.4210 
  159.1250     2.3020    -3.9620   428.0630    97.5840    24.6570     5.9920     5.9090     6.4140 
  159.2500     2.3110    -3.9550   427.7240   101.7790    24.6070     6.1130     5.8820     6.3760 
  159.3750     2.3220    -3.9490   427.2730   103.7700    24.6030     6.1900     5.8450     6.3260 
  159.5000     2.3490    -3.8740   426.1870   104.4630    24.5920     6.1320     5.8070     6.2910 
  159.6250     2.3860    -3.8320   423.9660   103.8380    24.5470     6.0750     5.7840     6.2920 
  159.7500     2.4080    -3.7610   420.3380   102.9020    24.4810     6.1940     5.7960     6.3270 
  159.8750     2.3980    -3.7160   415.8400   101.8580    24.4100     6.4080     5.8270     6.3680 
  160.0000     2.3600    -3.7050   410.8500   101.0670    24.2240     6.6170     5.8620     6.4130 
  160.1250     2.3200    -3.7290   405.2470    99.8790    23.8250     6.9100     5.9390     6.5270 
  160.2500     2.3140    -3.7370   396.5990    95.2890    23.2240     7.3180     6.2220     6.9260 
  160.3750     2.3460    -3.6770   381.7630    89.8960    22.8800     7.9050     6.8690     7.7820 
  160.5000     2.4020    -3.6270   358.6930    87.6940    22.8470     9.2570     8.0490     9.3340 
  160.6250     2.4650    -3.5090   329.9270    87.0640    23.0570    13.8190     9.8970    11.7090 
  160.7500     2.5180    -3.2760   306.2080    82.2310    23.3590    22.1920    12.4350    14.6530 
  160.8750     2.5410    -2.9590   298.6910    75.9920    23.6050    27.2450    15.0300    17.2810 
  161.0000     2.5140    -2.5070   312.0540    72.8400    23.6550    25.0120    16.9490    18.9520 
  161.1250     2.4390    -2.0020   341.9960    72.5580    23.4320    19.4450    17.7910    19.5190 
  161.2500     2.3430    -1.4450   376.5900    72.7000    23.0280    16.4700    17.7370    19.3120 
  161.3750     2.2590    -0.9870   400.3220    73.7630    22.6530    15.5670    17.5410    19.0670 
  161.5000     2.2030    -0.5590   413.3870    75.1950    22.4270    15.8410    17.5810    19.1300 
  161.6250     2.1830    -0.1470   421.3370    74.2770    22.4020    16.5280    17.9290    19.5110 
  161.7500     2.2000     0.1570   423.9060    72.5260    22.5060    16.6190    18.3940    19.9790 
  161.8750     2.2230     0.4060   424.7930    71.9180    22.6030    16.0820    18.7360    20.2970 
  162.0000     2.2310     0.5630   425.0320    71.3520    22.6830    15.5500    18.8910    20.4260 
  162.1250     2.2220     0.7070   424.7450    71.7890    22.8060    15.5140    18.9110    20.4510 
  162.2500     2.2080     0.8090   424.0040    73.8310    23.0710    15.7370    18.9170    20.5160 
  162.3750     2.1970     0.9880   423.4090    74.7550    23.3300    15.9660    19.0290    20.7110 
  162.5000     2.1910     1.1360   423.6740    72.6340    23.5530    15.9890    19.3090    21.0720 
  162.6250     2.1880     1.2370   425.3580    68.8970    23.7290    16.1960    19.7730    21.6040 
  162.7500     2.1840     1.4940   428.4850    66.1180    23.9500    17.3180    20.4150    22.2940 
  162.8750     2.1760     1.8030   431.8920    63.3740    24.2160    18.8110    21.1080    23.0110 
  163.0000     2.1670     2.0820   434.5380    62.1740    24.4100    19.8920    21.6920    23.5920 
  163.1250     2.1660     2.3430   435.8730    63.6250    24.4760    20.3070    22.0130    23.8900 
  163.2500     2.1750     2.6090   435.8740    65.2010    24.4650    19.9560    21.9580    23.8090 
  163.3750     2.1820     2.8540   435.2680    65.9550    24.4740    19.1360    21.6950    23.5430 
  163.5000     2.1820     3.0780   434.5030    66.6720    24.4910    18.0880    21.4260    23.3050 
  163.6250     2.1730     3.3510   433.8320    68.9210    24.5040    17.5040    21.3420    23.2820 
  163.7500     2.1650     3.5780   433.4100    71.4430    24.5430    18.1820    21.5940    23.6030 
  163.8750     2.1630     3.7910   433.3460    70.0430    24.6200    19.7890    22.0890    24.1420 
  164.0000     2.1650     4.0530   433.8310    64.5990    24.7040    21.2900    22.6930    24.7440 
  164.1250     2.1660     4.3020   434.9860    59.0940    24.7380    21.9440    23.2440    25.2580 
  164.2500     2.1650     4.4990   436.8070    59.1030    24.7210    21.9160    23.6100    25.5740 
  164.3750     2.1640     4.6830   438.8790    61.3830    24.7220    21.9500    23.8310    25.7340 
  164.5000     2.1630     4.8530   440.8540    62.0550    24.7140    21.9620    23.9410    25.7540 
  164.6250     2.1590     4.9030   442.3820    62.6160    24.6000    21.6730    23.9060    25.5790 
  164.7500     2.1590     4.8430   442.8290    64.7430    24.3440    20.9640    23.5420    25.0260 
  164.8750     2.1670     4.6740   441.8820    66.3800    24.1060    19.7850    22.7910    24.0800 
  165.0000     2.1780     4.3580   439.4710    66.6830    23.7340    17.8070    21.7160    22.8480 
  165.1250     2.1850     4.0110   436.0810    67.2420    23.2340    15.3140    20.5450    21.5780 
  165.2500     2.1910     3.6310   432.8080    69.6950    22.9590    13.6890    19.6490    20.6490 
  165.3750     2.2000     3.3060   430.5710    70.4310    22.9270    13.3050    19.2140    20.2240 
  165.5000     2.2110     2.9960   429.5900    68.2370    22.9260    13.6780    19.2720    20.3130 
  165.6250     2.2180     2.6850   429.5590    65.9210    22.8420    14.2260    19.7130    20.7700 
  165.7500     2.2090     2.4780   430.0350    67.4290    22.7890    14.6220    20.2890    21.3020 
  165.8750     2.1940     2.3360   430.6860    69.6250    22.8060    14.6440    20.6610    21.5940 
