~V
VERS. 2.00: Ver 2.00
~W
STRT.M 60.0000:
STOP.M 277.0000:
STEP.M 0.1250:
NULL. -999.2500:
UWI. DF3048:
~C
DEPT.M :
SP.MV :
GR.API :
RML.OHMM :
RI. :
RXO.OHMM :
CALI.CM :
DEN.GM/CC :
~A
# ...
  206.2500   -19.3660    95.6370    14.1380    11.2050    15.3430    24.4110     2.4040 
  206.3750   -19.5690    94.9080    14.1700    11.3020    15.2940    24.4830     2.4020 
  206.5000   -19.6470    94.5460    14.0040    11.1790    15.4120    24.4550     2.3870 
  206.6250   -19.5920    97.8150    13.6450    10.8410    15.2880    24.2860     2.3650 
  206.7500   -19.4090   101.2470    13.1170    10.3550    14.3870    24.0950     2.3420 
  206.8750   -19.1210   100.9260    12.4220     9.7610    13.4930    24.2000     2.3160 
  207.0000   -18.8660    99.0300    11.6310     9.1200    13.1150    24.5070     2.2880 
  207.1250   -18.6190   100.1310    10.9340     8.5560    12.1020    24.5640     2.2620 
  207.2500   -18.3960   102.2740    10.5750     8.2270    10.9350    24.4900     2.2500 
  207.3750   -18.1910   102.8540    10.8290     8.3330     9.8580    24.5030     2.2620 
  207.5000   -18.0600   103.3060    11.9680     9.1010     9.9270    24.4000     2.3040 
  207.6250   -17.9400   105.0870    14.2890    10.8330    11.4000    24.0670     2.3760 
  207.7500   -17.7920   103.9820    17.3410    13.2670    13.9330    23.6670     2.4570 
  207.8750   -17.5750    99.1950    20.4090    15.9090    17.4770    23.5730     2.5250 
  208.0000   -17.2300    94.3590    22.4830    17.9760    22.4310    23.5690     2.5590 
  208.1250   -16.7910    91.4230    22.2520    18.3470    26.2970    23.5500     2.5420 
  208.2500   -16.2320    90.4500    19.9600    16.9910    27.6020    23.6550     2.4880 
  208.3750   -15.5360    92.5560    16.5220    14.4610    24.2160    23.7500     2.4090 
  208.5000   -14.6550    96.1200    13.1220    11.6610    18.4900    23.0940     2.3210 
  208.6250   -13.6080    94.7420    10.6920     9.4160    12.7930    22.0900     2.2370 
  208.7500   -12.4940    87.4470     9.2390     7.8870     9.3580    20.9040     2.1670 
  208.8750   -11.3940    78.7050     8.6060     7.0210     7.4210    19.8170     2.1180 
  209.0000   -10.3700    72.5610     8.5520     6.6810     6.8740    18.7310     2.0910 
  209.1250    -9.4160    71.4450     8.8210     6.7460     6.9410    17.9820     2.0860 
  209.2500    -8.5480    74.7810     9.0910     6.9730     7.0430    18.0080     2.0880 
  209.3750    -7.7800    79.3650     9.2030     7.2210     7.0050    18.7130     2.0910 
  209.5000    -7.1230    81.6400     9.1210     7.3960     6.9740    19.4190     2.0930 
  209.6250    -6.6510    81.3170     8.9210     7.4560     6.9030    20.1350     2.0980 
  209.7500    -6.3320    81.2990     8.7610     7.4600     6.8240    20.5190     2.1140 
  209.8750    -6.1230    82.8930     8.7160     7.4540     6.7600    20.7810     2.1440 
  210.0000    -5.9940    84.7690     8.7850     7.4630     6.8530    21.1720     2.1870 
  210.1250    -5.9390    84.8810     8.8920     7.4810     7.2080    21.7420     2.2340 
  210.2500    -5.9170    84.4730     8.9440     7.4850     7.6300    22.1630     2.2730 
  210.3750    -5.9550    85.6760     8.9060     7.4620     7.8820    22.3960     2.2980 
  210.5000    -6.0610    86.9930     8.8040     7.4120     7.8230    22.4900     2.3110 
  210.6250    -6.2230    87.1320     8.7130     7.3590     7.6770    22.6300     2.3170 
  210.7500    -6.4270    87.5430     8.7070     7.3370     7.7150    22.7720     2.3240 
  210.8750    -6.6590    88.9560     8.8340     7.3840     7.9070    22.9340     2.3320 
  211.0000    -6.9270    89.2960     9.1240     7.5360     7.9190    23.0970     2.3410 
  211.1250    -7.2100    88.0190     9.5930     7.8260     8.0450    23.2280     2.3450 
  211.2500    -7.5320    87.1930    10.1410     8.1940     8.2870    23.2800     2.3430 
  211.3750    -7.8490    87.5850    10.6360     8.5550     8.6130    23.3000     2.3360 
  211.5000    -8.1600    89.8980    10.9090     8.7990     9.2230    23.3170     2.3250 
  211.6250    -8.4590    92.2510    10.7860     8.8040    10.1460    23.4360     2.3170 
  211.7500    -8.7160    91.9860    10.4040     8.6280    10.8510    23.6390     2.3140 
  211.8750    -8.9490    90.6820     9.9200     8.4090    10.8550    23.7670     2.3230 
  212.0000    -9.1610    89.9210     9.6700     8.3630    10.8590    23.7890     2.3460 
  212.1250    -9.3870    86.6720    10.2920     8.9340    11.5660    23.7670     2.3860 
  212.2500    -9.6560    80.6300    12.3550    10.5230    13.7020    23.7770     2.4310 
  212.3750    -9.9930    75.6370    16.5050    13.6430    18.8860    23.8060     2.4740 
  212.5000   -10.4190    73.4280    23.4400    18.7130    26.9000    23.8540     2.5050 
  212.6250   -10.9150    70.6120    33.1380    26.0420    32.3240    23.8820     2.5050 
  212.7500   -11.4870    68.0530    43.7080    34.5060    39.3310    23.9200     2.4720 
  212.8750   -12.1370    67.3220    52.8090    42.7930    51.1910    23.9390     2.4100 
  213.0000   -12.7810    66.8810    59.8160    49.6080    61.1790    23.9300     2.3350 
  213.1250   -13.4310    66.6480    63.9230    54.1120    59.3680    23.7480     2.2730 
  213.2500   -14.0320    68.4410    66.7650    57.3910    58.0680    23.7770     2.2360 
  213.3750   -14.5870    71.1670    70.0550    60.7240    59.5470    23.8360     2.2220 
  213.5000   -15.0330    69.4840    75.1750    65.2980    64.6650    23.8810     2.2210 
  213.6250   -15.4170    63.8420    83.0820    72.0490    70.2070    23.8820     2.2190 
  213.7500   -15.7500    61.2030    92.7550    80.3140    76.0750    23.8860     2.2150 
  213.8750   -16.0190    62.6170   102.7340    89.0070    82.8740    23.9740     2.2100 
  214.0000   -16.2720    64.0410   111.0950    96.6450    87.9840    24.2350     2.2090 
  214.1250   -16.4790    62.8860   115.4120   101.3310    88.2980    24.1880     2.2130 
  214.2500   -16.6530    63.1560   115.8510   103.0170    84.4250    23.9820     2.2170 
  214.3750   -16.7770    64.7960   113.6250   102.4590    78.8070    23.7640     2.2210 
  214.5000   -16.9250    65.3450   110.6730   101.0850    71.7760    23.6930     2.2240 
  214.6250   -17.0260    65.6810   108.9820   100.5770    65.8110    23.7600     2.2260 
  214.7500   -17.1080    68.5000   109.0310   101.5390    64.4820    23.8940     2.2250 
  214.8750   -17.1490    72.3320   110.0720   103.6300    67.0120    24.0690     2.2190 
  215.0000   -17.1510    72.5160   110.7990   105.7120    73.2070    24.1030     2.2080 
  215.1250   -17.1000    68.1900   108.8450   105.5170    81.5230    24.1770     2.1950 
  215.2500   -17.0010    64.8870   103.0970   101.5130    88.2380    24.2800     2.1850 
  215.3750   -16.8880    64.2640    93.3360    93.0200    88.4940    24.4260     2.1800 
  215.5000   -16.7360    64.4330    81.5170    80.7920    82.7380    24.4480     2.1840 
  215.6250   -16.5420    64.1350    69.4810    67.0720    69.3000    24.1710     2.1990 
  215.7500   -16.3150    64.6420    58.8640    54.9310    50.2820    23.5620     2.2180 
  215.8750   -16.1150    67.5480    49.8590    46.0990    36.3440    23.2960     2.2340 
  216.0000   -15.9730    72.4670    45.5250    41.2930    30.9190    23.3820     2.2400 
  216.1250   -15.9120    77.1650    46.3270    41.2330    31.1270    23.6490     2.2320 
  216.2500   -15.9760    77.8340    51.1750    45.0070    35.1460    23.9240     2.2170 
  216.3750   -16.1000    74.2100    59.5960    52.1900    43.6380    23.9750     2.2010 
  216.5000   -16.2660    70.2320    70.7000    61.9250    57.4020    23.6100     2.1900 
  216.6250   -16.4950    68.8530    82.8920    72.6970    69.2600    23.8450     2.1810 
  216.7500   -16.7720    69.9780    93.8010    82.3270    77.4120    24.2560     2.1730 
  216.8750   -17.0590    71.6700   101.7410    89.3270    83.3380    24.4360     2.1650 
  217.0000   -17.3160    70.9460   105.9510    93.0160    88.7500    24.3430     2.1590 
  217.1250   -17.5430    67.8530   106.4810    93.3170    93.6770    24.0290     2.1560 
  217.2500   -17.7090    66.5660   105.2840    91.8780    93.4300    23.8850     2.1560 
  217.3750   -17.8570    66.7060   103.6910    89.8650    91.4180    23.8580     2.1580 
