~V
VERS. 2.00: Ver 2.00
~W
STRT.M 120.0000:
STOP.M 272.0000:
STEP.M 0.1250:
NULL. -999.2500:
UWI. DF3038:
~C
DEPT.M :
GR.API :
RML.OHMM :
RI. :
RXO.OHMM :
CALI.CM :
DEN.GM/CC :
SP.MV :
~A
# ...
  187.5000    70.4040   253.2760   223.0440   203.2270    25.1000     2.2510   -20.7660 
  187.6250    69.7370   232.0320   205.4490   185.0990    25.0840     2.2570   -20.8180 
  187.7500    68.2520   212.2310   188.3200   166.9330    24.9960     2.2650   -20.7290 
  187.8750    66.5750   194.7460   172.8290   148.8680    24.7760     2.2700   -20.6410 
  188.0000    65.5810   179.1390   158.8600   131.3940    24.4880     2.2730   -20.5030 
  188.1250    67.8150   165.0800   146.1980   121.3380    24.2990     2.2760   -20.3100 
  188.2500    72.7450   152.5890   134.8250   115.1480    24.2060     2.2810   -20.1280 
  188.3750    76.6620   142.8010   125.7300   103.7410    24.1360     2.2890   -19.9740 
  188.5000    76.3590   137.6160   120.7050    90.3010    24.0760     2.2970   -19.8990 
  188.6250    75.2220   141.4580   123.8210    82.1770    24.0960     2.3000   -19.8330 
  188.7500    75.0780   156.5290   136.9090    86.7190    24.2600     2.2940   -19.8200 
  188.8750    72.5890   184.3060   161.0100   106.5430    24.6070     2.2780   -19.8060 
  189.0000    66.7270   222.4540   193.7830   145.3640    25.0060     2.2570   -19.8140 
  189.1250    61.2320   261.6140   226.9620   214.5600    25.2440     2.2380   -19.8400 
  189.2500    59.0400   287.1230   248.4710   293.3140    25.2980     2.2270   -19.8170 
  189.3750    59.2260   287.7900   249.6680   345.1310    25.2560     2.2250   -19.7340 
  189.5000    60.9310   262.0140   229.4290   346.7850    25.1500     2.2320   -19.4600 
  189.6250    64.8360   221.5090   195.8280   267.9560    24.9560     2.2470   -19.1900 
  189.7500    69.7200   185.3780   163.9800   172.1310    24.7040     2.2630   -18.7490 
  189.8750    73.3670   160.0940   140.3750   113.4660    24.5400     2.2740   -18.2250 
  190.0000    73.6830   145.4440   126.0670    93.2840    24.5780     2.2780   -17.5490 
  190.1250    71.1890   139.6020   120.0900    92.2780    24.7910     2.2740   -16.8120 
  190.2500    70.1790   138.0770   118.4030    99.6360    24.9510     2.2690   -16.0050 
  190.3750    70.4230   138.5350   118.8090   109.0500    25.0060     2.2650   -15.2350 
  190.5000    68.9570   139.2880   119.6740   114.6070    25.0120     2.2650   -14.6130 
  190.6250    66.7600   139.3230   119.9680   113.6470    25.0120     2.2660   -14.1400 
  190.7500    67.5670   138.7610   119.6860   112.7000    25.0120     2.2680   -13.9390 
  190.8750    69.5380   137.9810   119.1320   113.2220    25.0120     2.2710   -13.9300 
  191.0000    68.8950   137.1510   118.4710   111.2190    25.0120     2.2760   -14.1620 
  191.1250    68.3560   135.7330   117.3010   107.8710    25.0120     2.2820   -14.6060 
  191.2500    70.1520   132.9100   114.9710   106.3250    25.0120     2.2870   -15.2360 
  191.3750    72.2290   128.0630   110.9430   106.6270    25.0120     2.2900   -15.9760 
  191.5000    73.5540   121.2070   105.1650   106.6860    25.0120     2.2880   -16.7190 
  191.6250    73.5730   113.0780    98.1290   100.2980    25.0120     2.2820   -17.4130 
  191.7500    72.4570   105.2570    91.1440    88.8980    25.0100     2.2810   -17.9920 
  191.8750    70.0390    98.9150    85.2370    78.9290    24.9960     2.2930   -18.4650 
  192.0000    67.9330    94.9210    81.2290    74.6780    24.9540     2.3250   -18.7940 
  192.1250    67.5480    94.3530    80.1400    75.3650    24.8840     2.3770   -18.9970 
  192.2500    67.4640    96.9610    81.8320    77.3300    24.8410     2.4310   -19.0660 
  192.3750    68.2980   102.5810    86.2180    80.5890    24.8300     2.4650   -19.0520 
  192.5000    69.6940   110.5710    92.7890    88.8650    24.8520     2.4660   -18.9230 
  192.6250    68.4390   119.9240   100.6750   100.6980    24.9140     2.4320   -18.6660 
  192.7500    64.8330   129.3840   108.5780   113.0240    24.9880     2.3850   -18.4280 
  192.8750    62.0580   138.5390   115.8680   125.4850    25.0370     2.3410   -18.0850 
  193.0000    62.7520   147.1020   122.1400   128.7920    25.0770     2.3030   -17.7630 
  193.1250    66.7120   153.5620   126.1320   119.1820    25.0920     2.2770   -17.3230 
  193.2500    70.3000   154.5840   125.9090   114.9820    25.0840     2.2660   -16.8780 
  193.3750    70.4610   145.5620   118.5100   113.7900    25.0390     2.2770   -16.3450 
  193.5000    66.4280   123.2160   101.8550   110.5050    24.9370     2.3210   -15.8280 
  193.6250    62.1730    89.4540    76.7860   110.6540    24.7690     2.4010   -15.2940 
  193.7500    61.0340    56.0930    51.3000    97.6100    24.6420     2.4940   -14.6710 
  193.8750    61.9180    30.4950    31.2330    57.3710    24.5770     2.5720   -14.1220 
  194.0000    63.1120    15.5690    18.4420    20.9660    24.5420     2.6080   -13.5880 
  194.1250    63.0420    10.5910    12.1170     9.2030    24.5740     2.5860   -13.1380 
  194.2500    61.8750     8.1250     8.9210     6.4710    24.7510     2.5340   -12.7610 
  194.3750    60.5850     7.0860     7.4370     6.0730    25.0240     2.4820   -12.4670 
  194.5000    59.5920     6.8070     6.8850     6.0800    25.2260     2.4540   -12.2880 
  194.6250    58.2910     6.8970     6.8880     5.9420    25.3590     2.4570   -12.1670 
  194.7500    58.1490     7.0560     7.0910     5.8080    25.2250     2.4620   -12.1450 
  194.8750    59.5400     7.1900     7.3460     5.7390    25.0230     2.4370   -12.1770 
  195.0000    60.8780     7.2790     7.5760     5.6050    25.0410     2.3680   -12.2330 
  195.1250    62.1620     7.3370     7.7440     5.5980    25.5520     2.2830   -12.3410 
  195.2500    64.1930     7.3810     7.8500     5.7180    25.9530     2.2290   -12.4620 
  195.3750    67.1010     7.4070     7.8820     5.8010    25.8890     2.2100   -12.5870 
  195.5000    69.5170     7.4090     7.8360     5.8070    25.4450     2.1990   -12.7210 
  195.6250    68.9400     7.3830     7.7050     5.7390    24.8390     2.1910   -12.8940 
  195.7500    65.0090     7.3410     7.5190     5.7020    24.3090     2.1980   -13.0630 
  195.8750    59.0290     7.2990     7.3060     5.6640    24.1160     2.2230   -13.2780 
  196.0000    54.1270     7.2790     7.1000     5.5680    24.1060     2.2720   -13.5210 
  196.1250    52.4310     7.3120     6.9450     5.5820    24.1130     2.3330   -13.8550 
  196.2500    54.0140     7.4010     6.8560     5.6910    24.1130     2.3760   -14.1530 
  196.3750    56.8840     7.5450     6.8400     5.8050    24.1380     2.3930   -14.5330 
  196.5000    57.4910     7.7330     6.8900     5.9720    24.2260     2.4230   -14.9190 
  196.6250    57.9240     7.9550     6.9950     6.2320    24.3780     2.4600   -15.4300 
  196.7500    63.4290     8.2130     7.1380     6.5510    24.4850     2.4930   -16.0140 
  196.8750    73.3970     8.5310     7.3240     6.8750    24.5320     2.5090   -16.6400 
  197.0000    81.2110     8.9420     7.5670     7.2170    24.5680     2.5030   -17.3110 
  197.1250    84.7410     9.4740     7.8910     7.6280    24.7420     2.4750   -17.9810 
  197.2500    90.8920    10.0690     8.2690     8.1050    25.0850     2.4430   -18.7300 
  197.3750    98.8310    10.6410     8.6610     8.6650    25.3920     2.4160   -19.4930 
  197.5000   104.4050    11.0870     9.0050     9.2780    25.4800     2.4020   -20.2960 
  197.6250   105.4640    11.3000     9.2220     9.1110    25.4380     2.4020   -21.0850 
  197.7500   105.5900    11.3330     9.3170     9.1160    25.3590     2.4040   -21.9010 
  197.8750   105.9610    11.2910     9.3350     9.5500    25.2820     2.4030   -22.7540 
  198.0000   104.6620    11.3090     9.3570    10.4020    25.1950     2.3980   -23.6470 
  198.1250   102.7110    11.5250     9.4840    11.0370    24.9000     2.3900   -24.6030 
  198.2500   101.1620    11.9260     9.7420    12.0230    24.3180     2.3830   -25.5450 
  198.3750    98.9570    12.4420    10.1110    13.5840    23.8150     2.3750   -26.4410 
  198.5000    96.8530    12.9610    10.5300    15.2210    23.9010     2.3670   -27.2230 
  198.6250    96.4220    13.3500    10.9060    15.9550    24.2650     2.3610   -27.9240 
