~V
VERS. 2.00: Ver 2.00
~W
STRT.M 105.0000:
STOP.M 269.0000:
STEP.M 0.1250:
NULL. -999.2500:
UWI. DF304:
~C
DEPT.M :
GR.API :
CALI.CM :
RXO.OHMM :
RI. :
RML.OHMM :
SP.MV :
DEN.GM/CC :
AC.US/MT :
~A
# ...
  175.0000    60.8930    25.3800    80.9420    82.0410    83.9740   -21.9840     2.3370   385.7930 
  175.1250    60.9530    25.3800    77.4750    78.8370    81.0560   -21.9890     2.3440   384.4550 
  175.2500    64.1280    25.3800    72.8150    75.1360    77.3400   -21.9810     2.3440   383.0320 
  175.3750    68.2300    25.3800    65.3070    72.5530    74.6860   -21.9690     2.3380   382.5970 
  175.5000    69.7450    25.3800    59.0740    72.4640    74.7200   -21.9480     2.3300   383.5790 
  175.6250    67.1370    25.3800    65.3700    75.9920    78.7310   -21.9300     2.3200   385.8050 
  175.7500    63.4650    25.3800    79.3250    82.0440    85.4840   -21.9050     2.3120   388.1640 
  175.8750    59.9440    25.3800    91.2900    89.1970    93.3700   -21.8940     2.3100   389.6610 
  176.0000    58.9670    25.3800    95.4890    95.4820   100.1960   -21.8810     2.3160   389.7250 
  176.1250    63.0290    25.3800    94.3790    98.3670   103.1670   -21.8430     2.3230   388.7410 
  176.2500    67.7750    25.3740    90.2150    97.7310   102.2530   -21.8080     2.3250   388.1190 
  176.3750    68.3690    25.3520    83.7340    94.4830    98.6000   -21.7820     2.3210   387.6250 
  176.5000    65.2300    25.3100    77.0840    89.9340    93.7480   -21.7530     2.3180   387.0390 
  176.6250    64.9860    25.2890    72.4260    85.1630    88.8770   -21.6750     2.3180   387.2530 
  176.7500    67.0320    25.2680    67.5860    80.9520    84.7130   -21.5850     2.3190   387.6390 
  176.8750    68.5610    25.2050    60.9420    77.7960    81.7370   -21.4770     2.3190   388.3050 
  177.0000    69.7670    25.0590    54.4930    75.9920    80.2500   -21.3680     2.3190   389.4190 
  177.1250    69.9480    24.9560    52.6860    75.8470    80.5810   -21.2840     2.3190   390.3290 
  177.2500    69.9750    24.9180    55.6610    76.9990    82.3240   -21.1880     2.3210   389.9330 
  177.3750    70.3330    24.9130    60.0920    79.2910    85.2800   -21.0740     2.3220   388.0500 
  177.5000    71.0880    24.9040    61.1330    82.6140    89.3090   -20.9660     2.3220   385.5070 
  177.6250    73.1280    24.8290    58.9080    87.1390    94.5990   -20.9020     2.3180   383.4890 
  177.7500    75.0190    24.6640    56.7320    92.7790   101.1280   -20.8620     2.3120   382.4680 
  177.8750    74.4770    24.4840    56.6170    99.4870   108.9240   -20.8360     2.3070   382.5780 
  178.0000    70.3000    24.3560    56.9100   106.7400   117.4560   -20.8130     2.3060   383.5440 
  178.1250    66.3550    24.2930    55.6070   112.8310   124.7070   -20.7990     2.3110   384.1330 
  178.2500    64.9350    24.2540    55.4500   116.1260   128.4930   -20.7980     2.3180   383.3340 
  178.3750    65.3410    24.2420    56.3750   116.2320   128.1180   -20.7920     2.3240   381.7290 
  178.5000    70.4200    24.2440    56.3280   114.5590   125.2440   -20.7710     2.3240   381.1230 
  178.6250    76.6560    24.2550    55.9900   114.1380   123.5570   -20.7320     2.3160   383.1460 
  178.7500    76.7030    24.2880    59.4080   117.0180   125.5310   -20.6910     2.3060   385.9660 
  178.8750    71.1880    24.3970    76.2770   123.1410   131.0980   -20.6360     2.3010   386.7980 
  179.0000    65.7600    24.6460   111.8880   129.6760   137.1040   -20.5510     2.3030   383.9660 
  179.1250    62.3780    25.0130   146.5340   129.9000   136.0000   -20.4170     2.3100   378.2440 
  179.2500    59.0980    25.3080   147.2480   120.4810   124.3510   -20.2550     2.3210   373.0980 
  179.3750    59.8460    25.4520   114.7980   102.8190   104.4140   -20.0930     2.3410   370.8070 
  179.5000    65.2170    25.4890    75.3310    82.2100    82.2980   -19.9410     2.3680   372.1010 
  179.6250    69.7900    25.4890    48.3400    65.0160    64.2980   -19.7960     2.3880   375.7870 
  179.7500    70.2010    25.4890    35.9230    53.2090    51.8800   -19.6540     2.3890   378.6020 
  179.8750    69.0340    25.4890    30.8250    46.4170    44.6480   -19.5440     2.3740   379.0560 
  180.0000    72.0120    25.4890    27.1470    43.5530    41.5900   -19.4960     2.3590   378.0360 
  180.1250    78.7010    25.4890    27.4060    43.9650    42.0510   -19.5430     2.3590   377.9840 
  180.2500    84.1890    25.4890    36.3790    46.1610    44.3500   -19.6480     2.3690   379.3340 
  180.3750    84.4110    25.4860    47.5040    49.1980    47.4290   -19.7990     2.3760   380.4390 
  180.5000    80.3980    25.4800    50.3910    52.2910    50.4720   -19.9840     2.3720   379.5310 
  180.6250    75.9630    25.4740    43.3120    55.2080    53.2990   -20.1830     2.3590   376.2760 
  180.7500    71.7340    25.4810    39.8960    58.5010    56.5870   -20.2930     2.3460   372.6900 
  180.8750    68.9720    25.4830    44.5700    62.8280    61.1390   -20.4750     2.3340   370.1390 
  181.0000    66.8220    25.4770    55.3800    68.5450    67.4570   -20.6850     2.3250   368.9790 
  181.1250    64.6190    25.4750    69.3150    75.3150    75.4150   -20.8830     2.3220   368.5890 
  181.2500    64.3710    25.4720    78.0830    81.6590    83.4160   -21.0420     2.3240   367.8110 
  181.3750    67.7650    25.4700    78.0950    86.5830    90.2370   -21.1780     2.3250   366.3460 
  181.5000    71.0090    25.4690    73.9170    90.1820    95.7650   -21.2890     2.3230   364.8280 
  181.6250    69.1220    25.4710    73.7720    93.7270   101.3500   -21.3770     2.3240   364.5550 
  181.7500    65.0400    25.4690    79.8490    98.4330   108.4340   -21.4600     2.3290   365.5650 
  181.8750    62.2410    25.4690    90.2010   104.5670   117.4030   -21.5420     2.3330   367.0620 
  182.0000    60.4560    25.4720   101.4800   111.6860   127.7420   -21.6000     2.3330   368.2540 
  182.1250    58.4690    25.4700   107.5350   118.9510   138.2730   -21.6020     2.3260   369.2920 
  182.2500    57.7180    25.4720   107.9300   126.0720   148.3300   -21.5730     2.3150   371.2810 
  182.3750    57.4720    25.4720   108.7820   133.8790   158.7050   -21.5210     2.3000   374.7710 
  182.5000    56.7480    25.4740   117.3210   143.8950   171.1740   -21.4540     2.2850   379.1070 
  182.6250    54.7320    25.4720   132.3880   158.1870   188.3550   -21.3410     2.2690   382.4800 
  182.7500    52.4710    25.4720   152.0160   176.1160   209.9510   -21.1880     2.2590   383.9900 
  182.8750    51.7000    25.4700   175.5380   195.6690   233.7680   -20.9990     2.2630   383.9990 
  183.0000    52.0370    25.4730   199.7840   213.1690   255.0030   -20.7890     2.2790   383.3350 
  183.1250    50.3490    25.4720   209.8380   222.8590   265.5570   -20.5770     2.2970   382.5000 
  183.2500    47.2500    25.4730   197.6850   222.8660   263.0320   -20.3680     2.3110   381.5760 
  183.3750    45.8150    25.4740   173.7500   212.9300   247.8600   -20.1500     2.3240   380.3810 
  183.5000    47.7120    25.4650   153.3240   194.5980   222.9350   -19.9100     2.3380   378.4460 
  183.6250    52.6820    25.4340   144.8330   170.3660   192.3470   -19.6820     2.3480   374.9030 
  183.7500    58.0140    25.3940   131.1480   145.3740   162.4320   -19.4440     2.3530   370.4230 
  183.8750    61.5940    25.3780   106.9190   123.3280   137.2900   -19.1780     2.3520   366.8690 
  184.0000    61.9050    25.3740    80.5380   106.8760   119.3080   -18.9160     2.3480   366.4690 
  184.1250    59.5910    25.3740    67.8600    98.1410   110.1900   -18.6400     2.3420   370.1780 
  184.2500    58.0330    25.3720    69.8170    95.6480   107.9290   -18.3580     2.3400   373.4240 
  184.3750    57.6040    25.3720    83.3180    98.7540   111.7570   -18.0670     2.3580   369.2340 
  184.5000    56.8590    25.3650   101.6810   106.7860   120.9350   -17.7570     2.4120   350.6390 
  184.6250    55.5500    25.3370   110.2010   118.8890   134.6380   -17.3900     2.5090   313.7930 
  184.7500    54.7710    25.2990   103.0610   131.4150   148.9240   -17.0160     2.6080   270.2930 
  184.8750    53.7200    25.2520   101.6480   140.1200   158.6730   -16.6510     2.6760   233.1610 
