~V
VERS. 2.00: Ver 2.00
~W
STRT.M 56.0000:
STOP.M 296.0000:
STEP.M 0.1250:
NULL. -999.2500:
UWI. DF301:
~C
DEPT.M :
DEN.GM/CC :
SP.MV :
AC.US/MT :
GR.API :
CALI.CM :
RXO.OHMM :
RI. :
RML.OHMM :
~A
# ...
  246.0000     2.4660   -10.4390   379.4090    95.0560    24.4340    10.3480     9.1620    10.0700 
  246.1250     2.4640   -10.4210   375.2750    93.2480    24.3980    10.9290     9.1830    10.1430 
  246.2500     2.4450   -10.4660   375.9330    97.9390    24.3850    10.2990     8.9730     9.9740 
  246.3750     2.4300   -10.4700   380.5020   103.7580    24.4350     9.4690     8.7010     9.7780 
  246.5000     2.4270   -10.4340   385.1230   106.1600    24.5100     9.2900     8.6060     9.8450 
  246.6250     2.4330   -10.4410   386.2760   105.0810    24.5210     9.8040     8.9510    10.5150 
  246.7500     2.4310   -10.4630   383.7780   102.5570    24.4680    11.7420    10.1830    12.3400 
  246.8750     2.4100   -10.4990   379.8280    97.9720    24.4220    16.3240    12.5710    15.5030 
  247.0000     2.3750   -10.6170   376.1550    88.4410    24.4150    25.6760    16.4520    20.1620 
  247.1250     2.3440   -10.8030   371.0480    77.9960    24.4310    39.2880    21.8930    26.1050 
  247.2500     2.3360   -10.9840   361.9090    73.3460    24.4120    48.9170    28.2670    32.4530 
  247.3750     2.3340   -11.2750   348.9660    73.4620    24.3600    51.7910    33.9700    37.9100 
  247.5000     2.3200   -11.7160   338.1900    75.0320    24.2690    49.1320    38.1480    41.9850 
  247.6250     2.2960   -12.2060   335.6950    74.5810    24.1680    44.6960    41.2360    45.1570 
  247.7500     2.2860   -12.7330   342.0590    72.0980    24.1700    45.9810    45.2680    49.6670 
  247.8750     2.2950   -13.2660   351.3510    68.9080    24.2230    59.6700    52.3770    58.3430 
  248.0000     2.3180   -13.8000   351.5120    65.8260    24.2490    87.2700    63.9480    72.7820 
  248.1250     2.3550   -14.3140   338.1480    61.7160    24.2480   122.8640    79.9460    92.2120 
  248.2500     2.4070   -14.8710   316.2760    56.5800    24.1930   155.9370    97.5250   112.5870 
  248.3750     2.4470   -15.4190   296.9630    53.5200    24.1010   177.7290   110.8950   127.9670 
  248.5000     2.4450   -15.8220   293.4470    53.4450    23.9190   166.8300   116.5930   134.9560 
  248.6250     2.3960   -16.1500   305.0970    56.3860    23.6090   127.3750   115.5160   134.0310 
  248.7500     2.3390   -16.5190   324.5240    61.2890    23.1580   102.2260   111.8650   129.4340 
  248.8750     2.3130   -16.8740   341.7780    63.3240    22.8980   103.8140   109.7620   126.1590 
  249.0000     2.3160   -17.1430   349.5140    60.7730    23.0750   114.4850   110.1910   125.3390 
  249.1250     2.3230   -17.4240   351.9650    57.1980    23.5020   117.0050   112.3190   125.8000 
  249.2500     2.3150   -17.6870   355.3440    56.9080    23.7770   112.7860   113.4220   124.3580 
  249.3750     2.2990   -17.8760   363.2880    57.6630    23.7700   114.1340   110.6540   118.6350 
  249.5000     2.2880   -18.1330   375.2080    58.0150    23.7130   115.3720   102.8320   108.2140 
  249.6250     2.2840   -18.4450   386.0880    59.7650    23.7050   101.0320    91.1640    94.8320 
  249.7500     2.2820   -18.6490   392.8550    63.3240    23.7420    76.4450    78.8210    81.7730 
  249.8750     2.2750   -18.8240   395.3260    64.9160    23.7300    58.5940    68.7360    71.5500 
  250.0000     2.2680   -19.0760   395.4420    65.3550    23.6590    50.0210    62.1320    65.1550 
  250.1250     2.2680   -19.2860   396.1280    67.8140    23.5830    48.3810    59.4330    62.8120 
  250.2500     2.2610   -19.4770   398.5170    72.0790    23.6380    52.9710    61.2660    65.0120 
  250.3750     2.2300   -19.7680   402.3260    72.6880    23.8010    61.9460    66.6530    70.7570 
  250.5000     2.1770   -20.0390   405.9490    70.1610    24.0620    72.3790    75.0340    79.5340 
  250.6250     2.1280   -20.2560   407.6880    67.8760    24.4020    82.0980    85.5770    90.6090 
  250.7500     2.1160   -20.5890   406.9930    66.7430    24.3270    88.0070    97.3640   103.2330 
  250.8750     2.1330   -20.9640   404.5730    64.7030    23.8540    88.6290   109.3910   116.4340 
  251.0000     2.1660   -21.2470   402.1080    62.8210    23.3490    86.5650   121.4700   129.9670 
  251.1250     2.2090   -21.5360   400.9580    62.2900    23.0280    88.8800   133.7240   143.8360 
  251.2500     2.2420   -21.8680   401.2380    61.6510    22.9590   105.6030   146.0310   157.8080 
  251.3750     2.2460   -22.1340   402.2320    59.6020    23.2890   133.8940   157.5050   170.8700 
  251.5000     2.2240   -22.3230   403.0280    56.2590    23.7330   164.7720   166.7770   181.5910 
  251.6250     2.1990   -22.5000   403.1470    53.8070    24.0120   186.3070   172.6470   188.7670 
  251.7500     2.1870   -22.6240   401.4420    54.8780    24.1310   185.3770   174.6580   191.7690 
  251.8750     2.1860   -22.6520   394.7870    58.6270    24.3670   166.2840   174.9580   192.5960 
  252.0000     2.2160   -22.7030   376.3330    63.2350    24.5780   146.8930   175.2180   192.8780 
  252.1250     2.2950   -22.7650   345.2940    65.3120    24.5630   148.5910   176.4820   193.5940 
  252.2500     2.3980   -22.6740   304.5200    63.3400    24.2620   166.2620   178.7350   194.2580 
  252.3750     2.4520   -22.5740   261.7620    59.9530    23.9800   171.4500   180.1690   192.9650 
  252.5000     2.4340   -22.5220   230.1920    58.3060    23.9460   149.4850   178.6310   187.8540 
  252.6250     2.3760   -22.4030   217.5070    57.5720    24.1740   124.4790   172.6500   178.1750 
  252.7500     2.3300   -22.2330   227.0130    56.5250    24.4450   125.4980   161.8810   164.5860 
  252.8750     2.3030   -22.1340   256.1980    57.8000    24.4300   140.0940   149.1200   150.1200 
  253.0000     2.2780   -21.9730   297.8230    61.4160    24.1050   142.8160   136.6830   136.8610 
  253.1250     2.2530   -21.7430   338.5640    64.6480    23.7650   127.9530   126.3830   126.2720 
  253.2500     2.2400   -21.6670   370.2110    64.3390    23.8660   117.0820   120.0140   120.0250 
  253.3750     2.2350   -21.6010   389.6310    63.5040    23.9430   113.9420   117.9310   118.1510 
  253.5000     2.2310   -21.4470   397.2790    63.8010    23.9050   117.9870   120.8710   122.2670 
  253.6250     2.2240   -21.3290   399.3900    64.3310    23.8160   128.4990   129.2690   133.9560 
  253.7500     2.2230   -21.2990   399.1820    64.2730    23.8770   148.3950   143.5850   152.9820 
  253.8750     2.2320   -21.3200   398.0970    63.8850    23.9660   176.8960   161.2310   174.1120 
  254.0000     2.2480   -21.3790   397.1410    64.4210    24.0320   203.2410   179.2200   193.6990 
  254.1250     2.2640   -21.5230   396.9210    65.9990    24.1650   215.2890   193.7800   209.1490 
  254.2500     2.2670   -21.6280   397.5130    65.8260    24.4420   209.5490   200.5770   217.1030 
  254.3750     2.2540   -21.5980   398.5860    62.2280    24.6090   198.8790   200.4620   218.1920 
  254.5000     2.2330   -21.6060   399.5550    58.1230    24.6680   190.6020   195.6790   214.5170 
  254.6250     2.2160   -21.6530   400.0290    56.6970    24.6200   186.9890   189.1130   208.5730 
  254.7500     2.2070   -21.4970   399.9720    58.2550    24.4710   184.9910   182.6000   201.6320 
  254.8750     2.2030   -21.1810   399.6330    60.8000    24.3540   182.3160   175.7760   193.4760 
  255.0000     2.2020   -20.9320   399.4680    63.3170    24.3980   180.5090   167.5270   183.3630 
  255.1250     2.2030   -20.6180   399.6830    63.8000    24.5080   181.5860   157.4740   171.3730 
  255.2500     2.2070   -20.1860   400.1340    61.2170    24.5700   175.5280   146.6090   158.8750 
  255.3750     2.2170   -19.9330   400.4520    59.3050    24.5410   154.3660   136.8870   147.8620 
  255.5000     2.2300   -19.7560   400.1960    60.5400    24.4850   128.3150   129.5660   139.4840 
  255.6250     2.2430   -19.5320   399.4010    62.6090    24.4700   114.8620   125.0830   134.0030 
  255.7500     2.2500   -19.4800   398.2740    61.7930    24.4820   120.7300   123.2030   130.9530 
  255.8750     2.2500   -19.5540   397.0670    60.1480    24.4650   124.7500   122.0950   128.4100 
