~V
VERS. 2.00: Ver 2.00
~W
STRT.M 125.0000:
STOP.M 275.0000:
STEP.M 0.1250:
NULL. -999.2500:
UWI. DF3046:
~C
DEPT.M :
GR.API :
CALI.CM :
RXO.OHMM :
RI. :
RML.OHMM :
DEN.GM/CC :
SP.MV :
~A
# ...
  136.2500    82.7290    24.2150     7.1010     6.3870     6.4310     2.3000   -13.3690 
  136.3750    91.0570    24.2850     7.2900     5.8900     5.9270     2.2880   -12.8820 
  136.5000    91.4200    24.1410     7.4590     5.6650     5.7130     2.2860   -12.4110 
  136.6250    88.0260    24.0830     7.2690     5.6730     5.7250     2.2900   -11.9570 
  136.7500    88.0800    24.1310     6.9710     5.7890     5.8330     2.2940   -11.5630 
  136.8750    90.0420    24.1930     6.8920     5.9370     5.9650     2.2970   -11.2490 
  137.0000    89.6890    24.1920     7.0300     6.0650     6.0740     2.3070   -11.0160 
  137.1250    86.5160    24.1240     7.0850     6.1310     6.1190     2.3300   -10.8550 
  137.2500    84.7220    24.1360     6.8860     6.1180     6.0910     2.3500   -10.6930 
  137.3750    85.7540    24.2580     6.6920     6.0070     5.9780     2.3530   -10.4840 
  137.5000    87.4910    24.4090     6.6550     5.7890     5.7730     2.3400   -10.2560 
  137.6250    88.2850    24.5290     6.5770     5.4540     5.4580     2.3290   -10.0240 
  137.7500    89.4790    24.6370     6.3800     5.0430     5.0610     2.3360    -9.7720 
  137.8750    90.9140    24.7070     6.0910     4.5930     4.6240     2.3610    -9.5260 
  138.0000    91.6530    24.7630     5.7820     4.1700     4.2300     2.3910    -9.3140 
  138.1250    91.2550    24.8040     5.5750     3.9220     4.0660     2.4080    -9.1910 
  138.2500    90.9350    24.8590     5.5370     3.9560     4.2680     2.4070    -9.1940 
  138.3750    90.4250    24.8620     6.0640     4.3750     4.9720     2.3850    -9.3620 
  138.5000    87.2330    24.7040     7.5770     5.2650     6.2610     2.3390    -9.7350 
  138.6250    79.1830    24.2800    10.5650     6.7280     8.1440     2.2820   -10.3490 
  138.7500    71.9090    23.9670    13.2000     8.4720    10.1540     2.2430   -11.0920 
  138.8750    69.9290    23.7190    13.8500    10.0170    11.7420     2.2320   -11.9050 
  139.0000    69.6530    23.5360    12.7500    10.8490    12.4600     2.2390   -12.7440 
  139.1250    66.0140    23.4710    11.5290    10.7530    12.1780     2.2430   -13.5720 
  139.2500    63.2420    23.4650    11.0940    10.2800    11.5280     2.2460   -14.3560 
  139.3750    65.4020    23.4620    11.0350     9.8220    10.9850     2.2520   -15.0260 
  139.5000    70.8270    23.4470    11.1010     9.5770    10.7920     2.2590   -15.5210 
  139.6250    73.8830    23.4070    11.1650     9.5930    10.9760     2.2550   -15.8150 
  139.7500    73.7240    23.3780    11.2370     9.7480    11.3240     2.2400   -16.0080 
  139.8750    72.1440    23.3760    11.3410     9.9620    11.6970     2.2260   -16.1540 
  140.0000    71.3260    23.3860    11.4750    10.1730    12.0000     2.2200   -16.2690 
  140.1250    72.0370    23.4070    11.6130    10.3330    12.1620     2.2200   -16.3380 
  140.2500    71.3700    23.4080    11.7350    10.4270    12.1960     2.2180   -16.3540 
  140.3750    68.5350    23.4160    11.8310    10.4570    12.1210     2.2140   -16.3510 
  140.5000    65.3140    23.4370    11.8150    10.4370    11.9850     2.2190   -16.3320 
  140.6250    65.8990    23.4460    11.6300    10.4000    11.8660     2.2330   -16.2820 
  140.7500    69.3160    23.4440    11.4630    10.3850    11.8410     2.2420   -16.2060 
  140.8750    72.2690    23.4450    11.3740    10.4200    11.9430     2.2350   -16.0980 
  141.0000    73.8540    23.4850    11.3110    10.5040    12.1270     2.2150   -15.9550 
  141.1250    76.1460    23.5630    11.1670    10.5350    12.1840     2.1950   -15.7930 
  141.2500    77.8380    23.6140    10.9380    10.3220    11.8670     2.1960   -15.5970 
  141.3750    75.5700    23.6390    10.7280     9.7110    11.0330     2.2260   -15.3630 
  141.5000    69.9370    23.6460    10.3330     8.7110     9.7460     2.2730   -15.0880 
  141.6250    68.8240    23.6650     9.1660     7.5320     8.2960     2.3000   -14.7200 
  141.7500    76.6240    23.7560     7.4970     6.4940     7.0770     2.2950   -14.2650 
  141.8750    87.9550    23.9500     6.3340     5.7660     6.3040     2.2740   -13.7430 
  142.0000    94.2370    24.1500     6.2020     5.4040     6.0390     2.2580   -13.2410 
  142.1250    93.7030    24.1750     6.6050     5.4230     6.2560     2.2560   -12.8200 
  142.2500    92.7950    24.0910     7.1150     5.6560     6.6760     2.2610   -12.5210 
  142.3750    91.5930    23.9250     7.5740     5.9580     7.0710     2.2730   -12.3360 
  142.5000    87.6880    23.7000     7.7810     6.1850     7.2670     2.2910   -12.2100 
  142.6250    84.4910    23.5860     7.4610     6.2450     7.2000     2.3050   -12.1280 
  142.7500    85.9280    23.6040     6.9730     6.2250     7.0450     2.3070   -12.0880 
  142.8750    88.1580    23.7290     6.7530     6.2200     6.9590     2.3010   -12.1130 
  143.0000    87.1350    23.8550     6.9750     6.2890     7.0260     2.2970   -12.2160 
  143.1250    86.6970    23.8070     7.2050     6.4230     7.2150     2.3030   -12.4190 
  143.2500    88.7360    23.6490     7.1510     6.5150     7.3530     2.3210   -12.6410 
  143.3750    89.2310    23.5370     7.0520     6.4540     7.3030     2.3490   -12.8290 
  143.5000    86.0090    23.4930     6.9580     6.1830     7.0000     2.3800   -12.9640 
  143.6250    84.7230    23.5920     6.5500     5.7170     6.4700     2.4010   -13.0500 
  143.7500    89.4550    23.8250     6.0020     5.1930     5.8740     2.4070   -13.1370 
  143.8750    96.6330    24.0050     5.5400     4.6950     5.3170     2.3940   -13.2040 
  144.0000   102.3110    23.9340     5.2530     4.2750     4.8690     2.3680   -13.1840 
  144.1250   102.8050    23.7670     5.2010     3.9940     4.6100     2.3410   -13.0050 
  144.2500    99.9940    23.6760     5.2490     3.8670     4.5520     2.3230   -12.7630 
  144.3750    96.6660    23.6630     5.3420     3.9170     4.7210     2.3090   -12.5260 
  144.5000    93.8770    23.6790     5.5490     4.1530     5.1210     2.2920   -12.4170 
  144.6250    89.9930    23.6280     6.1990     4.5860     5.7500     2.2700   -12.5780 
  144.7500    83.5550    23.5420     6.9590     5.1360     6.4900     2.2460   -12.9230 
  144.8750    77.6190    23.4600     7.4210     5.7310     7.2500     2.2200   -13.3490 
  145.0000    76.5220    23.4420     7.6010     6.3080     7.9520     2.1930   -13.7620 
  145.1250    81.0660    23.4510     7.8510     6.8130     8.5430     2.1760   -14.1340 
  145.2500    83.4450    23.4500     8.2480     7.2390     9.0260     2.1800   -14.4810 
  145.3750    81.4850    23.4000     8.5760     7.5590     9.3730     2.2030   -14.8050 
  145.5000    77.0850    23.2620     8.7940     7.7230     9.5110     2.2330   -15.0630 
  145.6250    74.4420    23.0430     8.9220     7.6340     9.3200     2.2580   -15.1350 
  145.7500    75.2240    22.9420     8.8830     7.3380     8.8660     2.2780   -14.9810 
  145.8750    77.3060    23.0400     8.4080     6.9210     8.2730     2.2960   -14.6390 
  146.0000    79.0650    23.4230     7.6810     6.4970     7.7100     2.3100   -14.1960 
  146.1250    81.2140    23.9210     7.3430     6.1690     7.3290     2.3210   -13.7570 
  146.2500    86.2530    24.1990     7.4600     5.9480     7.1190     2.3300   -13.3690 
  146.3750    93.1800    24.2290     7.5540     5.8110     7.0150     2.3340   -12.9860 
  146.5000    97.7590    24.2480     7.3460     5.7180     6.9390     2.3300   -12.5750 
  146.6250    99.2400    24.3060     7.0010     5.6270     6.8300     2.3160   -12.2040 
  146.7500    98.6870    24.3500     6.8220     5.5220     6.6900     2.3040   -11.9310 
  146.8750    96.7550    24.3700     6.7920     5.4150     6.5410     2.3000   -11.7940 
  147.0000    93.6670    24.3470     6.8090     5.3260     6.4090     2.3060   -11.8020 
  147.1250    92.4930    24.3410     6.8000     5.2710     6.3180     2.3120   -11.8440 
  147.2500    93.9570    24.4360     6.7790     5.2450     6.2640     2.3120   -11.8110 
  147.3750    95.8040    24.5780     6.7890     5.2370     6.2330     2.3130   -11.7400 
