~V
VERS. 2.00: Ver 2.00
~W
STRT.M 60.0000:
STOP.M 266.0000:
STEP.M 0.1250:
NULL. -999.2500:
UWI. DF3052:
~C
DEPT.M :
GR.API :
CALI.CM :
RXO.OHMM :
RI. :
RML.OHMM :
DEN.GM/CC :
SP.MV :
~A
# ...
  217.5000    65.2780    24.4440   134.1550   165.8480   186.6810     2.1990   -21.9240 
  217.6250    63.5450    24.4410   134.6150   168.7470   190.4720     2.2030   -22.0890 
  217.7500    59.8930    24.4380   140.9160   170.9010   193.5990     2.2190   -22.2450 
  217.8750    56.9840    24.4240   154.9300   172.4170   195.8260     2.2310   -22.3860 
  218.0000    57.3020    24.3870   170.5310   172.9940   196.5550     2.2290   -22.5210 
  218.1250    60.3800    24.3760   178.2850   171.4560   194.4300     2.2160   -22.6650 
  218.2500    62.8650    24.4040   176.9390   168.3380   190.5220     2.1980   -22.7740 
  218.3750    63.4090    24.4160   169.6740   164.7340   186.6950     2.1780   -22.8740 
  218.5000    62.5450    24.3740   160.0280   162.8380   185.4170     2.1740   -22.9580 
  218.6250    61.5030    24.3370   158.1310   165.6180   189.8310     2.2040   -23.0190 
  218.7500    61.0340    24.3480   170.7460   173.7450   200.0450     2.2460   -23.0540 
  218.8750    61.2170    24.3780   194.6620   187.2030   215.6860     2.2710   -23.0690 
  219.0000    61.8730    24.4010   218.7660   203.8170   234.2120     2.2750   -23.0730 
  219.1250    62.4200    24.4220   232.6580   219.6690   250.6020     2.2720   -23.0550 
  219.2500    62.7920    24.4370   237.7870   231.0010   260.3990     2.2680   -23.0250 
  219.3750    63.5820    24.4330   229.9330   235.3200   260.9560     2.2550   -22.9760 
  219.5000    64.6220    24.4330   206.5060   231.4120   252.1830     2.2370   -22.9270 
  219.6250    64.5620    24.4520   172.2680   220.5910   238.0660     2.2250   -22.8350 
  219.7500    63.0700    24.4680   145.9840   209.1530   225.3900     2.2190   -22.7240 
  219.8750    61.3400    24.4740   134.8520   200.1220   216.3020     2.2130   -22.6030 
  220.0000    60.5500    24.4790   136.7520   193.9640   210.4660     2.2070   -22.4700 
  220.1250    60.7870    24.4780   149.4090   189.7850   206.0570     2.2000   -22.3030 
  220.2500    61.2310    24.4700   168.9380   184.7230   200.0360     2.1910   -22.1400 
  220.3750    61.5230    24.4700   186.1200   177.3340   191.0200     2.1790   -21.9860 
  220.5000    61.4220    24.4530   186.8120   167.0830   178.6270     2.1730   -21.8360 
  220.6250    61.0990    24.3450   160.5590   154.2810   164.0220     2.1890   -21.7040 
  220.7500    61.2950    24.1620   121.9920   141.3140   150.1050     2.2220   -21.5950 
  220.8750    61.8250    23.9830    90.7880   130.4650   139.1940     2.2560   -21.4990 
  221.0000    61.7860    23.8860    77.4170   123.2420   132.4590     2.2740   -21.4170 
  221.1250    61.0850    23.9180    80.5540   120.6680   130.5350     2.2630   -21.3790 
  221.2500    60.9460    24.0240    90.5290   121.2690   131.6900     2.2410   -21.3570 
  221.3750    61.4250    24.1100   100.4160   123.5440   134.2650     2.2250   -21.3340 
  221.5000    61.8410    24.1040   104.6750   126.1710   137.0110     2.2220   -21.2710 
  221.6250    61.9920    24.0590   101.6930   128.2550   139.1230     2.2200   -21.1900 
  221.7500    61.9910    24.0670    97.8590   129.6740   140.6330     2.2080   -21.0970 
  221.8750    61.4040    24.1040    96.6060   130.7380   142.1380     2.1940   -21.0030 
  222.0000    60.4190    24.1170    98.3180   132.5510   144.7190     2.1930   -20.9160 
  222.1250    59.8640    24.1180   103.6910   135.5220   148.4640     2.2060   -20.8400 
  222.2500    60.0990    24.1310   112.2710   138.1340   151.7010     2.2140   -20.7700 
  222.3750    60.9320    24.1200   120.8730   139.5640   153.4090     2.2150   -20.7100 
  222.5000    61.7560    24.0850   125.0210   139.2560   152.9570     2.2150   -20.6940 
  222.6250    62.1400    24.0880   122.2200   136.4630   149.5760     2.2200   -20.7030 
  222.7500    62.5570    24.1310   112.2170   132.2810   145.0250     2.2240   -20.7250 
  222.8750    63.0770    24.1660   100.1130   129.1360   141.9130     2.2230   -20.7670 
  223.0000    63.1080    24.1760    97.5850   128.5660   141.5270     2.2180   -20.8140 
  223.1250    62.3870    24.1810   110.2550   130.9690   144.0880     2.2140   -20.8350 
  223.2500    61.9310    24.1820   125.5520   135.4590   148.4020     2.2110   -20.8460 
  223.3750    62.3500    24.1760   134.5900   140.4410   152.6540     2.2080   -20.8480 
  223.5000    63.6340    24.1740   138.8090   143.8010   154.5840     2.2040   -20.8270 
  223.6250    66.0360    24.1800   139.0940   143.4700   152.3230     2.2030   -20.8140 
  223.7500    68.1060    24.1810   132.5230   139.4070   146.1360     2.2070   -20.8210 
  223.8750    67.4830    24.1730   119.4520   131.6580   136.5670     2.2150   -20.8270 
  224.0000    63.7880    24.1360   106.7720   121.5320   125.3650     2.2280   -20.8140 
  224.1250    60.4250    24.0330    98.1910   111.5560   114.8800     2.2400   -20.7950 
  224.2500    60.2780    23.9130    90.1710   102.3030   105.3710     2.2470   -20.7570 
  224.3750    62.2470    23.8400    80.0160    93.8140    96.7620     2.2470   -20.7100 
  224.5000    63.4040    23.8420    70.7290    86.1570    89.1140     2.2430   -20.6560 
  224.6250    62.4430    23.9130    64.9220    79.6370    82.6600     2.2350   -20.5600 
  224.7500    61.8050    24.0160    61.1280    74.0190    77.1150     2.2250   -20.4180 
  224.8750    63.3780    24.1140    58.4210    69.3580    72.5510     2.2140   -20.2320 
  225.0000    66.6370    24.1660    55.8060    65.7370    69.0680     2.2030   -20.0210 
  225.1250    68.8220    24.1700    52.6460    63.3450    66.9160     2.2020   -19.8090 
  225.2500    68.8620    24.1890    49.3390    62.0210    65.8860     2.2120   -19.5960 
  225.3750    67.8720    24.2360    46.9410    61.5960    65.8430     2.2300   -19.3840 
  225.5000    67.1810    24.2800    45.9530    61.9420    66.5960     2.2510   -19.1960 
  225.6250    66.8250    24.3180    46.9250    62.8030    67.8450     2.2820   -19.0350 
  225.7500    65.6870    24.3550    49.0710    63.7740    69.2220     2.3200   -18.8920 
  225.8750    63.9370    24.3650    51.4920    64.6640    70.5240     2.3440   -18.7640 
  226.0000    63.2480    24.3450    53.0940    65.3130    71.5500     2.3340   -18.6640 
  226.1250    64.7550    24.3550    54.3540    65.6220    72.1540     2.2930   -18.5700 
  226.2500    66.0580    24.3950    55.6620    65.6990    72.4990     2.2540   -18.4920 
  226.3750    65.7640    24.3880    56.5220    65.7110    72.7670     2.2290   -18.4340 
  226.5000    65.1590    24.3160    56.3790    65.8170    73.1660     2.2170   -18.3780 
  226.6250    65.8480    24.2530    55.7020    66.2400    74.0120     2.2130   -18.3210 
  226.7500    66.1490    24.2290    55.8380    67.0290    75.2200     2.2140   -18.2640 
  226.8750    65.1000    24.2240    57.7580    67.7950    76.3500     2.2190   -18.2160 
  227.0000    64.2020    24.2220    60.7940    68.1700    77.0610     2.2210   -18.1620 
  227.1250    65.5590    24.2230    62.6910    67.8570    77.1300     2.2230   -18.0960 
  227.2500    67.9370    24.2200    63.1900    67.0220    76.6040     2.2320   -18.0160 
  227.3750    70.0290    24.1620    61.9560    65.6930    75.5720     2.2450   -17.9230 
  227.5000    71.2940    24.0060    58.1630    64.2940    74.5270     2.2550   -17.8070 
  227.6250    71.3990    23.8280    54.0840    63.7160    74.3760     2.2580   -17.6850 
  227.7500    70.0580    23.7430    54.0340    64.3300    75.6560     2.2620   -17.5410 
  227.8750    67.3120    23.7230    57.6030    66.9550    79.3160     2.2720   -17.3680 
  228.0000    64.3260    23.6990    61.6570    72.4630    86.0810     2.2820   -17.1660 
  228.1250    63.0630    23.7350    66.3320    82.1440    96.6620     2.2840   -16.9320 
  228.2500    63.2810    23.8640    73.9190    94.7270   109.6750     2.2840   -16.6680 
  228.3750    63.2640    23.9830    87.5930   108.9400   123.2350     2.2980   -16.3860 
  228.5000    61.8230    24.0260   111.9340   121.4610   133.3220     2.3390   -16.0880 
  228.6250    59.7220    24.0380   149.6230   126.7810   134.4830     2.4150   -15.7600 
