~V
VERS. 2.00: Ver 2.00
~W
STRT.M 125.0000:
STOP.M 273.0000:
STEP.M 0.1250:
NULL. -999.2500:
UWI. DF3072:
~C
DEPT.M :
DEN.GM/CC :
GR.API :
CALI.CM :
RXO.OHMM :
RI. :
RML.OHMM :
SP.MV :
~A
# ...
  237.5000     2.2800    68.3210    25.6460    87.8390    69.0140    75.2430   -21.4340 
  237.6250     2.2800    72.0960    25.5850    75.4290    65.1190    71.0750   -21.3320 
  237.7500     2.2850    73.6440    25.5000    68.1320    62.9600    69.0110   -21.2230 
  237.8750     2.2950    72.7560    25.3680    69.9450    63.0100    69.5280   -21.1140 
  238.0000     2.3010    72.6940    25.1700    80.1820    65.3750    72.6770   -21.0240 
  238.1250     2.2960    73.2670    24.9230    90.4090    69.9180    78.2520   -20.9400 
  238.2500     2.2870    70.1750    24.6970    94.3850    75.5950    85.0230   -20.8710 
  238.3750     2.2870    65.7520    24.5420    95.7690    81.8000    92.2840   -20.8370 
  238.5000     2.2960    63.7200    24.5130   100.2950    87.9940    99.4980   -20.8320 
  238.6250     2.2910    64.1960    24.7610   110.3540    93.4930   106.0150   -20.8710 
  238.7500     2.2650    66.0800    25.2000   124.9970    97.8100   111.2340   -20.9450 
  238.8750     2.2320    68.5010    25.6030   138.5770   100.4240   114.3610   -21.0590 
  239.0000     2.2220    69.4000    25.7960   140.8320   101.0160   114.8790   -21.2040 
  239.1250     2.2490    66.8500    25.8030   130.4900    99.7740   113.0940   -21.3690 
  239.2500     2.2830    65.1060    25.8090   123.0720    98.1660   110.9470   -21.5280 
  239.3750     2.2940    67.1250    25.8520   124.0820    97.1970   109.6200   -21.6750 
  239.5000     2.2760    70.8040    25.9100   128.6760    97.2010   109.3140   -21.8100 
  239.6250     2.2550    70.6490    25.9400   130.2570    97.4100   108.7860   -21.8820 
  239.7500     2.2520    66.9240    25.9140   129.4730    96.2020   106.0320   -21.9060 
  239.8750     2.2630    64.6780    25.8340   127.2420    92.3120    99.7350   -21.8700 
  240.0000     2.2810    66.7270    25.7340   119.3470    85.5600    90.2200   -21.7460 
  240.1250     2.3050    68.0470    25.6690   103.2890    77.2520    79.7300   -21.5450 
  240.2500     2.3280    66.7800    25.6600    88.2330    69.7980    70.9390   -21.2940 
  240.3750     2.3340    66.5770    25.6920    80.5330    64.3690    64.7820   -20.9810 
  240.5000     2.3180    69.5930    25.7340    79.3330    60.9890    60.9070   -20.6060 
  240.6250     2.2880    72.3800    25.7470    80.6080    58.6630    57.9940   -20.2130 
  240.7500     2.2690    72.8640    25.7290    80.5350    55.5370    54.1460   -19.7970 
  240.8750     2.2730    73.3870    25.6900    75.4980    50.5620    48.5320   -19.3770 
  241.0000     2.3040    76.0470    25.6460    62.5060    43.9470    41.5900   -18.9960 
  241.1250     2.3520    78.9820    25.6210    45.1550    37.1690    34.8350   -18.6720 
  241.2500     2.3860    81.0100    25.6280    32.4570    31.6300    29.4720   -18.4200 
  241.3750     2.3910    82.6320    25.6690    26.6030    27.7700    25.8780   -18.2480 
  241.5000     2.3710    83.3820    25.7220    25.4220    25.4970    23.9400   -18.1680 
  241.6250     2.3430    82.0850    25.7370    26.1800    24.6650    23.4760   -18.2080 
  241.7500     2.3230    80.7130    25.7160    27.0530    24.8100    23.9790   -18.3660 
  241.8750     2.3140    80.6120    25.6870    27.9780    25.9450    25.4730   -18.6360 
  242.0000     2.3150    82.9610    25.6470    29.7990    28.2880    28.2360   -19.0130 
  242.1250     2.3160    87.7690    25.5880    36.4530    32.4300    32.9810   -19.4950 
  242.2500     2.3100    88.9600    25.5550    53.5930    38.2070    39.5630   -20.0530 
  242.3750     2.3010    82.2540    25.5760    80.9630    45.0070    47.3340   -20.6980 
  242.5000     2.3050    72.6030    25.6160    98.4510    51.3410    54.5830   -21.3790 
  242.6250     2.3400    72.9300    25.6190    86.8030    54.8130    58.4080   -22.0230 
  242.7500     2.3910    77.6960    25.6050    65.3190    55.1500    58.5560   -22.6040 
  242.8750     2.4310    78.0420    25.6010    52.6550    53.3330    56.4670   -23.0610 
  243.0000     2.4390    75.0230    25.6040    49.1940    50.8800    54.0660   -23.3640 
  243.1250     2.4230    75.5260    25.5800    50.0780    48.9930    52.6640   -23.5020 
  243.2500     2.4100    77.8000    25.5650    50.1820    47.7560    52.0790   -23.4690 
  243.3750     2.3990    78.3560    25.6110    48.0840    46.8650    51.8120   -23.2790 
  243.5000     2.3800    78.8800    25.6980    45.0870    46.1360    51.5810   -22.9930 
  243.6250     2.3640    80.2460    25.7090    43.9740    45.8390    51.6800   -22.6280 
  243.7500     2.3720    79.5120    25.6270    45.9980    46.3450    52.6020   -22.2390 
  243.8750     2.3930    77.7000    25.5500    51.7260    47.9360    54.7110   -21.8830 
  244.0000     2.3910    77.5580    25.5440    61.0920    50.6250    58.0440   -21.5630 
  244.1250     2.3570    80.7960    25.5800    71.2290    54.1920    62.3170   -21.2970 
  244.2500     2.3320    83.0840    25.5510    76.5520    57.9320    66.6730   -21.0970 
  244.3750     2.3430    83.8510    25.4070    74.9600    61.2310    70.3930   -20.9330 
  244.5000     2.3820    84.7810    25.2210    69.7110    63.4720    72.7780   -20.7770 
  244.6250     2.4230    85.2600    25.1070    66.5950    63.8700    72.8700   -20.6540 
  244.7500     2.4490    84.2740    25.0660    67.2410    62.5150    70.8360   -20.5210 
  244.8750     2.4660    82.9130    25.0740    69.7050    59.7090    67.2420   -20.3680 
  245.0000     2.4820    83.0250    25.1510    70.1760    56.1920    63.1960   -20.2170 
  245.1250     2.4860    83.9570    25.3090    65.2660    53.0240    60.0410   -20.0350 
  245.2500     2.4660    84.5860    25.4420    58.4770    50.9100    58.2860   -19.8200 
  245.3750     2.4370    85.8630    25.4940    55.6490    50.1470    57.9750   -19.5900 
  245.5000     2.4290    86.5280    25.4510    61.8590    50.7640    58.9670   -19.3290 
  245.6250     2.4470    83.5660    25.3200    75.4220    52.9840    61.6010   -19.0100 
  245.7500     2.4510    78.1200    25.2120    82.8930    56.9190    66.2530   -18.6650 
  245.8750     2.4220    72.7410    25.1840    80.4720    62.9710    73.4160   -18.2720 
  246.0000     2.3830    70.4730    25.2150    78.1780    70.3410    81.9020   -17.8090 
  246.1250     2.3940    71.2840    25.2620    95.1730    74.0200    84.4060   -17.2800 
  246.2500     2.4680    71.6520    25.2820   130.5100    68.1940    73.9420   -16.6800 
  246.3750     2.5720    68.8280    25.2540   135.0360    52.6250    53.4630   -16.0250 
  246.5000     2.6450    64.7910    25.1940    87.0570    34.3560    33.2380   -15.3620 
  246.6250     2.6340    65.0480    25.2010    29.9490    21.1670    20.1650   -14.7070 
  246.7500     2.5640    66.2690    25.2860    10.6380    13.2850    12.5010   -14.0690 
  246.8750     2.4760    64.9290    25.3850     5.6350     9.0340     8.3490   -13.4880 
  247.0000     2.4040    63.0600    25.4540     4.6920     6.8560     6.3030   -12.9760 
  247.1250     2.3620    64.9470    25.4860     4.7340     5.9300     5.6100   -12.5570 
  247.2500     2.3390    67.2720    25.4990     4.7320     5.5890     5.5110   -12.2480 
  247.3750     2.3290    66.4490    25.5000     4.6780     5.5720     5.6720   -12.0150 
  247.5000     2.3310    64.6680    25.4980     4.6770     5.6890     5.8730   -11.8350 
  247.6250     2.3450    63.9270    25.4970     4.7770     5.8220     5.9960   -11.7240 
  247.7500     2.3620    63.8750    25.4970     4.9220     5.9180     6.0500   -11.6500 
  247.8750     2.3750    64.6350    25.4940     5.0380     5.9700     6.0660   -11.6130 
  248.0000     2.3820    65.0190    25.4910     5.0720     5.9780     6.0680   -11.6180 
  248.1250     2.3830    64.7390    25.4930     5.0300     5.9470     6.0650   -11.6390 
  248.2500     2.3820    64.6250    25.4910     4.9890     5.8920     6.0540   -11.6630 
  248.3750     2.3790    64.7550    25.4630     4.9710     5.8200     6.0260   -11.6890 
  248.5000     2.3760    64.4380    25.3980     4.9360     5.7310     5.9790   -11.6900 
  248.6250     2.3800    63.3090    25.3180     4.8360     5.6270     5.9070   -11.6540 
