~V
VERS. 2.00: Ver 2.00
~W
STRT.M 60.0000:
STOP.M 275.0000:
STEP.M 0.1250:
NULL. -999.2500:
UWI. DF3003:
~C
DEPT.M :
DEN.GM/CC :
SP.MV :
AC.US/MT :
GR.API :
RML.OHMM :
RI. :
RXO.OHMM :
CALI.CM :
~A
# ...
  190.0000     2.1540   -18.2230   390.7080    54.5220   118.0740   129.1870   183.2990    24.3230 
  190.1250     2.1980   -17.5470   362.4030    58.5210    91.9770    96.6190   144.2730    24.1530 
  190.2500     2.2350   -16.8190   327.1570    63.9870    69.6470    73.3110   101.5870    24.0390 
  190.3750     2.2490   -16.0820   294.6500    65.9640    55.7680    58.4010    66.3340    24.0620 
  190.5000     2.2430   -15.3540   276.6680    63.8590    48.8530    50.0710    44.9680    24.1920 
  190.6250     2.2430   -14.7400   281.7650    61.3220    46.7120    46.5980    37.9560    24.3460 
  190.7500     2.2780   -14.2010   302.3420    61.7000    45.4410    44.7370    37.1830    24.4250 
  190.8750     2.3530   -13.6490   328.0380    63.7050    43.0120    42.2900    38.4730    24.4320 
  191.0000     2.4530   -13.1090   344.9510    63.7930    37.9750    37.5810    39.6620    24.4060 
  191.1250     2.5350   -12.5150   342.4720    61.5900    30.0340    29.9580    39.8570    24.3620 
  191.2500     2.5640   -11.9370   333.8630    60.2420    21.6690    21.5790    34.3210    24.3330 
  191.3750     2.5410   -11.4460   333.1700    60.0220    14.7130    14.4310    19.7930    24.3170 
  191.5000     2.4910   -11.0280   346.0350    59.4110     9.8230     9.4600     8.1170    24.3150 
  191.6250     2.4510   -10.7240   366.3010    58.1120     6.8310     6.7530     4.7630    24.3270 
  191.7500     2.4350   -10.5220   380.5210    58.1470     5.1190     5.3360     3.9360    24.3580 
  191.8750     2.4340   -10.3600   384.6300    59.0340     4.6600     4.7450     3.8520    24.4280 
  192.0000     2.4270   -10.2650   385.3720    59.4780     4.8310     4.6590     3.8860    24.5600 
  192.1250     2.3940   -10.2900   392.3660    57.4370     5.1760     4.8700     3.8990    24.7530 
  192.2500     2.3440   -10.3420   402.0620    53.7530     5.4990     5.1380     3.9250    24.9780 
  192.3750     2.3030   -10.4120   406.8350    51.6120     5.6990     5.3330     3.9490    25.1870 
  192.5000     2.2880   -10.4180   402.0180    53.0220     5.7330     5.3690     3.9680    25.2670 
  192.6250     2.3040   -10.3450   390.8220    57.2970     5.5570     5.1840     3.9640    25.1300 
  192.7500     2.3240   -10.3240   385.4480    59.9900     5.2460     4.8430     3.9070    25.0410 
  192.8750     2.3280   -10.3620   391.3310    59.4040     4.8530     4.4230     3.7680    25.1780 
  193.0000     2.3120   -10.4680   404.7730    56.3350     4.4240     4.0140     3.5720    25.5550 
  193.1250     2.2890   -10.6160   417.1560    53.2870     4.0830     3.7170     3.4240    26.1470 
  193.2500     2.2770   -10.7330   423.9330    50.5260     3.9260     3.5680     3.4950    26.6090 
  193.3750     2.2780   -10.8970   425.4540    48.6140     3.9750     3.5790     3.6160    26.4250 
  193.5000     2.2880   -11.1210   425.2940    52.4660     4.2180     3.7440     3.8200    25.8550 
  193.6250     2.3010   -11.4810   426.2800    67.2750     4.6320     4.0540     4.1440    25.4950 
  193.7500     2.3140   -11.9730   424.5670    82.2630     5.1610     4.4480     4.5820    25.4170 
  193.8750     2.3240   -12.5100   414.9470    92.1240     5.6960     4.8900     5.1600    25.3860 
  194.0000     2.3260   -13.0690   397.9840    99.5730     6.2210     5.3610     5.8710    25.2610 
  194.1250     2.3190   -13.6590   381.8320   104.1300     6.7500     5.8610     6.6590    25.0340 
  194.2500     2.3130   -14.3260   371.4790   102.5590     7.3050     6.3910     7.5380    24.8280 
  194.3750     2.3200   -15.0480   365.0750    99.8020     7.8920     6.9460     8.3800    24.6480 
  194.5000     2.3440   -15.7970   359.6870   101.9220     8.4880     7.5020     9.1850    24.5190 
  194.6250     2.3760   -16.4350   357.3400   103.8830     9.0410     8.0130    10.1940    24.4710 
  194.7500     2.3990   -16.9720   361.5370   100.8850     9.5130     8.4480    10.9690    24.4650 
  194.8750     2.4050   -17.4550   370.9140    96.8980     9.8830     8.7960    10.9400    24.4670 
  195.0000     2.3990   -17.7940   379.4140    93.8330    10.1490     9.0530    10.5790    24.4670 
  195.1250     2.3930   -18.0760   381.1300    92.0320    10.2930     9.2030    10.5560    24.4680 
  195.2500     2.3910   -18.3400   379.3840    92.3400    10.3240     9.2530    10.7310    24.4740 
  195.3750     2.3890   -18.5130   379.9290    94.8580    10.2360     9.2000    10.7760    24.4850 
  195.5000     2.3810   -18.6610   386.2330    96.7530    10.0450     9.0550    10.4810    24.5020 
  195.6250     2.3670   -18.8380   395.7650    95.7180     9.8020     8.8490     9.4920    24.5260 
  195.7500     2.3500   -18.9360   403.0640    94.3310     9.6020     8.6580     9.0050    24.5360 
  195.8750     2.3370   -19.0240   407.2590    94.7990     9.5080     8.5330     8.9520    24.5420 
  196.0000     2.3310   -19.2590   409.8740    98.6940     9.5360     8.5000     9.0730    24.5500 
  196.1250     2.3350   -19.5070   411.5180   103.4810     9.6560     8.5460     9.1590    24.5700 
  196.2500     2.3460   -19.6990   411.9150   103.3500     9.7670     8.5930     9.2110    24.6080 
  196.3750     2.3610   -19.8090   411.7970    98.9680     9.7840     8.5740     9.1850    24.6620 
  196.5000     2.3740   -19.8520   412.6740    97.7860     9.6530     8.4410     9.0480    24.7190 
  196.6250     2.3770   -19.8210   415.0190   105.2870     9.3560     8.1780     8.7750    24.7950 
  196.7500     2.3640   -19.7540   418.1960   111.5800     8.9970     7.8630     8.4670    24.9020 
  196.8750     2.3390   -19.7060   420.3600   108.9800     8.6960     7.5850     8.0940    25.0290 
  197.0000     2.3110   -19.5840   418.7620   101.5150     8.5820     7.4470     7.7960    25.2070 
  197.1250     2.2960   -19.4080   410.5010    97.7080     8.8210     7.5840     7.7580    25.3300 
  197.2500     2.2980   -19.1960   397.4410    98.1440     9.4030     8.0040     8.2010    25.2470 
  197.3750     2.3160   -18.9520   382.5760   100.8880    10.2790     8.6850     9.0920    24.8670 
  197.5000     2.3420   -18.6810   368.9130   104.0790    11.3160     9.5410    10.0640    24.5830 
  197.6250     2.3700   -18.3210   359.3390   104.8400    12.2620    10.3960    10.9480    24.5160 
  197.7500     2.3980   -17.8200   354.8280   102.3730    12.8570    11.0320    11.5250    24.5580 
  197.8750     2.4310   -17.1550   355.7990   101.0930    12.9180    11.2740    11.6300    24.6310 
  198.0000     2.4650   -16.3310   361.5140   103.2480    12.3780    11.0170    11.4440    24.7100 
  198.1250     2.4830   -15.3650   371.3240   107.2200    11.2490    10.1980    10.9560    24.8160 
  198.2500     2.4630   -14.3810   384.0550   109.7060     9.8560     9.0580     9.9330    24.9830 
  198.3750     2.3890   -13.4340   398.7800   105.5390     8.4600     7.8130     8.4460    25.2800 
  198.5000     2.2660   -12.4560   412.7320    92.3590     7.2830     6.6710     6.7020    25.7520 
  198.6250     2.1200   -11.5680   421.1420    74.0860     6.5250     5.8290     5.2460    26.6950 
  198.7500     1.9860   -10.9360   422.1530    58.3320     6.1450     5.2970     4.3990    28.2040 
  198.8750     1.8860   -10.4330   415.8070    48.4780     6.0760     5.0520     4.2070    30.0460 
  199.0000     1.8270   -10.0090   404.9980    45.1460     6.2080     5.0300     4.2810    31.3540 
  199.1250     1.8090    -9.6750   394.7050    48.2730     6.4200     5.1630     4.3980    31.3140 
  199.2500     1.8080    -9.3130   388.0380    53.9540     6.6020     5.3430     4.5810    30.3540 
  199.3750     1.8090    -8.9650   385.0400    60.0660     6.7240     5.5180     4.9080    29.7060 
  199.5000     1.8050    -8.7520   384.5180    65.6600     6.8090     5.6730     5.2980    29.5490 
  199.6250     1.7990    -8.6010   385.4050    70.0010     6.9140     5.8180     5.5850    29.1440 
  199.7500     1.8060    -8.4010   386.4450    75.8170     7.0660     5.9710     5.7750    28.3380 
  199.8750     1.8370    -8.2380   386.3930    83.8450     7.2450     6.1240     5.7450    27.4590 
