~V
VERS. 2.00: Ver 2.00
~W
STRT.M 125.0000:
STOP.M 276.0000:
STEP.M 0.1250:
NULL. -999.2500:
UWI. DF3039:
~C
DEPT.M :
SP.MV :
GR.API :
CALI.CM :
RXO.OHMM :
RI. :
RML.OHMM :
DEN.GM/CC :
~A
# ...
  226.2500   -17.1290    69.7590    24.5680    41.4400    47.1120    58.3580     2.2480 
  226.3750   -17.0750    65.1850    24.4680    56.0920    55.7350    68.5120     2.2080 
  226.5000   -17.0560    62.2780    24.4820    79.3330    65.6630    79.5860     2.1730 
  226.6250   -17.0170    60.0860    24.5380   101.8730    75.2710    89.5150     2.1650 
  226.7500   -16.9150    58.4210    24.4510   109.1580    82.5030    96.2590     2.2020 
  226.8750   -16.7170    57.3450    24.3620    98.6320    85.5490    97.8000     2.2920 
  227.0000   -16.4880    56.1570    24.1830    89.3600    82.6580    92.6740     2.4190 
  227.1250   -16.2780    56.2300    24.1550   147.0040    72.7820    80.7960     2.5390 
  227.2500   -16.0920    58.8920    24.1350   232.4280    59.5650    66.1380     2.6230 
  227.3750   -15.9190    63.6470    24.1220   239.8660    45.8400    51.1870     2.6630 
  227.5000   -15.7380    68.6710    24.1230   147.6760    33.8530    38.0420     2.6550 
  227.6250   -15.5410    72.3400    24.1190    59.8190    25.1780    28.3630     2.6220 
  227.7500   -15.3630    74.8360    24.1250    27.8220    19.2540    21.6870     2.5780 
  227.8750   -15.1980    77.9670    23.9920    17.5070    15.5620    17.5900     2.5330 
  228.0000   -14.9880    81.1460    24.0420    13.5540    13.4520    15.4360     2.4930 
  228.1250   -14.7530    80.1840    24.0640    12.6460    12.5050    14.7150     2.4580 
  228.2500   -14.5180    76.1110    23.9760    11.9300    12.0720    14.5230     2.4330 
  228.3750   -14.2830    72.8650    24.0430    11.5120    11.8510    14.4360     2.4260 
  228.5000   -14.0850    69.5780    24.1130    11.6640    11.5660    14.1330     2.4460 
  228.6250   -13.9290    63.6080    24.1570    13.0860    11.0530    13.4760     2.4800 
  228.7500   -13.7890    59.5720    24.2540    12.7610    10.3480    12.5820     2.5010 
  228.8750   -13.6400    59.9710    24.2290    10.8860     9.5550    11.6030     2.4940 
  229.0000   -13.5050    60.4590    24.1810     9.6050     8.8240    10.7320     2.4710 
  229.1250   -13.3970    56.4040    24.1200     9.1530     8.2570    10.0800     2.4650 
  229.2500   -13.3350    53.0520    24.0750     8.2600     7.8190     9.6160     2.4740 
  229.3750   -13.3410    53.1840    24.1460     7.4290     7.4910     9.3340     2.4760 
  229.5000   -13.4200    53.2090    24.4040     6.8590     7.2480     9.1790     2.4610 
  229.6250   -13.6140    51.8880    24.4330     7.0990     7.0700     9.0850     2.4510 
  229.7500   -13.9260    52.9690    24.2070     8.2190     6.9490     9.0680     2.4500 
  229.8750   -14.3580    58.6920    23.8130     8.8420     6.9470     9.2480     2.4390 
  230.0000   -14.8350    67.0940    23.5460     8.0960     7.0950     9.6520     2.4000 
  230.1250   -15.2700    75.9220    23.4540     6.7210     7.4030    10.2680     2.3610 
  230.2500   -15.6190    83.1170    23.7910     7.0160     7.8160    10.9760     2.3530 
  230.3750   -15.9090    86.1910    24.2410     8.6200     8.2640    11.6590     2.3810 
  230.5000   -16.1650    85.6640    24.5260    10.3880     8.6600    12.2270     2.4230 
  230.6250   -16.4070    83.1620    24.7520    10.7520     8.9310    12.5700     2.4510 
  230.7500   -16.6290    80.9580    24.8750    10.3250     9.0830    12.7400     2.4620 
  230.8750   -16.8130    81.8140    25.0130    10.1850     9.1330    12.7730     2.4590 
  231.0000   -16.9820    87.1770    25.0610    11.0530     9.1260    12.7470     2.4440 
  231.1250   -17.1410    94.8100    24.8700    12.2910     9.1360    12.7680     2.4230 
  231.2500   -17.2840    97.9960    24.9810    12.3330     9.1830    12.8660     2.4080 
  231.3750   -17.4000    97.4660    25.1350    11.4320     9.2370    12.9980     2.4060 
  231.5000   -17.4830    95.6910    24.6860    10.9300     9.2940    13.1280     2.4160 
  231.6250   -17.5280    95.8610    24.0100    11.0840     9.3410    13.2330     2.4230 
  231.7500   -17.5410    97.8400    24.0800    10.9400     9.3780    13.2910     2.4200 
  231.8750   -17.5570    97.4560    24.6370    11.0190     9.4010    13.3030     2.4060 
  232.0000   -17.5920    94.0130    25.3070    10.9310     9.4290    13.3030     2.3940 
  232.1250   -17.6640    90.8750    25.6370    10.8940     9.4830    13.3150     2.3900 
  232.2500   -17.7480    91.6180    25.6010    10.9340     9.5640    13.3220     2.3970 
  232.3750   -17.8140    94.9350    25.5000    10.8540     9.6650    13.3240     2.4120 
  232.5000   -17.8360    97.7290    25.4180    10.4920     9.7740    13.3110     2.4270 
  232.6250   -17.8290    99.0770    25.4030    10.6760     9.8700    13.2570     2.4350 
  232.7500   -17.8180    98.5800    25.3260    11.3210     9.9370    13.1660     2.4270 
  232.8750   -17.8070    96.9470    25.1690    12.1510     9.9520    13.0210     2.4020 
  233.0000   -17.8360    93.6410    25.0720    12.9030     9.9310    12.8490     2.3760 
  233.1250   -17.9220    92.2040    24.9190    12.6530     9.9090    12.7140     2.3710 
  233.2500   -18.0620    94.9320    24.8690    12.0820     9.9390    12.6560     2.3900 
  233.3750   -18.2440    98.6990    25.0290    11.6430    10.0250    12.6780     2.4220 
  233.5000   -18.4340    96.9650    25.3190    11.5310    10.1530    12.7610     2.4480 
  233.6250   -18.6160    90.3050    25.3170    12.7550    10.3250    12.9130     2.4560 
  233.7500   -18.7850    88.0490    24.9430    16.1390    10.5060    13.0410     2.4480 
  233.8750   -18.9450    90.3470    24.5540    18.8850    10.6720    13.1430     2.4360 
  234.0000   -19.1110    93.7060    24.1920    17.4540    10.8720    13.3400     2.4300 
  234.1250   -19.2990    96.3150    24.1250    13.8150    11.3410    14.0350     2.4290 
  234.2500   -19.5140    95.9710    24.1430    12.1800    12.2920    15.5600     2.4300 
  234.3750   -19.7610    89.5930    24.1730    11.7650    14.0900    18.5230     2.4380 
  234.5000   -20.0630    80.6440    24.0640    11.9460    17.3920    23.6230     2.4610 
  234.6250   -20.3950    75.7610    24.0070    14.8540    23.2770    31.6790     2.4830 
  234.7500   -20.7130    72.7120    23.9380    35.0470    31.9920    42.5500     2.4870 
  234.8750   -21.0020    68.0170    24.1240    86.2170    43.8260    56.1050     2.4640 
  235.0000   -21.2400    63.3830    24.2210   150.5750    58.1910    71.4040     2.4180 
  235.1250   -21.4380    60.7480    24.2280   161.1600    72.6220    86.0520     2.3690 
  235.2500   -21.6520    58.5760    24.1900   143.8320    84.3530    97.4650     2.3300 
  235.3750   -21.9070    58.1380    24.3180   124.7370    92.4660   104.7610     2.3120 
  235.5000   -22.1800    59.7660    24.3930   123.2430    96.8710   108.1940     2.3110 
  235.6250   -22.4590    60.8980    24.4280   135.7580    99.2050   110.1390     2.3050 
  235.7500   -22.7010    60.5600    24.3040   155.3300   102.1190   113.4630     2.2850 
  235.8750   -22.8800    59.7240    24.1210   162.4690   106.3380   118.2590     2.2620 
  236.0000   -23.0090    58.8310    23.9220   164.2790   111.4380   123.6940     2.2490 
  236.1250   -23.0750    57.8120    23.7820   165.3340   116.2150   128.3410     2.2400 
  236.2500   -23.0730    55.7060    23.6740   172.0970   119.7170   131.2610     2.2330 
  236.3750   -23.0260    53.8040    23.7590   170.4810   121.3860   131.8960     2.2310 
  236.5000   -22.9850    55.2690    23.8390   166.3120   121.1910   130.3750     2.2380 
  236.6250   -22.9620    60.7850    23.8460   167.9620   119.5870   127.5020     2.2460 
  236.7500   -22.9940    63.7710    23.8390   159.5190   117.6730   124.6440     2.2500 
  236.8750   -23.0720    60.1230    23.8020   132.2430   115.7310   121.9710     2.2510 
  237.0000   -23.1250    55.1210    23.7820   103.0880   113.9190   119.6870     2.2520 
  237.1250   -23.1110    55.9700    23.7910   110.4710   112.6240   117.8520     2.2530 
  237.2500   -23.0700    61.0610    23.8390   129.5620   111.3470   115.9230     2.2540 
  237.3750   -23.0240    64.7050    23.8180   146.7370   109.4150   113.3760     2.2550 
