~V
VERS. 2.00: Ver 2.00
~W
STRT.M 64.0000:
STOP.M 278.0000:
STEP.M 0.1250:
NULL. -999.2500:
UWI. DF3056:
~C
DEPT.M :
SP.MV :
GR.API :
CALI.CM :
RXO.OHMM :
RI. :
RML.OHMM :
DEN.GM/CC :
~A
# ...
  187.7500   -39.9550    61.4970    23.7280    79.7360   104.1530   130.1500     2.2300 
  187.8750   -40.0280    62.6700    23.4140    68.2460   110.6320   139.5000     2.2370 
  188.0000   -40.0590    61.1760    23.2430    59.5690   121.1510   153.4910     2.2310 
  188.1250   -40.0160    58.3240    23.2840    53.0430   136.7740   173.3250     2.2170 
  188.2500   -39.9030    57.3000    23.5670    59.9550   154.8720   195.7650     2.2060 
  188.3750   -39.7450    56.7840    24.0290    86.6060   172.0580   216.6520     2.1990 
  188.5000   -39.5520    54.8960    24.4590   130.0730   184.4040   230.6110     2.1950 
  188.6250   -39.3250    53.3640    25.0490   161.8930   186.9700   230.3980     2.1940 
  188.7500   -39.0640    54.0480    25.3090   170.4460   180.5190   217.9680     2.1940 
  188.8750   -38.7810    56.4980    25.3380   155.4660   167.1800   197.9900     2.1950 
  189.0000   -38.4850    59.2090    25.3270   129.9020   150.1840   175.7760     2.1920 
  189.1250   -38.2200    59.7610    25.3310   117.0430   134.3660   157.2050     2.1930 
  189.2500   -38.0000    59.5160    25.3530   117.5090   122.3520   143.9290     2.2010 
  189.3750   -37.8030    59.2710    25.3400   121.8140   114.5050   135.5370     2.2110 
  189.5000   -37.6430    59.8740    25.3090   118.7600   110.4790   131.6430     2.2170 
  189.6250   -37.5420    61.0020    25.1380   101.7410   111.3250   133.7800     2.2160 
  189.7500   -37.4810    60.5090    25.1540    77.6130   116.7130   141.0050     2.2120 
  189.8750   -37.4660    58.3670    25.0900    71.6400   125.3300   151.7700     2.2160 
  190.0000   -37.4970    55.0860    25.1820    94.6050   135.5110   164.1350     2.2300 
  190.1250   -37.5670    54.4410    25.2700   131.0540   144.0800   174.0980     2.2450 
  190.2500   -37.6460    56.8160    25.3180   145.7570   148.3430   178.2260     2.2400 
  190.3750   -37.7250    58.4310    25.3330   145.9060   147.3060   175.2320     2.2090 
  190.5000   -37.8080    58.2780    25.3980   138.9420   141.0890   165.7180     2.1710 
  190.6250   -37.8760    59.0140    25.3800   124.2160   130.6790   151.8510     2.1580 
  190.7500   -37.9540    60.7380    25.4190   108.6350   119.4270   138.3270     2.1720 
  190.8750   -38.0550    60.4970    25.4910    92.3400   110.0990   127.9620     2.1950 
  191.0000   -38.1560    58.5020    25.3050    79.4490   103.4990   121.0000     2.2130 
  191.1250   -38.2670    60.1850    25.2240    84.1880    99.5360   117.0140     2.2260 
  191.2500   -38.3960    65.6580    25.2600    92.1900    97.1390   114.6860     2.2350 
  191.3750   -38.5210    71.1520    25.2140    91.8530    95.6310   113.2520     2.2400 
  191.5000   -38.6250    74.0920    25.1970    88.9700    94.4570   112.1460     2.2390 
  191.6250   -38.6890    72.1990    25.2140    86.3690    93.0450   110.3700     2.2360 
  191.7500   -38.7200    68.1280    25.2240    84.1520    90.9810   107.7140     2.2360 
  191.8750   -38.7090    64.3790    25.2960    80.4490    88.4270   104.4280     2.2420 
  192.0000   -38.6800    60.9490    25.3430    77.5760    85.7780   101.0040     2.2470 
  192.1250   -38.5960    60.3810    25.4500    78.4520    83.3170    97.6810     2.2420 
  192.2500   -38.4820    63.1850    25.3360    77.3750    81.1300    94.5830     2.2290 
  192.3750   -38.3770    67.6250    25.2820    73.5310    79.3280    91.7920     2.2200 
  192.5000   -38.2780    69.3910    25.0780    73.2900    77.7140    89.1800     2.2270 
  192.6250   -38.2070    68.3260    24.7090    80.1570    76.1200    86.4830     2.2490 
  192.7500   -38.1680    68.9790    24.5010    87.9640    74.2290    83.4590     2.2690 
  192.8750   -38.1460    70.3020    24.4550    86.1610    71.8260    79.8340     2.2720 
  193.0000   -38.1620    69.9510    24.4250    75.2710    68.7060    75.5120     2.2610 
  193.1250   -38.2360    67.5640    24.3910    66.7610    64.8930    70.6020     2.2560 
  193.2500   -38.3510    65.6680    24.3890    65.7530    60.7120    65.4520     2.2680 
  193.3750   -38.5200    64.2220    24.4200    65.0540    56.3530    60.2480     2.2900 
  193.5000   -38.7650    63.2660    24.5000    60.0380    52.1100    55.3310     2.3090 
  193.6250   -39.0840    65.0990    24.5510    52.5630    48.3610    51.1830     2.3100 
  193.7500   -39.4430    69.0610    24.4100    45.1400    45.2780    47.9800     2.3000 
  193.8750   -39.7230    73.5030    24.2340    39.8630    43.2030    46.0140     2.2880 
  194.0000   -39.9370    75.0600    24.1760    38.7930    42.4210    45.6340     2.2780 
  194.1250   -40.3850    74.4230    24.3670    38.4250    43.3260    47.2730     2.2670 
  194.2500   -40.8730    73.4710    24.4770    37.9640    45.7550    50.7440     2.2540 
  194.3750   -41.3930    72.5760    24.5610    38.8880    49.7160    55.9080     2.2440 
  194.5000   -41.9130    70.9280    24.5860    45.9050    54.8010    62.1640     2.2410 
  194.6250   -42.4130    67.3380    24.6180    63.9980    60.1870    68.5800     2.2410 
  194.7500   -42.8890    64.8680    25.0540    80.0190    65.0650    74.4060     2.2450 
  194.8750   -43.3240    64.7180    25.5080    84.8680    69.1370    79.4400     2.2560 
  195.0000   -43.7130    66.0250    25.6580    79.9560    72.5130    83.9700     2.2720 
  195.1250   -44.0440    67.4170    25.6600    73.3100    76.1290    89.2200     2.2800 
  195.2500   -44.3470    68.2980    25.6780    71.6580    81.2540    96.5880     2.2690 
  195.3750   -44.6050    67.5420    25.6810    71.1960    88.9770   107.3400     2.2440 
  195.5000   -44.8110    63.4920    25.6820    82.4640   100.0650   122.3420     2.2170 
  195.6250   -44.9540    58.2340    25.6840   114.7350   115.2980   142.6660     2.2000 
  195.7500   -45.0520    56.6980    25.6780   155.4100   132.9890   166.2970     2.1910 
  195.8750   -45.1310    57.9210    25.6780   181.3430   151.3800   191.0520     2.1860 
  196.0000   -45.1950    57.7950    25.7240   185.5450   168.4560   213.9120     2.1870 
  196.1250   -45.2530    55.6420    25.7030   177.8930   181.8560   231.2440     2.1910 
  196.2500   -45.2920    55.2850    25.6220   168.6990   191.2840   242.2860     2.1900 
  196.3750   -45.3280    56.2310    25.5630   162.5630   197.1520   247.9040     2.1820 
  196.5000   -45.3540    54.7280    25.4060   161.1370   200.8330   250.8390     2.1790 
  196.6250   -45.3900    50.9900    25.3790   158.4840   203.4850   252.5380     2.1870 
  196.7500   -45.4600    49.8090    25.3620   152.3020   205.0680   252.6160     2.1930 
  196.8750   -45.5350    51.8010    25.3550   151.1110   204.8470   250.0760     2.1880 
  197.0000   -45.5850    53.7610    25.3330   155.7740   202.0340   244.0220     2.1790 
  197.1250   -45.6370    52.8000    25.3270   158.3070   196.1420   234.5000     2.1790 
  197.2500   -45.6770    51.4120    25.1430   150.9160   188.6720   223.5490     2.1890 
  197.3750   -45.7120    50.7510    25.0790   140.9630   181.1320   213.2890     2.2030 
  197.5000   -45.7560    50.3220    25.1220   132.5740   175.2890   205.7460     2.2160 
  197.6250   -45.7970    50.8500    25.0460   127.4070   173.4140   203.3740     2.2210 
  197.7500   -45.8050    52.5000    24.8770   120.5560   175.7150   205.9080     2.2150 
  197.8750   -45.7810    55.2810    24.5290   130.4230   181.4410   212.3280     2.2020 
  198.0000   -45.7260    56.3430    24.2220   176.8920   189.2400   220.9950     2.1950 
  198.1250   -45.5810    52.8240    24.3070   234.0630   197.1220   229.3620     2.2070 
  198.2500   -45.3870    51.1070    24.2680   288.2210   202.7370   234.6720     2.2270 
  198.3750   -45.1290    54.6410    24.2200   402.7470   205.0710   235.7640     2.2410 
  198.5000   -44.8230    58.7510    24.1320   421.3980   204.1800   232.8660     2.2410 
  198.6250   -44.4260    55.4500    24.1110   337.6780   200.6620   226.9750     2.2320 
  198.7500   -43.9510    51.2210    24.1230   236.9070   195.8450   219.7480     2.2240 
  198.8750   -43.4240    52.9260    24.2270   240.4260   189.8980   211.0760     2.2160 
