~V
VERS. 2.00: Ver 2.00
~W
STRT.M 60.0000:
STOP.M 251.0000:
STEP.M 0.1250:
NULL. -999.2500:
UWI. DF3020:
~C
DEPT.M :
GR.API :
RML.OHMM :
RI. :
RXO.OHMM :
CALI.CM :
DEN.GM/CC :
SP.MV :
~A
# ...
  217.5000    67.7430    96.0600    83.6430    89.2510    24.2980     2.2540   -17.2580 
  217.6250    66.5900    92.2310    81.5850    90.2170    24.2140     2.2530   -17.8520 
  217.7500    64.7130    82.9570    74.9620    90.3200    24.0920     2.2540   -18.6190 
  217.8750    65.2050    69.4530    64.3020    83.3020    24.0210     2.2620   -19.5520 
  218.0000    69.2380    54.8380    51.8140    65.7170    23.9890     2.2790   -20.5360 
  218.1250    74.0220    42.8430    40.6780    44.4620    23.9580     2.3070   -21.5370 
  218.2500    75.9710    34.4550    32.4420    33.8690    23.9440     2.3370   -22.5040 
  218.3750    76.2370    29.4780    27.2830    24.8930    23.9410     2.3620   -23.4170 
  218.5000    77.7580    27.3240    24.7710    22.1880    23.9400     2.3790   -24.2530 
  218.6250    80.0770    27.7040    24.6440    22.0360    23.9250     2.3910   -24.9820 
  218.7500    79.5980    29.6920    26.0600    22.0080    23.8620     2.4080   -25.5890 
  218.8750    77.5390    32.7900    28.6040    23.1730    23.7190     2.4380   -26.0870 
  219.0000    76.6600    36.4230    31.7900    27.6630    23.4920     2.4780   -26.5360 
  219.1250    75.6950    39.8680    34.9880    33.6660    23.3950     2.5190   -26.9140 
  219.2500    72.3880    42.6330    37.6830    36.0070    23.4780     2.5440   -27.2100 
  219.3750    68.4250    44.7010    39.7730    33.4820    23.7170     2.5430   -27.3640 
  219.5000    66.1350    46.5730    41.5850    37.3260    23.8870     2.5170   -27.4140 
  219.6250    64.3830    49.3010    43.9110    43.8780    23.9360     2.4830   -27.2370 
  219.7500    63.3610    53.2810    47.1670    50.5680    23.9250     2.4590   -26.9320 
  219.8750    66.5540    57.9060    50.9920    55.3160    23.8900     2.4570   -26.4620 
  220.0000    72.4250    61.4230    54.0720    59.5590    23.8200     2.4770   -25.9190 
  220.1250    74.8030    60.5920    53.7970    69.6240    23.7860     2.5150   -25.3190 
  220.2500    72.1120    54.5550    49.2590    79.0800    23.7750     2.5550   -24.7230 
  220.3750    67.5370    44.4680    41.0730    77.8400    23.7750     2.5860   -24.1670 
  220.5000    65.3460    33.3690    31.4780    78.3770    23.7750     2.5980   -23.6790 
  220.6250    67.6600    24.6100    23.3870    64.2960    23.7750     2.5840   -23.4010 
  220.7500    74.1720    18.7130    17.7260    36.6700    23.7750     2.5520   -23.2790 
  220.8750    82.7250    15.1550    14.2220    18.9400    23.7750     2.5120   -23.3400 
  221.0000    88.4920    13.1970    12.2340    14.8530    23.7750     2.4750   -23.4590 
  221.1250    88.9140    12.3160    11.2970    12.5760    23.7750     2.4490   -23.6500 
  221.2500    88.7650    11.9020    10.8570    12.0560    23.7750     2.4350   -23.8650 
  221.3750    92.1690    11.7080    10.6880    10.9800    23.7640     2.4310   -24.1170 
  221.5000    97.0880    11.5890    10.6350    10.2500    23.7310     2.4360   -24.3320 
  221.6250    98.4840    11.4750    10.6020     9.8970    23.6510     2.4450   -24.4770 
  221.7500    98.3160    11.3350    10.5330     9.9110    23.5790     2.4560   -24.5730 
  221.8750   101.0140    11.1600    10.4060     9.8950    23.5090     2.4650   -24.6470 
  222.0000   106.6770    10.9620    10.2190     9.6840    23.4710     2.4670   -24.7470 
  222.1250   109.2480    10.8220    10.0240     9.5150    23.4640     2.4590   -24.9030 
  222.2500   106.5840    10.8460     9.9160     9.5650    23.4650     2.4420   -25.1160 
  222.3750   102.4630    11.1240     9.9820     9.8070    23.4650     2.4220   -25.3620 
  222.5000   103.8300    11.7000    10.2780    10.4170    23.4630     2.4050   -25.6570 
  222.6250   108.1140    12.6160    10.8620    11.5310    23.4620     2.3940   -26.0060 
  222.7500   107.6980    13.8070    11.6940    13.3410    23.4630     2.3870   -26.3860 
  222.8750   103.7190    15.2860    12.7810    15.8790    23.4640     2.3800   -26.7430 
  223.0000   100.8690    17.0950    14.1460    17.9350    23.4710     2.3680   -27.0670 
  223.1250   101.2630    19.3480    15.8790    17.8270    23.5010     2.3530   -27.3150 
  223.2500    99.0020    21.9490    17.9140    18.5950    23.5920     2.3410   -27.4910 
  223.3750    94.2850    24.7330    20.1480    22.2950    23.7830     2.3360   -27.6250 
  223.5000    90.0400    27.4190    22.3750    27.3690    24.1480     2.3390   -27.7070 
  223.6250    87.3680    29.5810    24.2590    30.4990    24.4300     2.3490   -27.7270 
  223.7500    86.2070    31.0800    25.6340    31.1010    24.5770     2.3580   -27.6920 
  223.8750    87.3190    31.9550    26.4830    31.9980    24.6260     2.3610   -27.6430 
  224.0000    89.0030    32.4500    26.9700    32.7670    24.6570     2.3590   -27.5550 
  224.1250    86.8520    32.9430    27.3850    33.2510    24.6700     2.3500   -27.4390 
  224.2500    80.5520    33.7390    28.0070    33.8970    24.6740     2.3390   -27.3320 
  224.3750    74.5860    34.9490    28.9550    34.6030    24.6710     2.3290   -27.2160 
  224.5000    73.2170    36.5320    30.2270    34.8140    24.6610     2.3230   -27.0790 
  224.6250    74.3410    38.2590    31.6780    36.1720    24.6380     2.3190   -26.9480 
  224.7500    74.6600    39.7050    32.9780    37.9390    24.6230     2.3150   -26.8070 
  224.8750    74.1510    40.4980    33.8240    39.8160    24.6190     2.3100   -26.6760 
  225.0000    75.9890    40.4180    34.0080    42.0260    24.6080     2.3060   -26.5900 
  225.1250    78.6060    39.5130    33.4960    40.4920    24.5520     2.3080   -26.5710 
  225.2500    79.0670    38.4910    32.8030    38.7790    24.3960     2.3180   -26.6180 
  225.3750    79.3210    38.0350    32.4630    38.5870    24.1370     2.3300   -26.7430 
  225.5000    81.1920    38.7080    32.9720    37.2740    23.9370     2.3350   -26.9260 
  225.6250    82.6210    41.0430    34.8600    34.0840    23.8580     2.3260   -27.1080 
  225.7500    81.1520    44.6900    37.9420    36.6200    23.8040     2.3090   -27.2650 
  225.8750    78.1530    49.2270    41.9250    45.5320    23.7120     2.2920   -27.4040 
  226.0000    75.3580    54.0410    46.2960    55.0460    23.6480     2.2850   -27.4880 
  226.1250    72.5520    58.2750    50.2950    57.9730    23.6280     2.2910   -27.5230 
  226.2500    70.2630    61.3760    53.3540    58.7690    23.6160     2.3030   -27.5030 
  226.3750    69.2380    63.0400    55.1590    62.6150    23.6070     2.3170   -27.4370 
  226.5000    69.6280    63.1880    55.6140    67.6860    23.6280     2.3280   -27.3840 
  226.6250    71.1440    61.6230    54.5430    67.1190    23.7650     2.3340   -27.3610 
  226.7500    74.0930    58.7450    52.2960    63.2740    23.8830     2.3340   -27.3870 
  226.8750    77.2660    54.9090    49.1480    58.8880    23.9270     2.3280   -27.4220 
  227.0000    78.3130    50.7480    45.6010    54.2370    23.9370     2.3160   -27.4750 
  227.1250    77.6530    47.2890    42.4930    50.7670    23.9610     2.3060   -27.5210 
  227.2500    77.3820    45.2650    40.5110    46.0330    24.0330     2.3030   -27.5460 
  227.3750    77.6670    45.1200    40.0950    41.9400    24.1050     2.3080   -27.5290 
  227.5000    77.5970    46.9230    41.3810    43.0300    24.1300     2.3150   -27.4390 
  227.6250    77.2030    50.4620    44.2810    50.1300    24.1330     2.3170   -27.2470 
  227.7500    77.2240    54.5390    47.7990    62.2450    24.1330     2.3110   -26.9510 
  227.8750    76.8520    58.1160    51.0510    69.2990    24.1330     2.3000   -26.5580 
  228.0000    75.6990    60.3470    53.2670    71.5600    24.1330     2.2880   -26.1140 
  228.1250    75.5050    60.7680    53.9360    70.4830    24.1280     2.2790   -25.6580 
  228.2500    75.9280    60.3200    53.7310    68.1700    24.0980     2.2750   -25.1590 
  228.3750    74.7550    59.9150    53.3810    63.9980    24.0630     2.2820   -24.6140 
  228.5000    72.9560    60.0800    53.3890    64.5430    24.0110     2.3060   -24.0760 
  228.6250    72.7860    60.4990    53.6330    61.7690    24.0000     2.3540   -23.5570 
