~V
VERS. 2.00: Ver 2.00
~W
STRT.M 61.0000:
STOP.M 318.0000:
STEP.M 0.1250:
NULL. -999.2500:
UWI. DF302:
~C
DEPT.M :
DEN.GM/CC :
SP.MV :
AC.US/MT :
GR.API :
CALI.CM :
RXO.OHMM :
RI. :
RML.OHMM :
~A
# ...
  161.0000     2.2150   -23.5520   411.3070    79.7500    21.8150     5.9600     5.7450     6.0600 
  161.1250     2.2440   -22.7110   412.6490    78.2470    21.8930     5.2930     5.3470     5.5500 
  161.2500     2.2780   -21.8610   410.9820    76.4880    22.0030     4.9930     5.0520     5.1820 
  161.3750     2.3030   -21.0600   407.7490    75.9280    22.0710     4.8700     4.8520     4.9480 
  161.5000     2.3150   -20.3710   404.8680    78.4170    22.1130     4.7810     4.7360     4.8420 
  161.6250     2.3180   -19.8590   403.6280    82.2240    22.1930     4.7400     4.6920     4.8480 
  161.7500     2.3180   -19.5280   402.7870    83.9290    22.2870     4.8060     4.6850     4.8910 
  161.8750     2.3140   -19.3350   400.7670    84.2040    22.3370     5.0280     4.6970     4.9250 
  162.0000     2.3120   -19.2400   397.2180    84.4990    22.3370     5.3090     4.7150     4.9210 
  162.1250     2.3200   -19.1810   394.2430    86.6770    22.3940     5.3360     4.7320     4.8760 
  162.2500     2.3380   -19.1240   394.6130    89.9520    22.5960     5.0950     4.7530     4.8320 
  162.3750     2.3510   -19.0610   399.2360    92.9170    22.9080     4.8390     4.7850     4.8230 
  162.5000     2.3450   -18.9830   406.8840    93.7130    23.1860     4.7630     4.8350     4.8640 
  162.6250     2.3120   -18.8570   415.7040    89.4710    23.1900     4.8760     4.8970     4.9550 
  162.7500     2.2750   -18.6530   423.2570    82.7040    22.9080     5.0330     4.9570     5.0680 
  162.8750     2.2580   -18.3710   428.2380    77.7010    22.6400     5.1470     4.9980     5.1750 
  163.0000     2.2680   -18.0100   429.7640    77.4520    22.8030     5.2010     5.0050     5.2510 
  163.1250     2.2870   -17.5880   427.1780    80.6480    23.4690     5.2380     4.9620     5.2620 
  163.2500     2.2950   -17.1390   422.6680    82.4190    24.1200     5.2570     4.8680     5.1780 
  163.3750     2.2950   -16.6800   418.1240    83.6320    24.4950     5.2430     4.7160     4.9600 
  163.5000     2.2910   -16.2510   414.9180    84.2820    24.6500     5.2170     4.5170     4.6180 
  163.6250     2.2860   -15.9440   411.9710    82.9990    24.6940     5.1830     4.3540     4.3200 
  163.7500     2.2890   -15.8320   404.1660    81.8930    24.7000     5.2270     4.3600     4.3270 
  163.8750     2.3170   -15.9630   387.1480    81.3120    24.7420     5.9280     4.6580     4.8540 
  164.0000     2.3770   -16.3700   361.7550    79.0020    24.8440     8.4200     5.3530     6.0460 
  164.1250     2.4460   -17.0830   338.3840    71.7680    24.9520    14.0720     6.5750     8.0230 
  164.2500     2.4770   -18.0290   328.9060    63.9840    25.0030    19.7890     8.0870    10.2860 
  164.3750     2.4430   -19.1480   336.8860    59.9760    24.9510    20.6430     9.4240    11.9820 
  164.5000     2.3540   -20.3410   356.5470    59.2130    24.6960    15.9770    10.0290    12.2980 
  164.6250     2.2560   -21.4910   376.1510    60.7110    24.0510    10.9740     9.6880    11.2560 
  164.7500     2.1940   -22.5170   387.6090    62.8990    23.2400     8.6910     9.0140    10.0210 
  164.8750     2.1720   -23.3860   391.2220    63.8020    22.6480     8.1050     8.4090     9.1530 
  165.0000     2.1730   -24.0730   391.3260    63.5440    22.5090     8.0960     8.0440     8.7780 
  165.1250     2.1790   -24.5500   391.4660    66.2240    22.7090     8.1240     7.9380     8.7990 
  165.2500     2.1890   -24.8610   391.4190    71.7150    22.8910     8.1590     7.9450     8.9370 
  165.3750     2.2050   -25.0500   390.2700    75.2800    22.9710     8.2970     7.9810     9.0690 
  165.5000     2.2240   -25.1660   388.1720    72.6640    22.9830     8.4800     8.0110     9.1670 
  165.6250     2.2390   -25.2850   386.4480    66.3930    22.9790     8.5350     8.0410     9.2500 
  165.7500     2.2500   -25.4440   385.7450    61.6830    22.9770     8.4750     8.0810     9.3360 
  165.8750     2.2510   -25.6380   386.8230    58.7440    22.9870     8.4740     8.1240     9.4130 
  166.0000     2.2390   -25.8330   389.7080    56.0000    23.0230     8.6660     8.1580     9.4640 
  166.1250     2.2170   -25.9930   393.5890    55.7150    23.0970     8.9740     8.1720     9.4840 
  166.2500     2.2000   -26.1190   397.4350    60.2360    23.2040     9.1700     8.1680     9.4840 
  166.3750     2.1970   -26.2000   400.7300    65.1540    23.3350     9.2080     8.1460     9.4650 
  166.5000     2.2040   -26.2210   402.7750    64.9570    23.4670     9.1920     8.0990     9.4090 
  166.6250     2.2080   -26.1590   402.9470    62.3960    23.5610     9.2010     8.0200     9.2850 
  166.7500     2.2040   -26.0160   402.2580    62.2000    23.6210     9.2160     7.9220     9.1120 
  166.8750     2.1930   -25.8220   401.9420    63.3740    23.6720     9.2370     7.8220     8.9320 
  167.0000     2.1800   -25.6100   402.2290    63.6180    23.7250     9.3190     7.7480     8.8070 
  167.1250     2.1690   -25.4130   401.4810    64.0040    23.7720     9.5470     7.7300     8.8080 
  167.2500     2.1700   -25.2480   398.0260    64.7470    23.8150     9.8740     7.7640     8.9150 
  167.3750     2.1880   -25.1240   391.9650    64.4560    23.8610    10.1590     7.8350     9.0790 
  167.5000     2.2150   -25.0340   385.8860    63.1450    23.9080    10.2420     7.9100     9.2340 
  167.6250     2.2300   -24.9680   384.7520    62.9680    23.9270    10.1090     7.9440     9.3120 
  167.7500     2.2190   -24.9120   388.8630    66.0960    23.9020     9.9850     7.9220     9.3080 
  167.8750     2.1930   -24.8570   395.1370    69.7700    23.8530     9.9690     7.8520     9.2450 
  168.0000     2.1740   -24.8120   399.2560    70.1440    23.8220     9.9990     7.7630     9.1610 
  168.1250     2.1730   -24.7860   398.5370    67.0660    23.8120     9.9930     7.6880     9.1000 
  168.2500     2.1770   -24.7610   396.0740    65.6310    23.7860    10.0340     7.6450     9.0810 
  168.3750     2.1790   -24.7350   394.5900    66.3210    23.7580    10.1980     7.6410     9.1100 
  168.5000     2.1800   -24.7220   394.8450    65.1360    23.7600    10.3970     7.6780     9.1920 
  168.6250     2.1830   -24.7270   395.6630    60.9740    23.7830    10.4260     7.7740     9.3610 
  168.7500     2.1870   -24.7560   395.2900    57.3740    23.7740    10.3080     7.9330     9.6320 
  168.8750     2.1950   -24.8120   393.8210    57.0060    23.7260    10.1680     8.1470     9.9910 
  169.0000     2.2060   -24.8890   392.2720    59.4680    23.6600    10.0770     8.3850    10.3710 
  169.1250     2.2100   -24.9760   391.7500    63.2020    23.5990    10.0060     8.5760    10.6290 
  169.2500     2.2020   -25.0750   391.6760    65.6070    23.5450     9.8710     8.6630    10.6780 
  169.3750     2.1880   -25.1730   390.4710    65.8680    23.4780     9.5920     8.6150    10.5100 
  169.5000     2.1790   -25.2770   387.2810    64.3390    23.3920     9.1920     8.4480    10.2010 
  169.6250     2.1760   -25.3780   381.9110    63.1340    23.3130     8.8960     8.2170     9.8660 
  169.7500     2.1720   -25.4700   376.0610    62.8570    23.2880     8.8820     7.9980     9.5890 
  169.8750     2.1660   -25.5330   372.3210    61.9060    23.3500     9.1000     7.8320     9.3900 
  170.0000     2.1610   -25.5550   372.5380    61.5100    23.4760     9.3090     7.7280     9.2570 
  170.1250     2.1600   -25.5250   377.2950    64.4270    23.5940     9.2540     7.6760     9.1630 
  170.2500     2.1620   -25.4400   383.3250    68.5420    23.6450     9.0360     7.6420     9.0710 
  170.3750     2.1690   -25.2840   387.9780    70.5550    23.6270     8.8340     7.6080     8.9700 
  170.5000     2.1800   -25.0510   389.9560    70.1530    23.5790     8.6910     7.5540     8.8500 
  170.6250     2.1890   -24.7340   388.8660    68.9400    23.5470     8.4670     7.4460     8.6780 
  170.7500     2.1970   -24.3380   386.9090    66.2390    23.5510     8.0720     7.2650     8.4200 
  170.8750     2.2070   -23.8590   385.5250    63.9360    23.5630     7.5020     7.0010     8.0460 
