~V
VERS. 2.00: Ver 2.00
~W
STRT.M 54.0000:
STOP.M 250.0000:
STEP.M 0.1250:
NULL. -999.2500:
UWI. DF3016:
~C
DEPT.M :
GR.API :
RML.OHMM :
RI. :
RXO.OHMM :
CALI.CM :
DEN.GM/CC :
SP.MV :
~A
# ...
  166.5000    72.6840   108.3460    93.1580    76.1010    24.4520     2.3000   -22.2900 
  166.6250    71.3920   118.6880   101.9690    92.7260    24.5250     2.2790   -22.3080 
  166.7500    69.5680   127.9700   110.1500   108.4250    24.6760     2.2610   -22.3480 
  166.8750    67.9490   134.9170   116.4350   120.7090    24.7460     2.2500   -22.4150 
  167.0000    67.3360   139.5030   120.5830   123.4620    24.6300     2.2480   -22.4850 
  167.1250    69.7660   142.9150   123.3580   118.6070    24.4420     2.2550   -22.5860 
  167.2500    74.3710   146.9160   126.2680   115.4920    24.3420     2.2640   -22.6290 
  167.3750    76.8220   152.0670   129.8870   116.9880    24.3650     2.2680   -22.7170 
  167.5000    75.0390   157.9040   133.9700   122.2640    24.4690     2.2650   -22.8030 
  167.6250    70.0100   163.0270   137.5030   135.6290    24.5300     2.2530   -22.8880 
  167.7500    65.2730   166.3370   139.6450   145.5240    24.4950     2.2380   -22.9770 
  167.8750    64.0730   167.5330   140.1520   147.3840    24.3950     2.2240   -23.0470 
  168.0000    66.5880   167.2290   139.4930   143.4910    24.2720     2.2160   -23.0960 
  168.1250    70.0550   166.9310   138.8730   139.1280    24.1960     2.2180   -23.1290 
  168.2500    72.2030   168.1460   139.5410   135.7880    24.1510     2.2240   -23.1290 
  168.3750    71.9080   171.4820   142.0670   135.0380    24.1590     2.2330   -23.0700 
  168.5000    69.0820   176.5730   146.2300   134.4710    24.1050     2.2420   -22.9670 
  168.6250    65.9510   181.8590   150.8630   136.8640    24.0380     2.2480   -22.8300 
  168.7500    65.2060   185.1910   154.1640   148.8790    23.9840     2.2520   -22.6560 
  168.8750    66.4840   185.1720   154.9090   164.9350    23.9650     2.2530   -22.4780 
  169.0000    67.6120   181.5810   152.7540   172.0170    24.0020     2.2510   -22.3390 
  169.1250    67.1200   175.4280   148.2780   161.4680    24.1230     2.2480   -22.2050 
  169.2500    65.9340   169.2410   143.4710   146.2510    24.2910     2.2450   -22.1560 
  169.3750    64.7250   164.5570   139.6570   131.6350    24.4170     2.2450   -22.0930 
  169.5000    66.1530   161.9590   137.4850   131.2840    24.5200     2.2460   -22.0520 
  169.6250    71.6570   161.1410   136.9040   138.2890    24.5650     2.2460   -22.0090 
  169.7500    76.6670   160.6650   136.7800   143.4740    24.5770     2.2440   -22.0120 
  169.8750    76.8000   159.5900   136.2910   144.9410    24.5720     2.2410   -22.0430 
  170.0000    72.4110   157.4540   134.9490   147.5110    24.5560     2.2380   -22.0640 
  170.1250    68.6930   154.2150   132.5870   144.3910    24.4740     2.2370   -22.1510 
  170.2500    69.0920   150.4420   129.6430   135.9350    24.3050     2.2400   -22.2290 
  170.3750    72.9210   146.4240   126.3710   129.4550    24.0810     2.2470   -22.4030 
  170.5000    76.8440   142.3600   122.9690   122.9880    23.9300     2.2570   -22.6200 
  170.6250    76.9620   138.5830   119.7380   121.1300    23.8750     2.2660   -22.8680 
  170.7500    76.1500   135.4940   117.0420   120.6390    23.8710     2.2720   -23.0710 
  170.8750    76.5140   133.5430   115.2700   110.1600    23.8980     2.2720   -23.2330 
  171.0000    76.6960   133.0830   114.7330    93.5100    23.9680     2.2700   -23.3460 
  171.1250    74.1580   134.3640   115.6890    84.7550    24.0600     2.2670   -23.3570 
  171.2500    72.2440   136.5910   117.5310    92.8770    24.1270     2.2630   -23.2940 
  171.3750    72.1140   138.9090   119.5880   101.8610    24.2030     2.2590   -23.1720 
  171.5000    72.5870   140.3580   121.0900   107.2620    24.3510     2.2510   -23.0290 
  171.6250    74.5050   139.8590   121.1510   110.9000    24.5600     2.2420   -22.9170 
  171.7500    77.5330   137.5850   119.8290   109.2960    24.6410     2.2330   -22.8820 
  171.8750    81.0100   134.1140   117.5310   113.0260    24.6430     2.2280   -22.9340 
  172.0000    83.8200   130.3420   114.9330   116.7230    24.5980     2.2260   -23.0650 
  172.1250    83.6490   127.3350   112.8640   113.4470    24.5350     2.2270   -23.2540 
  172.2500    81.4610   125.5860   111.7510   106.4430    24.4190     2.2280   -23.5260 
  172.3750    79.5590   125.2000   111.7170   103.9510    24.2570     2.2290   -23.8200 
  172.5000    78.8190   125.9150   112.5730   104.4930    24.1080     2.2280   -24.1330 
  172.6250    77.2730   127.0890   113.8000   105.7910    24.1190     2.2240   -24.4220 
  172.7500    75.7400   127.6300   114.4780   107.2360    24.2980     2.2160   -24.6580 
  172.8750    75.8680   126.5330   113.7330   110.0660    24.5680     2.2070   -24.8120 
  173.0000    76.7740   123.0460   110.8720   114.5420    24.7460     2.2010   -24.8960 
  173.1250    77.7880   116.8180   105.4830   118.4470    24.7980     2.2020   -24.9820 
  173.2500    78.5380   109.4850    98.9100   118.2370    24.7670     2.2110   -24.9910 
  173.3750    79.2080   102.9400    92.7630   109.9290    24.7260     2.2250   -24.9860 
  173.5000    78.7090    99.2200    88.8660    90.7840    24.7100     2.2420   -24.9450 
  173.6250    74.5720   100.8820    89.6130    72.1720    24.6560     2.2570   -24.8730 
  173.7500    69.0750   107.9300    95.2630    68.0910    24.6750     2.2660   -24.7680 
  173.8750    65.3840   119.8380   105.5770    81.3400    24.7490     2.2660   -24.6440 
  174.0000    63.4160   134.8720   119.1810   107.6920    24.7660     2.2590   -24.4870 
  174.1250    60.4550   149.8190   133.3390   128.5650    24.7140     2.2480   -24.2130 
  174.2500    58.3670   161.2660   144.7620   141.4940    24.7030     2.2390   -23.8890 
  174.3750    58.9560   167.2150   151.4030   163.1670    24.6860     2.2330   -23.5110 
  174.5000    60.6240   167.2810   152.6100   171.0970    24.6660     2.2340   -23.0830 
  174.6250    61.7160   161.8240   148.3830   142.1100    24.6620     2.2430   -22.6230 
  174.7500    61.5730   153.1670   140.8090   113.8480    24.6810     2.2590   -22.1590 
  174.8750    60.9190   142.5490   131.0460   104.6630    24.7320     2.2790   -21.7180 
  175.0000    61.8770   131.4650   120.4690   103.5570    24.7670     2.3020   -21.3320 
  175.1250    64.7400   122.3450   111.3260   108.8460    24.7700     2.3230   -20.9840 
  175.2500    65.0130   117.5060   105.5910   106.7740    24.7390     2.3380   -20.7150 
  175.3750    62.7670   118.6850   104.8250    92.1120    24.7150     2.3410   -20.5060 
  175.5000    60.2360   126.3000   109.9280    85.4620    24.7690     2.3340   -20.4100 
  175.6250    57.4810   140.8980   121.7330    97.0380    24.8890     2.3190   -20.4130 
  175.7500    53.6630   158.4070   137.9790   124.1220    24.9860     2.3030   -20.5470 
  175.8750    51.2810   176.6620   156.8120   150.4080    25.0740     2.2870   -20.7050 
  176.0000    51.6980   194.1060   176.3090   179.8430    25.2140     2.2690   -20.8560 
  176.1250    53.9750   210.1170   194.9240   203.5260    25.3190     2.2520   -20.9590 
  176.2500    56.6820   231.6320   212.5170   211.5260    25.2230     2.2380   -21.0270 
  176.3750    59.6360   252.8730   229.3340   224.5320    24.9850     2.2300   -20.9930 
  176.5000    62.7670   273.5110   245.1780   253.5070    24.7910     2.2260   -20.7950 
  176.6250    63.3200   291.8260   258.7160   287.5420    24.6810     2.2210   -20.4470 
  176.7500    60.3040   306.8680   269.4000   300.7380    24.6130     2.2140   -19.9740 
  176.8750    56.0840   318.7300   277.4630   313.0940    24.5880     2.2160   -19.5370 
  177.0000    54.2170   328.7290   284.1450   334.6400    24.6440     2.2390   -19.1770 
  177.1250    55.7320   338.4610   291.0900   346.4260    24.6550     2.2940   -19.0020 
  177.2500    56.2080   347.4430   298.1820   357.8050    24.5780     2.3670   -18.9180 
  177.3750    55.2130   352.2390   302.8140   375.2300    24.5010     2.4360   -18.9710 
  177.5000    54.9900   347.8110   300.8130   391.8690    24.4890     2.4760   -19.1890 
  177.6250    55.8250   327.6580   286.4190   405.0270    24.5190     2.4740   -19.5540 
