~V
VERS. 2.00: Ver 2.00
~W
STRT.M 60.0000:
STOP.M 268.0000:
STEP.M 0.1250:
NULL. -999.2500:
UWI. DF3035:
~C
DEPT.M :
GR.API :
CALI.CM :
RXO.OHMM :
RI. :
RML.OHMM :
SP.MV :
DEN.GM/CC :
AC.US/MT :
~A
# ...
  100.0000    86.5140    24.3500    11.1060     9.9130    12.2500   -24.6880  -999.2500  -999.2500 
  100.1250    87.6860    24.0830     9.5710     8.6320    10.7270   -25.2710  -999.2500  -999.2500 
  100.2500    87.6700    23.9360     9.2100     7.8730     9.9900   -25.8430  -999.2500  -999.2500 
  100.3750    85.3160    23.8780     9.2180     7.5180     9.8010   -26.3580  -999.2500  -999.2500 
  100.5000    81.9270    23.8600     9.1400     7.4370     9.9220   -26.7980  -999.2500  -999.2500 
  100.6250    77.9910    23.8610     9.0250     7.5060    10.1190   -27.1400  -999.2500  -999.2500 
  100.7500    73.6260    23.8630     9.0760     7.5860    10.2150   -27.3950  -999.2500  -999.2500 
  100.8750    70.6660    23.8620     9.1860     7.6160    10.1700   -27.5740  -999.2500  -999.2500 
  101.0000    69.0590    23.8620     9.1470     7.5790    10.0090   -27.6980  -999.2500  -999.2500 
  101.1250    67.2030    23.8620     9.0390     7.4790     9.7800   -27.7890  -999.2500  -999.2500 
  101.2500    67.5950    23.8620     9.1430     7.3520     9.5530   -27.8860  -999.2500  -999.2500 
  101.3750    72.2890    23.8620     9.3900     7.2230     9.3610   -28.0000  -999.2500  -999.2500 
  101.5000    77.4770    23.8620     9.4360     7.1090     9.2260   -28.1340  -999.2500  -999.2500 
  101.6250    76.9190    23.8620     9.1610     7.0250     9.1630   -28.3040  -999.2500  -999.2500 
  101.7500    72.4060    23.8630     8.9030     6.9680     9.1510   -28.4880  -999.2500  -999.2500 
  101.8750    68.6740    23.8620     8.7620     6.9370     9.1720   -28.6700  -999.2500  -999.2500 
  102.0000    67.4900    23.8610     8.5840     6.9270     9.2120   -28.8640  -999.2500  -999.2500 
  102.1250    69.2240    23.8750     8.3340     6.9330     9.2560   -29.0490  -999.2500  -999.2500 
  102.2500    71.8300    23.8750     8.1830     6.9420     9.2880   -29.1910  -999.2500  -999.2500 
  102.3750    72.5600    23.8100     8.1200     6.9450     9.2980   -29.2910  -999.2500  -999.2500 
  102.5000    70.3940    23.6850     8.0530     6.9330     9.2800   -29.3210  -999.2500  -999.2500 
  102.6250    67.4790    23.5830     8.1350     6.9020     9.2400   -29.2510  -999.2500  -999.2500 
  102.7500    69.4560    23.5500     8.3960     6.8660     9.2030   -29.1180  -999.2500  -999.2500 
  102.8750    75.8500    23.5430     8.4910     6.8330     9.1820   -28.9310  -999.2500  -999.2500 
  103.0000    81.8650    23.5080     8.1430     6.8030     9.1690   -28.6680  -999.2500  -999.2500 
  103.1250    84.0130    23.4970     7.7120     6.7610     9.1260   -28.3580  -999.2500  -999.2500 
  103.2500    84.1870    23.6050     7.7440     6.6890     9.0170   -28.0440  -999.2500  -999.2500 
  103.3750    84.1810    23.8350     8.0680     6.5790     8.8330   -27.7210  -999.2500  -999.2500 
  103.5000    84.2200    24.0870     8.1120     6.4420     8.6050   -27.4120  -999.2500  -999.2500 
  103.6250    85.2230    24.2410     7.6750     6.3190     8.4240   -27.1440  -999.2500  -999.2500 
  103.7500    87.6610    24.3080     7.3360     6.2590     8.3730   -26.9060  -999.2500  -999.2500 
  103.8750    88.9370    24.3240     7.4240     6.2940     8.4990   -26.7230  -999.2500  -999.2500 
  104.0000    88.5260    24.3240     7.8590     6.4320     8.8000   -26.6140  -999.2500  -999.2500 
  104.1250    85.4270    24.3280     8.4430     6.6600     9.2140   -26.5750  -999.2500  -999.2500 
  104.2500    81.0620    24.3290     9.0050     6.9030     9.5990   -26.5930  -999.2500  -999.2500 
  104.3750    78.1850    24.3350     9.4090     7.1040     9.8510   -26.6540  -999.2500  -999.2500 
  104.5000    77.9400    24.3490     9.5650     7.2270     9.9330   -26.7630  -999.2500  -999.2500 
  104.6250    76.4620    24.3530     9.5330     7.2800     9.9040   -26.9410  -999.2500  -999.2500 
  104.7500    71.9370    24.3420     9.5030     7.3310     9.9130   -27.1730  -999.2500  -999.2500 
  104.8750    68.2550    24.3210     9.5370     7.4220    10.0380   -27.4220  -999.2500  -999.2500 
  105.0000    68.9250    24.2960     9.5920     7.5640    10.2760   -27.6940  -999.2500  -999.2500 
  105.1250    71.7980    24.2700     9.5810     7.7160    10.5250   -27.9790  -999.2500  -999.2500 
  105.2500    72.6710    24.2730     9.5180     7.8050    10.6320   -28.2510  -999.2500  -999.2500 
  105.3750    71.8650    24.3130     9.4320     7.7780    10.5030   -28.5300  -999.2500  -999.2500 
  105.5000    72.3150    24.3410     9.3030     7.6300    10.1510   -28.8000  -999.2500  -999.2500 
  105.6250    74.4820    24.3160     9.1280     7.4030     9.6950   -29.0420  -999.2500  -999.2500 
  105.7500    74.6140    24.2950     9.0000     7.1800     9.2940   -29.2680  -999.2500  -999.2500 
  105.8750    70.8190    24.3150     8.9540     7.0040     9.0100   -29.4740  -999.2500  -999.2500 
  106.0000    65.5140    24.3460     8.9210     6.8880     8.8270   -29.6540  -999.2500  -999.2500 
  106.1250    63.1910    24.3440     8.7970     6.8210     8.6820   -29.8060  -999.2500  -999.2500 
  106.2500    63.9460    24.3300     8.5930     6.7700     8.5190   -29.9020  -999.2500  -999.2500 
  106.3750    66.0130    24.3260     8.3650     6.7270     8.3570   -29.9340  -999.2500  -999.2500 
  106.5000    67.2890    24.3250     8.1780     6.7030     8.2550   -29.8800  -999.2500  -999.2500 
  106.6250    67.0930    24.3220     8.0670     6.7240     8.2750   -29.6650  -999.2500  -999.2500 
  106.7500    68.5540    24.3210     7.9600     6.7630     8.3430   -29.2810  -999.2500  -999.2500 
  106.8750    73.4980    24.3190     7.8400     6.7490     8.3220   -28.7300  -999.2500  -999.2500 
  107.0000    78.8820    24.3340     7.7640     6.5910     8.0570   -27.9800  -999.2500  -999.2500 
  107.1250    82.6730    24.3700     7.5600     6.2030     7.4390   -27.0220  -999.2500  -999.2500 
  107.2500    89.0560    24.3780     6.9040     5.6700     6.6300   -25.9580  -999.2500   373.9350 
  107.3750    97.5110    24.4140     5.8710     5.0990     5.8130   -24.8340  -999.2500   373.9350 
  107.5000   101.2470    24.5650     4.9510     4.5910     5.1400   -23.7270  -999.2500   376.3020 
  107.6250    97.9870    24.7290     4.6230     4.2250     4.7060   -22.7570  -999.2500   382.0320 
  107.7500    94.0280    24.7180     4.6820     3.9910     4.4540   -21.9570     2.3650   388.1010 
  107.8750    90.1000    24.5510     4.9170     3.8950     4.3860   -21.3630     2.3650   391.4530 
  108.0000    86.4320    24.4110     5.2570     3.9730     4.5720   -21.0200     2.3630   389.2350 
  108.1250    84.6200    24.3830     5.6850     4.3480     5.2470   -20.9630     2.3680   377.4940 
  108.2500    83.7050    24.3690     6.4650     5.0820     6.5320   -21.1290     2.3750   356.0560 
  108.3750    81.0140    24.3320     8.7800     6.2550     8.5330   -21.4810     2.3710   325.4030 
  108.5000    77.3280    24.2830    14.8990     7.8510    11.1400   -21.9640     2.3720   289.0490 
  108.6250    74.4200    24.2880    23.2370     9.5110    13.5760   -22.5370     2.4240   255.8600 
  108.7500    71.9290    24.3420    24.7860    10.4870    14.5880   -23.1510     2.5210   235.2730 
  108.8750    70.8780    24.3330    18.5250    10.3560    13.7140   -23.7780     2.6110   232.8150 
  109.0000    71.5500    24.1820    11.5820     9.3790    11.7400   -24.3890     2.6380   248.4420 
  109.1250    71.6710    23.9860     9.0440     8.2170     9.9240   -24.9650     2.5750   277.4950 
  109.2500    72.3030    23.9150     8.4990     7.3260     8.7890   -25.4650     2.4670   308.6710 
  109.3750    75.1890    23.9590     8.4630     6.7910     8.3040   -25.8890     2.3560   335.3140 
  109.5000    79.2810    24.0060     8.3660     6.5600     8.2710   -26.2470     2.2750   354.3900 
  109.6250    80.4070    24.0130     8.2560     6.5540     8.4910   -26.5230     2.2430   365.0630 
  109.7500    78.9460    24.0450     8.2620     6.6510     8.7620   -26.7330     2.2400   370.4000 
  109.8750    76.2370    24.0960     8.3660     6.7970     9.0170   -26.8930     2.2470   371.9610 
