~V
VERS. 2.00: Ver 2.00
~W
STRT.M 60.0000:
STOP.M 268.0000:
STEP.M 0.1250:
NULL. -999.2500:
UWI. DF3035:
~C
DEPT.M :
GR.API :
CALI.CM :
RXO.OHMM :
RI. :
RML.OHMM :
SP.MV :
DEN.GM/CC :
AC.US/MT :
~A
# ...
  260.0000    75.6450    24.7680     7.6690     7.5910     9.8360   -13.5900     2.5110   289.6530 
  260.1250    75.6450    24.7790     7.7480     7.5660     9.7790   -13.5520     2.5010   287.4070 
  260.2500    75.6450    24.7820     7.6210     7.5580     9.7440   -13.5330     2.4810   288.4030 
  260.3750    75.6450    24.8290     7.4920     7.5570     9.7240   -13.5140     2.4700   288.8840 
  260.5000    75.6450    24.9030     7.4460     7.5570     9.7140   -13.5050     2.4640   286.6960 
  260.6250    75.6450    24.8950     7.5230     7.5570     9.7070   -13.4900     2.4560   281.1560 
  260.7500    75.6450    24.7950     7.7630     7.5570     9.7020   -13.4560     2.4470   272.3320 
  260.8750    75.6450    24.6750     8.2230     7.5560     9.7040   -13.4150     2.4470   261.6320 
  261.0000    75.6450    24.6120     9.0760     7.5570     9.7080   -13.3640     2.4560   250.1090 
  261.1250    75.6450    24.5980    10.7560     7.5580     9.7080   -13.3220     2.4730   239.2460 
  261.2500    75.6450    24.6040    12.7630     7.5590     9.7020   -13.2830     2.5000   231.2490 
  261.3750    75.6450    24.6180    13.9620     7.5600     9.6920   -13.2430     2.5300   226.4710 
  261.5000    75.6450    24.6280    13.8470     7.5600     9.6860   -13.1980     2.5520   224.2900 
  261.6250    75.6450    24.6300    13.5730     7.5590     9.6890   -13.1470     2.5550   223.4780 
  261.7500    75.6450    24.6150    14.5400     7.5590     9.6980   -13.1140     2.5380   223.3450 
  261.8750    75.6450    24.5930    16.6290     7.5590     9.7060   -13.0940     2.5170   224.4850 
  262.0000    75.6450    24.5830    18.7540     7.5590     9.7070   -13.0910     2.5030   228.4850 
  262.1250    75.6450    24.5910    19.8960     7.5600     9.7020   -13.0900     2.4980   236.7830 
  262.2500    75.6450    24.5870    20.8460     7.5600     9.6980   -13.0870     2.5020   250.3800 
  262.3750    75.6450    24.5550    21.6370     7.5600     9.6970   -13.0900     2.5110   267.0190 
  262.5000    75.6450    24.5010    20.4070     7.5600     9.6960   -13.1080     2.5180   284.3440 
  262.6250    75.6450    24.4510    15.8900     7.5590     9.6920   -13.1340     2.5180   299.8460 
  262.7500    75.6450    24.4160    11.2080     7.5580     9.6860   -13.1530     2.5150   310.8120 
  262.8750    75.6450    24.4070     8.4260     7.5570     9.6800   -13.1750     2.5140   317.3080 
  263.0000    75.6450    24.4370     7.3320     7.5560     9.6770   -13.2020     2.5080   320.1980 
  263.1250    75.6450    24.4900     6.9010     7.5560     9.6770   -13.2060     2.4960   321.0300 
  263.2500    75.6450    24.5240     6.6000     7.5560     9.6770   -13.2080     2.4880   321.3200 
  263.3750    75.6450    24.5090     6.4900     7.5560     9.6770   -13.2100     2.4970   321.7910 
  263.5000    75.6450    24.4360     6.5470     7.5560     9.6770   -13.2020     2.5130   322.1750 
  263.6250    75.6450    24.3710     6.6590     7.5560     9.6770   -13.2030     2.5190   322.1730 
  263.7500    75.6450    24.3820     6.7460     7.5560     9.6770   -13.2020     2.5030   322.1840 
  263.8750    75.6450    24.4580     6.8460     7.5560     9.6770   -13.1750     2.4820   323.0800 
  264.0000    75.6450    24.5240     7.0130     7.5560     9.6770   -13.1290     2.4670   325.2070 
  264.1250    75.6450    24.5260     7.2430     7.5560     9.6770   -13.0990     2.4630   328.0270 
  264.2500    75.6450    24.4870     7.5480     7.5560     9.6770   -13.0840     2.4690   330.1980 
  264.3750    75.6450    24.4440     8.0560     7.5560     9.6770   -13.0820     2.4760   331.0080 
  264.5000    75.6450    24.4510     8.7890     7.5560     9.6770   -13.0780     2.4370   330.6920 
  264.6250    75.6450    24.1730     9.4290     7.5560     9.6770   -13.0930     2.2860   329.9980 
  264.7500    75.6450    23.1390     9.6490     7.5560     9.6770   -13.1290     2.0310   329.4640 
  264.8750    75.6450    21.5390     9.5260     7.5560     9.6770   -13.1720     1.8170   328.9280 
  265.0000    75.6450    20.1900     9.3600     7.5560     9.6770   -13.2150     1.7200   328.1370 
  265.1250    75.6450    19.7620     9.3250     7.5560     9.6770   -13.2640     1.7160   327.1870 
  265.2500    75.6450    19.7660     9.3330     7.5560     9.6770   -13.3110     1.7340   326.4770 
  265.3750    75.6450    19.7850     9.3340     7.5560     9.6770   -13.3450     1.7420   325.9560 
  265.5000    75.6450    19.7800     9.3310     7.5560     9.6770   -13.3770     1.7440   325.0670 
  265.6250    75.6450    19.7800     9.3300     7.5560     9.6770   -13.3650     1.7400   323.2980 
  265.7500    75.6450    19.7810     9.3310     7.5560     9.6770   -13.3320     1.7280   320.9880 
  265.8750    75.6450    19.7800     9.3300     7.5560     9.6770   -13.3180     1.7150   319.5440 
  266.0000    75.6450    19.7760     9.3290     7.5560     9.6770   -13.3130     1.7090   319.9830 
  266.1250    75.6450    19.7690     9.3260     7.5560     9.6770   -13.2820     1.7130   322.4520 
  266.2500    75.6450    19.7630     9.3250     7.5560     9.6770   -13.2340     1.7210   326.1080 
  266.3750    75.6450    19.7610     9.3240     7.5560     9.6770   -13.1890     1.7250   329.3900 
  266.5000    75.6450    19.7610     9.3230     7.5560     9.6770   -13.1590     1.7240   331.5130 
  266.6250    75.6450    19.7610     9.3230     7.5560     9.6770   -13.1590     1.7220   332.3230 
  266.7500    75.6450    19.7610     9.3210     7.5560     9.6770   -13.1590     1.7250   331.9780 
  266.8750    75.6450    19.7610     9.3180     7.5560     9.6770   -13.1590     1.7310   331.1300 
  267.0000    75.6450    19.7610     9.3150     7.5560     9.6770  -999.2500     1.7350   330.2360 
  267.1250    75.6450    19.7610     9.3130     7.5560     9.6770  -999.2500     1.7360   329.6110 
  267.2500    75.6450    19.7610     9.3100     7.5560     9.6770  -999.2500     1.7320   329.2910 
  267.3750    75.6450    19.7590     9.3080     7.5560     9.6770  -999.2500     1.7240   329.0130 
  267.5000    75.6450    19.7510     9.3060     7.5560     9.6770  -999.2500     1.7150   328.6510 
  267.6250    75.6450    19.7400     9.3040     7.5560     9.6770  -999.2500     1.7150   328.4740 
  267.7500    75.6450    19.7300     9.3030     7.5560     9.6770  -999.2500     1.7320   328.9720 
  267.8750    75.6450    19.7250     9.3030     7.5560     9.6770  -999.2500     1.7530   330.1320 
  268.0000    75.6450    19.7230     9.3030     7.5560     9.6770  -999.2500     1.7550   331.4230 
