~V
VERS. 2.00: Ver 2.00
~W
STRT.M 60.0000:
STOP.M 266.0000:
STEP.M 0.1250:
NULL. -999.2500:
UWI. DF3052:
~C
DEPT.M :
GR.API :
CALI.CM :
RXO.OHMM :
RI. :
RML.OHMM :
DEN.GM/CC :
SP.MV :
~A
# ...
  251.2500    61.7440    23.3800     8.8780     8.5720     9.6480     2.3940   -12.0790 
  251.3750    59.2070    23.4180    10.6110     8.9040     9.9520     2.4090   -12.0690 
  251.5000    57.8720    23.5020    12.5050     9.1680    10.1680     2.4210   -12.0470 
  251.6250    58.4000    23.5960    13.0430     9.2850    10.2310     2.4180   -12.0060 
  251.7500    61.3040    23.6540    12.2170     9.2560    10.1390     2.4120   -11.9520 
  251.8750    65.8070    23.6820    10.9700     9.1040     9.9240     2.4220   -11.8830 
  252.0000    69.5200    23.6940    10.0860     8.8860     9.6580     2.4430   -11.8250 
  252.1250    70.2690    23.6930     9.4740     8.6800     9.4390     2.4640   -11.7570 
  252.2500    69.2220    23.7050     9.0290     8.5620     9.3250     2.4710   -11.6530 
  252.3750    67.6710    23.7890     8.7870     8.5550     9.3190     2.4620   -11.5220 
  252.5000    66.4920    23.9210     8.6570     8.6520     9.4070     2.4430   -11.3870 
  252.6250    67.0970    23.9720     8.4490     8.8430     9.5860     2.4270   -11.2620 
  252.7500    69.2610    23.9000     8.1880     9.0640     9.7880     2.4310   -11.1460 
  252.8750    70.8840    23.7910     7.9920     9.2520     9.9650     2.4450   -11.0440 
  253.0000    69.7070    23.7370     7.9740     9.3780    10.0800     2.4520   -10.9490 
  253.1250    65.9920    23.7370     8.2640     9.4070    10.0980     2.4460   -10.8830 
  253.2500    62.8630    23.7440     9.0700     9.3540    10.0440     2.4420   -10.8380 
  253.3750    61.5930    23.7520    10.6250     9.2490     9.9430     2.4550   -10.7990 
  253.5000    61.8940    23.7490    12.3790     9.1140     9.8320     2.4740   -10.7590 
  253.6250    62.9620    23.7380    12.5800     8.9750     9.7070     2.4800   -10.7340 
  253.7500    63.8870    23.7340    11.3950     8.8500     9.5930     2.4620   -10.6990 
  253.8750    63.7940    23.7390    10.0590     8.7400     9.4870     2.4390   -10.6540 
  254.0000    62.3830    23.7410     9.5130     8.6400     9.3860     2.4260   -10.6000 
  254.1250    60.6750    23.7350     9.8670     8.5370     9.2940     2.4250   -10.5270 
  254.2500    59.9150    23.7340    10.0930     8.4310     9.1930     2.4380   -10.4420 
  254.3750    60.4950    23.7400     9.8070     8.3150     9.0830     2.4560   -10.3320 
  254.5000    62.4270    23.7430     9.2910     8.2000     8.9650     2.4600   -10.2130 
  254.6250    65.0760    23.7370     9.0280     8.1050     8.8600     2.4370   -10.0800 
  254.7500    66.5830    23.7400     8.9070     8.0280     8.7960     2.3930    -9.9530 
  254.8750    66.2480    23.7790     8.8200     7.9950     8.7820     2.3640    -9.8410 
  255.0000    64.7830    23.8590     8.9440     8.0000     8.8110     2.3620    -9.7570 
  255.1250    63.3700    23.9400     9.6510     8.0420     8.8850     2.3750    -9.6950 
  255.2500    62.1080    23.9800    10.9850     8.1190     8.9870     2.3760    -9.6490 
  255.3750    61.0920    23.9890    13.0780     8.2120     9.1030     2.3640    -9.6360 
  255.5000    60.7090    23.9790    15.3720     8.3050     9.2140     2.3600    -9.6420 
  255.6250    60.7240    23.9370    15.2980     8.4040     9.3300     2.3770    -9.6680 
  255.7500    60.3360    23.8600    12.6750     8.5170     9.4550     2.4010    -9.7150 
  255.8750    59.5490    23.7870     9.3340     8.6430     9.5910     2.4100    -9.7820 
  256.0000    59.1250    23.7630     7.1260     8.7950     9.7680     2.4040    -9.8520 
  256.1250    59.3850    23.7740     6.5010     8.9920     9.9970     2.3980    -9.9250 
  256.2500    59.9960    23.7690     6.4660     9.2130    10.2430     2.4000   -10.0170 
  256.3750    61.0440    23.7480     6.7650     9.4440    10.4700     2.4040   -10.1320 
  256.5000    62.5010    23.7340     7.3110     9.6750    10.6730     2.4010   -10.2510 
  256.6250    64.1420    23.7440     8.1230     9.8690    10.8270     2.3910   -10.3720 
  256.7500    65.9270    23.7620     9.0150    10.0060    10.9190     2.3860   -10.4930 
  256.8750    67.9190    23.7790     9.6930    10.0930    10.9690     2.3930   -10.6080 
  257.0000    69.7390    23.7940     9.9810    10.1310    10.9670     2.4060   -10.7150 
  257.1250    71.0430    23.8040     9.8860    10.1270    10.9180     2.4170   -10.8240 
  257.2500    71.8380    23.8060     9.7770    10.1020    10.8580     2.4240   -10.9180 
  257.3750    71.6810    23.8010     9.8020    10.0610    10.7940     2.4340   -10.9920 
  257.5000    70.1940    23.8060     9.9960    10.0130    10.7220     2.4460   -11.0510 
  257.6250    67.7430    23.8110    10.1500     9.9580    10.6350     2.4450   -11.1050 
  257.7500    64.8390    23.8040    10.0140     9.8850    10.5420     2.4180   -11.1360 
  257.8750    61.6940    23.7900     9.6930     9.7830    10.4210     2.3820   -11.1350 
  258.0000    59.1270    23.7710     9.4740     9.6500    10.2740     2.3500   -11.1330 
  258.1250    58.1670    23.7650     9.4840     9.4910    10.1190     2.3250   -11.1210 
  258.2500    57.6170    23.8050     9.8120     9.3180     9.9320     2.3050   -11.1140 
  258.3750    56.6140    23.8790    10.3230     9.1460     9.7410     2.3000   -11.1030 
  258.5000    55.8080    23.9350    10.4680     9.0010     9.5820     2.3130   -11.1140 
  258.6250    56.2770    23.9500     9.8810     8.9010     9.4830     2.3360   -11.1130 
  258.7500    57.0170    23.9560     8.9060     8.8600     9.4450     2.3470   -11.1110 
  258.8750    57.8100    23.9570     7.9710     8.8800     9.4650     2.3440   -11.1190 
  259.0000    59.6900    23.9520     7.1870     8.9580     9.5510     2.3380   -11.1210 
  259.1250    62.5090    23.9510     6.8170     9.1010     9.7030     2.3470   -11.1160 
  259.2500    63.7470    23.9590     7.2100     9.2970     9.9060     2.3710   -11.0920 
  259.3750    62.6320    23.9660     8.1040     9.5120    10.1240     2.3830   -11.0590 
  259.5000    61.0600    23.9630     8.8940     9.7050    10.2990     2.3710   -11.0130 
  259.6250    61.2560    23.9540     8.9810     9.8480    10.4230     2.3450   -10.9750 
  259.7500    62.3030    23.9540     8.8180     9.9410    10.4980     2.3360   -10.9490 
  259.8750    63.2230    23.9660     8.7620     9.9860    10.5240     2.3450   -10.9290 
  260.0000    64.2410    23.9770     8.9330     9.9960    10.5170     2.3630   -10.9110 
  260.1250    66.0620    23.9750     9.2150     9.9890    10.5040     2.3800   -10.9020 
  260.2500    68.2810    23.9630     9.4720     9.9740    10.4990     2.3890   -10.8920 
  260.3750    69.9460    23.9550     9.8530     9.9470    10.4980     2.3850   -10.8920 
  260.5000    70.0480    23.9580    10.2860     9.9020    10.4750     2.3730   -10.8920 
  260.6250    68.4780    23.9750    10.8330     9.7900    10.3700     2.3660   -10.8780 
  260.7500    67.3150    23.9870    11.5020     9.5930    10.1650     2.3810   -10.8350 
  260.8750    67.5270    23.9870    11.5650     9.3430     9.9160     2.4070   -10.7970 
  261.0000    68.0440    23.9830    10.5780     9.0950     9.6790     2.4320   -10.7590 
  261.1250    67.5740    23.9840     8.9220     8.9650     9.5840     2.4450   -10.7260 
  261.2500    67.5370    23.9890     7.8590     9.0270     9.7020     2.4350   -10.7210 
  261.3750    69.0190    23.9980     7.4170     9.3250    10.0530     2.4080   -10.7300 
  261.5000    70.7270    24.0050     7.6030     9.8670    10.6500     2.3740   -10.7530 
  261.6250    70.2790    24.0100     8.6040    10.6440    11.4690     2.3490   -10.7860 
  261.7500    68.6620    24.0320    10.1670    11.5070    12.3230     2.3530   -10.8290 
  261.8750    68.0600    24.0650    11.7650    12.2830    13.0410     2.3780   -10.8670 
  262.0000    69.2540    24.0890    12.8390    12.8060    13.4690     2.4130   -10.8860 
  262.1250    70.7700    24.0910    13.4320    12.9000    13.4450     2.4420   -10.8730 
  262.2500    70.8810    24.1170    13.8500    12.6160    13.0570     2.4520   -10.8350 
  262.3750    69.2520    24.1730    13.9340    12.0620    12.4350     2.4430   -10.7730 
