~V
VERS. 2.00: Ver 2.00
~W
STRT.M 100.0000:
STOP.M 258.0000:
STEP.M 0.1250:
NULL. -999.2500:
UWI. DF3025:
~C
DEPT.M :
AC.US/MT :
DEN.GM/CC :
GR.API :
CALI.CM :
RXO.OHMM :
RI. :
RML.OHMM :
SP.MV :
~A
# ...
  140.0000   294.8690     2.4940    64.8560    23.6960    15.3010    16.4400    17.3970   -16.8760 
  140.1250   293.9800     2.5110    62.3110    23.6200    15.8030    16.5550    17.4730   -16.8810 
  140.2500   295.8800     2.5310    58.6170    23.5840    15.3850    16.5760    17.4490   -16.9300 
  140.3750   297.0410     2.5430    55.3330    23.5920    15.0110    16.4900    17.3480   -17.0300 
  140.5000   294.1720     2.5420    52.6150    23.6280    14.7930    16.3670    17.2630   -17.1280 
  140.6250   288.2710     2.5370    50.9040    23.6640    15.0680    16.3740    17.3640   -17.1530 
  140.7500   283.5860     2.5380    50.8890    23.7040    15.6930    16.5920    17.6770   -17.1000 
  140.8750   281.5050     2.5460    52.1900    23.7880    16.2810    16.9620    18.0900   -16.9770 
  141.0000   281.2450     2.5510    52.2190    23.9280    15.8130    17.2900    18.3690   -16.8200 
  141.1250   281.8490     2.5490    49.5350    24.0560    14.7850    17.2220    18.1410   -16.7070 
  141.2500   284.1370     2.5460    46.7030    24.0720    15.0560    16.6430    17.3640   -16.6650 
  141.3750   288.7490     2.5470    45.2700    23.9670    14.8530    15.6510    16.2110   -16.6800 
  141.5000   294.7790     2.5490    47.0450    23.8290    13.3010    14.5370    15.0330   -16.7370 
  141.6250   299.0590     2.5480    53.2610    23.7480    12.1290    13.6980    14.2630   -16.8110 
  141.7500   298.1990     2.5440    60.4090    23.6980    11.8810    13.3000    14.0240   -16.8590 
  141.8750   291.3140     2.5380    65.2560    23.6410    12.2790    13.3740    14.3140   -16.8760 
  142.0000   281.9310     2.5320    65.8730    23.5940    13.3800    13.8560    15.0370   -16.8800 
  142.1250   276.8610     2.5320    64.0470    23.5790    15.1700    14.6500    16.0530   -16.8770 
  142.2500   277.0370     2.5380    63.8720    23.5690    16.1230    15.5420    17.1230   -16.8920 
  142.3750   277.7960     2.5470    65.5030    23.5440    16.1180    16.4140    18.1220   -16.9420 
  142.5000   275.3960     2.5570    68.3320    23.5190    16.5780    17.1910    18.9850   -17.0000 
  142.6250   271.3050     2.5660    70.6170    23.5370    17.5700    17.8170    19.6750   -17.0220 
  142.7500   269.5770     2.5720    70.5300    23.5890    18.1700    18.3120    20.2260   -17.0100 
  142.8750   270.8010     2.5730    67.9240    23.6320    17.8160    18.6950    20.6630   -16.9720 
  143.0000   272.0230     2.5730    64.7590    23.6360    17.4190    19.0010    21.0330   -16.9210 
  143.1250   269.6300     2.5810    63.8590    23.6050    17.1660    19.2720    21.4080   -16.8870 
  143.2500   266.1670     2.5940    64.0960    23.5600    17.3780    19.5630    21.8560   -16.8650 
  143.3750   265.4430     2.6070    63.9440    23.5050    18.1460    19.8970    22.3750   -16.8200 
  143.5000   267.8640     2.6120    63.9790    23.4590    18.1370    20.2460    22.8800   -16.7490 
  143.6250   269.0990     2.6080    65.8740    23.4510    18.0200    20.4880    23.1750   -16.7000 
  143.7500   267.2360     2.6040    66.5110    23.5100    18.7200    20.5360    23.1580   -16.7130 
  143.8750   265.0200     2.6010    63.4120    23.6870    19.6390    20.3460    22.8190   -16.7980 
  144.0000   264.9720     2.5970    58.2240    23.9670    19.0160    19.9220    22.2140   -16.9270 
  144.1250   267.9200     2.5840    56.9240    24.1930    17.3930    19.2670    21.3850   -17.0400 
  144.2500   272.9150     2.5650    60.3660    24.2520    16.5250    18.4470    20.4130   -17.1070 
  144.3750   279.3180     2.5460    64.0860    24.1750    16.8700    17.5050    19.3420   -17.1340 
  144.5000   286.1420     2.5260    64.9090    24.0590    16.2050    16.5070    18.2460   -17.1670 
  144.6250   291.1240     2.5070    65.3100    23.9660    13.5780    15.5450    17.2280   -17.2510 
  144.7500   293.6070     2.4960    67.8890    23.8790    11.8100    14.6970    16.3510   -17.3690 
  144.8750   293.7730     2.4980    69.8060    23.7670    11.3270    14.0140    15.6730   -17.4960 
  145.0000   292.5840     2.5170    68.3100    23.6370    11.5310    13.5390    15.2390   -17.6300 
  145.1250   291.3220     2.5370    66.3390    23.5330    11.7520    13.3240    15.1020   -17.7870 
  145.2500   289.9510     2.5410    66.2780    23.4570    11.3120    13.2830    15.1460   -17.9710 
  145.3750   289.0730     2.5290    66.4350    23.3850    10.9910    13.3430    15.2650   -18.1880 
  145.5000   290.3820     2.5120    65.7930    23.3650    11.5730    13.4360    15.3650   -18.4300 
  145.6250   293.5250     2.5060    65.3120    23.5370    12.3720    13.5240    15.4030   -18.6620 
  145.7500   294.2880     2.5150    65.1330    23.8080    12.0760    13.6160    15.4310   -18.8840 
  145.8750   290.6690     2.5320    64.7770    23.9490    11.3370    13.7360    15.4980   -19.1180 
  146.0000   286.2410     2.5450    65.3710    23.8190    11.5820    13.8780    15.5610   -19.3810 
  146.1250   287.9070     2.5350    66.8760    23.5470    12.2780    13.9080    15.4030   -19.7070 
  146.2500   298.9840     2.5060    67.9040    23.4190    12.5720    13.6490    14.8380   -20.0840 
  146.3750   320.8640     2.4710    69.6400    23.4990    12.5630    12.9850    13.7960   -20.4710 
  146.5000   351.8750     2.4420    73.5680    23.6750    12.0430    11.9420    12.4080   -20.8410 
  146.6250   384.6830     2.4240    79.6930    23.7820    10.8920    10.7130    10.9870   -21.1850 
  146.7500   410.1080     2.4120    84.5790    23.8040     9.8550     9.5900     9.8260   -21.5160 
  146.8750   425.1320     2.4070    87.0550    23.8010     9.1420     8.7120     9.0180   -21.8700 
  147.0000   432.1690     2.4060    88.3500    23.8010     8.5280     8.1120     8.5280   -22.2750 
  147.1250   433.9720     2.4050    91.0150    23.7910     8.4430     7.7830     8.2830   -22.7020 
  147.2500   433.4380     2.4020    94.5590    23.7670     8.5690     7.6080     8.1270   -23.0920 
  147.3750   432.5330     2.4020    96.5180    23.7390     8.5360     7.5030     7.9870   -23.4100 
  147.5000   432.2850     2.4110    95.3090    23.7230     8.3230     7.4050     7.8460   -23.6300 
  147.6250   432.6820     2.4250    95.3880    23.7200     8.0530     7.3140     7.7620   -23.7390 
  147.7500   433.6100     2.4320    98.5570    23.7050     7.8720     7.2940     7.8170   -23.8160 
  147.8750   434.8990     2.4230   101.1630    23.6670     7.9060     7.4230     8.0690   -23.9180 
  148.0000   434.7680     2.3990   101.3120    23.6160     8.3300     7.7470     8.5210   -24.0740 
  148.1250   431.9020     2.3780    99.8810    23.5850     9.3960     8.2590     9.1020   -24.2990 
  148.2500   429.5800     2.3730    97.1500    23.5780    10.4830     8.8070     9.6320   -24.5330 
  148.3750   429.3470     2.3830    93.2880    23.5790    10.7590     9.2440     9.9770   -24.7150 
  148.5000   429.2140     2.3940    91.0770    23.5790     9.8690     9.4700    10.0830   -24.8440 
  148.6250   425.7770     2.3980    92.5180    23.5790     9.2610     9.4660     9.9890   -24.9800 
  148.7500   419.7740     2.3980    94.4980    23.5810     9.2070     9.3830     9.8780   -25.1590 
  148.8750   413.5010     2.4030    95.8320    23.5820     9.5430     9.3450     9.8640   -25.3870 
  149.0000   408.7330     2.4110    96.6660    23.5810     9.9630     9.4390    10.0060   -25.6400 
  149.1250   406.4630     2.4150    98.4650    23.5810    10.3820     9.7380    10.3300   -25.8490 
  149.2500   405.5940     2.4110   100.6570    23.5820    11.0970    10.2000    10.7620   -26.0040 
  149.3750   404.8570     2.4040    99.8600    23.5840    11.7790    10.7670    11.2410   -26.1450 
  149.5000   403.4480     2.3960    95.7270    23.5850    12.6740    11.3540    11.7040   -26.3160 
  149.6250   401.7870     2.3910    93.3460    23.5830    12.5930    11.8480    12.0740   -26.5300 
  149.7500   401.0630     2.3880    93.2740    23.5810    12.4370    12.1610    12.2810   -26.7500 
  149.8750   401.4570     2.3920    91.5860    23.5810    12.0210    12.2240    12.2590   -26.9480 
