~V
VERS. 2.00: Ver 2.00
~W
STRT.M 65.0000:
STOP.M 273.0000:
STEP.M 0.1250:
NULL. -999.2500:
UWI. DF3011:
~C
DEPT.M :
DEN.GM/CC :
GR.API :
RML.OHMM :
RI. :
RXO.OHMM :
CALI.CM :
AC.US/MT :
SP.MV :
~A
# ...
  175.0000     2.2280    66.5270   187.3920   176.1310   178.5590    25.9920   378.6940   -21.0270 
  175.1250     2.2280    69.1860   181.7860   170.8630   180.5360    25.9660   379.3550   -20.9610 
  175.2500     2.2260    69.8200   178.9860   168.1850   181.4560    25.8710   380.6630   -20.9200 
  175.3750     2.2230    69.5600   179.1030   168.3150   177.9020    25.7870   382.5960   -20.9290 
  175.5000     2.2200    68.9810   181.3800   170.7030   172.6440    25.7120   384.9840   -21.0080 
  175.6250     2.2210    67.1780   185.0950   174.2800   167.2260    25.5610   387.1680   -21.0850 
  175.7500     2.2240    64.6860   188.6220   177.5850   157.4620    25.3190   388.1580   -21.1270 
  175.8750     2.2260    63.4410   190.7320   179.8640   142.3410    25.0310   387.6680   -21.1700 
  176.0000     2.2260    62.9930   191.7010   180.8090   126.7480    24.7000   386.3250   -21.2280 
  176.1250     2.2220    62.0260   190.2520   180.1170   113.2630    24.4070   385.3460   -21.3030 
  176.2500     2.2170    60.1150   186.5590   177.7620   100.4700    24.1880   385.3930   -21.3930 
  176.3750     2.2120    58.1950   181.2910   173.1490    87.9830    24.0760   386.3410   -21.4140 
  176.5000     2.2120    58.7270   174.5900   165.6240    78.2810    23.9890   387.4920   -21.3740 
  176.6250     2.2180    62.6810   163.3330   154.6320    71.2260    23.9280   387.5930   -21.3730 
  176.7500     2.2280    65.0640   149.5630   141.7370    65.6370    23.9050   386.0860   -21.3470 
  176.8750     2.2400    62.4850   134.3780   128.6350    60.6390    23.9000   383.3290   -21.2890 
  177.0000     2.2520    59.0480   122.1330   117.0850    56.7780    23.8910   380.8320   -21.2340 
  177.1250     2.2620    60.3380   113.9770   108.9220    56.2930    23.9020   380.4500   -21.2260 
  177.2500     2.2690    62.5100   109.4140   104.0930    58.2770    23.9930   381.3080   -21.2740 
  177.3750     2.2700    62.6960   107.9870   102.3570    61.9820    24.1700   381.7620   -21.4080 
  177.5000     2.2620    63.1160   109.0680   103.2160    67.7460    24.3420   381.1440   -21.6000 
  177.6250     2.2420    65.3290   112.2450   106.3490    75.7850    24.5400   381.2040   -21.8220 
  177.7500     2.2170    65.5900   116.6650   110.8520    85.8690    24.9110   383.7540   -22.0890 
  177.8750     2.1920    63.9810   122.0840   116.3940    97.6830    25.4270   388.5370   -22.4010 
  178.0000     2.1760    63.3300   128.4440   122.8090   111.1120    25.7890   393.9920   -22.7600 
  178.1250     2.1730    64.0610   135.8180   130.0660   124.4910    25.9070   398.3020   -23.1340 
  178.2500     2.1790    64.7600   143.6970   137.6870   135.6600    25.9330   400.8990   -23.4680 
  178.3750     2.1890    66.2770   151.4240   145.0700   143.3220    25.9640   401.8500   -23.7980 
  178.5000     2.2010    68.0410   158.2160   151.4880   151.9420    26.0090   401.7110   -24.1150 
  178.6250     2.2100    68.0140   163.3120   156.1760   160.5730    26.0320   401.1920   -24.3700 
  178.7500     2.2160    66.2990   167.3500   159.6890   167.1730    26.0390   400.2390   -24.5760 
  178.8750     2.2190    62.4200   171.5960   163.1750   167.1510    26.0380   398.3700   -24.7860 
  179.0000     2.2200    59.1400   177.8290   168.3100   160.3600    26.0400   395.5680   -24.9630 
  179.1250     2.2180    62.5490   188.7250   177.5850   165.4330    26.0380   392.7110   -25.1270 
  179.2500     2.2140    68.4530   204.8960   191.5540   184.0650    26.0390   390.8310   -25.3630 
  179.3750     2.2100    68.3930   226.2570   210.0650   211.0010    26.0410   390.1260   -25.6770 
  179.5000     2.2080    63.0070   251.4120   231.8440   242.4260    26.0410   390.0920   -26.0310 
  179.6250     2.2080    60.1100   277.6530   254.6970   268.5890    26.0530   390.3890   -26.3320 
  179.7500     2.2090    60.0570   301.8390   276.3070   285.7460    26.0880   391.1310   -26.6020 
  179.8750     2.2090    59.3160   322.5210   295.8340   297.7850    26.1410   392.2700   -26.7990 
  180.0000     2.2070    59.1150   339.9680   313.5930   309.9150    26.1730   393.4900   -26.8740 
  180.1250     2.2020    59.9000   355.1130   330.4660   326.4300    26.1780   394.1090   -26.7490 
  180.2500     2.1970    57.4240   369.0510   346.6540   343.6160    26.1620   394.2230   -26.4220 
  180.3750     2.1910    52.6800   380.3980   360.1050   353.2190    26.1220   394.9010   -25.9030 
  180.5000     2.1860    48.6810   385.1530   366.5590   350.6400    26.0780   396.8720   -25.2620 
  180.6250     2.1820    47.1990   375.6280   357.5300   343.7860    26.0950   399.4090   -24.6230 
  180.7500     2.1790    47.3970   348.0090   330.8050   341.0870    26.1490   400.8140   -23.9840 
  180.8750     2.1770    49.6920   304.0620   287.8680   322.9640    26.1870   400.7220   -23.3350 
  181.0000     2.1790    53.4340   251.6330   236.6060   282.6200    26.1430   399.7250   -22.7050 
  181.1250     2.1860    55.8790   202.5630   190.5320   219.9740    26.0100   398.3170   -22.0460 
  181.2500     2.1990    56.2920   171.6230   158.1770   155.5900    25.8200   396.5770   -21.2830 
  181.3750     2.2120    57.4610   157.7590   141.9140   119.7860    25.6740   394.4440   -20.4740 
  181.5000     2.2220    60.9390   157.6830   140.1650   123.5570    25.6170   392.3510   -19.6530 
  181.6250     2.2220    62.2970   166.9090   149.2740   158.4880    25.6680   391.4330   -18.7970 
  181.7500     2.2170    58.5160   176.2160   160.0340   201.9420    25.8000   391.9960   -17.9200 
  181.8750     2.2110    54.3130   178.2950   165.2040   227.9380    25.9260   393.4290   -16.9880 
  182.0000     2.2090    54.4270   168.6060   159.7670   215.5970    25.9390   394.6040   -16.0460 
  182.1250     2.2170    57.1650   148.0420   142.5850   171.0320    25.7010   394.4680   -15.2360 
  182.2500     2.2290    58.9580   126.0500   121.5610   118.6130    25.3240   392.8670   -14.5900 
  182.3750     2.2410    60.6520   107.8280   102.5170    80.5990    25.1070   389.6810   -14.0550 
  182.5000     2.2500    63.4890    94.6000    88.1320    68.9870    25.1250   385.1200   -13.6050 
  182.6250     2.2550    65.7840    85.8760    78.7130    72.1340    25.3540   378.5530   -13.2340 
  182.7500     2.2640    66.2780    79.7360    72.1610    72.0810    25.6330   371.3640   -12.8660 
  182.8750     2.2810    64.2120    75.7560    67.8670    62.8830    25.7820   367.0860   -12.4800 
  183.0000     2.3070    61.2060    74.4400    66.1840    53.6240    25.7880   367.7820   -12.1090 
  183.1250     2.3290    60.4360    78.6450    69.5080    52.5880    25.6330   378.6960   -11.6740 
  183.2500     2.3380    59.3810    89.6770    79.2110    62.6350    25.4300   399.0700   -11.1510 
  183.3750     2.3360    55.2680   107.1600    95.5050    88.5440    25.4180   419.7750   -10.5540 
  183.5000     2.3380    50.0270   126.9660   115.3780   130.0110    25.4650   428.1570    -9.8940 
  183.6250     2.3720    48.3640   138.7110   130.0560   175.6890    25.5100   415.7210    -9.1670 
  183.7500     2.4410    49.1020   133.3360   130.5980   206.9150    25.4850   392.1310    -8.4440 
  183.8750     2.5290    48.2510   107.5970   112.3000   200.2250    25.4100   366.4410    -7.7480 
  184.0000     2.5940    45.7350    71.0240    79.7180   134.7060    25.3290   346.3010    -7.0370 
  184.1250     2.5800    45.5690    42.3570    47.8390    70.2540    25.3010   336.8970    -6.3170 
  184.2500     2.4960    49.7300    24.9950    26.4060    32.4850    25.4370   333.3150    -5.6180 
  184.3750     2.3860    55.6690    15.1930    14.5420    13.5970    25.9850   333.9910    -4.9330 
  184.5000     2.2890    59.3880     9.6520     8.6570     6.0000    26.9980   343.0920    -4.2790 
  184.6250     2.2160    59.4570     6.7110     6.1730     4.5480    27.6500   362.9480    -3.6870 
  184.7500     2.1470    58.2980     5.4770     4.9970     4.2300    27.4920   382.9490    -3.1710 
  184.8750     2.0690    56.2560     4.9520     4.4970     4.2520    27.5860   395.9710    -2.7600 
