~V
VERS. 2.00: Ver 2.00
~W
STRT.M 60.0000:
STOP.M 280.0000:
STEP.M 0.1250:
NULL. -999.2500:
UWI. DF3041:
~C
DEPT.M :
SP.MV :
GR.API :
RML.OHMM :
RI. :
RXO.OHMM :
CALI.CM :
DEN.GM/CC :
~A
# ...
  172.5000   -21.1790    63.4160   203.2280   176.9690   128.0420    23.4840     2.2910 
  172.6250   -21.1520    62.7010   193.4620   169.2860   126.4770    23.7160     2.2630 
  172.7500   -21.0540    64.0540   183.7420   161.6600   132.9100    23.8170     2.2460 
  172.8750   -20.9610    66.5830   174.6570   154.5520   137.5380    23.6970     2.2380 
  173.0000   -20.8740    68.6930   166.3390   148.0770   135.9390    23.5870     2.2380 
  173.1250   -20.7980    70.5090   158.5490   141.9860   134.2020    23.5330     2.2440 
  173.2500   -20.7000    72.6570   150.9500   135.9070   134.4770    23.4540     2.2520 
  173.3750   -20.5840    74.2840   143.6580   129.8800   135.4500    23.3940     2.2580 
  173.5000   -20.5260    75.3410   137.0320   124.2180   135.8080    23.3710     2.2610 
  173.6250   -20.4820    75.6130   131.6080   119.4430   120.4670    23.3690     2.2630 
  173.7500   -20.4930    75.4930   127.1310   115.4670   102.5870    23.3690     2.2680 
  173.8750   -20.5260    75.5660   122.9930   111.8290    95.6160    23.3690     2.2770 
  174.0000   -20.5630    76.8110   118.3900   107.8300   103.1660    23.3690     2.2930 
  174.1250   -20.5610    79.5060   112.7760   102.9090   112.8540    23.3700     2.3120 
  174.2500   -20.5570    80.6120   106.8980    97.6290   113.2180    23.3770     2.3280 
  174.3750   -20.5660    80.6550   101.9970    93.0590   107.2850    23.4010     2.3340 
  174.5000   -20.5630    81.3740    99.3960    90.4150    97.6560    23.4500     2.3250 
  174.6250   -20.5550    81.5130   100.4650    91.0290    94.9520    23.5720     2.3030 
  174.7500   -20.5780    78.9030   104.4440    94.3410   100.8500    23.7610     2.2790 
  174.8750   -20.5730    75.4890   110.2420    99.4370   107.3360    23.9260     2.2610 
  175.0000   -20.5500    74.6940   116.3180   104.9720   108.5140    24.0050     2.2540 
  175.1250   -20.5290    76.0140   120.7850   109.2850   106.2990    23.8560     2.2540 
  175.2500   -20.5020    74.6640   122.9730   111.7050   109.5580    23.8940     2.2550 
  175.3750   -20.4880    69.5230   123.0410   112.2950   116.1640    24.0460     2.2560 
  175.5000   -20.4530    64.1440   121.7490   111.6600   129.7000    24.1840     2.2530 
  175.6250   -20.4540    64.1730   119.9010   110.4870   136.3390    24.2750     2.2460 
  175.7500   -20.3920    67.6790   117.9080   109.1690   129.6870    24.4100     2.2400 
  175.8750   -20.3480    70.8710   115.5280   107.4920   118.3380    24.5510     2.2360 
  176.0000   -20.3060    71.6460   112.3300   105.0160   110.1060    24.4420     2.2340 
  176.1250   -20.2700    72.2600   107.9010   101.2320   104.0630    24.2470     2.2360 
  176.2500   -20.2610    72.6420   102.7880    96.5670    96.0500    24.2050     2.2430 
  176.3750   -20.2790    73.1670    97.8320    91.7600    87.9410    24.2100     2.2540 
  176.5000   -20.3490    74.8830    93.9770    87.7350    79.9390    24.2620     2.2660 
  176.6250   -20.4190    77.0800    92.2330    85.5390    77.7290    24.2620     2.2720 
  176.7500   -20.5260    76.5990    92.4060    85.1560    79.0790    24.3220     2.2670 
  176.8750   -20.6470    73.7560    94.1480    86.3580    82.6730    24.3430     2.2510 
  177.0000   -20.8070    72.2310    96.9520    88.7210    82.5540    24.3610     2.2320 
  177.1250   -21.0240    74.2950   100.5620    92.0160    75.8990    24.4030     2.2220 
  177.2500   -21.2580    76.8880   105.0400    96.1900    73.8120    24.6450     2.2280 
  177.3750   -21.4980    77.5950   111.0570   101.7670    78.9230    25.0910     2.2500 
  177.5000   -21.7350    76.6980   119.3480   109.3900    89.6420    25.4920     2.2800 
  177.6250   -21.9340    75.6710   130.3070   119.4990    94.8580    25.5730     2.3010 
  177.7500   -22.1590    72.8540   142.0230   130.5120   102.2100    25.3370     2.3020 
  177.8750   -22.3690    67.4290   151.9090   140.2150   106.9790    24.7160     2.2830 
  178.0000   -22.5460    62.3790   157.1350   146.0760   112.0630    24.3640     2.2530 
  178.1250   -22.6960    61.9500   154.9870   145.4610   113.5230    24.1470     2.2340 
  178.2500   -22.8210    65.1330   147.7630   139.9900   106.1430    24.1840     2.2360 
  178.3750   -22.9510    68.8010   138.6370   132.1790    91.2490    24.2550     2.2550 
  178.5000   -23.0770    71.1480   130.9360   124.9860    79.6820    24.3060     2.2810 
  178.6250   -23.2570    71.0750   127.4260   121.1910    76.6940    24.1100     2.2960 
  178.7500   -23.3980    69.5110   127.7060   120.9160    80.4660    24.0880     2.2960 
  178.8750   -23.5840    67.8700   130.8670   123.5450    87.6060    24.1770     2.2850 
  179.0000   -23.7730    66.4490   135.8600   128.1270    94.5650    24.1380     2.2700 
  179.1250   -23.9470    64.5240   142.2110   134.0950   100.2660    24.0930     2.2530 
  179.2500   -24.1060    62.7060   149.5830   140.9100   105.7620    24.0630     2.2350 
  179.3750   -24.2050    61.7520   157.7720   148.2560   109.8950    24.0670     2.2170 
  179.5000   -24.2610    62.5280   165.9340   155.3260   113.5370    24.0800     2.2030 
  179.6250   -24.2870    64.1450   171.9400   160.2110   116.1880    24.1010     2.2020 
  179.7500   -24.3440    63.4130   174.4050   161.7820   118.0370    24.1520     2.2120 
  179.8750   -24.3770    61.0950   173.1700   159.9360   123.9040    24.2080     2.2300 
  180.0000   -24.3960    59.8720   169.6520   155.9260   133.0190    24.1390     2.2480 
  180.1250   -24.3850    62.2500   166.2820   151.8900   116.9700    24.0890     2.2570 
  180.2500   -24.3740    64.1450   164.4800   149.2010   102.3190    24.0630     2.2570 
  180.3750   -24.3910    63.2360   164.0100   147.7690   111.3470    24.0630     2.2480 
  180.5000   -24.4320    62.9360   163.7650   146.6980   139.8820    24.0630     2.2370 
  180.6250   -24.4640    66.9250   162.5000   144.9260   167.6750    24.0630     2.2300 
  180.7500   -24.4990    72.0300   160.4540   142.5520   158.6490    24.0630     2.2320 
  180.8750   -24.4800    74.8340   158.9240   140.5690   134.5200    24.0640     2.2400 
  181.0000   -24.4450    73.9750   159.6300   140.3550   119.1180    24.0660     2.2490 
  181.1250   -24.4120    70.9470   164.2090   143.2970   125.9650    24.0740     2.2530 
  181.2500   -24.3650    68.4550   171.4180   148.4580   139.4590    24.1040     2.2510 
  181.3750   -24.3130    68.0740   179.2370   154.2170   149.9120    24.1680     2.2480 
  181.5000   -24.2370    66.9310   185.2430   158.5450   155.1300    24.2350     2.2470 
  181.6250   -24.1550    62.2070   187.1130   159.3820   160.3700    24.4920     2.2490 
  181.7500   -23.9710    61.0650   185.8600   157.3690   162.0580    24.7220     2.2540 
  181.8750   -23.7610    66.7790   183.6340   154.1530   160.3900    24.5360     2.2590 
  182.0000   -23.5170    73.2450   183.2580   152.0870   155.0210    24.2930     2.2620 
  182.1250   -23.2360    73.6650   188.4710   154.3350   149.0790    24.1770     2.2620 
  182.2500   -22.9640    71.1250   200.4970   161.9490   148.5870    24.1150     2.2580 
  182.3750   -22.6610    69.9210   219.9210   175.2100   160.1790    24.0710     2.2520 
  182.5000   -22.3210    69.7390   245.8270   193.1500   182.1320    24.0620     2.2450 
  182.6250   -21.9390    68.9310   275.0510   213.2350   213.0330    24.0610     2.2400 
  182.7500   -21.6090    67.5450   300.8210   230.8240   239.5100    24.0610     2.2370 
  182.8750   -21.3120    65.2600   316.3980   241.5480   249.4080    24.0630     2.2360 
  183.0000   -21.0750    63.4810   315.9900   241.6160   249.1930    24.0670     2.2340 
  183.1250   -20.8280    64.4120   294.2470   227.0450   250.7870    24.0770     2.2310 
  183.2500   -20.5500    66.0570   258.2420   201.8610   249.9660    24.0910     2.2300 
  183.3750   -20.2410    66.8270   216.0820   170.9290   242.3180    24.1060     2.2350 
  183.5000   -19.9520    67.3640   176.3170   140.0910   215.0940    24.1160     2.2470 
  183.6250   -19.6520    70.2510   146.1960   115.1400   156.5040    24.1250     2.2650 
