~V
VERS. 2.00: Ver 2.00
~W
STRT.M 60.0000:
STOP.M 277.0000:
STEP.M 0.1250:
NULL. -999.2500:
UWI. DF3044:
~C
DEPT.M :
GR.API :
CALI.CM :
RXO.OHMM :
RI. :
RML.OHMM :
DEN.GM/CC :
SP.MV :
~A
# ...
  150.0000    83.7600    24.2630     6.6120     6.0060     6.4380     2.4440   -22.2350 
  150.1250    84.4580    24.3240     7.6130     6.6960     7.2400     2.4970   -22.0420 
  150.2500    75.7530    24.3780    10.4290     7.9440     8.7830     2.5400   -21.8530 
  150.3750    61.4130    24.3980    13.9290     9.7700    11.1030     2.5670   -21.7010 
  150.5000    49.5130    24.3970    16.8750    11.8810    13.8430     2.5730   -21.5700 
  150.6250    47.2790    24.4130    19.3220    13.1970    15.4920     2.5550   -21.5030 
  150.7500    50.6460    24.4390    20.5010    12.8570    14.7550     2.5180   -21.4840 
  150.8750    56.2060    24.4560    18.5220    11.1150    12.1460     2.4710   -21.5120 
  151.0000    60.9290    24.4440    13.4220     9.0180     9.3690     2.4360   -21.5510 
  151.1250    61.8330    24.4330     8.8300     7.5510     7.7220     2.4390   -21.5700 
  151.2500    59.4590    24.4580     6.7080     6.9550     7.2310     2.4700   -21.5910 
  151.3750    58.7080    24.4930     6.9940     7.3250     7.8640     2.5110   -21.5800 
  151.5000    60.6480    24.5110     9.8960     8.7390     9.6460     2.5490   -21.5570 
  151.6250    59.0390    24.5010    15.8860    11.3390    12.7550     2.5710   -21.5130 
  151.7500    52.2220    24.4430    21.0210    14.4710    16.4640     2.5760   -21.4780 
  151.8750    45.9040    24.3190    22.4590    17.0620    19.3670     2.5660   -21.4340 
  152.0000    44.8300    24.1640    21.0830    17.9940    19.9290     2.5470   -21.3930 
  152.1250    47.8580    24.0690    19.5350    17.0060    18.0310     2.5240   -21.3680 
  152.2500    51.1420    24.0210    16.9900    15.4360    15.7080     2.5050   -21.3410 
  152.3750    52.3480    24.0000    13.9970    14.0560    13.9720     2.4950   -21.3270 
  152.5000    50.6410    23.9880    11.9010    13.1510    13.0820     2.4990   -21.3190 
  152.6250    49.7310    23.9750    12.4270    12.7070    12.9200     2.5150   -21.2940 
  152.7500    50.7680    23.9640    14.9610    12.3850    12.9130     2.5260   -21.2550 
  152.8750    53.4850    23.9580    17.5110    11.9380    12.6250     2.5140   -21.2130 
  153.0000    57.9660    23.9610    17.3950    11.2830    11.8980     2.4780   -21.1550 
  153.1250    62.4210    23.9800    13.9100    10.6270    11.0650     2.4500   -21.0830 
  153.2500    63.8640    24.0500    10.5210    10.3090    10.6780     2.4550   -20.9990 
  153.3750    64.2890    24.1960     9.5680    10.5600    11.0220     2.4900   -20.9060 
  153.5000    65.1770    24.3710    12.0810    11.4760    12.1600     2.5300   -20.7950 
  153.6250    63.0210    24.4260    16.7750    13.0380    13.9960     2.5470   -20.7020 
  153.7500    57.7060    24.4350    19.8750    14.7570    15.9250     2.5430   -20.6000 
  153.8750    54.9150    24.4320    19.2740    16.1640    17.3940     2.5370   -20.5020 
  154.0000    56.7930    24.4320    16.4560    17.0060    18.1620     2.5420   -20.4050 
  154.1250    57.3340    24.4320    15.5700    17.3970    18.4760     2.5560   -20.3220 
  154.2500    55.6800    24.4320    17.1460    17.7180    18.8060     2.5650   -20.2430 
  154.3750    56.1630    24.4320    19.3470    18.0500    19.2060     2.5700   -20.1680 
  154.5000    60.0700    24.4230    20.1390    18.2710    19.4870     2.5750   -20.1060 
  154.6250    61.4450    24.4000    18.9560    18.1490    19.3830     2.5820   -20.0550 
  154.7500    58.9120    24.3750    17.5570    17.7770    19.0250     2.5810   -20.0230 
  154.8750    57.1630    24.3600    16.5290    17.4270    18.7340     2.5670   -20.0000 
  155.0000    57.4110    24.3140    16.4960    17.4030    18.8290     2.5510   -19.9780 
  155.1250    56.0170    24.1780    17.8700    17.9710    19.5600     2.5470   -19.9650 
  155.2500    52.9790    24.0370    19.6710    19.0180    20.7980     2.5570   -19.9740 
  155.3750    51.3480    23.9530    21.4840    20.3620    22.3580     2.5750   -20.0060 
  155.5000    51.2660    23.9270    23.6510    21.7110    23.9260     2.5880   -20.0450 
  155.6250    51.2580    23.9270    24.8940    22.6440    25.0130     2.5900   -20.0840 
  155.7500    52.1510    23.9270    25.1010    22.9860    25.3890     2.5880   -20.1240 
  155.8750    53.2720    23.9270    24.5970    22.7220    25.0150     2.5850   -20.1590 
  156.0000    54.0220    23.9270    23.6680    21.9870    24.0450     2.5820   -20.2090 
  156.1250    53.8550    23.9270    22.0450    21.0010    22.7770     2.5760   -20.2470 
  156.2500    53.1960    23.9270    20.6050    20.0290    21.5810     2.5700   -20.2760 
  156.3750    52.7630    23.9270    19.3920    19.2110    20.6480     2.5650   -20.2730 
  156.5000    53.5250    23.9270    18.7500    18.6700    20.1130     2.5620   -20.2760 
  156.6250    55.0230    23.9270    18.7710    18.5650    20.1220     2.5650   -20.2640 
  156.7500    54.5960    23.9270    19.1820    18.8090    20.5140     2.5720   -20.2370 
  156.8750    52.6900    23.9270    19.4910    19.2330    21.0550     2.5710   -20.2050 
  157.0000    51.6760    23.9270    19.5230    19.5970    21.4400     2.5590   -20.1540 
  157.1250    52.4600    23.9580    19.5140    19.6170    21.3380     2.5390   -20.1000 
  157.2500    53.7130    24.0600    18.9510    19.2490    20.7760     2.5170   -20.0350 
  157.3750    57.6700    24.2260    17.4350    18.5270    19.8830     2.5010   -19.9810 
  157.5000    63.4720    24.3560    15.5960    17.5290    18.7950     2.4990   -19.9290 
  157.6250    65.9630    24.3160    14.6880    16.3270    17.5820     2.5110   -19.8540 
  157.7500    66.5360    24.1590    14.3910    15.0960    16.3380     2.5210   -19.7880 
  157.8750    67.3810    24.0080    13.5390    14.0110    15.1970     2.5150   -19.7230 
  158.0000    66.8140    23.9260    11.9790    13.2420    14.3470     2.4980   -19.6600 
  158.1250    60.9660    23.8810    10.8820    12.9530    14.0140     2.4960   -19.6080 
  158.2500    54.2850    23.7550    11.0020    13.0790    14.1600     2.5160   -19.5720 
  158.3750    49.9200    23.5030    12.3520    13.5540    14.7180     2.5430   -19.5400 
  158.5000    46.4010    23.3200    14.3230    14.2280    15.5160     2.5530   -19.4900 
  158.6250    46.2160    23.3940    15.2560    14.8050    16.2350     2.5340   -19.4860 
  158.7500    49.5660    23.6410    14.7090    15.0510    16.6070     2.5010   -19.5050 
  158.8750    52.4840    23.8410    14.0620    14.9250    16.5640     2.4740   -19.5460 
  159.0000    53.5790    23.9190    14.0650    14.5340    16.1890     2.4660   -19.5930 
  159.1250    54.2910    23.9240    13.5670    14.0280    15.6140     2.4750   -19.6500 
  159.2500    55.0330    23.9200    12.6070    13.5340    15.0300     2.4920   -19.7060 
  159.3750    55.1130    23.9180    11.8990    13.0930    14.5440     2.5080   -19.7440 
  159.5000    55.5470    23.9180    11.6840    12.7330    14.2200     2.5190   -19.7880 
  159.6250    56.3740    23.9180    11.7730    12.5260    14.1310     2.5180   -19.8160 
  159.7500    54.4470    23.9190    12.0080    12.4730    14.2410     2.5150   -19.8250 
  159.8750    51.2300    23.9160    12.4490    12.5420    14.4960     2.5200   -19.8200 
  160.0000    50.0920    23.8970    12.9040    12.6900    14.8240     2.5300   -19.8190 
  160.1250    51.3680    23.8540    13.2410    12.9340    15.1920     2.5350   -19.8040 
  160.2500    53.3830    23.7810    13.5310    13.2940    15.5930     2.5330   -19.7610 
  160.3750    57.4460    23.6330    13.7940    13.7500    16.0230     2.5270   -19.7270 
  160.5000    62.5360    23.4650    14.0660    14.2240    16.4600     2.5180   -19.6910 
  160.6250    63.3360    23.3680    14.4200    14.5700    16.8410     2.5080   -19.6560 
  160.7500    61.1140    23.3450    14.7120    14.7180    17.0860     2.5020   -19.6360 
  160.8750    61.8710    23.3560    14.8070    14.6660    17.1190     2.5030   -19.6300 
  161.0000    65.8940    23.3990    14.4400    14.4680    16.9240     2.5090   -19.6420 
  161.1250    65.5120    23.4530    13.5580    14.2010    16.5450     2.5190   -19.6570 
