~V
VERS. 2.00: Ver 2.00
~W
STRT.M 60.0000:
STOP.M 251.0000:
STEP.M 0.1250:
NULL. -999.2500:
UWI. DF3020:
~C
DEPT.M :
GR.API :
RML.OHMM :
RI. :
RXO.OHMM :
CALI.CM :
DEN.GM/CC :
SP.MV :
~A
# ...
   93.7500    76.8740    11.0020     9.0120    10.0550    23.7920  -999.2500   -42.4050 
   93.8750    76.4610    10.6650     8.7270    10.0110    23.7890  -999.2500   -42.6920 
   94.0000    73.2160    10.3680     8.4570     9.9890    23.7870  -999.2500   -42.9600 
   94.1250    72.3870    10.1450     8.2410     9.9890    23.7870  -999.2500   -43.2330 
   94.2500    75.1070     9.9840     8.0750    10.0090    23.7880  -999.2500   -43.5000 
   94.3750    76.0550     9.8750     7.9510    10.0120    23.7860  -999.2500   -43.7630 
   94.5000    73.6430     9.8050     7.8640     9.9550    23.7850  -999.2500   -43.9850 
   94.6250    72.2080     9.7780     7.8200     9.8520    23.7850  -999.2500   -44.1980 
   94.7500    73.0930     9.7970     7.8200     9.6700    23.7860  -999.2500   -44.3430 
   94.8750    73.2820     9.8650     7.8630     9.4580    23.7880  -999.2500   -44.4970 
   95.0000    72.9350     9.9790     7.9380     9.3700    23.7870  -999.2500   -44.6260 
   95.1250    73.3800    10.1160     8.0260     9.5630    23.7870  -999.2500   -44.7590 
   95.2500    73.9930    10.2350     8.0990    10.0640    23.7920  -999.2500   -44.8550 
   95.3750    74.2560    10.3030     8.1400    10.8810    23.8140  -999.2500   -44.9240 
   95.5000    74.6090    10.2980     8.1390    12.2770    23.8680  -999.2500   -44.9440 
   95.6250    75.2810    10.1990     8.0840    13.4770    23.9170  -999.2500   -44.9800 
   95.7500    74.6110    10.0270     7.9870    12.5460    23.9380  -999.2500   -44.9310 
   95.8750    71.9170     9.8020     7.8560    10.2580    23.9410  -999.2500   -44.8510 
   96.0000    69.2620     9.5500     7.7060     9.3330    23.9410  -999.2500   -44.6870 
   96.1250    69.6320     9.3170     7.5620     9.4520    23.9700  -999.2500   -44.4400 
   96.2500    71.8760     9.1370     7.4470     9.4560    23.9390  -999.2500   -44.1200 
   96.3750    73.3820     9.0280     7.3680     9.3330    23.9340  -999.2500   -43.7440 
   96.5000    73.0660     8.9870     7.3230     9.1630    23.9330  -999.2500   -43.3810 
   96.6250    72.1060     8.9960     7.3050     9.0600    23.9280  -999.2500   -42.9510 
   96.7500    71.5970     9.0170     7.2950     9.0640    23.9000  -999.2500   -42.5630 
   96.8750    71.9880     9.0300     7.2870     9.0260    23.8690  -999.2500   -42.2030 
   97.0000    74.0580     9.0310     7.2810     9.0110    23.8560  -999.2500   -41.9040 
   97.1250    77.1280     9.0270     7.2840     9.0810    23.8070  -999.2500   -41.6580 
   97.2500    76.9770     9.0330     7.3070     9.2620    23.7880  -999.2500   -41.4590 
   97.3750    73.8760     9.0630     7.3610     9.3830    23.7110  -999.2500   -41.3040 
   97.5000    71.7680     9.1270     7.4540     9.4560    23.6730  -999.2500   -41.1410 
   97.6250    72.4380     9.2310     7.5900     9.5200    23.6620  -999.2500   -40.9730 
   97.7500    73.3610     9.3510     7.7430     9.5510    23.6320  -999.2500   -40.7840 
   97.8750    74.8450     9.4390     7.8750     9.5460    23.5960  -999.2500   -40.5400 
   98.0000    78.5370     9.4300     7.9360     9.4700    23.5440  -999.2500   -40.2260 
   98.1250    80.5720     9.2450     7.8620     9.3570    23.5360  -999.2500   -39.8180 
   98.2500    80.2030     8.9300     7.6710     9.2880    23.5330  -999.2500   -39.3470 
   98.3750    80.4640     8.5810     7.4160     9.1380    23.5330  -999.2500   -38.7840 
   98.5000    81.6850     8.3160     7.1740     8.6390    23.5330  -999.2500   -38.1260 
   98.6250    81.6610     8.2400     7.0220     7.9380    23.5440  -999.2500   -37.4140 
   98.7500    80.6420     8.2900     6.9450     7.4020    23.6090  -999.2500   -36.6460 
   98.8750    80.8640     8.3480     6.8800     7.3820    23.7100  -999.2500   -35.8240 
   99.0000    82.8460     8.2750     6.7440     7.6080    23.7930  -999.2500   -34.9340 
   99.1250    86.0560     7.9320     6.4460     7.6900    23.8410  -999.2500   -34.0340 
   99.2500    89.1620     7.3810     6.0190     7.4160    23.9190  -999.2500   -33.1300 
   99.3750    90.4400     6.7480     5.5390     6.6820    23.9340  -999.2500   -32.3000 
   99.5000    91.4340     6.2050     5.1170     5.8730    23.9760  -999.2500   -31.5890 
   99.6250    91.3460     5.9780     4.9040     5.2280    24.6180  -999.2500   -31.0520 
   99.7500    89.0800     6.1210     4.9580     5.0250    24.4680  -999.2500   -30.6830 
   99.8750    86.0210     6.6350     5.3050     5.1520    24.1440  -999.2500   -30.4780 
  100.0000    82.8340     7.4250     5.9060     5.6280    23.7480  -999.2500   -30.4300 
  100.1250    80.8070     8.2800     6.6340     6.4180    23.6030  -999.2500   -30.4600 
  100.2500    79.2340     8.9050     7.2460     7.3940    23.7250  -999.2500   -30.4810 
  100.3750    79.4190     9.1020     7.5510     8.3810    24.1100  -999.2500   -30.4110 
  100.5000    82.6970     8.8150     7.4570     9.3870    24.6150  -999.2500   -30.2280 
  100.6250    88.5260     8.1440     6.9830     9.3300    24.9910  -999.2500   -29.9230 
  100.7500    94.6850     7.4010     6.3760     7.7760    25.1970  -999.2500   -29.5350 
  100.8750    97.0230     6.7530     5.7920     5.9660    25.2790  -999.2500   -29.1250 
  101.0000    96.1310     6.2510     5.3120     5.5310    25.2990  -999.2500   -28.7330 
  101.1250    97.1360     5.8790     4.9640     5.6810    25.2930  -999.2500   -28.4000 
  101.2500   103.2390     5.5870     4.7110     5.6940    25.2740  -999.2500   -28.2020 
  101.3750   110.1140     5.3950     4.5520     5.4430    25.2480  -999.2500   -28.1680 
  101.5000   114.8390     5.3670     4.5120     5.0120    25.2340  -999.2500   -28.3420 
  101.6250   118.1510     5.6120     4.6620     4.9050    25.2310  -999.2500   -28.6780 
  101.7500   118.5650     6.0910     4.9930     5.1980    25.2310  -999.2500   -29.1300 
  101.8750   111.2700     6.7110     5.4620     5.8760    25.2310  -999.2500   -29.6270 
  102.0000    97.8380     7.3090     5.9640     6.6730    25.2310  -999.2500   -30.1240 
  102.1250    88.2930     7.6440     6.3210     7.2990    25.2310  -999.2500   -30.5820 
  102.2500    85.1240     7.6450     6.4410     7.5080    25.2310  -999.2500   -30.9450 
  102.3750    84.4800     7.3850     6.3360     7.5140    25.2440  -999.2500   -31.2170 
  102.5000    84.2490     7.1060     6.1610     7.4570    25.2830  -999.2500   -31.3630 
  102.6250    84.7370     7.2430     6.2340     7.3330    25.3640  -999.2500   -31.4600 
  102.7500    85.6990     8.0110     6.7630     7.5500    25.3860  -999.2500   -31.5250 
  102.8750    85.7860     9.4060     7.7960     8.8330    25.3060  -999.2500   -31.6460 
  103.0000    83.0570    11.1570     9.1830    11.4300    25.0400  -999.2500   -31.8330 
  103.1250    76.8130    12.6550    10.4990    16.1330    24.5730  -999.2500   -32.2070 
  103.2500    69.9380    13.3340    11.2620    22.5190    24.0070  -999.2500   -32.7090 
  103.3750    67.1660    12.9750    11.2270    21.9470    23.5630  -999.2500   -33.3390 
  103.5000    69.4350    11.8560    10.5110    13.7770    23.3750  -999.2500   -34.0250 
  103.6250    72.2770    10.6530     9.5490    10.1760    23.3550  -999.2500   -34.7110 
  103.7500    72.5860     9.8760     8.7920     8.9580    23.3550  -999.2500   -35.2970 
  103.8750    73.8910     9.5950     8.3670     8.7000    23.3550  -999.2500   -35.7870 
  104.0000    77.9950     9.6610     8.2290     8.8020    23.3550  -999.2500   -36.1490 
  104.1250    79.6420     9.8370     8.2460     8.8950    23.3570  -999.2500   -36.3500 
  104.2500    77.3600     9.9110     8.2480     8.9570    23.1780  -999.2500   -36.4570 
  104.3750    76.6590     9.8300     8.1740     9.0260    23.0520  -999.2500   -36.4670 
  104.5000    79.4450     9.6460     8.0360     9.1250    23.0070  -999.2500   -36.4600 
  104.6250    83.1940     9.4830     7.8990     9.1860    23.0000  -999.2500   -36.3820 
  104.7500    84.6740     9.4410     7.8320     9.0330    23.0000  -999.2500   -36.3560 
  104.8750    82.4630     9.5430     7.8650     8.7950    23.0000  -999.2500   -36.3260 
