~V
VERS. 2.00: Ver 2.00
~W
STRT.M 125.0000:
STOP.M 254.0000:
STEP.M 0.1250:
NULL. -999.2500:
UWI. DF3068:
~C
DEPT.M :
SP.MV :
GR.API :
CALI.CM :
RXO.OHMM :
RI. :
RML.OHMM :
DEN.GM/CC :
~A
# ...
  170.0000   -27.6210    76.0190    25.7610    81.7520    93.5480    90.5530     2.2840 
  170.1250   -27.9480    77.7460    25.6940    84.0620    93.2200    90.3180     2.2760 
  170.2500   -28.2750    78.5150    25.6800    78.9940    89.4560    87.8410     2.2750 
  170.3750   -28.5710    77.8760    25.6870    67.6890    85.5240    86.0750     2.2770 
  170.5000   -28.8250    75.4200    25.6600    60.2660    83.1410    86.2710     2.2760 
  170.6250   -29.0420    72.4320    25.5850    58.7430    82.7940    88.4630     2.2690 
  170.7500   -29.2530    71.0780    25.5030    61.7710    83.5530    91.3620     2.2580 
  170.8750   -29.4810    72.4300    25.4700    65.8350    84.5710    93.8830     2.2450 
  171.0000   -29.7330    74.6730    25.5190    63.8670    85.1290    95.2150     2.2380 
  171.1250   -30.0100    75.4990    25.6360    56.4690    84.7780    94.9240     2.2480 
  171.2500   -30.3000    74.8960    25.7600    56.1400    83.7670    93.6190     2.2710 
  171.3750   -30.5820    74.6160    25.8630    66.2850    82.4330    91.8880     2.2900 
  171.5000   -30.8400    76.4570    25.9190    69.4160    81.3460    90.5380     2.2930 
  171.6250   -31.0720    79.7220    25.9100    61.4520    81.5890    90.9100     2.2780 
  171.7500   -31.2920    81.8630    25.8730    50.8440    83.8920    93.7680     2.2590 
  171.8750   -31.5040    80.3310    25.8490    44.7600    88.9850    99.7580     2.2450 
  172.0000   -31.6990    76.2930    25.8560    56.4000    97.2380   109.0320     2.2380 
  172.1250   -31.8570    73.4970    25.8390    81.5870   108.3170   120.8860     2.2350 
  172.2500   -31.9750    71.9890    25.7710   105.5240   119.5710   132.3550     2.2370 
  172.3750   -32.0700    71.6440    25.6810   119.3460   128.2630   140.5230     2.2420 
  172.5000   -32.1560    72.2040    25.6130   115.8230   132.4440   143.6440     2.2490 
  172.6250   -32.2420    73.1140    25.5870    96.3070   131.9830   142.3580     2.2540 
  172.7500   -32.3190    72.6950    25.5760    88.2390   130.3940   140.7050     2.2580 
  172.8750   -32.3690    71.9310    25.5730    97.2830   130.1160   141.0790     2.2620 
  173.0000   -32.3710    73.5460    25.5740   108.4290   132.1110   144.1490     2.2640 
  173.1250   -32.3110    75.3580    25.5740   111.2120   136.1400   149.3970     2.2600 
  173.2500   -32.2450    74.9950    25.5740   113.6650   140.8110   155.2060     2.2510 
  173.3750   -32.2120    73.5350    25.5740   117.0560   145.4470   160.7870     2.2410 
  173.5000   -32.2300    72.2310    25.5740   120.1260   149.9500   166.0100     2.2380 
  173.6250   -32.2730    72.0680    25.5740   117.0930   154.7150   171.3120     2.2460 
  173.7500   -32.3070    73.3820    25.5740   111.1680   160.0340   177.0970     2.2550 
  173.8750   -32.3200    75.7550    25.5740   109.4180   165.9050   183.4150     2.2580 
  174.0000   -32.3250    76.8850    25.5750   116.8800   172.0750   190.0550     2.2580 
  174.1250   -32.3390    74.7440    25.5780   131.9890   178.1920   196.7640     2.2580 
  174.2500   -32.3440    72.9690    25.5810   139.4220   184.2920   203.7110     2.2550 
  174.3750   -32.3190    72.4460    25.5820   137.0300   191.0760   211.7360     2.2490 
  174.5000   -32.2730    72.3830    25.5880   135.5420   199.9230   222.3320     2.2420 
  174.6250   -32.2360    70.9850    25.5960   137.4880   213.5690   238.3900     2.2390 
  174.7500   -32.2190    68.8680    25.6030   140.0830   233.0990   260.8530     2.2440 
  174.8750   -32.2250    67.7660    25.6040   155.7750   259.1410   290.2000     2.2550 
  175.0000   -32.2730    66.8590    25.6010   169.7450   290.8370   325.2010     2.2680 
  175.1250   -32.4050    65.5720    25.5970   226.3580   324.1630   360.4000     2.2680 
  175.2500   -32.6020    64.5230    25.5910   268.6600   350.3360   384.9790     2.2610 
  175.3750   -32.8120    65.1700    25.5810   283.7890   359.8830   387.7720     2.2540 
  175.5000   -32.9620    67.9090    25.5510   253.0770   362.8220   346.1960     2.2490 
  175.6250   -33.0090    69.2550    25.4850   240.4220   312.9160   307.8300     2.2430 
  175.7500   -33.0280    68.3890    25.3430   197.3660   257.4510   259.8240     2.2400 
  175.8750   -33.1040    68.3940    25.1070   164.9050   208.8230   213.8850     2.2430 
  176.0000   -33.2720    71.1290    24.8850   140.8360   172.7370   177.4580     2.2490 
  176.1250   -33.4700    74.0060    24.8320   107.9820   151.2090   154.8360     2.2540 
  176.2500   -33.6010    74.9900    24.8930    97.3150   139.1970   142.5540     2.2580 
  176.3750   -33.6400    74.5720    24.9450   105.1030   133.0930   137.4740     2.2630 
  176.5000   -33.6230    71.6630    24.9470   120.1030   128.8950   135.5150     2.2690 
  176.6250   -33.6090    67.9280    24.9300   124.3900   122.4410   131.9810     2.2770 
  176.7500   -33.6380    66.9100    24.8260   120.0050   112.9200   124.8930     2.2880 
  176.8750   -33.7110    70.2530    24.5380    98.6950   102.1430   115.2930     2.3080 
  177.0000   -33.8010    73.9250    24.0980    72.2680    92.7350   105.8410     2.3350 
  177.1250   -33.8930    73.5290    23.7210    75.1990    86.9470    99.5200     2.3540 
  177.2500   -33.9930    71.5990    23.5490    87.7320    84.2850    96.5560     2.3560 
  177.3750   -34.0790    69.3520    23.5340    97.7700    83.9040    96.1740     2.3450 
  177.5000   -34.1270    68.0180    23.5680    98.7350    84.8880    97.2300     2.3330 
  177.6250   -34.1270    68.1980    23.6100    77.7480    86.9490    99.1290     2.3250 
  177.7500   -34.0950    70.2390    23.7340    60.8800    90.5330   102.3590     2.3190 
  177.8750   -34.0490    72.7240    24.1380    58.4230    96.9490   108.5650     2.3090 
  178.0000   -33.9950    71.9480    24.8850    70.6740   107.7140   119.7340     2.2940 
  178.1250   -33.9270    68.0230    25.6450    91.0550   124.7120   137.9450     2.2760 
  178.2500   -33.8140    64.4410    26.0510   123.2910   145.5250   159.8350     2.2600 
  178.3750   -33.6440    61.8790    26.1360   149.5510   164.8630   179.3290     2.2490 
  178.5000   -33.4230    61.3750    26.1340   164.6480   175.5800   189.4000     2.2480 
  178.6250   -33.1690    62.9980    26.1520   165.3270   174.2750   186.6210     2.2580 
  178.7500   -32.8950    64.5750    26.1590   149.7880   170.0790   179.8340     2.2720 
  178.8750   -32.5790    64.7960    26.1610   110.2080   171.0140   177.9140     2.2780 
  179.0000   -32.1750    63.5990    26.1570   108.4720   182.5560   188.0510     2.2700 
  179.1250   -31.6320    62.7190    26.1350   158.3140   211.0250   217.6560     2.2520 
  179.2500   -31.0140    61.8540    26.0870   223.9590   256.4140   264.7650     2.2350 
  179.3750   -30.3960    60.3620    26.0150   258.4840   317.3720   325.0800     2.2250 
  179.5000   -29.8430    58.3630    25.9180   252.8320   385.5030   388.4560     2.2260 
  179.6250   -29.3540    57.0230    25.8680   204.1860   441.6040   444.7540     2.2400 
  179.7500   -28.8560    57.2710    25.8700   185.2110   485.9450   492.8650     2.2520 
  179.8750   -28.2940    58.6090    25.8130   191.5780   530.0120   539.0560     2.2470 
  180.0000   -27.6720    59.3560    25.6160   231.3360   575.7930   586.5310     2.2220 
  180.1250   -27.0470    58.1540    25.3760   223.4840   603.3130   613.3610     2.1900 
  180.2500   -26.4510    56.1980    25.2390   179.0450   593.0360   598.5450     2.1700 
  180.3750   -25.8860    54.7260    25.2120   151.0830   546.4990   547.1810     2.1690 
  180.5000   -25.3510    53.9140    25.2890   183.0910   486.6820   486.5800     2.1830 
  180.6250   -24.8590    53.3600    25.5140   198.8780   442.1290   444.6430     2.2020 
  180.7500   -24.4040    53.8080    25.7670   206.5600   421.2600   425.9270     2.2070 
  180.8750   -23.9670    55.7830    25.9340   263.6180   420.5040   425.3010     2.1950 
  181.0000   -23.5290    56.2900    25.9900   340.1630   426.3850   427.4490     2.1770 
  181.1250   -23.1160    56.9420    25.9800   335.4890   409.5570   395.8630     2.1700 
