~V
VERS. 2.00: Ver 2.00
~W
STRT.M 115.0000:
STOP.M 288.0000:
STEP.M 0.1250:
NULL. -999.2500:
UWI. DF3049:
~C
DEPT.M :
GR.API :
CALI.CM :
RXO.OHMM :
RI. :
RML.OHMM :
SP.MV :
DEN.GM/CC :
AC.US/MT :
~A
# ...
  145.0000    86.2540    25.6040     6.3640     5.4640     6.3380   -17.5680     2.3790   382.1550 
  145.1250    88.4160    25.8330     6.4530     5.7880     6.8300   -17.3360     2.3980   378.4070 
  145.2500    85.4290    26.0720     7.1800     6.5010     7.8390   -17.1260     2.4410   369.3620 
  145.3750    79.2680    26.1550     8.9560     7.6110     9.3620   -16.9470     2.4920   353.7350 
  145.5000    72.9360    26.1070    11.5260     9.0960    11.3490   -16.7990     2.5410   333.1440 
  145.6250    66.1700    26.0520    14.3010    10.8110    13.5880   -16.6650     2.5830   311.4370 
  145.7500    57.1820    26.0340    16.5990    12.4020    15.5730   -16.5430     2.6190   292.5930 
  145.8750    51.6120    26.0310    17.3380    13.5480    16.8880   -16.4210     2.6480   277.7940 
  146.0000    52.0960    26.0160    16.4500    14.2010    17.5020   -16.3110     2.6610   268.0450 
  146.1250    53.9200    25.9720    15.4180    14.5510    17.7300   -16.2150     2.6590   263.5960 
  146.2500    52.4090    25.8890    15.9430    14.8550    17.9880   -16.1470     2.6510   263.0730 
  146.3750    50.5630    25.7680    18.0640    15.2590    18.4540   -16.1190     2.6440   262.9720 
  146.5000    53.1510    25.6610    20.6890    15.7490    19.0800   -16.1100     2.6360   261.9230 
  146.6250    57.9880    25.5860    21.7710    16.2340    19.7050   -16.0990     2.6330   260.4250 
  146.7500    57.0800    25.5640    20.7290    16.5710    20.1090   -16.1100     2.6440   259.9130 
  146.8750    54.8370    25.5480    18.8760    16.7500    20.2890   -16.1300     2.6600   260.7730 
  147.0000    56.8740    25.5150    17.8850    16.8330    20.3500   -16.1650     2.6670   262.5570 
  147.1250    59.3430    25.4390    17.6660    16.8980    20.4110   -16.2140     2.6590   264.5470 
  147.2500    52.7020    25.3970    17.9350    17.0040    20.5490   -16.2720     2.6450   266.2180 
  147.3750    44.7660    25.3240    18.1490    17.1640    20.7670   -16.3110     2.6350   267.6280 
  147.5000    45.0050    25.1350    18.0100    17.3730    21.0550   -16.3300     2.6260   268.8750 
  147.6250    50.5940    24.8580    17.7880    17.6120    21.3780   -16.3450     2.6140   269.8370 
  147.7500    52.0590    24.7160    18.7030    17.8480    21.6780   -16.3570     2.6070   270.1200 
  147.8750    49.6560    24.6490    20.2060    18.0520    21.9070   -16.3600     2.6160   269.7540 
  148.0000    47.5580    24.6150    20.9090    18.2220    22.0590   -16.3660     2.6300   269.0520 
  148.1250    47.3830    24.6010    20.0520    18.3870    22.1920   -16.3600     2.6330   268.4760 
  148.2500    49.6100    24.6020    19.0200    18.6260    22.4560   -16.3300     2.6280   268.2680 
  148.3750    51.8280    24.5820    18.4580    18.9820    22.9380   -16.3040     2.6260   268.1270 
  148.5000    52.6660    24.5100    19.1690    19.4440    23.6210   -16.2930     2.6390   267.6060 
  148.6250    51.7590    24.3960    20.9070    19.9270    24.3460   -16.2920     2.6620   266.1670 
  148.7500    50.6580    24.3430    23.3720    20.2730    24.8100   -16.2900     2.6680   263.5880 
  148.8750    51.8930    24.3270    25.1150    20.4050    24.8570   -16.3070     2.6480   261.2890 
  149.0000    52.6770    24.3230    24.8040    20.3280    24.5150   -16.3300     2.6150   261.1890 
  149.1250    50.8020    24.3210    22.7080    20.1290    23.9750   -16.3570     2.5870   264.3020 
  149.2500    48.8580    24.3230    20.9390    19.9260    23.5040   -16.4030     2.5720   269.8610 
  149.3750    51.9450    24.3240    19.9070    19.7440    23.1730   -16.4530     2.5620   275.1780 
  149.5000    59.9480    24.3250    19.0330    19.5100    22.8600   -16.5130     2.5550   278.8220 
  149.6250    65.9900    24.3230    18.7350    19.1120    22.3660   -16.5800     2.5480   280.5320 
  149.7500    65.6180    24.3220    18.4790    18.4420    21.4870   -16.6410     2.5460   280.7150 
  149.8750    61.6790    24.3190    18.1530    17.6140    20.3570   -16.7020     2.5550   280.5160 
  150.0000    57.7110    24.3180    17.1570    16.8250    19.2540   -16.7570     2.5720   280.6180 
  150.1250    57.0770    24.3190    15.7770    16.3010    18.4970   -16.8330     2.5860   281.4310 
  150.2500    60.2160    24.3280    14.9310    16.2790    18.4080   -16.9090     2.5840   282.9560 
  150.3750    63.2890    24.4030    14.5780    16.6990    18.8970   -16.9810     2.5750   284.1920 
  150.5000    64.0250    24.6490    15.2760    17.4130    19.7570   -17.0370     2.5660   283.9230 
  150.6250    63.8970    25.0880    17.2860    18.1410    20.6110   -17.0820     2.5600   281.4560 
  150.7500    63.0590    25.4180    19.1110    18.4430    20.8850   -17.1070     2.5550   277.8460 
  150.8750    61.3870    25.5380    19.1930    18.1690    20.4110   -17.1110     2.5470   275.8340 
  151.0000    60.8480    25.5640    17.8520    17.4060    19.3340   -17.1110     2.5370   276.6750 
  151.1250    60.9920    25.6020    16.3140    16.4070    18.0220   -17.0850     2.5270   279.5500 
  151.2500    58.6500    25.7010    15.3310    15.4230    16.8390   -17.0430     2.5250   282.3610 
  151.3750    56.5420    25.8140    14.4800    14.5390    15.8570   -16.9930     2.5360   283.9230 
  151.5000    57.9560    25.9070    13.8720    13.7210    14.9850   -16.9460     2.5580   284.3430 
  151.6250    60.0360    25.9860    13.5650    12.9330    14.1300   -16.8860     2.5790   284.2900 
  151.7500    60.0430    26.0200    13.1110    12.2050    13.2930   -16.8420     2.5850   285.4650 
  151.8750    59.9480    26.0320    11.9220    11.6210    12.5950   -16.8120     2.5730   289.2420 
  152.0000    59.7140    26.0340    10.6660    11.2620    12.1620   -16.7870     2.5510   295.2040 
  152.1250    56.9600    26.0340    10.2760    11.1590    12.0490   -16.7580     2.5360   300.6820 
  152.2500    52.0600    26.0340    10.9720    11.3060    12.2390   -16.7410     2.5420   301.8280 
  152.3750    50.2640    26.0340    11.7590    11.5790    12.5700   -16.7430     2.5600   299.2530 
  152.5000    53.0960    26.0340    12.2610    11.9100    12.9610   -16.7570     2.5760   295.6410 
  152.6250    61.2450    26.0340    12.4920    12.2570    13.3790   -16.8040     2.5830   293.2900 
  152.7500    67.8520    26.0340    12.3790    12.6010    13.8310   -16.8600     2.5870   292.2840 
  152.8750    66.6860    26.0340    12.5220    12.8880    14.2560   -16.9350     2.5910   290.7810 
  153.0000    61.7160    26.0340    13.0830    13.0170    14.5110   -17.0310     2.5910   287.9660 
  153.1250    61.1080    26.0340    13.8580    12.9070    14.4640   -17.1650     2.5870   284.4520 
  153.2500    67.1180    26.0340    14.0790    12.5810    14.1080   -17.3270     2.5900   282.8330 
  153.3750    72.0660    26.0340    13.6630    12.2860    13.7660   -17.5120     2.6030   285.2000 
  153.5000    73.9320    26.0340    12.9650    12.2760    13.8100   -17.7140     2.6090   291.1980 
  153.6250    73.2940    26.0400    12.9360    12.7980    14.6110   -17.9360     2.5960   297.6540 
  153.7500    68.9000    26.0560    14.6440    14.1930    16.6290   -18.2020     2.5560   301.4570 
  153.8750    66.0680    26.0790    17.2390    16.4320    19.7320   -18.5010     2.4990   308.9190 
  154.0000    67.6790    26.0980    20.8860    19.3780    23.6460   -18.8180     2.4510   325.1880 
  154.1250    69.3510    26.1180    26.4310    22.6010    27.7470   -19.1430     2.4150   349.3750 
  154.2500    66.6020    26.1240    32.3770    25.3400    31.0290   -19.4500     2.3480   371.5500 
  154.3750    64.5990    26.0940    33.8770    27.3470    33.2590   -19.7470     2.2990   383.7470 
  154.5000    64.8000    26.0260    31.0640    28.9930    35.0040   -20.0380     2.2710   386.2440 
  154.6250    63.4940    25.9210    28.8600    30.9820    37.2660   -20.2980     2.2580   384.5560 
  154.7500    57.8600    25.8030    33.0010    34.2230    41.2660   -20.5110     2.2540   384.6980 
  154.8750    54.8120    25.6970    41.1630    38.8470    47.0930   -20.6790     2.2500   387.4730 
