~V
VERS. 2.00: Ver 2.00
~W
STRT.M 65.0000:
STOP.M 252.0000:
STEP.M 0.1250:
NULL. -999.2500:
UWI. DF3012:
~C
DEPT.M :
GR.API :
RML.OHMM :
RI. :
RXO.OHMM :
CALI.CM :
DEN.GM/CC :
SP.MV :
~A
# ...
  222.5000    89.4970    29.3750    24.6870    30.6120    24.6840     2.3390   -29.3580 
  222.6250    87.4610    29.2070    24.4560    30.5780    24.6710     2.3380   -29.1490 
  222.7500    85.8350    29.0660    24.3330    30.6310    24.6750     2.3410   -28.9920 
  222.8750    86.5790    28.9800    24.3310    30.8610    24.6880     2.3460   -28.8070 
  223.0000    87.7390    29.1280    24.5530    30.8250    24.7180     2.3510   -28.6190 
  223.1250    87.3680    29.9940    25.3270    30.1460    24.7400     2.3540   -28.4870 
  223.2500    87.8580    31.8480    26.8480    30.2620    24.7130     2.3540   -28.4120 
  223.3750    90.1020    34.7080    29.1660    32.5200    24.6600     2.3500   -28.3000 
  223.5000    92.2040    38.0620    31.9370    36.7180    24.5900     2.3420   -28.1800 
  223.6250    90.4580    40.5100    34.1230    40.7460    24.5310     2.3310   -28.1230 
  223.7500    85.6350    40.7260    34.6190    43.5090    24.4780     2.3210   -27.9690 
  223.8750    81.6400    38.0730    32.8000    45.1810    24.4000     2.3210   -27.8560 
  224.0000    82.8460    33.0870    28.9630    44.9320    24.3210     2.3330   -27.8080 
  224.1250    90.0890    27.5750    24.4440    37.1830    24.3580     2.3560   -27.6660 
  224.2500    95.7910    23.5560    20.8880    25.3120    24.4810     2.3820   -27.6120 
  224.3750    96.9560    21.9340    19.0500    18.3080    24.6230     2.3970   -27.6640 
  224.5000    95.1460    22.9110    19.2070    18.2590    24.7310     2.3950   -27.8010 
  224.6250    91.7140    26.6390    21.7570    24.6740    24.7460     2.3780   -28.0360 
  224.7500    87.4130    32.2490    26.2450    34.7050    24.7170     2.3540   -28.3570 
  224.8750    83.7300    39.1600    32.3260    43.3920    24.6870     2.3360   -28.7180 
  225.0000    81.2540    46.6820    39.3840    46.8490    24.6740     2.3260   -29.0950 
  225.1250    79.9250    54.0050    46.5400    49.6860    24.6570     2.3230   -29.6020 
  225.2500    80.0870    60.5410    53.0000    56.4100    24.6080     2.3200   -30.0510 
  225.3750    80.6440    65.9400    58.3270    65.0830    24.5310     2.3130   -30.4440 
  225.5000    79.1520    69.9750    62.2630    71.6520    24.4660     2.3030   -30.7740 
  225.6250    76.1640    72.2790    64.4030    74.0920    24.4600     2.2940   -30.9830 
  225.7500    74.3400    73.1570    65.0360    74.2900    24.4660     2.2880   -31.2380 
  225.8750    72.8800    72.8000    64.3640    73.4010    24.4440     2.2860   -31.4380 
  226.0000    70.9080    71.4460    62.6860    72.3650    24.4210     2.2880   -31.5490 
  226.1250    70.3780    69.2810    60.2850    70.8030    24.4040     2.2920   -31.5750 
  226.2500    71.2210    66.8660    57.7260    67.1460    24.3880     2.2970   -31.5860 
  226.3750    71.3080    64.8160    55.5350    60.7010    24.3440     2.3020   -31.5320 
  226.5000    71.6650    63.9240    54.3460    54.1280    24.2850     2.3070   -31.3780 
  226.6250    73.0890    65.3730    55.1360    52.2270    24.2010     2.3090   -31.3080 
  226.7500    73.8210    69.2600    58.0260    55.5600    24.1530     2.3060   -31.1310 
  226.8750    73.8250    75.3400    62.9040    63.7500    24.1640     2.2970   -30.8850 
  227.0000    73.8090    82.7500    69.1550    76.0610    24.2370     2.2850   -30.7370 
  227.1250    73.3560    89.9720    75.6330    90.8720    24.3330     2.2750   -30.4550 
  227.2500    72.7400    95.6770    81.1300   101.2240    24.3940     2.2670   -30.1210 
  227.3750    71.6290    99.3870    85.1070   101.9530    24.4260     2.2660   -29.7640 
  227.5000    69.7720   101.3660    87.6110    99.3540    24.4480     2.2670   -29.3640 
  227.6250    68.7810   101.8980    88.7500   100.6650    24.4260     2.2750   -28.8790 
  227.7500    70.3450   100.8510    88.4890   104.3240    24.4040     2.2920   -28.2650 
  227.8750    71.5420    97.0750    85.9480   107.2270    24.4060     2.3240   -27.6110 
  228.0000    69.2870    89.5030    80.2070   107.4200    24.4240     2.3650   -26.9040 
  228.1250    66.2540    77.8470    70.7590   103.4770    24.4220     2.4020   -26.1980 
  228.2500    67.9270    64.7990    59.6550    85.8850    24.3820     2.4170   -25.5000 
  228.3750    72.3150    52.6950    48.8770    58.5020    24.3630     2.3990   -24.8170 
  228.5000    74.4410    43.0560    39.9520    39.6510    24.3130     2.3600   -24.1820 
  228.6250    71.5670    36.6390    33.8230    33.0180    24.2350     2.3200   -23.6160 
  228.7500    68.7920    32.4290    29.7470    30.9020    24.1590     2.2930   -23.1380 
  228.8750    69.2290    29.7910    27.1900    29.6960    24.1310     2.2860   -22.7430 
  229.0000    70.3490    28.2370    25.7130    28.2030    24.1280     2.2910   -22.3820 
  229.1250    68.5640    27.5970    25.1510    26.9360    24.1280     2.3000   -22.0730 
  229.2500    66.0660    27.6190    25.2260    26.1280    24.1280     2.3100   -21.8380 
  229.3750    65.6680    28.2180    25.8420    25.8940    24.1280     2.3220   -21.6540 
  229.5000    67.7500    29.1960    26.8220    26.4670    24.1280     2.3380   -21.4420 
  229.6250    69.5330    30.1290    27.7990    28.1560    24.1280     2.3550   -21.2630 
  229.7500    71.2000    30.5280    28.3180    29.8770    24.1230     2.3700   -21.1360 
  229.8750    72.3690    30.0890    28.0700    30.5310    24.1060     2.3750   -20.8950 
  230.0000    72.6380    28.7700    26.9740    29.5450    24.0490     2.3700   -20.6790 
  230.1250    71.9640    26.7830    25.1770    26.6480    23.9800     2.3580   -20.5180 
  230.2500    72.3990    24.7010    23.2060    22.8770    23.9070     2.3440   -20.2360 
  230.3750    73.9780    22.8600    21.3800    19.6160    23.8810     2.3320   -20.0410 
  230.5000    75.2100    21.4010    19.8610    17.6760    23.8920     2.3240   -19.8420 
  230.6250    76.7080    20.3320    18.7090    17.2500    23.9530     2.3190   -19.5220 
  230.7500    79.2830    19.4870    17.8080    17.3550    24.0520     2.3170   -19.3020 
  230.8750    81.6480    18.8150    17.1190    16.9080    24.1560     2.3170   -19.1470 
  231.0000    81.7050    18.3300    16.6430    15.7130    24.2210     2.3160   -19.0060 
  231.1250    80.6310    18.1280    16.4460    15.1090    24.2600     2.3150   -18.8570 
  231.2500    80.6310    18.2010    16.5040    16.0220    24.2830     2.3100   -18.7350 
  231.3750    81.3740    18.5330    16.8070    18.0870    24.2620     2.2990   -18.6080 
  231.5000    81.6650    19.0870    17.3240    20.2090    24.1890     2.2870   -18.5000 
  231.6250    80.7570    19.8270    18.0240    21.0390    24.1540     2.2790   -18.5130 
  231.7500    79.1710    20.6310    18.7900    20.7500    24.1050     2.2840   -18.4600 
  231.8750    76.8760    21.3650    19.4940    20.7590    24.0110     2.3100   -18.3880 
  232.0000    75.3340    21.8540    19.9790    22.0310    23.9620     2.3520   -18.3590 
  232.1250    77.5960    21.8700    20.0320    24.9990    24.0290     2.3960   -18.3680 
  232.2500    82.2380    21.4620    19.6830    28.3330    24.1200     2.4230   -18.4140 
  232.3750    85.1570    20.7840    19.0470    28.8410    24.1960     2.4150   -18.4600 
  232.5000    83.6950    20.0910    18.3320    24.9560    24.2410     2.3860   -18.5120 
  232.6250    79.3030    19.6920    17.8060    20.8680    24.1990     2.3510   -18.5320 
  232.7500    75.4510    19.6590    17.5740    19.4110    24.1510     2.3270   -18.6520 
  232.8750    73.8220    19.9180    17.6140    19.6740    24.1300     2.3180   -18.8090 
  233.0000    75.1710    20.2970    17.8120    20.2040    24.1280     2.3170   -18.8540 
  233.1250    76.6280    20.5790    17.9970    20.4060    24.1250     2.3150   -18.9900 
  233.2500    75.2120    20.6860    18.0680    20.2190    24.1100     2.3100   -19.1100 
  233.3750    72.4390    20.6860    18.0530    19.6880    24.0750     2.3040   -19.2170 
  233.5000    71.5090    20.7540    18.0740    19.2440    24.0480     2.2990   -19.3910 
  233.6250    71.6200    21.1800    18.3580    19.7010    24.0400     2.2980   -19.4780 
