~V
VERS. 2.00: Ver 2.00
~W
STRT.M 57.0000:
STOP.M 290.0000:
STEP.M 0.1250:
NULL. -999.2500:
UWI. DF3043:
~C
DEPT.M :
SP.MV :
DEN.GM/CC :
AC.US/MT :
GR.API :
CALI.CM :
RXO.OHMM :
RI. :
RML.OHMM :
~A
# ...
  107.0000   -24.4800     2.1760   406.7560    70.1780    22.5190     9.3820     7.8310    10.0810 
  107.1250   -24.4630     2.1820   410.1140    69.1630    22.5800     9.6740     7.6360     9.9270 
  107.2500   -24.4780     2.1840   412.4340    68.9300    22.6160     9.8540     7.5920    10.0080 
  107.3750   -24.5030     2.1780   415.1140    68.3090    22.6370     9.8660     7.6450    10.1850 
  107.5000   -24.5080     2.1680   417.0600    68.4870    22.6390     9.8770     7.7240    10.3320 
  107.6250   -24.4740     2.1650   417.5510    69.1340    22.5930     9.7600     7.7730    10.3770 
  107.7500   -24.3960     2.1690   418.2520    67.9390    22.5070     9.6020     7.7890    10.3470 
  107.8750   -24.2860     2.1790   419.9020    66.7820    22.4200     9.4800     7.7850    10.2760 
  108.0000   -24.1660     2.1890   422.0070    68.4430    22.3730     9.3650     7.7790    10.1960 
  108.1250   -24.0550     2.1880   422.3070    71.1940    22.3700     9.5970     7.7830    10.1290 
  108.2500   -23.9660     2.1790   419.8090    70.1410    22.4090     9.8920     7.8010    10.0660 
  108.3750   -23.8890     2.1730   416.3540    67.4800    22.4990    10.0820     7.8330     9.9980 
  108.5000   -23.7960     2.1750   414.5800    67.6760    22.6090    10.0770     7.8840     9.9360 
  108.6250   -23.6710     2.1830   416.4950    68.7480    22.6830    10.0400     7.9650     9.9120 
  108.7500   -23.5160     2.1880   420.0960    67.5360    22.7100     9.7780     8.0640     9.9320 
  108.8750   -23.3170     2.1880   423.6730    65.5660    22.6980     9.5310     8.1610     9.9620 
  109.0000   -23.0560     2.1790   425.9850    67.0770    22.6790     9.5690     8.2060     9.9140 
  109.1250   -22.7200     2.1710   426.4800    72.7840    22.6980     9.3750     8.0640     9.5730 
  109.2500   -22.3460     2.1740   426.3230    77.7650    22.7080     8.8320     7.6570     8.8650 
  109.3750   -21.9450     2.1820   425.7550    79.6510    22.6400     8.0040     7.0080     7.8740 
  109.5000   -21.5090     2.1870   425.2060    78.8430    22.5110     7.3980     6.2490     6.8270 
  109.6250   -21.0530     2.1950   428.9360    81.1920    22.6030     6.4940     5.5560     5.9830 
  109.7500   -20.6110     2.2190   438.7200    87.6340    23.0290     5.4070     5.0100     5.3960 
  109.8750   -20.2120     2.2490   448.9440    93.0440    23.5200     5.1180     4.6060     5.0040 
  110.0000   -19.9020     2.2620   450.4170    93.0380    23.7530     5.8240     4.2890     4.6880 
  110.1250   -19.7360     2.2520   441.8190    90.7880    23.8160     5.6780     4.0110     4.3650 
  110.2500   -19.7180     2.2420   438.2460    91.7970    24.0750     4.5890     3.7700     4.0770 
  110.3750   -19.8530     2.2400   447.5900    95.5450    24.5030     3.7510     3.6200     3.9370 
  110.5000   -20.1250     2.2430   462.4890    98.9110    24.8100     3.5420     3.6250     4.0580 
  110.6250   -20.5330     2.2400   463.6830    98.6580    24.6670     4.3430     3.8820     4.5620 
  110.7500   -21.0480     2.2320   448.3110    94.5970    24.1170     5.6870     4.3740     5.3580 
  110.8750   -21.6740     2.2200   428.2510    87.4440    23.4180     6.9970     5.0410     6.2900 
  111.0000   -22.4240     2.2100   416.2370    79.1070    22.9270     7.9390     5.7490     7.1370 
  111.1250   -23.2570     2.2090   416.1240    74.8750    22.8050     8.4310     6.3430     7.7350 
  111.2500   -24.0670     2.2140   419.3010    75.7690    22.8230     8.6970     6.8810     8.3180 
  111.3750   -24.7780     2.2180   420.6850    77.9200    22.8750     9.0340     7.5580     9.2510 
  111.5000   -25.3350     2.2260   416.4030    77.8820    22.9850    10.0100     8.5790    10.8380 
  111.6250   -25.7090     2.2570   394.8270    77.3150    23.1870    13.2500    10.0950    13.2410 
  111.7500   -25.9550     2.3290   351.1900    77.4810    23.4730    21.7010    11.7910    15.8270 
  111.8750   -26.1340     2.4230   296.0560    75.8670    23.7790    30.6810    13.0660    17.5150 
  112.0000   -26.3190     2.4860   259.4690    71.6610    23.8800    28.4520    13.2720    17.2750 
  112.1250   -26.5680     2.4540   277.6540    66.8820    23.4890    19.3120    12.2230    15.1370 
  112.2500   -26.9000     2.3600   332.3450    63.0930    22.8850    11.9320    10.7740    12.7560 
  112.3750   -27.2930     2.2610   388.1960    62.0370    22.4500    10.5260     9.4760    10.9720 
  112.5000   -27.7120     2.1920   419.1580    64.0640    22.3170    10.4530     8.5840    10.0070 
  112.6250   -28.1160     2.1570   425.2160    65.0330    22.3350    10.4230     8.2010     9.8210 
  112.7500   -28.4580     2.1360   426.3020    63.0530    22.3800    10.4980     8.1480    10.0120 
  112.8750   -28.7160     2.1230   429.4270    60.9930    22.4910    10.7600     8.2840    10.3290 
  113.0000   -28.8760     2.1160   433.0650    60.2110    22.6420    11.0190     8.4890    10.6080 
  113.1250   -28.9180     2.1200   434.5890    59.9910    22.7400    11.0940     8.6830    10.7920 
  113.2500   -28.8700     2.1300   434.3770    61.1470    22.7720    11.0620     8.8460    10.9350 
  113.3750   -28.7280     2.1420   433.8470    63.6990    22.7770    11.0350     8.9700    11.0520 
  113.5000   -28.4980     2.1530   433.3960    65.0700    22.7800    11.1110     9.0050    11.0630 
  113.6250   -28.1730     2.1610   431.5380    64.1320    22.7370    11.0820     8.7920    10.7100 
  113.7500   -27.7700     2.1650   428.4890    64.2650    22.6310    10.9810     8.2660     9.9040 
  113.8750   -27.3190     2.1690   427.2380    66.6020    22.4960    10.5690     7.4860     8.7650 
  114.0000   -26.8350     2.1750   431.5810    70.1020    22.3690     9.0530     6.6440     7.6170 
  114.1250   -26.3300     2.1890   443.0030    75.3750    22.2780     7.1750     6.0000     6.8790 
  114.2500   -25.8490     2.2020   454.8880    81.5050    22.1820     6.1690     5.6590     6.6760 
  114.3750   -25.4400     2.2070   459.3120    84.6960    22.0140     6.8360     5.6530     7.0080 
  114.5000   -25.1540     2.2000   452.6700    81.8330    21.7970     8.1070     5.9550     7.7570 
  114.6250   -25.0540     2.1870   440.0970    74.9000    21.7490     9.1180     6.4860     8.6820 
  114.7500   -25.1130     2.1800   431.2520    70.9950    21.9050     9.1560     7.0280     9.4260 
  114.8750   -25.3050     2.1800   427.9800    70.9980    22.0790     9.5560     7.4120     9.7910 
  115.0000   -25.5600     2.1810   427.5900    71.5870    22.1220    10.1070     7.5630     9.7970 
  115.1250   -25.7830     2.1780   428.3570    70.6570    22.1450     9.5620     7.5350     9.6690 
  115.2500   -25.9300     2.1740   429.8360    69.6380    22.2630     9.3280     7.4990     9.6560 
  115.3750   -25.9760     2.1710   431.0840    68.8690    22.3970     9.3650     7.5240     9.7970 
  115.5000   -25.9270     2.1710   430.8190    68.9010    22.4590     9.5860     7.5900     9.9820 
  115.6250   -25.7820     2.1680   429.5270    69.1690    22.4550    10.1700     7.6100    10.0120 
  115.7500   -25.5610     2.1660   429.1460    69.8700    22.4450    10.6590     7.5210     9.8190 
  115.8750   -25.2890     2.1730   430.5250    70.8580    22.4440    10.2580     7.3260     9.4650 
  116.0000   -24.9770     2.1860   433.0020    72.5370    22.4440     8.8140     7.0880     9.0980 
  116.1250   -24.6190     2.1930   434.3010    73.5550    22.4300     8.0130     6.9250     8.9120 
  116.2500   -24.2240     2.1860   433.2190    72.8930    22.3960     8.3410     6.8910     8.9460 
  116.3750   -23.7930     2.1740   430.9180    72.0510    22.3580     8.9850     6.9880     9.1630 
  116.5000   -23.3460     2.1670   429.2630    72.5960    22.3400     9.1620     7.1860     9.4890 
  116.6250   -22.9010     2.1660   428.1500    73.3500    22.3410     8.9910     7.4160     9.7980 
  116.7500   -22.4410     2.1670   427.0790    73.9230    22.3430     8.9280     7.5710     9.9390 
  116.8750   -21.9410     2.1650   427.3730    75.4680    22.3360     9.0790     7.5580     9.7920 
