~V
VERS. 2.00: Ver 2.00
~W
STRT.M 66.0000:
STOP.M 262.0000:
STEP.M 0.1250:
NULL. -999.2500:
UWI. DF3009:
~C
DEPT.M :
GR.API :
RML.OHMM :
RI. :
RXO.OHMM :
CALI.CM :
DEN.GM/CC :
SP.MV :
~A
# ...
  144.7500    50.5650    28.3900    22.8200    23.4650    24.4390     2.6110   -14.5900 
  144.8750    49.7870    28.6950    23.1400    23.4360    24.3680     2.6070   -14.4970 
  145.0000    49.7410    29.2450    23.6340    25.9960    24.3580     2.6000   -14.4590 
  145.1250    50.2170    29.9010    24.2330    28.1800    24.3630     2.5930   -14.5480 
  145.2500    52.4780    30.4440    24.7750    28.6490    24.3310     2.5900   -14.5050 
  145.3750    55.3480    30.7230    25.1300    28.2180    24.3670     2.5940   -14.4390 
  145.5000    55.7310    30.6320    25.1920    27.5870    24.3470     2.6000   -14.5080 
  145.6250    55.8270    30.0250    24.8260    27.2850    24.4280     2.6060   -14.4440 
  145.7500    59.0080    28.9560    24.0740    26.0480    24.4470     2.6070   -14.4010 
  145.8750    63.3250    27.4670    22.9790    23.9540    24.4790     2.6010   -14.4680 
  146.0000    65.3260    25.7020    21.6520    21.5540    24.5030     2.5900   -14.4470 
  146.1250    65.8940    23.9450    20.2950    19.6400    24.4390     2.5770   -14.4150 
  146.2500    66.6400    22.5230    19.1570    18.7040    24.4970     2.5660   -14.4680 
  146.3750    65.8930    21.6600    18.4140    18.3530    24.5270     2.5590   -14.4810 
  146.5000    63.7770    21.4450    18.1590    18.6500    24.5990     2.5580   -14.5020 
  146.6250    62.9910    21.8850    18.4500    19.1510    24.6120     2.5690   -14.5610 
  146.7500    62.3020    22.6680    19.0820    20.8830    24.5600     2.5870   -14.5420 
  146.8750    60.1910    23.5850    19.9040    22.9450    24.5850     2.6070   -14.5720 
  147.0000    58.5590    24.5090    20.7890    24.5000    24.5260     2.6230   -14.6910 
  147.1250    59.7490    25.4270    21.6630    26.0360    24.6230     2.6290   -14.6390 
  147.2500    61.4740    26.3730    22.4970    26.4120    24.6110     2.6250   -14.5660 
  147.3750    62.2610    27.2820    23.2250    26.1780    24.4600     2.6130   -14.6440 
  147.5000    62.5370    27.9160    23.6870    27.0330    24.2340     2.5970   -14.6420 
  147.6250    62.6200    27.7540    23.5250    28.0960    24.2510     2.5790   -14.5800 
  147.7500    62.1170    26.6370    22.6470    27.5050    24.5120     2.5620   -14.6120 
  147.8750    62.5900    24.6790    21.1320    25.7780    24.5760     2.5470   -14.6030 
  148.0000    63.6300    22.3270    19.2910    23.4220    24.6240     2.5330   -14.5020 
  148.1250    63.8730    20.2870    17.6190    19.5350    24.5940     2.5260   -14.5050 
  148.2500    63.7170    19.0010    16.4540    15.7900    24.6110     2.5240   -14.5720 
  148.3750    63.0700    18.5910    15.9180    14.3720    24.6180     2.5310   -14.4930 
  148.5000    62.0320    18.9130    15.9610    15.2790    24.6000     2.5450   -14.4590 
  148.6250    61.3940    19.6610    16.4370    16.5320    24.5700     2.5610   -14.5800 
  148.7500    62.3680    20.3640    17.0050    17.3850    24.3930     2.5710   -14.6030 
  148.8750    61.8340    20.7600    17.4430    18.1900    24.3410     2.5730   -14.6480 
  149.0000    59.1920    20.7680    17.6310    19.3990    24.4460     2.5650   -14.8440 
  149.1250    59.2250    20.5010    17.5670    18.4110    24.5550     2.5520   -14.9580 
  149.2500    61.8490    20.2460    17.4310    17.8150    24.6360     2.5410   -15.0270 
  149.3750    62.9770    20.1390    17.3240    17.7750    24.5700     2.5370   -15.2190 
  149.5000    59.6630    20.1790    17.2780    18.1970    24.5900     2.5410   -15.3320 
  149.6250    55.9510    20.2540    17.2490    18.9820    24.5810     2.5480   -15.4360 
  149.7500    56.1500    20.2260    17.1600    18.9870    24.6390     2.5550   -15.6220 
  149.8750    59.3920    20.0470    16.9740    18.2830    24.6570     2.5590   -15.6890 
  150.0000    62.1360    19.7570    16.7080    17.2120    24.5520     2.5620   -15.7530 
  150.1250    59.0380    19.5000    16.4520    16.2400    24.4890     2.5620   -15.9500 
  150.2500    54.2890    19.4250    16.3160    15.8500    24.2130     2.5590   -16.0830 
  150.3750    53.2170    19.6240    16.3720    16.1280    24.0600     2.5510   -16.2340 
  150.5000    57.9390    20.1100    16.6360    16.4170    24.0390     2.5400   -16.4730 
  150.6250    65.1350    20.8190    17.0690    16.4430    24.1250     2.5280   -16.5740 
  150.7500    70.3320    21.5380    17.5230    16.9760    24.3560     2.5170   -16.6840 
  150.8750    72.4680    22.1090    17.8850    17.8710    24.4900     2.5070   -16.9400 
  151.0000    71.9920    22.4440    18.0940    18.6500    24.5130     2.4970   -17.1200 
  151.1250    71.5440    22.5480    18.1480    18.7460    24.2930     2.4870   -17.1520 
  151.2500    72.9530    22.6170    18.1670    18.2880    24.1540     2.4800   -17.2420 
  151.3750    74.9410    22.8150    18.2540    17.8850    24.1170     2.4800   -17.2870 
  151.5000    75.4720    23.2220    18.4610    18.4290    24.1450     2.4860   -17.2120 
  151.6250    73.5250    23.7570    18.7580    19.3130    24.0710     2.5000   -17.2550 
  151.7500    71.3240    24.1590    19.0020    20.5210    23.8910     2.5140   -17.2330 
  151.8750    69.7770    24.2160    19.0670    21.4920    23.8420     2.5240   -17.0520 
  152.0000    69.8290    23.8450    18.8850    22.1080    23.7710     2.5280   -16.9430 
  152.1250    69.6480    23.1310    18.4700    21.2460    23.8230     2.5260   -16.8620 
  152.2500    67.9890    22.4050    18.0000    19.1370    23.8120     2.5210   -16.7210 
  152.3750    66.6540    21.8870    17.6140    17.2890    23.8240     2.5190   -16.5510 
  152.5000    68.3910    21.6580    17.3830    16.5220    23.9680     2.5200   -16.3820 
  152.6250    70.8650    21.6290    17.2930    17.0070    23.9840     2.5250   -16.2170 
  152.7500    68.9070    21.5430    17.2040    17.2890    24.1820     2.5300   -16.0340 
  152.8750    64.6560    21.2420    17.0110    17.2430    24.4200     2.5320   -15.8510 
  153.0000    62.9500    20.7000    16.6720    17.0980    24.6570     2.5320   -15.6620 
  153.1250    65.1920    20.0480    16.2400    16.6660    24.7870     2.5310   -15.4920 
  153.2500    66.3430    19.5110    15.8570    15.9620    24.7610     2.5290   -15.3170 
  153.3750    65.6730    19.1990    15.6100    15.2710    24.7410     2.5250   -15.2010 
  153.5000    65.2960    19.0910    15.5090    15.2210    24.5610     2.5150   -15.1370 
  153.6250    65.9630    19.0540    15.4910    15.7470    24.5440     2.5010   -14.9830 
  153.7500    65.1840    18.9330    15.4440    16.1780    24.5510     2.4880   -14.9470 
  153.8750    62.8670    18.6870    15.3220    16.0630    24.6220     2.4840   -14.9670 
  154.0000    62.6950    18.3720    15.1420    15.6020    24.7090     2.4900   -14.8440 
  154.1250    64.8920    18.1320    14.9850    15.1410    24.7210     2.5030   -14.8160 
  154.2500    64.9960    18.0740    14.9350    14.9600    24.7730     2.5160   -14.8930 
  154.3750    61.9890    18.2260    15.0300    15.0710    24.7180     2.5230   -14.8320 
  154.5000    60.2670    18.5310    15.2520    15.2610    24.7550     2.5250   -14.7950 
  154.6250    63.4030    18.8480    15.5250    15.3960    24.6520     2.5220   -14.8740 
  154.7500    66.0940    19.0360    15.7390    15.2780    24.6060     2.5180   -14.8100 
  154.8750    64.9300    19.0420    15.8360    15.1050    24.6010     2.5170   -14.7920 
  155.0000    61.9380    18.8990    15.8140    14.9870    24.6130     2.5180   -14.9230 
  155.1250    62.4570    18.7040    15.7190    14.8560    24.6900     2.5260   -14.9350 
  155.2500    64.1970    18.5560    15.6310    14.3170    24.6640     2.5370   -14.9320 
  155.3750    63.2520    18.4690    15.5830    14.1390    24.6580     2.5490   -15.0800 
  155.5000    60.1340    18.4010    15.5680    14.5070    24.5390     2.5570   -15.2160 
  155.6250    57.7730    18.2840    15.5530    14.4870    24.3570     2.5560   -15.3780 
  155.7500    58.1210    18.1080    15.5190    14.0290    24.2130     2.5460   -15.6040 
  155.8750    60.8910    17.9150    15.4830    13.3200    24.0110     2.5280   -15.8290 
