~V
VERS. 2.00: Ver 2.00
~W
STRT.M 57.0000:
STOP.M 272.0000:
STEP.M 0.1250:
NULL. -999.2500:
UWI. DF3055:
~C
DEPT.M :
SP.MV :
GR.API :
RML.OHMM :
RI. :
RXO.OHMM :
CALI.CM :
DEN.GM/CC :
~A
# ...
  237.0000   -15.6120    74.8740    68.3610    61.0970    62.8700    24.2800     2.2280 
  237.1250   -15.6830    75.4510    72.0160    64.8530    68.5030    24.3040     2.2290 
  237.2500   -15.7670    72.5180    74.0330    67.4980    73.6220    24.3610     2.2310 
  237.3750   -15.8330    70.3910    73.8150    68.4140    76.0940    24.4810     2.2340 
  237.5000   -15.8940    69.0260    71.2570    67.2740    75.2260    24.6210     2.2360 
  237.6250   -15.9580    68.6000    67.0690    64.3380    71.3660    24.6610     2.2360 
  237.7500   -16.0040    71.2250    62.6750    60.4710    64.5670    24.6570     2.2350 
  237.8750   -16.0350    73.8690    59.3230    56.9760    57.1060    24.6420     2.2360 
  238.0000   -16.0780    75.2960    57.3420    54.4850    53.7290    24.6130     2.2380 
  238.1250   -16.1390    76.1930    56.4180    53.0590    54.1580    24.5340     2.2410 
  238.2500   -16.1910    76.0080    55.8100    52.2940    56.6910    24.4990     2.2430 
  238.3750   -16.2370    73.3570    54.7180    51.4370    58.8720    24.4470     2.2430 
  238.5000   -16.2870    72.8250    52.8480    50.1060    57.8510    24.4070     2.2440 
  238.6250   -16.3330    78.1670    50.3310    48.2980    52.3210    24.4000     2.2470 
  238.7500   -16.3690    81.7390    47.9900    46.4930    46.2850    24.4000     2.2520 
  238.8750   -16.4090    80.4100    46.7170    45.4150    43.7750    24.4000     2.2570 
  239.0000   -16.4370    78.3590    47.2700    45.6040    44.7650    24.4000     2.2590 
  239.1250   -16.4620    77.2740    49.7060    47.2780    46.9270    24.4000     2.2570 
  239.2500   -16.4860    75.3270    54.1500    50.3380    50.1820    24.3960     2.2510 
  239.3750   -16.5320    73.9210    58.9020    53.7790    57.4130    24.3840     2.2420 
  239.5000   -16.5710    74.8410    62.1600    56.6630    66.3630    24.3530     2.2340 
  239.6250   -16.5940    75.4720    63.1270    58.2030    72.9750    24.2990     2.2280 
  239.7500   -16.6310    73.6570    61.9170    57.8640    69.6970    24.1720     2.2260 
  239.8750   -16.6740    70.4870    59.6320    56.3600    61.1610    24.0600     2.2270 
  240.0000   -16.7200    68.0190    57.1180    54.3760    55.4980    24.0080     2.2310 
  240.1250   -16.7500    68.6960    54.8840    52.4690    55.3310    24.0000     2.2330 
  240.2500   -16.7720    72.8100    53.1690    51.0140    56.6210    24.0010     2.2350 
  240.3750   -16.8030    75.0530    52.0710    50.1160    56.1640    24.0050     2.2370 
  240.5000   -16.8470    73.5180    52.0400    50.0430    54.0230    24.0200     2.2400 
  240.6250   -16.8890    70.8250    53.6700    51.2030    53.4620    24.0540     2.2440 
  240.7500   -16.9260    69.9620    57.4930    54.1690    59.8820    24.1270     2.2480 
  240.8750   -16.9560    67.9360    62.3560    58.3340    72.5960    24.2570     2.2510 
  241.0000   -16.9950    64.8540    66.5030    62.5470    87.9280    24.3730     2.2480 
  241.1250   -17.0120    62.6200    67.8250    65.1150    97.1900    24.4270     2.2410 
  241.2500   -17.0380    63.1230    64.3330    63.8940    89.6020    24.4700     2.2300 
  241.3750   -17.0430    64.0770    57.8940    59.4390    69.7220    24.5230     2.2210 
  241.5000   -17.0430    65.1710    51.2350    53.5730    50.8610    24.5320     2.2220 
  241.6250   -17.0430    68.7220    46.7710    48.7250    39.9820    24.5340     2.2350 
  241.7500   -17.0390    72.1790    46.1620    47.1370    39.2280    24.5360     2.2570 
  241.8750   -17.0250    72.2270    48.5990    48.5770    44.5520    24.5450     2.2800 
  242.0000   -16.9910    69.6510    53.0860    52.2100    54.0730    24.5620     2.2940 
  242.1250   -16.9560    68.3430    58.2150    56.7340    63.8050    24.5940     2.2960 
  242.2500   -16.8980    71.0910    62.2210    60.5780    67.2330    24.6570     2.2890 
  242.3750   -16.8190    74.1050    64.4400    63.0140    65.9830    24.6630     2.2800 
  242.5000   -16.7030    74.7450    65.3280    64.2740    61.2770    24.6770     2.2770 
  242.6250   -16.5450    71.4640    66.0910    65.2790    59.2070    24.5380     2.2790 
  242.7500   -16.3450    65.0890    68.0920    67.2450    67.4060    24.4610     2.2780 
  242.8750   -16.1180    60.4850    71.5160    70.4750    79.2410    24.4640     2.2700 
  243.0000   -15.8500    59.8420    76.1320    74.7890    86.8120    24.4740     2.2530 
  243.1250   -15.5510    61.1310    81.5820    79.8090    87.4240    24.4740     2.2340 
  243.2500   -15.2430    61.5480    87.6120    85.2110    85.1710    24.4710     2.2210 
  243.3750   -14.9470    62.8300    93.8230    90.6660    85.0100    24.4710     2.2150 
  243.5000   -14.6530    64.8760    99.7560    95.8490    89.7360    24.4710     2.2160 
  243.6250   -14.3890    64.7450   104.6470   100.1970    99.3270    24.4710     2.2210 
  243.7500   -14.1620    62.1330   107.1110   102.6100   107.7110    24.4710     2.2340 
  243.8750   -13.9470    60.3940   106.9030   102.7810   108.7050    24.4710     2.2540 
  244.0000   -13.7670    61.0430   104.3670   100.8000    98.2250    24.4710     2.2820 
  244.1250   -13.6150    64.0900   100.5580    97.3900    82.8780    24.4710     2.3140 
  244.2500   -13.4760    68.6360    96.8820    93.7650    71.1830    24.4780     2.3530 
  244.3750   -13.3260    71.7600    94.2580    91.0050    66.1500    24.4950     2.4040 
  244.5000   -13.1750    70.9550    93.0240    89.5700    62.4320    24.5260     2.4660 
  244.6250   -13.0240    68.1200    93.2200    89.5470    62.8380    24.6130     2.5250 
  244.7500   -12.8500    68.5120    94.7540    90.8540    75.4350    24.7230     2.5640 
  244.8750   -12.6670    73.2020    96.8050    92.7180    89.9480    24.7880     2.5720 
  245.0000   -12.4740    77.3590    98.6470    94.4850   101.1440    24.7990     2.5510 
  245.1250   -12.2890    75.2870    99.6600    95.5890   106.7730    24.8000     2.5250 
  245.2500   -12.0910    70.8350    99.4860    95.6300   108.2370    24.8030     2.5010 
  245.3750   -11.8930    69.4320    98.7800    95.0930   105.4300    24.8160     2.4730 
  245.5000   -11.6900    70.9040    98.4280    94.7560    98.1640    24.8410     2.4330 
  245.6250   -11.4820    72.4790    99.3790    95.6000    94.8520    24.8860     2.3880 
  245.7500   -11.2680    74.6420   103.0270    99.0460    96.1720    24.9910     2.3540 
  245.8750   -11.0760    78.1190   110.1020   105.5580   102.6590    25.0550     2.3470 
  246.0000   -10.8830    80.2370   121.6330   115.5780   111.5110    25.0660     2.3810 
  246.1250   -10.6920    79.4990   137.7700   128.8990   125.1320    25.0670     2.4420 
  246.2500   -10.5060    75.3120   156.0030   143.5730   150.3820    25.0670     2.5110 
  246.3750   -10.3450    70.6070   169.7170   154.6230   182.8650    25.0660     2.5720 
  246.5000   -10.2200    66.2440   171.7740   156.4150   210.1070    25.0660     2.6130 
  246.6250   -10.1070    59.0010   156.7780   144.2680   214.0830    25.0590     2.6370 
  246.7500   -10.0220    46.8130   123.4140   115.6460   177.2510    25.0450     2.6430 
  246.8750    -9.9370    35.7390    84.7000    80.7150   124.3360    25.0120     2.6270 
  247.0000    -9.8780    32.4720    51.6610    49.7010    85.9440    24.9360     2.5810 
  247.1250    -9.8210    38.0790    29.4810    28.3380    56.8600    24.8770     2.5150 
  247.2500    -9.7930    46.2360    18.0570    17.1760    32.3330    24.7930     2.4410 
  247.3750    -9.7670    51.7440    12.0460    11.2910    15.8750    24.7590     2.3740 
  247.5000    -9.7490    55.3030     8.9810     8.3020     8.9430    24.6980     2.3240 
  247.6250    -9.7490    58.7120     7.4640     6.8290     6.8310    24.6710     2.2850 
  247.7500    -9.7630    61.0670     6.8570     6.2330     6.3010    24.6670     2.2570 
  247.8750    -9.7920    61.2930     6.6300     6.0080     6.0660    24.6670     2.2420 
  248.0000    -9.8320    62.0610     6.5780     5.9260     5.7950    24.6670     2.2420 
  248.1250    -9.8810    65.4830     6.5700     5.8750     5.4090    24.6670     2.2520 
