~V
VERS. 2.00: Ver 2.00
~W
STRT.M 120.0000:
STOP.M 272.0000:
STEP.M 0.1250:
NULL. -999.2500:
UWI. DF3038:
~C
DEPT.M :
GR.API :
RML.OHMM :
RI. :
RXO.OHMM :
CALI.CM :
DEN.GM/CC :
SP.MV :
~A
# ...
  255.0000    64.3730    15.3990    14.4310    15.1630    24.3760     2.5320    -8.0090 
  255.1250    66.4950    15.4870    14.6250    18.3130    24.2600     2.5000    -8.0290 
  255.2500    68.8440    15.4850    14.7210    21.0520    24.2260     2.4760    -7.9270 
  255.3750    72.3680    15.4550    14.7580    21.0360    24.3240     2.4750    -7.8840 
  255.5000    77.7080    15.4170    14.7580    19.3470    24.3340     2.4910    -7.8390 
  255.6250    81.1300    15.3390    14.7050    19.2200    24.2620     2.5090    -7.8000 
  255.7500    79.3010    15.1900    14.5840    20.8360    24.2720     2.5070    -7.7590 
  255.8750    76.3790    14.9720    14.3960    23.4970    24.2820     2.4870    -7.6450 
  256.0000    75.8030    14.7240    14.1720    25.3900    24.2390     2.4600    -7.6250 
  256.1250    73.4510    14.5180    13.9690    22.6840    23.9930     2.4420    -7.5330 
  256.2500    67.7730    14.3920    13.8250    16.6200    23.9750     2.4430    -7.5330 
  256.3750    63.3280    14.3420    13.7450    14.0520    24.2040     2.4540    -7.4830 
  256.5000    62.3970    14.3270    13.7060    13.9690    24.3790     2.4670    -7.4050 
  256.6250    62.0260    14.2830    13.6600    14.1240    24.3890     2.4740    -7.3300 
  256.7500    63.5640    14.1780    13.5750    13.9540    24.3530     2.4770    -7.2680 
  256.8750    67.1370    14.0230    13.4470    13.5550    24.3750     2.4810    -7.2330 
  257.0000    68.8800    13.8590    13.3010    13.3400    24.4510     2.4910    -7.1730 
  257.1250    66.2380    13.7480    13.1810    12.1520    24.5110     2.5050    -7.1240 
  257.2500    65.9040    13.7120    13.1140    12.1900    24.5090     2.5140    -7.0600 
  257.3750    68.9470    13.7430    13.1060    13.1630    24.4170     2.5140    -7.0150 
  257.5000    70.3470    13.8140    13.1430    14.2030    24.2910     2.5040    -7.0270 
  257.6250    68.7950    13.8870    13.1950    14.4180    24.1830     2.4900    -7.0470 
  257.7500    68.3410    13.9340    13.2280    14.2950    24.3070     2.4780    -7.0390 
  257.8750    68.1510    13.9430    13.2300    14.3820    24.4860     2.4700    -7.0540 
  258.0000    65.9870    13.9190    13.2030    14.3550    24.5760     2.4660    -7.0090 
  258.1250    64.8720    13.8900    13.1690    14.3240    24.6070     2.4660    -7.0680 
  258.2500    67.9200    13.8970    13.1630    14.5610    24.6170     2.4720    -7.0630 
  258.3750    71.8610    13.9710    13.2110    14.7940    24.6200     2.4830    -7.0680 
  258.5000    72.7840    14.1140    13.3210    14.9160    24.6190     2.4970    -7.0150 
  258.6250    70.4370    14.2760    13.4650    14.8640    24.6160     2.5100    -6.9720 
  258.7500    68.5940    14.3560    13.5640    14.7990    24.6080     2.5170    -6.8890 
  258.8750    69.1000    14.2670    13.5390    14.8740    24.5990     2.5190    -6.7980 
  259.0000    70.8060    13.9680    13.3370    14.7740    24.6140     2.5160    -6.7580 
  259.1250    71.5970    13.4850    12.9490    14.7010    24.6270     2.5090    -6.6120 
  259.2500    70.4120    12.9810    12.4990    13.5120    24.6320     2.4960    -6.5570 
  259.3750    69.2490    12.5980    12.1080    11.9170    24.6880     2.4750    -6.4560 
  259.5000    69.6850    12.4510    11.8870    11.8370    24.7770     2.4480    -6.4040 
  259.6250    70.0260    12.6350    11.9440    13.3920    24.8000     2.4210    -6.3250 
  259.7500    68.7920    13.0600    12.2280    15.0430    24.7460     2.4030    -6.3040 
  259.8750    67.2540    13.6070    12.6590    15.7620    24.7010     2.3960    -6.2820 
  260.0000    67.5080    14.1180    13.1070    15.2760    24.6950     2.4030    -6.2760 
  260.1250    69.4350    14.3830    13.3860    14.7330    24.6780     2.4200    -6.2700 
  260.2500    70.6410    14.3390    13.4070    14.2190    24.6060     2.4400    -6.2390 
  260.3750    69.7760    14.0030    13.1550    14.5190    24.5030     2.4580    -6.2410 
  260.5000    67.6680    13.4680    12.6870    16.1810    24.3900     2.4720    -6.1850 
  260.6250    66.9580    12.8750    12.1040    19.6410    24.2650     2.4820    -6.1050 
  260.7500    68.8650    12.3630    11.5410    22.9650    24.1720     2.4870    -6.0260 
  260.8750    70.1540    11.9970    11.0730    23.3440    24.1200     2.4850    -5.9330 
  261.0000    68.8020    11.7950    10.7350    19.4250    24.1330     2.4750    -5.7700 
  261.1250    66.5440    11.7520    10.5510    13.8390    24.2490     2.4600    -5.6690 
  261.2500    65.5730    11.7840    10.4650    10.2640    24.3930     2.4440    -5.5310 
  261.3750    65.6880    11.8280    10.4330     8.4980    24.4630     2.4340    -5.4490 
  261.5000    66.0920    11.8330    10.4120     7.9910    24.5030     2.4330    -5.3790 
  261.6250    67.6760    11.7580    10.3700     8.0210    24.5450     2.4380    -5.4200 
  261.7500    69.0860    11.6260    10.3060     7.9410    24.5620     2.4470    -5.4000 
  261.8750    69.0860    11.4800    10.2380     7.7860    24.5360     2.4540    -5.4030 
  262.0000    69.0860    11.3670    10.1900     7.7760    24.4860     2.4580    -5.4400 
  262.1250    69.0860    11.3350    10.1820     7.9450    24.4470     2.4570    -5.4720 
  262.2500    69.0860    11.3690    10.2010     8.2220    24.4510     2.4540    -5.5560 
  262.3750    69.0860    11.4400    10.2270     8.4090    24.4930     2.4530    -5.5670 
  262.5000    69.0860    11.5120    10.2400     8.3710    24.5290     2.4530    -5.5860 
  262.6250    69.0860    11.5560    10.2270     8.0880    24.5460     2.4550    -5.5250 
  262.7500    69.0860    11.5830    10.2040     7.8050    24.5590     2.4580    -5.5250 
  262.8750    69.0860    11.6110    10.1880     7.6640    24.5690     2.4630    -5.5250 
  263.0000    69.0860    11.6600    10.1940     7.6690    24.5520     2.4690    -5.5560 
  263.1250    69.0860    11.7360    10.2290     7.8710    24.5390     2.4750    -5.5740 
  263.2500    69.0860    11.8190    10.2750     8.0380    24.5330     2.4790    -5.5560 
  263.3750    69.0860    11.8860    10.3120     8.0660    24.5330     2.4810    -5.5650 
  263.5000    69.0860    11.9120    10.3160     7.9790    24.5330     2.4810    -5.5560 
  263.6250    69.0860    11.8720    10.2610     7.7970    24.5320     2.4800    -5.5890 
  263.7500    69.0860    11.7800    10.1550     7.5490    24.5190     2.4790    -5.5710 
  263.8750    69.0860    11.6550    10.0130     7.4210    24.4860     2.4790    -5.5350 
  264.0000    69.0860    11.5250     9.8620     7.3840    24.4460     2.4830    -5.4460 
  264.1250    69.0860    11.4310     9.7370     7.4630    24.4290     2.4900    -5.3500 
  264.2500    69.0860    11.3910     9.6570     7.6680    24.4260     2.5000    -5.2930 
  264.3750    69.0860    11.4070     9.6280     7.8750    24.4260     2.5060    -5.2370 
  264.5000    69.0860    11.4600     9.6390     8.1700    24.4260     2.5060    -5.2140 
  264.6250    69.0860    11.5140     9.6690     8.5140    24.4260     2.4980    -5.1190 
  264.7500    69.0860    11.5310     9.6860     8.9390    24.4260     2.4880    -5.0800 
  264.8750    69.0860    11.4980     9.6760     9.4090    24.4240     2.4820    -5.0580 
  265.0000    69.0860    11.4250     9.6380    10.2340    24.4220     2.4830    -5.1230 
  265.1250    69.0860    11.3450     9.5820    10.4380    24.4160     2.4890    -5.2160 
  265.2500    69.0860    11.2910     9.5310     9.9470    24.4130     2.4970    -5.2750 
  265.3750    69.0860    11.2770     9.4940     9.3450    24.4090     2.5030    -5.3160 
  265.5000    69.0860    11.2960     9.4750     9.2280    24.4060     2.5070    -5.3540 
  265.6250    69.0860    11.3310     9.4690     9.3650    24.4090     2.5090    -5.4430 
  265.7500    69.0860    11.3600     9.4670     9.5120    24.4160     2.5080    -5.5500 
  265.8750    69.0860    11.3760     9.4660     9.7430    24.4230     2.5020    -5.6790 
  266.0000    69.0860    11.3820     9.4650    10.3570    24.4260     2.4920    -5.7450 
  266.1250    69.0860    11.3800     9.4650    11.7730    24.4390     2.4800    -5.8460 
