~V
VERS. 2.00: Ver 2.00
~W
STRT.M 125.0000:
STOP.M 255.0000:
STEP.M 0.1250:
NULL. -999.2500:
UWI. DF3006:
~C
DEPT.M :
GR.API :
RML.OHMM :
RI. :
RXO.OHMM :
CALI.CM :
DEN.GM/CC :
SP.MV :
~A
# ...
  226.2500    63.7420   165.3970   146.6730   181.3620    24.3450     2.2930   -32.6010 
  226.3750    65.1880   160.1350   142.8280   177.7660    24.3350     2.2810   -32.5620 
  226.5000    66.1250   153.1960   137.3860   172.0960    24.3330     2.2730   -32.3530 
  226.6250    65.2050   144.1940   130.0600   161.2690    24.3340     2.2720   -32.1540 
  226.7500    63.9640   133.3940   121.1100   149.0450    24.3420     2.2750   -31.8990 
  226.8750    65.6450   121.0670   110.7180   139.9560    24.3870     2.2780   -31.5200 
  227.0000    68.6490   107.9790    99.4450   123.0480    24.4530     2.2770   -31.2180 
  227.1250    69.5890    95.7220    88.5170   100.4770    24.4690     2.2750   -30.8200 
  227.2500    69.1270    85.6720    79.2150    80.9000    24.5020     2.2750   -30.3820 
  227.3750    68.9130    78.5950    72.3670    69.4050    24.5390     2.2800   -29.8660 
  227.5000    70.2930    74.6110    68.2820    60.4590    24.6030     2.2930   -29.2830 
  227.6250    71.0290    73.5520    67.0340    60.2720    24.6790     2.3110   -28.7310 
  227.7500    70.2510    73.8980    67.3250    68.1010    24.7400     2.3310   -28.1970 
  227.8750    69.2170    74.5210    68.1240    74.5620    24.8310     2.3470   -27.6860 
  228.0000    67.1990    74.4530    68.4710    76.8850    24.9160     2.3560   -27.1960 
  228.1250    63.9070    72.8470    67.4630    76.4480    24.9310     2.3570   -26.6600 
  228.2500    60.1130    69.8470    65.0850    73.8930    24.9330     2.3530   -26.1980 
  228.3750    59.0630    65.7470    61.5330    68.0940    24.9330     2.3500   -25.7590 
  228.5000    61.7870    60.9500    57.1720    61.4830    24.9330     2.3470   -25.4500 
  228.6250    65.3180    55.8610    52.3890    57.1100    24.9320     2.3410   -25.2110 
  228.7500    67.0560    50.9530    47.6870    54.3700    24.9250     2.3270   -24.9130 
  228.8750    66.1670    46.6030    43.4420    52.5130    24.8800     2.3090   -24.7300 
  229.0000    64.5390    43.1380    39.9790    49.7250    24.8110     2.2930   -24.4800 
  229.1250    64.6590    41.0070    37.7240    45.2210    24.7800     2.2860   -24.3580 
  229.2500    68.1720    40.1400    36.6180    41.3610    24.7320     2.2930   -24.2510 
  229.3750    76.6120    40.4640    36.6130    39.8330    24.6810     2.3100   -24.1300 
  229.5000    85.9150    41.7060    37.4870    39.3790    24.6140     2.3320   -24.0470 
  229.6250    89.8730    43.3630    38.8440    41.0920    24.6030     2.3540   -23.7580 
  229.7500    89.2300    44.6710    40.0020    44.7100    24.6000     2.3680   -23.4790 
  229.8750    85.7080    45.0840    40.4560    47.7050    24.6000     2.3700   -23.1310 
  230.0000    79.1510    44.3100    39.8940    48.7930    24.6000     2.3600   -22.7470 
  230.1250    71.2280    42.2780    38.1700    45.8250    24.5990     2.3410   -22.3600 
  230.2500    68.4860    39.6370    35.8120    41.6180    24.5930     2.3200   -21.8860 
  230.3750    69.8500    36.9080    33.2740    37.5370    24.5530     2.3030   -21.4340 
  230.5000    69.9350    34.5160    30.9580    35.0520    24.5160     2.2930   -21.0190 
  230.6250    68.1470    32.7800    29.2010    33.3480    24.4560     2.2870   -20.6730 
  230.7500    66.6330    31.5940    27.9630    32.2180    24.4530     2.2810   -20.4270 
  230.8750    65.5260    30.8480    27.1720    32.2520    24.4520     2.2700   -20.2230 
  231.0000    62.7240    30.4510    26.7510    32.6910    24.4530     2.2560   -20.0850 
  231.1250    60.4430    30.4230    26.7070    32.3500    24.4390     2.2450   -19.9500 
  231.2500    60.8780    30.6520    26.9210    31.3390    24.4190     2.2470   -19.8870 
  231.3750    62.2260    30.9400    27.2210    29.8970    24.3750     2.2670   -19.9070 
  231.5000    62.3890    30.9510    27.3170    29.0620    24.3100     2.3000   -19.8410 
  231.6250    61.9770    30.1920    26.7750    30.7760    24.2760     2.3360   -19.8700 
  231.7500    64.5810    28.6350    25.5240    35.2880    24.2640     2.3570   -19.8050 
  231.8750    69.5480    26.4920    23.7070    35.9100    24.2650     2.3620   -19.7340 
  232.0000    74.5800    24.2070    21.6770    29.8030    24.2650     2.3540   -19.7440 
  232.1250    77.3860    22.3290    19.8980    23.0460    24.2650     2.3430   -19.6520 
  232.2500    77.7960    21.0250    18.5640    20.3140    24.2640     2.3330   -19.5970 
  232.3750    77.9150    20.2200    17.6650    19.5420    24.2640     2.3240   -19.4460 
  232.5000    78.3750    19.7110    17.0810    19.3000    24.2640     2.3150   -19.3470 
  232.6250    78.2980    19.3190    16.6850    18.9530    24.2560     2.3050   -19.2160 
  232.7500    77.5290    19.0070    16.3980    18.7910    24.2380     2.2990   -19.1060 
  232.8750    77.0520    18.9270    16.2930    18.2110    24.2210     2.2960   -19.0510 
  233.0000    78.9780    19.2740    16.5010    17.3200    24.2190     2.2960   -18.8890 
  233.1250    81.9940    20.2170    17.1840    16.9800    24.2330     2.2990   -18.8680 
  233.2500    82.8310    21.5580    18.1990    17.9650    24.2520     2.3090   -18.8280 
  233.3750    79.1440    22.9610    19.3010    20.1900    24.2560     2.3250   -18.8070 
  233.5000    72.6920    23.9210    20.1280    22.2610    24.2460     2.3450   -18.8220 
  233.6250    69.0900    23.8520    20.1950    22.3160    24.3200     2.3610   -18.8160 
  233.7500    71.1030    22.6400    19.4900    21.5860    24.3220     2.3610   -18.8070 
  233.8750    76.4130    20.5830    18.2230    20.6630    24.2750     2.3470   -18.7560 
  234.0000    79.6680    18.2750    16.7910    19.3900    24.1930     2.3260   -18.6630 
  234.1250    79.5060    16.4590    15.6810    17.4500    24.0350     2.3060   -18.5520 
  234.2500    79.4060    16.1080    15.1120    16.3580    23.7370     2.2930   -18.4160 
  234.3750    78.7570    16.4420    15.1540    16.8700    23.4510     2.2870   -18.2800 
  234.5000    76.6130    17.3330    15.7480    17.7830    23.4000     2.2860   -18.0710 
  234.6250    74.9490    18.4950    16.7160    19.2130    23.4010     2.2910   -17.8350 
  234.7500    76.1240    19.4680    17.6460    20.7300    23.4100     2.3040   -17.6590 
  234.8750    78.9600    19.9240    18.2130    22.8970    23.4650     2.3220   -17.4470 
  235.0000    81.4130    19.7030    18.2050    26.4300    23.5860     2.3360   -17.4000 
  235.1250    82.3480    18.8170    17.5470    27.9480    23.6580     2.3410   -17.3280 
  235.2500    80.7500    17.6840    16.5770    21.8140    23.7000     2.3310   -17.3390 
  235.3750    78.2190    16.6080    15.5690    16.4470    23.7370     2.3140   -17.3860 
  235.5000    75.5220    15.7780    14.7210    15.1720    23.7890     2.2990   -17.4360 
  235.6250    72.7980    15.2850    14.1550    14.8670    23.7970     2.2920   -17.6100 
  235.7500    73.1560    15.0260    13.8130    14.4820    23.8000     2.2930   -17.7020 
  235.8750    75.6060    14.9530    13.6530    14.4490    23.8020     2.2980   -17.8350 
  236.0000    77.4180    15.0660    13.6560    14.4930    23.8140     2.3010   -17.8390 
  236.1250    79.7900    15.4630    13.8840    14.4670    23.8880     2.3020   -17.8900 
  236.2500    82.7880    16.1480    14.3430    14.7630    24.0980     2.2980   -17.9000 
  236.3750    84.3620    17.0610    15.0060    15.7410    24.2640     2.2910   -17.9380 
  236.5000    79.6760    18.0310    15.7590    17.3360    24.2710     2.2820   -17.9740 
  236.6250    72.3460    18.7330    16.3650    19.5200    24.2540     2.2740   -17.9920 
  236.7500    68.9290    18.9810    16.6450    20.5760    24.2260     2.2690   -18.0410 
  236.8750    70.0190    18.7830    16.5670    20.5630    24.1940     2.2630   -18.1030 
  237.0000    74.4240    18.4180    16.3020    20.1710    24.1800     2.2570   -18.1990 
  237.1250    77.5170    18.5650    16.3330    19.5740    24.1940     2.2550   -18.2420 
  237.2500    78.6070    19.8420    17.1690    19.1100    24.2110     2.2720   -18.2630 
  237.3750    78.9090    22.6230    19.1770    19.8910    24.1950     2.3140   -18.2300 
