~V
VERS. 2.00: Ver 2.00
~W
STRT.M 125.0000:
STOP.M 273.0000:
STEP.M 0.1250:
NULL. -999.2500:
UWI. DF3072:
~C
DEPT.M :
DEN.GM/CC :
GR.API :
CALI.CM :
RXO.OHMM :
RI. :
RML.OHMM :
SP.MV :
~A
# ...
  181.2500     2.3490    76.0290    25.5520    55.8180    47.9260    55.1220   -24.7630 
  181.3750     2.3390    72.4790    25.7020    67.6610    51.7820    60.6540   -24.4330 
  181.5000     2.3260    72.9340    25.8390    79.5870    58.2680    69.0810   -24.1200 
  181.6250     2.3150    76.3880    25.8700    86.1880    66.8750    79.7590   -23.8500 
  181.7500     2.3080    76.8670    25.8560    93.5920    75.9910    90.9100   -23.6310 
  181.8750     2.3090    74.4770    25.8470   109.7040    84.3300   101.0950   -23.4860 
  182.0000     2.3160    71.0490    25.8640   130.8950    90.8730   109.1310   -23.4200 
  182.1250     2.3240    69.0690    25.8800   138.3360    94.5230   113.6720   -23.4110 
  182.2500     2.3290    69.2450    25.8800   129.9350    95.3710   114.7780   -23.4180 
  182.3750     2.3310    71.4710    25.8940   117.1040    93.4250   112.4340   -23.4310 
  182.5000     2.3320    74.7330    25.9400   107.0390    88.9460   106.9430   -23.4070 
  182.6250     2.3240    74.3210    25.9790    97.3200    82.1100    98.4850   -23.3280 
  182.7500     2.3080    70.0970    25.9980    87.5830    74.0480    88.4410   -23.2190 
  182.8750     2.2880    67.1400    26.1190    78.4650    65.7600    78.0490   -23.0560 
  183.0000     2.2740    66.8830    26.3480    68.3870    58.3540    68.7010   -22.8440 
  183.1250     2.2700    67.3570    26.3700    58.4140    53.1640    62.0390   -22.6030 
  183.2500     2.2800    68.7830    26.0760    54.0410    50.4160    58.3020   -22.3330 
  183.3750     2.3060    70.6350    25.7230    57.4880    50.1580    57.4790   -22.0540 
  183.5000     2.3370    70.7890    25.6330    65.2760    52.1480    59.2080   -21.7800 
  183.6250     2.3500    70.6430    25.8240    70.5370    56.1650    63.1600   -21.4890 
  183.7500     2.3460    73.2720    26.0170    72.3380    61.1750    68.1780   -21.1800 
  183.8750     2.3370    75.8860    26.1150    74.5330    66.3100    73.3520   -20.8590 
  184.0000     2.3320    74.5960    26.1340    78.6740    70.5240    77.5200   -20.5210 
  184.1250     2.3220    71.5050    26.1080    80.2140    71.5280    77.9450   -20.1660 
  184.2500     2.3060    71.0550    26.0360    73.2460    67.3300    72.4200   -19.7970 
  184.3750     2.2970    73.9400    25.9410    55.3620    57.2310    60.5440   -19.4180 
  184.5000     2.3020    80.2610    25.8670    32.6280    43.8620    45.5180   -19.0600 
  184.6250     2.3190    87.5650    25.7770    17.0540    32.1510    32.7040   -18.7800 
  184.7500     2.3430    91.4010    25.6370    10.1650    24.2900    24.3610   -18.5880 
  184.8750     2.3770    90.4940    25.4990     8.8730    20.2840    20.6420   -18.5220 
  185.0000     2.4060    88.4260    25.4320    12.0320    19.6920    21.2320   -18.5740 
  185.1250     2.4010    86.7240    25.4410    23.0970    23.1060    26.8100   -18.7700 
  185.2500     2.3660    82.3170    25.5210    44.8920    30.6510    37.0180   -19.1090 
  185.3750     2.3280    77.3000    25.7160    72.6490    42.7780    51.7690   -19.5390 
  185.5000     2.3050    75.9770    25.9960    93.7870    58.2610    69.1980   -20.0210 
  185.6250     2.2920    77.3830    26.2270    99.7650    72.3230    83.7060   -20.5240 
  185.7500     2.2800    78.0800    26.3240    99.0790    80.8080    91.2560   -20.9860 
  185.8750     2.2730    79.3410    26.3070    97.2780    83.7400    92.5750   -21.3780 
  186.0000     2.2740    82.8380    26.2460    97.0600    83.3040    90.7430   -21.7030 
  186.1250     2.2800    84.0780    26.2070    99.1110    81.0030    87.7080   -21.9320 
  186.2500     2.2880    80.3030    26.1940    99.4840    77.6500    84.0600   -22.0960 
  186.3750     2.2970    75.3640    26.1720    94.0900    73.3310    79.7150   -22.2190 
  186.5000     2.3020    74.5520    26.1260    83.1660    68.2200    74.7130   -22.3230 
  186.6250     2.3060    80.2070    26.0840    72.8600    62.7030    69.3170   -22.4270 
  186.7500     2.3150    82.9380    26.0640    67.0080    57.4020    64.0410   -22.5570 
  186.8750     2.3260    79.5150    26.0590    64.0190    52.7520    59.3220   -22.7160 
  187.0000     2.3340    76.2820    26.0650    60.8340    49.1240    55.6340   -22.8900 
  187.1250     2.3360    79.0440    26.1020    56.5520    47.1520    53.8810   -23.1100 
  187.2500     2.3380    82.2790    26.1600    53.4130    47.0650    54.4940   -23.3620 
  187.3750     2.3420    81.6990    26.2170    53.8850    49.4560    58.2320   -23.6330 
  187.5000     2.3450    79.4310    26.2560    60.2520    55.1260    65.9730   -23.9240 
  187.6250     2.3410    77.5400    26.2840    74.8780    65.6230    79.4060   -24.2240 
  187.7500     2.3270    74.4650    26.3160    94.3780    80.3630    97.8650   -24.5240 
  187.8750     2.3040    70.3190    26.3450   116.2460    98.1030   120.0440   -24.8240 
  188.0000     2.2790    66.3720    26.3550   140.8560   116.3700   142.9550   -25.1490 
  188.1250     2.2650    64.1070    26.2840   155.4240   131.9630   162.3010   -25.4850 
  188.2500     2.2660    63.3140    26.0980   142.7730   144.7040   177.8610   -25.8200 
  188.3750     2.2780    62.2070    25.8590   115.4340   156.9240   192.8700   -26.1680 
  188.5000     2.2900    60.2290    25.7040   107.0770   172.5490   212.1230   -26.5110 
  188.6250     2.2900    57.6410    25.7470   153.9180   196.1860   240.7620   -26.8640 
  188.7500     2.2790    56.7240    25.9030   258.5290   225.6350   275.9200   -27.2460 
  188.8750     2.2650    58.9580    26.0800   366.2750   253.7690   308.0940   -27.6310 
  189.0000     2.2530    62.4520    26.2070   402.1560   269.0660   321.3130   -28.0020 
  189.1250     2.2440    64.6800    26.2520   351.7640   258.4280   299.6260   -28.3520 
  189.2500     2.2390    64.6880    26.2710   290.4650   229.1610   257.4510   -28.6590 
  189.3750     2.2440    64.8660    26.3030   236.2530   192.6260   211.3710   -28.9280 
  189.5000     2.2570    66.5880    26.3390   190.6690   158.5500   172.0220   -29.1460 
  189.6250     2.2720    68.7930    26.3510   152.7990   133.1040   144.5910   -29.2900 
  189.7500     2.2810    71.0420    26.3480   123.0910   116.4280   127.3430   -29.3790 
  189.8750     2.2850    72.7410    26.3380   106.5370   108.7250   119.6470   -29.4390 
  190.0000     2.2870    73.7970    26.3340   105.9390   109.9540   121.0030   -29.4830 
  190.1250     2.2860    70.9670    26.3690   124.6640   121.5330   132.8000   -29.5500 
  190.2500     2.2770    65.2470    26.4290   159.1570   141.2570   153.3840   -29.6480 
  190.3750     2.2570    62.3480    26.4800   203.4650   165.8720   180.4200   -29.7650 
  190.5000     2.2370    64.2560    26.5000   244.1300   188.0830   206.3300   -29.9530 
  190.6250     2.2300    66.6460    26.4970   258.1410   195.5500   215.1720   -30.2350 
  190.7500     2.2320    66.7160    26.4730   234.0440   186.8840   204.4600   -30.5790 
  190.8750     2.2340    66.4520    26.3970   183.3860   168.0620   183.0820   -31.0060 
  191.0000     2.2340    66.7720    26.2660   136.4120   147.8710   162.1750   -31.5030 
  191.1250     2.2380    65.8550    26.1370   119.6370   133.7890   149.2950   -32.0490 
  191.2500     2.2460    64.9950    26.0670   124.4870   127.0240   144.5060   -32.6200 
  191.3750     2.2560    64.5800    26.0720   139.3340   127.3050   147.3050   -33.1460 
  191.5000     2.2660    62.4260    26.1640   154.3030   134.0260   157.1680   -33.5440 
  191.6250     2.2760    59.6270    26.3360   167.0630   147.5550   174.7850   -33.7330 
  191.7500     2.2760    60.3690    26.5040   182.9630   166.4530   198.6810   -33.7110 
  191.8750     2.2590    62.1570    26.6050   205.3440   190.2850   228.4840   -33.4700 
  192.0000     2.2300    60.4400    26.6500   236.9420   218.0580   263.2290   -33.0060 
  192.1250     2.2040    58.2860    26.7030   278.0540   247.1320   299.6760   -32.3180 
  192.2500     2.1940    59.0640    26.7940   306.6460   272.6620   331.0180   -31.4860 
  192.3750     2.1950    59.5270    26.9010   302.6580   290.4100   351.2200   -30.5870 
