~V
VERS. 2.00: Ver 2.00
~W
STRT.M 60.0000:
STOP.M 277.0000:
STEP.M 0.1250:
NULL. -999.2500:
UWI. DF3048:
~C
DEPT.M :
SP.MV :
GR.API :
RML.OHMM :
RI. :
RXO.OHMM :
CALI.CM :
DEN.GM/CC :
~A
# ...
  105.0000   -22.2290    70.1880     9.7380     8.3850    10.6040    22.8530  -999.2500 
  105.1250   -22.0760    76.3290     9.5280     8.2190    10.4180    22.9260  -999.2500 
  105.2500   -21.9240    82.3030     9.4410     8.1280    10.3550    23.0270  -999.2500 
  105.3750   -21.7530    82.9540     9.5160     8.1470    10.4290    23.0920  -999.2500 
  105.5000   -21.5700    79.5690     9.7330     8.2780    10.5860    23.1230  -999.2500 
  105.6250   -21.4350    76.7230    10.0170     8.4900    11.0180    23.1290  -999.2500 
  105.7500   -21.3100    76.3930    10.2530     8.7020    11.6390    23.1320  -999.2500 
  105.8750   -21.2260    78.0370    10.3800     8.8660    12.1300    23.1320  -999.2500 
  106.0000   -21.1550    80.0540    10.3960     8.9610    12.3580    23.1320  -999.2500 
  106.1250   -21.1470    78.1810    10.3440     8.9980    12.3810    23.1270  -999.2500 
  106.2500   -21.1030    74.5500    10.2960     9.0200    12.2930    23.1200  -999.2500 
  106.3750   -21.0680    73.8540    10.2770     9.0490    12.0840    23.1220  -999.2500 
  106.5000   -21.0270    76.7760    10.2850     9.0900    11.7750    23.1440  -999.2500 
  106.6250   -21.0240    78.5340    10.3010     9.1330    11.5850    23.2000  -999.2500 
  106.7500   -21.0540    78.1330    10.3110     9.1700    11.5800    23.2750  -999.2500 
  106.8750   -21.0300    77.1010    10.3220     9.2030    11.6420    23.3290  -999.2500 
  107.0000   -21.0570    76.2090    10.3510     9.2440    11.6250    23.3610  -999.2500 
  107.1250   -21.0420    74.9310    10.4180     9.3120    11.5230    23.4450  -999.2500 
  107.2500   -21.0750    72.6250    10.5080     9.4030    11.4400    23.5170  -999.2500 
  107.3750   -21.1140    70.9680    10.5940     9.5030    11.2480    23.5690  -999.2500 
  107.5000   -21.1730    71.0870    10.6400     9.5820    11.1060    23.5900  -999.2500 
  107.6250   -21.2010    71.1720    10.6080     9.6050    11.0740    23.5950  -999.2500 
  107.7500   -21.2040    69.9070    10.5090     9.5620    11.0070    23.5890  -999.2500 
  107.8750   -21.2660    69.0400    10.3550     9.4550    10.9690    23.5630  -999.2500 
  108.0000   -21.2890    70.3730    10.1570     9.2860    11.1030    23.5060  -999.2500 
  108.1250   -21.3450    70.9940     9.9050     9.0480    11.2890    23.5000  -999.2500 
  108.2500   -21.3530    70.8760     9.6060     8.7620    11.4110    23.6190  -999.2500 
  108.3750   -21.3650    71.2820     9.2820     8.4540    11.3990    23.8840  -999.2500 
  108.5000   -21.3440    71.4710     8.9770     8.1650    11.2180    23.9490  -999.2500 
  108.6250   -21.3360    71.4580     8.7800     7.9640    10.6780    23.9370  -999.2500 
  108.7500   -21.3470    72.2350     8.7370     7.8880     9.8900    23.9040  -999.2500 
  108.8750   -21.4080    72.7380     8.8620     7.9560     9.4640    23.9060  -999.2500 
  109.0000   -21.4660    72.9760     9.1260     8.1590     9.9740    23.9050  -999.2500 
  109.1250   -21.5160    74.7820     9.4540     8.4570    10.5890    23.9040  -999.2500 
  109.2500   -21.5760    78.0730     9.7330     8.7600    11.0930    23.9030  -999.2500 
  109.3750   -21.6260    78.1270     9.8880     8.9910    11.3340    23.8750  -999.2500 
  109.5000   -21.6670    74.1030     9.8850     9.0980    11.4610    23.7970  -999.2500 
  109.6250   -21.6370    70.6220     9.7250     9.0450    11.5040    23.6530  -999.2500 
  109.7500   -21.5610    69.1120     9.5080     8.8960    11.5000    23.6870  -999.2500 
  109.8750   -21.3840    68.5000     9.3120     8.7090    11.4350    23.9520  -999.2500 
  110.0000   -21.0750    69.5500     9.1820     8.5320    11.2150    24.1880  -999.2500 
  110.1250   -20.7230    72.6370     9.1050     8.3750    10.8740    24.0560  -999.2500 
  110.2500   -20.3250    74.6290     8.9880     8.1920    10.5180    23.7720  -999.2500 
  110.3750   -19.9130    74.5500     8.7420     7.9220    10.3410    23.7030  -999.2500 
  110.5000   -19.4460    74.9740     8.3250     7.5320    10.2470    23.7040  -999.2500 
  110.6250   -18.9790    77.7070     7.7790     7.0400    10.0740    23.2320  -999.2500 
  110.7500   -18.4690    80.0660     7.2700     6.5630     9.7120    23.1200  -999.2500 
  110.8750   -18.0240    81.9070     6.9480     6.2170     9.0590    23.3340  -999.2500 
  111.0000   -17.7490    82.9680     6.9330     6.1050     8.2450    23.6590  -999.2500 
  111.1250   -17.6130    81.9410     7.3410     6.3490     7.9240    23.7810  -999.2500 
  111.2500   -17.6420    79.6870     8.0650     6.8950     9.3060    23.7980  -999.2500 
  111.3750   -17.7440    77.7460     8.9720     7.6600    11.2950    23.8070  -999.2500 
  111.5000   -17.9440    75.3560     9.8640     8.4910    13.4840    23.7480  -999.2500 
  111.6250   -18.1840    72.1420    10.4650     9.1520    16.8160    23.5630  -999.2500 
  111.7500   -18.5150    71.1210    10.6810     9.5070    19.5730    23.2210  -999.2500 
  111.8750   -18.8140    72.4210    10.5390     9.5340    18.0170    22.9340  -999.2500 
  112.0000   -19.0730    72.5780    10.1830     9.3190    13.6110    22.7670  -999.2500 
  112.1250   -19.1960    70.5740     9.8040     9.0020    11.2320    22.7040  -999.2500 
  112.2500   -19.2260    70.2680     9.5270     8.7190    10.3370    22.7410  -999.2500 
  112.3750   -19.1740    71.7370     9.3730     8.5150    10.0980    22.8750  -999.2500 
  112.5000   -19.0860    72.9790     9.3080     8.3820    10.0780    23.0260  -999.2500 
  112.6250   -18.9730    72.7690     9.2650     8.2870    10.0190    23.1110  -999.2500 
  112.7500   -18.8320    71.8700     9.1860     8.1780     9.9230    23.1620  -999.2500 
  112.8750   -18.6460    71.9430     9.0540     8.0350     9.7500    23.2320  -999.2500 
  113.0000   -18.4330    75.8590     8.8790     7.8570     9.4180    23.2980  -999.2500 
  113.1250   -18.1780    82.8060     8.6870     7.6620     9.0300    23.4250  -999.2500 
  113.2500   -17.9690    86.3930     8.5140     7.4790     8.7700    23.6140  -999.2500 
  113.3750   -17.8280    83.2920     8.3800     7.3280     8.5730    23.7350  -999.2500 
  113.5000   -17.7860    78.5020     8.2950     7.2180     8.4610    23.7550  -999.2500 
  113.6250   -17.7840    78.3870     8.2610     7.1550     8.4450    23.7390  -999.2500 
  113.7500   -17.8530    81.8860     8.2550     7.1200     8.3980    23.8020  -999.2500 
  113.8750   -18.0080    85.5890     8.2660     7.1040     8.3190    23.8750  -999.2500 
  114.0000   -18.2490    86.9460     8.2910     7.1000     8.3290    23.8880  -999.2500 
  114.1250   -18.6250    84.5970     8.3400     7.1170     8.4290    23.7650  -999.2500 
  114.2500   -19.0060    79.0330     8.4120     7.1540     8.6400    23.6910     2.2060 
  114.3750   -19.4010    73.4170     8.4980     7.2110     8.8430    23.6310     2.2060 
  114.5000   -19.7570    71.9740     8.5770     7.2760     9.0150    23.6110     2.1970 
  114.6250   -20.1460    77.1430     8.6120     7.3270     9.2400    23.5660     2.1920 
  114.7500   -20.5050    83.7010     8.5940     7.3470     9.4490    23.4520     2.1940 
  114.8750   -20.8180    84.5900     8.5350     7.3370     9.5320    23.3450     2.1990 
  115.0000   -21.0630    78.0180     8.4610     7.3120     9.4770    23.3010     2.2040 
  115.1250   -21.2710    71.5330     8.4260     7.3090     9.3770    23.3040     2.2030 
  115.2500   -21.4080    71.3870     8.4640     7.3580     9.3780    23.3090     2.1980 
  115.3750   -21.4950    75.3040     8.5960     7.4770     9.4570    23.3070     2.1900 
  115.5000   -21.5090    76.4950     8.8230     7.6700     9.5950    23.3050     2.1820 
  115.6250   -21.4230    73.7920     9.1310     7.9310     9.8870    23.3090     2.1760 
  115.7500   -21.2130    71.7130     9.4420     8.2060    10.1680    23.3100     2.1720 
  115.8750   -20.9200    70.0820     9.6620     8.4250    10.3130    23.3090     2.1740 
  116.0000   -20.4530    68.3570     9.6850     8.4980    10.3010    23.3170     2.1850 
  116.1250   -19.7630    69.3440     9.3860     8.3040    10.1840    23.3540     2.2030 
