~V
VERS. 2.00: Ver 2.00
~W
STRT.M 65.0000:
STOP.M 270.0000:
STEP.M 0.1250:
NULL. -999.2500:
UWI. DF3062:
~C
DEPT.M :
SP.MV :
GR.API :
CALI.CM :
RXO.OHMM :
RI. :
RML.OHMM :
DEN.GM/CC :
~A
# ...
  188.7500   -38.4700    62.8240    23.3250    98.9310   109.1870   121.8380     2.2170 
  188.8750   -38.4800    61.2420    23.3280    94.8120   102.9430   115.2260     2.2190 
  189.0000   -38.4420    62.6000    23.3010    87.2350    98.1620   110.5300     2.2250 
  189.1250   -38.3220    64.2480    23.4450    78.0870    94.9360   107.7220     2.2240 
  189.2500   -38.1310    63.7540    23.8500    77.0150    92.9170   106.1550     2.2140 
  189.3750   -37.8810    62.9680    24.7590    90.6110    91.9290   105.7060     2.2040 
  189.5000   -37.5640    63.8760    25.1350   104.7840    92.0690   106.5000     2.2040 
  189.6250   -37.2310    66.0700    25.1730   101.2170    94.0550   109.5080     2.2110 
  189.7500   -36.9320    66.4580    25.0570    82.8100    98.5310   115.3540     2.2140 
  189.8750   -36.6980    65.4830    24.9520    73.8590   105.9080   124.1310     2.2050 
  190.0000   -36.5150    63.3890    24.9270    81.8070   115.5350   134.6650     2.1970 
  190.1250   -36.3880    60.5940    24.9540    99.3890   124.6850   143.3340     2.1980 
  190.2500   -36.2800    59.2980    25.0760   125.9420   129.5870   146.2270     2.2020 
  190.3750   -36.1900    60.3160    25.1680   139.7680   127.2350   140.2790     2.2020 
  190.5000   -36.0750    61.8160    25.1470   129.9980   116.1990   124.9390     2.2040 
  190.6250   -35.8860    60.9590    25.1000   121.6660    97.2880   102.7950     2.2150 
  190.7500   -35.6060    59.8170    25.0040   116.2180    77.0420    80.5390     2.2370 
  190.8750   -35.2470    62.0250    24.8410    93.5440    59.4690    61.8760     2.2660 
  191.0000   -34.8740    67.7210    24.7800    59.1910    46.2130    48.0430     2.2980 
  191.1250   -34.5260    71.4190    24.5130    33.6630    37.3680    39.0970     2.3330 
  191.2500   -34.2450    69.1280    24.3850    24.8860    31.3750    33.1780     2.3740 
  191.3750   -34.0520    62.8010    24.4630    23.1140    27.5050    29.5040     2.4210 
  191.5000   -33.9650    59.5300    24.3290    23.8350    25.2470    27.5500     2.4630 
  191.6250   -34.0210    64.2210    24.2730    26.1340    24.5520    27.4520     2.4860 
  191.7500   -34.2300    73.0170    24.0230    23.9380    25.4080    29.6510     2.4800 
  191.8750   -34.5580    80.7000    23.6500    16.8630    28.3780    34.7640     2.4350 
  192.0000   -34.9650    81.8530    23.3660    12.0340    33.8060    42.8660     2.3710 
  192.1250   -35.4030    75.7480    23.2710    21.6830    42.4460    54.3640     2.3100 
  192.2500   -35.8100    70.4950    23.1900    36.5850    53.8560    68.3140     2.2660 
  192.3750   -36.1620    70.9500    23.3210    46.6680    67.1220    83.5230     2.2480 
  192.5000   -36.4600    73.0310    23.4120    49.5500    80.5480    98.1900     2.2480 
  192.6250   -36.7280    68.0870    23.4800    51.5700    91.0160   109.1570     2.2580 
  192.7500   -36.9720    61.5500    23.6920    59.5860    96.4100   114.5360     2.2690 
  192.8750   -37.2250    60.5870    23.9530    71.2300    96.7200   114.3450     2.2700 
  193.0000   -37.4780    64.5380    24.1900    80.5850    94.4880   111.9960     2.2630 
  193.1250   -37.7280    68.0460    24.1100    80.4510    92.2240   110.4160     2.2530 
  193.2500   -37.9660    68.9490    24.0070    73.4180    90.0840   109.0700     2.2540 
  193.3750   -38.1770    68.1220    23.7490    67.0620    87.8960   107.4950     2.2710 
  193.5000   -38.3320    66.1540    23.7520    67.5050    85.4210   105.3890     2.2910 
  193.6250   -38.4190    64.7540    24.0620    74.9050    82.3410   102.1790     2.3040 
  193.7500   -38.4270    65.8010    24.3680    80.5710    78.5440    97.6860     2.3050 
  193.8750   -38.3520    68.1710    24.4160    80.2510    73.8610    91.8800     2.2950 
  194.0000   -38.2170    69.9400    24.3760    77.0140    68.4660    85.0220     2.2820 
  194.1250   -38.0720    70.5140    24.3660    72.2280    62.7860    77.7400     2.2740 
  194.2500   -37.9730    72.2650    24.3830    65.1440    57.5070    71.0280     2.2700 
  194.3750   -37.9420    73.5210    24.4900    52.8850    52.9860    65.3770     2.2690 
  194.5000   -38.0090    71.0890    24.5190    40.7940    49.3530    60.9290     2.2670 
  194.6250   -38.1220    66.1540    24.4660    37.6760    46.7170    57.7470     2.2660 
  194.7500   -38.2680    63.8980    24.3660    38.7790    44.6590    55.3420     2.2680 
  194.8750   -38.4240    66.1550    24.3630    40.4570    43.0600    53.5290     2.2730 
  195.0000   -38.5760    70.2760    24.3740    39.8510    41.9340    52.3380     2.2820 
  195.1250   -38.7090    72.3190    24.4290    36.6070    41.5310    52.1410     2.2920 
  195.2500   -38.8140    70.8400    24.5250    32.9110    41.9670    53.1190     2.3020 
  195.3750   -38.8920    68.0670    24.4200    31.1860    43.4780    55.5920     2.3050 
  195.5000   -38.9730    67.3890    24.4810    32.4900    46.1810    59.6690     2.2970 
  195.6250   -39.1120    69.1850    24.3770    40.4260    50.0560    65.2450     2.2790 
  195.7500   -39.3110    69.0530    24.3680    51.9870    54.4920    71.2760     2.2560 
  195.8750   -39.5840    66.7220    24.3700    60.8380    58.7910    76.8940     2.2370 
  196.0000   -39.9060    66.0410    24.3820    64.0060    62.2420    81.3570     2.2290 
  196.1250   -40.2400    68.6770    24.4730    63.8050    64.2150    83.9790     2.2270 
  196.2500   -40.5590    71.4940    24.4750    61.6740    64.9150    85.0770     2.2310 
  196.3750   -40.8270    71.7710    24.5130    57.3470    64.8060    85.2560     2.2460 
  196.5000   -41.0040    69.0590    24.3860    55.0550    64.6450    85.6870     2.2680 
  196.6250   -41.1030    65.0110    24.3180    56.1540    65.5920    88.0240     2.2890 
  196.7500   -41.1540    63.1570    24.2000    60.7570    68.1180    92.8980     2.2940 
  196.8750   -41.1630    64.7360    24.0820    66.9580    73.2270   101.3290     2.2810 
  197.0000   -41.1570    66.9050    23.9070    70.0370    81.8540   113.9810     2.2620 
  197.1250   -41.1720    65.7570    23.6500    66.2490    94.1970   130.9830     2.2430 
  197.2500   -41.2360    62.2070    23.5560    79.1630   108.6890   150.3560     2.2230 
  197.3750   -41.3640    58.7340    23.5280   111.3780   123.7410   169.5820     2.2110 
  197.5000   -41.5470    57.7490    23.4120   141.8520   136.6070   184.3930     2.2170 
  197.6250   -41.7210    59.6730    23.4360   168.1460   142.9970   188.4920     2.2410 
  197.7500   -41.8370    61.6850    23.4950   182.7860   141.8720   181.9260     2.2660 
  197.8750   -41.8840    61.9020    23.6260   160.7280   133.6580   166.6830     2.2700 
  198.0000   -41.8640    59.9300    23.9050   120.5160   120.5510   146.8660     2.2570 
  198.1250   -41.7610    58.8060    24.0740   108.9670   106.8610   128.4100     2.2410 
  198.2500   -41.5930    62.3680    24.4970    99.4380    95.1400   113.3660     2.2370 
  198.3750   -41.3890    69.3620    24.5540    80.3980    85.9030   102.1250     2.2470 
  198.5000   -41.1750    74.0580    24.2080    63.1220    79.7890    95.3150     2.2590 
  198.6250   -41.0150    72.8040    24.1040    58.1810    77.9780    93.8920     2.2640 
  198.7500   -40.9340    67.9070    24.2910    60.3430    79.9110    97.0810     2.2570 
  198.8750   -40.9130    62.5320    24.6360    68.6800    86.2230   105.3920     2.2440 
  199.0000   -40.9550    59.4190    24.8460    76.5900    97.9260   119.6030     2.2330 
  199.1250   -41.0240    59.2290    24.8720    82.5320   115.5730   139.9350     2.2180 
  199.2500   -41.0410    57.0610    24.8720   105.5110   135.7580   162.7560     2.1920 
  199.3750   -41.0070    51.4060    24.8500   168.1430   155.2230   184.2670     2.1650 
  199.5000   -40.9250    47.1750    24.8380   235.3250   170.3540   199.9780     2.1590 
  199.6250   -40.7720    49.1970    24.8320   237.4610   176.7460   204.5250     2.1780 
  199.7500   -40.5920    51.4810    24.8320   208.1110   175.8910   200.7750     2.2070 
  199.8750   -40.4220    52.3750    24.8630   176.0210   171.1400   193.6240     2.2250 
