~V
VERS. 2.00: Ver 2.00
~W
STRT.M 60.0000:
STOP.M 283.0000:
STEP.M 0.1250:
NULL. -999.2500:
UWI. DF3045:
~C
DEPT.M :
DEN.GM/CC :
SP.MV :
AC.US/MT :
GR.API :
CALI.CM :
RXO.OHMM :
RI. :
RML.OHMM :
~A
# ...
  100.0000  -999.2500   -27.3280  -999.2500    83.5140    24.2550     6.6830     6.5670     8.5770 
  100.1250  -999.2500   -27.4440  -999.2500    80.1700    24.3090     6.5950     6.5360     8.5310 
  100.2500  -999.2500   -27.6030  -999.2500    75.7890    24.4320     9.2490     6.5070     8.4850 
  100.3750  -999.2500   -27.7790  -999.2500    76.8360    24.4350    11.4310     6.5070     8.5140 
  100.5000  -999.2500   -27.9870  -999.2500    82.2990    24.2820    10.2430     6.5570     8.6310 
  100.6250  -999.2500   -28.2280  -999.2500    83.7820    24.2850     7.2800     6.6810     8.8110 
  100.7500  -999.2500   -28.5050  -999.2500    80.2770    24.2900     6.0000     6.8460     9.0190 
  100.8750  -999.2500   -28.8190  -999.2500    76.8600    24.0430     6.1900     7.0270     9.2460 
  101.0000  -999.2500   -29.1880  -999.2500    74.3570    23.9030     7.0470     7.1960     9.4500 
  101.1250  -999.2500   -29.6230  -999.2500    70.0100    23.6930     7.9190     7.3090     9.5710 
  101.2500  -999.2500   -30.0610  -999.2500    66.8980    23.7190     8.3460     7.3540     9.5800 
  101.3750  -999.2500   -30.4940  -999.2500    68.4900    23.6600     8.5770     7.2970     9.4260 
  101.5000  -999.2500   -30.8960  -999.2500    72.0750    23.6330     8.6300     7.1580     9.1780 
  101.6250  -999.2500   -31.2720  -999.2500    72.1410    23.6630     8.3240     7.0040     8.9460 
  101.7500  -999.2500   -31.6040  -999.2500    71.3270    23.7360     7.7050     6.9020     8.8280 
  101.8750  -999.2500   -31.8950  -999.2500    74.1390    23.7270     7.2010     6.8830     8.8470 
  102.0000  -999.2500   -32.1470  -999.2500    79.0550    23.7160     6.9440     6.9560     8.9820 
  102.1250  -999.2500   -32.3500  -999.2500    79.9190    23.7160     7.6240     7.1040     9.2110 
  102.2500  -999.2500   -32.5370  -999.2500    76.4130    23.7790     8.6600     7.2690     9.4560 
  102.3750  -999.2500   -32.7200  -999.2500    71.9760    24.1260     9.4410     7.4240     9.6840 
  102.5000  -999.2500   -32.8970  -999.2500    69.4290    24.2980     9.6700     7.5460     9.8480 
  102.6250  -999.2500   -33.0740  -999.2500    66.7530    24.3070     9.6200     7.6100     9.9230 
  102.7500  -999.2500   -33.2540  -999.2500    64.9140    24.3170     9.6920     7.6330     9.9430 
  102.8750  -999.2500   -33.4200  -999.2500    65.6940    24.3370     9.7850     7.6390     9.9450 
  103.0000  -999.2500   -33.5560  -999.2500    65.7860    24.3310     9.6400     7.6390     9.9550 
  103.1250  -999.2500   -33.6580  -999.2500    61.5560    24.3150     9.4160     7.6150     9.9180 
  103.2500  -999.2500   -33.7270  -999.2500    57.5160    24.3170     9.4890     7.5540     9.8240 
  103.3750  -999.2500   -33.7500  -999.2500    58.5010    24.3370     9.6870     7.4540     9.6640 
  103.5000  -999.2500   -33.7450  -999.2500    65.3290    24.3550     9.8000     7.3160     9.4590 
  103.6250  -999.2500   -33.7240  -999.2500    73.0680    24.4290     9.7250     7.1540     9.2340 
  103.7500  -999.2500   -33.6840  -999.2500    76.8140    24.3170     9.4070     7.0190     9.0620 
  103.8750  -999.2500   -33.6810  -999.2500    76.6920    23.8790     8.5840     6.9450     9.0100 
  104.0000  -999.2500   -33.7450  -999.2500    75.7460    23.4920     7.9660     6.9620     9.0940 
  104.1250  -999.2500   -33.8730  -999.2500    74.2820    23.5670     8.0970     7.1000     9.3290 
  104.2500  -999.2500   -34.0380  -999.2500    72.0360    23.7980     9.1640     7.3090     9.6330 
  104.3750  -999.2500   -34.2300  -999.2500    70.8040    23.9740    10.0790     7.5320     9.9230 
  104.5000  -999.2500   -34.4350  -999.2500    70.9230    24.0650    10.4450     7.7320    10.1440 
  104.6250  -999.2500   -34.6430  -999.2500    70.7370    24.0550    10.6010     7.8600    10.2340 
  104.7500  -999.2500   -34.8550  -999.2500    70.4080    24.0220    10.7590     7.9170    10.2340 
  104.8750  -999.2500   -35.0310  -999.2500    71.9310    24.0170    10.8170     7.9310    10.1790 
  105.0000  -999.2500   -35.1600  -999.2500    73.2510    24.0390    10.7000     7.9420    10.1570 
  105.1250  -999.2500   -35.2400  -999.2500    70.9210    24.0420    10.6180     8.0020    10.2150 
  105.2500  -999.2500   -35.2950  -999.2500    68.4660    24.0220    10.9780     8.1370    10.3610 
  105.3750  -999.2500   -35.3450  -999.2500    67.7640    24.0280    11.5110     8.3290    10.5720 
  105.5000  -999.2500   -35.4040  -999.2500    69.2390    24.0510    11.8220     8.5510    10.8220 
  105.6250  -999.2500   -35.4560  -999.2500    70.4040    24.0240    12.0810     8.7730    11.0840 
  105.7500  -999.2500   -35.4990  -999.2500    69.3170    24.0280    12.1560     8.9630    11.2930 
  105.8750  -999.2500   -35.5230  -999.2500    66.2540    24.0750    12.1520     9.0800    11.4090 
  106.0000  -999.2500   -35.5140  -999.2500    62.3800    24.3400    12.1500     9.1070    11.4220 
  106.1250  -999.2500   -35.4610  -999.2500    61.3150    24.4010    11.8830     9.0230    11.2760 
  106.2500  -999.2500   -35.3620  -999.2500    62.4320    24.3500    11.6980     8.8400    10.9830 
  106.3750  -999.2500   -35.2260  -999.2500    63.4140    24.3480    11.5980     8.5830    10.5770 
  106.5000  -999.2500   -35.0630  -999.2500    63.5500    24.4100    11.3600     8.2920    10.1300 
  106.6250  -999.2500   -34.8620  -999.2500    62.5810    24.2410    10.8790     8.0220     9.7340 
  106.7500  -999.2500   -34.6510  -999.2500    62.7990    24.0780    10.4470     7.8300     9.4720 
  106.8750  -999.2500   -34.4630  -999.2500    65.0960    24.1030     9.9170     7.7760     9.4230 
  107.0000  -999.2500   -34.3250  -999.2500    69.6230    24.1080     9.5720     7.8840     9.5910 
  107.1250  -999.2500   -34.2010  -999.2500    72.5250    24.0590    10.0290     8.1430     9.9410 
  107.2500  -999.2500   -34.0750  -999.2500    70.9090    24.0280    11.0390     8.4340    10.3170 
  107.3750  -999.2500   -33.9430  -999.2500    66.5290    24.0100    11.8060     8.6440    10.5490 
  107.5000  -999.2500   -33.7820  -999.2500    65.1290    24.0510    12.2500     8.6280    10.4780 
  107.6250  -999.2500   -33.5710  -999.2500    69.7950    24.0450    12.5300     8.2280     9.9200 
  107.7500  -999.2500   -33.3400  -999.2500    75.2680    24.0440    12.1140     7.5730     9.0700 
  107.8750  -999.2500   -33.1030  -999.2500    80.1980    24.2190    10.5110     6.8540     8.1730 
  108.0000  -999.2500   -32.8790  -999.2500    85.7500    24.3910     7.9610     6.2560     7.4890 
  108.1250  -999.2500   -32.7490  -999.2500    90.3140    24.5490     5.9730     5.9510     7.2450 
  108.2500  -999.2500   -32.7570  -999.2500    91.0450    24.6130     5.3580     5.9880     7.4680 
  108.3750  -999.2500   -32.9020  -999.2500    86.8960    24.6090     5.5360     6.3560     8.1050 
  108.5000  -999.2500   -33.1840  -999.2500    80.6020    24.3150     6.5660     7.0010     9.0250 
  108.6250  -999.2500   -33.6460  -999.2500    76.2990    23.6900     8.9180     7.8340    10.0600 
  108.7500  -999.2500   -34.2090  -999.2500    73.6510    23.2950    10.8470     8.6310    10.9580 
  108.8750  -999.2500   -34.8220  -999.2500    70.4970    23.0830    11.6970     9.2170    11.5210 
  109.0000  -999.2500   -35.4470  -999.2500    67.7710    23.0280    12.0890     9.5030    11.6740 
  109.1250  -999.2500   -36.0390  -999.2500    69.1740    23.0360    12.4710     9.4810    11.4710 
  109.2500     2.2480   -36.5600  -999.2500    72.5080    23.0950    12.8300     9.2830    11.1230 
  109.3750     2.2480   -37.0000  -999.2500    73.8220    23.1720    13.0370     9.0180    10.7570 
  109.5000     2.2570   -37.3620  -999.2500    72.6800    23.4390    13.0130     8.7860    10.4710 
  109.6250     2.2550   -37.6420  -999.2500    68.2810    24.1830    12.6250     8.5950    10.2930 
  109.7500     2.2280   -37.8690  -999.2500    63.3270    24.3160    11.8710     8.4590    10.1900 
  109.8750     2.1890   -38.0780  -999.2500    63.6510    24.3900    10.8300     8.3810    10.1620 
