~V
VERS. 2.00: Ver 2.00
~W
STRT.M 65.0000:
STOP.M 252.0000:
STEP.M 0.1250:
NULL. -999.2500:
UWI. DF3012:
~C
DEPT.M :
GR.API :
RML.OHMM :
RI. :
RXO.OHMM :
CALI.CM :
DEN.GM/CC :
SP.MV :
~A
# ...
  166.2500    80.4080    76.8680    74.6790    83.8180    23.5300     2.2790   -29.5500 
  166.3750    80.5940    72.1180    69.2920    84.2370    23.6080     2.2710   -29.5210 
  166.5000    80.5310    67.4050    63.6110    80.4050    23.7360     2.2640   -29.5780 
  166.6250    83.0170    64.8080    59.6200    69.3490    23.8650     2.2590   -29.5990 
  166.7500    84.2490    64.9540    58.0610    61.5870    23.9020     2.2520   -29.6630 
  166.8750    81.6260    67.7330    58.9900    61.8800    23.8140     2.2430   -29.7870 
  167.0000    78.2560    72.3840    61.8800    68.1840    23.6230     2.2340   -29.9800 
  167.1250    78.2690    77.7630    65.9010    75.5720    23.5330     2.2330   -30.1240 
  167.2500    80.0610    82.6010    69.8500    81.3030    23.5060     2.2390   -30.3280 
  167.3750    80.1000    86.2460    73.0300    85.8470    23.5130     2.2510   -30.5050 
  167.5000    77.1770    88.5510    75.1240    86.4350    23.5420     2.2650   -30.5850 
  167.6250    73.5430    89.7740    76.1660    85.1520    23.6270     2.2750   -30.6850 
  167.7500    71.3940    90.7430    76.8300    86.7050    23.7500     2.2810   -30.5850 
  167.8750    71.1700    91.9620    77.6000    87.5830    23.9330     2.2810   -30.4520 
  168.0000    70.2920    93.7360    78.8510    82.8420    24.2010     2.2770   -30.2920 
  168.1250    66.7060    96.1800    80.9330    79.4670    24.5150     2.2710   -30.0220 
  168.2500    64.2820    98.8470    83.6900    84.0710    24.7680     2.2640   -29.8000 
  168.3750    65.0300   101.2210    86.8690    94.6380    24.8740     2.2560   -29.5560 
  168.5000    67.9990   102.9190    90.1930   101.7010    24.8830     2.2490   -29.3030 
  168.6250    71.7680   104.1530    93.7320    98.8840    24.8480     2.2420   -29.0920 
  168.7500    74.5070   106.1660    98.0900    99.8110    24.8010     2.2380   -28.9550 
  168.8750    73.8500   110.1500   104.0060   105.9260    24.7530     2.2360   -28.7630 
  169.0000    70.6380   116.2420   111.4900   111.0880    24.7480     2.2360   -28.5950 
  169.1250    70.3850   121.8780   118.3060   111.8290    24.8160     2.2360   -28.5380 
  169.2500    73.9230   122.2770   120.2110   113.7850    24.8760     2.2350   -28.4030 
  169.3750    78.4570   113.3670   113.2560   118.3630    24.8970     2.2330   -28.2990 
  169.5000    81.6100    94.2950    96.1410   119.7170    24.8890     2.2370   -28.1860 
  169.6250    82.6850    69.2590    72.0300   106.8000    24.8060     2.2570   -28.0560 
  169.7500    83.9420    46.7000    49.2920    68.1450    24.6260     2.2940   -27.9780 
  169.8750    88.8290    30.4130    32.3310    31.0960    24.4180     2.3460   -27.9830 
  170.0000    97.5770    20.5940    21.8390    15.2490    24.2420     2.4020   -28.0520 
  170.1250   104.0340    16.4200    16.9890    11.6120    24.0870     2.4420   -28.1360 
  170.2500   103.8340    15.7990    15.4790    11.6570    23.9280     2.4550   -28.3510 
  170.3750    98.8170    18.5390    17.0700    13.8090    23.8340     2.4390   -28.6350 
  170.5000    92.8600    25.1470    22.4500    19.1160    23.8050     2.4020   -29.0040 
  170.6250    87.8360    37.3640    33.8410    31.4200    23.8240     2.3540   -29.4600 
  170.7500    84.6690    54.9960    51.3970    52.8520    23.8910     2.3090   -29.8920 
  170.8750    81.5290    77.7490    74.8400    84.9260    24.0230     2.2740   -30.3830 
  171.0000    75.5720   104.3390   102.4080   118.0150    24.1740     2.2500   -30.8100 
  171.1250    70.7460   132.4790   130.6910   145.9360    24.3070     2.2380   -31.1950 
  171.2500    70.6830   159.1620   155.8610   183.8130    24.4230     2.2330   -31.5640 
  171.3750    72.0800   182.5050   175.6470   223.7300    24.6110     2.2310   -31.8050 
  171.5000    70.9690   201.4140   189.0260   247.1670    24.8040     2.2300   -32.0920 
  171.6250    69.1800   214.3800   194.9400   257.1390    24.8810     2.2280   -32.2980 
  171.7500    70.0710   221.9420   195.3630   260.2420    24.9010     2.2260   -32.3970 
  171.8750    71.8400   224.4410   191.8000   244.1110    24.9180     2.2260   -32.4370 
  172.0000    71.5090   222.8960   186.0510   211.8750    24.9590     2.2290   -32.4770 
  172.1250    68.3070   218.6440   179.8940   191.9700    24.9920     2.2340   -32.4660 
  172.2500    66.5020   213.8870   174.7040   187.4530    25.0260     2.2390   -32.3390 
  172.3750    69.4950   209.8910   171.1490   188.2800    25.0540     2.2400   -32.2910 
  172.5000    73.6040   207.4460   169.5360   186.7720    25.0660     2.2360   -32.1230 
  172.6250    72.4230   207.2040   170.2040   188.0310    25.0540     2.2290   -31.8690 
  172.7500    70.4350   208.6350   172.5150   195.6000    25.0260     2.2230   -31.7720 
  172.8750    71.5250   210.8260   175.7220   201.8480    24.9990     2.2210   -31.6330 
  173.0000    73.0260   211.8890   178.3560   200.1680    24.9790     2.2220   -31.4760 
  173.1250    72.6500   207.7860   177.2290   197.4250    24.9520     2.2240   -31.3160 
  173.2500    71.7220   196.0880   170.1110   198.3980    24.9210     2.2240   -31.1550 
  173.3750    70.2570   176.1900   156.0150   197.6590    24.9240     2.2230   -30.9450 
  173.5000    69.8130   150.7980   136.4620   190.5720    24.9520     2.2230   -30.7430 
  173.6250    73.0770   125.9170   115.6730   173.4340    24.9370     2.2290   -30.6380 
  173.7500    75.9600   106.5360    98.3380   131.6090    24.9080     2.2390   -30.3980 
  173.8750    75.3630    94.1490    86.4570    86.2730    24.9380     2.2450   -30.2140 
  174.0000    73.8680    87.8610    79.9250    65.9640    24.9930     2.2450   -30.0660 
  174.1250    73.6830    85.7580    77.5260    68.5330    25.0460     2.2360   -29.9130 
  174.2500    71.7270    84.6220    76.4450    80.5180    25.0620     2.2280   -29.8490 
  174.3750    69.2370    82.9070    75.2120    94.2600    25.0660     2.2290   -29.7530 
  174.5000    71.0340    80.1390    73.2060    99.4410    25.0580     2.2400   -29.6940 
  174.6250    74.0880    77.0450    70.7820    85.8400    25.0340     2.2570   -29.6450 
  174.7500    74.9460    75.0650    69.0830    69.2530    25.0030     2.2720   -29.6020 
  174.8750    75.7220    75.0870    68.9420    62.1610    24.9890     2.2800   -29.5910 
  175.0000    77.7070    77.2000    70.5830    64.3220    24.9830     2.2830   -29.5650 
  175.1250    79.5140    80.6850    73.5610    71.0360    24.9780     2.2810   -29.5390 
  175.2500    80.0350    83.8280    76.4420    76.0680    24.9760     2.2800   -29.5320 
  175.3750    80.2310    85.3400    78.0810    79.2760    24.9820     2.2770   -29.6250 
  175.5000    79.8300    84.5280    77.7790    83.2930    24.9870     2.2730   -29.7060 
  175.6250    76.6760    81.4570    75.4500    89.4660    24.9870     2.2700   -29.8230 
  175.7500    73.3040    77.8010    72.4590    93.3430    24.9830     2.2710   -30.0780 
  175.8750    73.2900    74.9490    69.9970    91.6640    24.9570     2.2760   -30.2830 
  176.0000    78.5340    73.8830    68.9660    86.9650    24.8970     2.2840   -30.5170 
  176.1250    84.0260    75.1200    69.9150    82.7360    24.8550     2.2890   -30.7970 
  176.2500    84.3690    77.5600    71.9870    79.4720    24.8960     2.2870   -31.0300 
  176.3750    81.3910    79.9890    74.1520    77.8950    24.9790     2.2800   -31.2640 
  176.5000    78.7720    81.1440    75.2780    78.4420    25.0050     2.2700   -31.4880 
  176.6250    77.4840    79.7730    74.1650    78.9890    24.9410     2.2620   -31.6680 
  176.7500    76.5510    76.2780    71.0490    74.6160    24.9010     2.2570   -31.7660 
  176.8750    76.4750    71.4020    66.5150    65.2920    24.9490     2.2560   -31.9050 
  177.0000    78.0880    66.1110    61.4140    55.4520    25.0240     2.2580   -32.0190 
  177.1250    79.2900    61.5290    56.7540    48.7700    25.0190     2.2630   -32.1330 
  177.2500    78.8340    58.5000    53.3420    44.9490    24.9520     2.2730   -32.3000 
  177.3750    78.4030    57.9220    51.9680    43.2710    24.9180     2.2860   -32.3740 
