~V
VERS. 2.00: Ver 2.00
~W
STRT.M 60.0000:
STOP.M 282.0000:
STEP.M 0.1250:
NULL. -999.2500:
UWI. DF3058:
~C
DEPT.M :
GR.API :
RML.OHMM :
RI. :
RXO.OHMM :
CALI.CM :
DEN.GM/CC :
SP.MV :
~A
# ...
  150.0000    71.5730    18.7430    17.0300    17.5300    24.7450     2.3990   -18.2800 
  150.1250    75.0110    19.0570    17.4870    18.3310    24.7130     2.3670   -18.1990 
  150.2500    79.6720    19.1500    17.6770    19.9580    24.7450     2.3490   -18.1000 
  150.3750    80.9380    18.7070    17.3910    22.0270    24.7960     2.3600   -18.0050 
  150.5000    77.5900    17.4270    16.3940    23.5400    24.7150     2.3900   -17.9320 
  150.6250    74.7560    15.2130    14.5470    22.7620    24.5020     2.4100   -17.8770 
  150.7500    77.1650    12.7050    12.3330    17.6510    24.4190     2.4020   -17.8650 
  150.8750    81.9680    10.4850    10.2330    11.8120    24.4290     2.3710   -17.8940 
  151.0000    84.1300     8.9220     8.5980     8.2300    24.4170     2.3370   -17.9380 
  151.1250    83.6180     8.1780     7.6360     7.2040    24.2820     2.3150   -17.9850 
  151.2500    84.6460     7.9510     7.1630     6.9840    24.1180     2.3050   -18.0390 
  151.3750    87.5840     8.0160     7.0290     7.0280    24.0470     2.3030   -18.0880 
  151.5000    89.4170     8.1750     7.0780     7.0740    24.0380     2.3020   -18.1090 
  151.6250    88.8800     8.2820     7.1880     7.1090    24.0380     2.2960   -18.1140 
  151.7500    87.1030     8.3150     7.2920     7.2280    24.0380     2.2860   -18.0910 
  151.8750    83.2850     8.3280     7.4060     7.5050    24.0380     2.2710   -18.0400 
  152.0000    78.8510     8.4340     7.5960     8.0990    24.0380     2.2540   -17.9810 
  152.1250    77.5280     8.8690     8.0230     9.1360    24.0420     2.2470   -17.9170 
  152.2500    78.2030     9.7820     8.7960    10.9140    24.0610     2.2580   -17.8250 
  152.3750    78.6300    11.2470     9.9900    13.7100    24.0970     2.2930   -17.7020 
  152.5000    76.6310    13.1620    11.5560    17.4780    24.1170     2.3540   -17.5780 
  152.6250    70.4280    15.1310    13.2360    20.5820    24.1100     2.4270   -17.4580 
  152.7500    62.5880    16.5260    14.5430    22.2250    24.0770     2.4860   -17.3400 
  152.8750    57.3280    16.8370    15.0400    20.9500    24.0380     2.5150   -17.2450 
  153.0000    56.5500    15.8880    14.5080    17.7410    23.9940     2.5100   -17.2000 
  153.1250    57.8560    13.9970    13.0790    15.6010    23.9240     2.4770   -17.1750 
  153.2500    60.5810    12.1560    11.5130    14.2150    23.8860     2.4320   -17.1600 
  153.3750    66.6750    11.0130    10.3470    12.4960    23.8720     2.3860   -17.1910 
  153.5000    73.0530    10.8470     9.8750    10.4260    23.8710     2.3510   -17.2420 
  153.6250    72.9300    11.6090    10.1850    10.3620    23.8710     2.3400   -17.3170 
  153.7500    67.6270    12.6140    10.8380    11.9690    23.8710     2.3500   -17.3890 
  153.8750    60.6820    13.2570    11.3920    13.8370    23.8830     2.3680   -17.4290 
  154.0000    56.7630    13.0500    11.4220    14.8460    23.9380     2.3770   -17.4320 
  154.1250    61.0030    11.7660    10.6140    13.3620    24.0730     2.3630   -17.4540 
  154.2500    70.0720    10.0510     9.3470    10.2300    24.1920     2.3320   -17.5020 
  154.3750    77.1770     8.5140     8.0710     7.5980    24.2460     2.2980   -17.5310 
  154.5000    78.7490     7.5390     7.1330     6.6560    24.2570     2.2710   -17.5660 
  154.6250    79.3220     7.3230     6.7570     6.5620    24.2600     2.2590   -17.5810 
  154.7500    81.6000     7.6580     6.8420     6.7080    24.2730     2.2570   -17.5990 
  154.8750    82.3620     8.3660     7.2840     7.0590    24.2960     2.2640   -17.6450 
  155.0000    79.4580     9.2110     7.9090     7.7840    24.2850     2.2760   -17.6880 
  155.1250    73.5300     9.8440     8.4560     8.7580    24.2060     2.2910   -17.6820 
  155.2500    68.2600    10.0230     8.6960     9.6660    24.0830     2.3030   -17.6570 
  155.3750    65.8860     9.6650     8.5290    10.0260    24.0180     2.3080   -17.6280 
  155.5000    68.8950     8.9150     8.0270     9.1340    24.0790     2.3020   -17.5720 
  155.6250    77.1550     8.2070     7.4760     7.9490    24.2440     2.2890   -17.5110 
  155.7500    83.2880     8.0370     7.2670     7.8940    24.3360     2.2770   -17.4410 
  155.8750    82.0420     8.7240     7.6850     8.6890    24.3680     2.2750   -17.3430 
  156.0000    73.5510    10.3560     8.8770    10.6310    24.3840     2.2880   -17.2610 
  156.1250    64.8980    12.7430    10.8240    13.6880    24.4190     2.3190   -17.2180 
  156.2500    60.4660    15.0710    12.9240    16.9670    24.4060     2.3600   -17.1840 
  156.3750    59.4320    16.5350    14.5000    19.5440    24.2640     2.4020   -17.1740 
  156.5000    60.6390    16.5120    14.9120    20.1300    24.1050     2.4290   -17.2060 
  156.6250    66.3410    14.7710    13.7570    17.3740    23.9890     2.4270   -17.2470 
  156.7500    73.3910    12.3660    11.8300    13.1480    23.9400     2.4020   -17.3130 
  156.8750    76.2510    10.1600     9.8790     9.8790    23.9090     2.3650   -17.4010 
  157.0000    76.1300     8.6570     8.3970     7.8790    23.8090     2.3300   -17.4800 
  157.1250    78.9350     8.0560     7.6270     7.2580    23.5060     2.3080   -17.5410 
  157.2500    83.0310     8.0250     7.3660     7.1540    23.4180     2.2950   -17.6020 
  157.3750    84.5100     8.3040     7.4410     7.1710    23.6090     2.2890   -17.6500 
  157.5000    84.2230     8.6530     7.6640     7.0900    24.0540     2.2830   -17.6760 
  157.6250    84.3960     8.8800     7.8620     7.0440    24.1180     2.2760   -17.6960 
  157.7500    84.1130     8.9720     7.9660     7.0550    23.8050     2.2710   -17.7000 
  157.8750    84.0120     9.0050     8.0040     7.0220    23.4580     2.2690   -17.7050 
  158.0000    84.1730     9.0730     8.0310     6.9360    23.3180     2.2680   -17.7120 
  158.1250    84.3890     9.2070     8.0750     7.0050    23.3170     2.2650   -17.7200 
  158.2500    85.1830     9.2990     8.0780     7.3590    23.3180     2.2580   -17.7180 
  158.3750    84.6800     9.2070     7.9540     7.8640    23.3210     2.2490   -17.6890 
  158.5000    81.1140     8.8540     7.6490     8.2690    23.3280     2.2440   -17.6330 
  158.6250    78.6530     8.3530     7.2260     8.3250    23.3900     2.2520   -17.5540 
  158.7500    80.9130     8.1130     6.9540     8.1170    23.5770     2.2760   -17.4320 
  158.8750    83.3130     8.5850     7.1420     8.5200    23.8560     2.3180   -17.2910 
  159.0000    79.9750    10.1280     8.0860    10.3630    24.0280     2.3740   -17.1200 
  159.1250    71.1010    12.9860    10.1020    14.7280    24.1070     2.4350   -16.9360 
  159.2500    63.0550    16.5210    12.8620    20.4090    24.1320     2.4880   -16.7450 
  159.3750    58.3330    19.9310    15.8560    25.4130    24.0210     2.5240   -16.5540 
  159.5000    57.5650    22.2980    18.3490    27.2860    23.9390     2.5390   -16.3760 
  159.6250    58.9270    22.7500    19.4480    24.8420    23.9550     2.5350   -16.2120 
  159.7500    60.6930    21.8730    19.3090    22.0120    24.0150     2.5260   -16.1010 
  159.8750    62.0930    20.4900    18.4620    19.9890    24.0290     2.5160   -16.0130 
  160.0000    61.8130    19.2850    17.4820    18.6660    24.0100     2.5110   -15.9420 
  160.1250    59.5540    18.5750    16.7210    18.3460    23.9760     2.5120   -15.9000 
  160.2500    57.2760    18.2090    16.1990    18.4870    23.9850     2.5180   -15.8780 
  160.3750    55.8030    18.0670    15.8800    18.0560    24.0080     2.5270   -15.8750 
  160.5000    54.2640    18.0710    15.7280    17.1370    24.0200     2.5350   -15.9000 
  160.6250    54.1160    18.1850    15.7300    16.7690    24.0080     2.5380   -15.9740 
  160.7500    54.4290    18.3450    15.8240    17.0600    23.9810     2.5360   -16.0490 
  160.8750    54.1610    18.5100    15.9750    17.1470    23.9530     2.5310   -16.1380 
  161.0000    53.2350    18.6620    16.1560    16.9930    23.9410     2.5280   -16.2540 
  161.1250    52.7950    18.8180    16.3650    17.0090    23.9320     2.5290   -16.3470 
