~V
VERS. 2.00: Ver 2.00
~W
STRT.M 65.0000:
STOP.M 270.0000:
STEP.M 0.1250:
NULL. -999.2500:
UWI. DF3062:
~C
DEPT.M :
SP.MV :
GR.API :
CALI.CM :
RXO.OHMM :
RI. :
RML.OHMM :
DEN.GM/CC :
~A
# ...
  200.0000   -40.2600    53.0210    24.9250   122.8050   166.3960   187.4830     2.2280 
  200.1250   -40.1260    53.0160    25.1300    90.7570   165.6550   186.4150     2.2170 
  200.2500   -40.0530    51.7950    25.1670   120.4530   169.9200   190.4660     2.1950 
  200.3750   -40.0070    52.4610    25.1720   165.6170   177.5160   197.7070     2.1720 
  200.5000   -39.9490    55.3470    25.1530   192.1090   185.6500   205.1140     2.1620 
  200.6250   -39.8440    55.7880    25.1130   188.2950   191.5270   209.7460     2.1720 
  200.7500   -39.6470    53.7500    25.0360   175.5130   193.4210   209.5820     2.1920 
  200.8750   -39.3450    54.0070    24.9410   163.7660   190.5950   204.1980     2.2030 
  201.0000   -38.9550    58.0390    24.8380   154.1600   184.6870   195.9550     2.2020 
  201.1250   -38.5290    61.3580    24.7610   134.1960   178.5400   188.0710     2.1980 
  201.2500   -38.1220    60.4780    24.6540   107.6650   173.3820   181.3460     2.1970 
  201.3750   -37.7700    57.0810    24.4040    87.9220   169.3210   175.6120     2.2040 
  201.5000   -37.4850    55.7070    24.1000    67.9840   166.1540   170.6260     2.2170 
  201.6250   -37.2390    58.0390    23.9890    52.4870   162.9440   164.9600     2.2310 
  201.7500   -37.0360    58.0060    23.9570    50.4440   156.7200   155.6370     2.2380 
  201.8750   -36.8700    55.3200    23.9380    53.4880   143.6040   139.8250     2.2310 
  202.0000   -36.6980    53.2010    23.8320    52.6860   121.8550   117.4820     2.2210 
  202.1250   -36.4800    55.2230    23.9710    58.7230    94.5500    91.9910     2.2190 
  202.2500   -36.1850    60.5740    24.2790    73.5720    69.6530    68.6540     2.2300 
  202.3750   -35.8180    67.0150    24.6510    77.9710    50.2070    49.8460     2.2590 
  202.5000   -35.4290    71.7180    25.0130    56.8850    36.8480    36.6500     2.2990 
  202.6250   -35.1270    72.7650    25.1990    28.5800    30.2310    30.9340     2.3290 
  202.7500   -34.9290    72.1660    25.2100    14.9060    29.0810    31.3980     2.3260 
  202.8750   -34.8220    69.8220    24.8360    14.6520    32.8670    37.0680     2.2870 
  203.0000   -34.8130    63.7310    24.6940    32.4660    40.8810    46.9340     2.2480 
  203.1250   -34.8630    57.4860    24.8900    93.4560    53.1410    60.0010     2.2280 
  203.2500   -34.9350    56.5690    24.9700   155.7770    67.5710    73.3600     2.2220 
  203.3750   -35.0020    58.5420    25.0100   177.0170    80.4160    83.4150     2.2130 
  203.5000   -35.0510    59.1010    24.9260   153.2280    86.9900    86.8960     2.2040 
  203.6250   -35.0190    57.7670    24.9010   116.2830    84.1990    82.3780     2.2050 
  203.7500   -34.8980    57.3640    24.8470    78.1790    77.1390    74.7930     2.2250 
  203.8750   -34.7180    57.2590    24.6870    57.3230    70.5360    68.6820     2.2570 
  204.0000   -34.4960    56.6470    24.6170    53.4870    67.0490    65.8300     2.2770 
  204.1250   -34.2880    55.9660    24.6120    62.1480    65.7680    64.8210     2.2740 
  204.2500   -34.1260    56.9200    24.6380    65.8010    63.9290    63.1380     2.2620 
  204.3750   -34.0200    59.3010    24.7680    61.0740    60.1890    59.5760     2.2810 
  204.5000   -33.9160    60.0260    24.6750    62.2990    53.8430    53.5580     2.3400 
  204.6250   -33.7770    58.7340    24.4400    76.2790    44.8170    44.9800     2.4240 
  204.7500   -33.5810    61.5540    24.0300    80.1480    35.6920    35.9990     2.4960 
  204.8750   -33.3290    71.5720    23.5330    56.8190    28.0820    28.2180     2.5230 
  205.0000   -33.0190    84.1400    23.3830    26.8320    22.4630    22.4130     2.5160 
  205.1250   -32.6660    90.3290    23.3460    15.3480    19.2120    19.2880     2.5010 
  205.2500   -32.2870    89.6700    23.2690    12.2460    17.6580    18.1100     2.4980 
  205.3750   -31.8950    85.0940    23.0780    10.1070    17.2560    18.2120     2.5060 
  205.5000   -31.5370    79.3070    22.8710    11.9070    17.5320    18.9680     2.5200 
  205.6250   -31.2240    75.0300    22.9370    16.6540    17.9460    19.6780     2.5440 
  205.7500   -30.9510    72.9850    23.2430    20.5850    17.8690    19.6810     2.5780 
  205.8750   -30.6880    73.9550    23.8470    21.0690    16.9160    18.6700     2.6040 
  206.0000   -30.4210    77.5790    24.0600    18.6200    15.2730    16.8560     2.6070 
  206.1250   -30.1260    81.6630    24.1560    17.6650    13.3920    14.7040     2.5880 
  206.2500   -29.8200    84.7670    24.2910    14.4100    11.6740    12.7870     2.5540 
  206.3750   -29.5220    86.1120    24.3140    10.1690    10.3610    11.5400     2.5130 
  206.5000   -29.2500    87.7670    24.3710     7.9330     9.5670    11.0930     2.4820 
  206.6250   -29.0770    90.9570    24.3800     9.0500     9.3300    11.3940     2.4750 
  206.7500   -29.0150    93.9650    24.3850     9.3530     9.4660    12.1110     2.4880 
  206.8750   -29.0760    93.9040    24.3950     9.2530     9.8760    13.0670     2.4930 
  207.0000   -29.2620    89.9570    24.4000     9.5910    10.4380    14.1280     2.4780 
  207.1250   -29.5560    83.7750    24.3560    10.4720    10.9990    15.0960     2.4540 
  207.2500   -29.8990    80.4080    24.3260    11.4720    11.4570    15.8490     2.4410 
  207.3750   -30.2240    83.8040    24.3420    11.7780    11.7700    16.3820     2.4430 
  207.5000   -30.4820    92.1810    24.3670    11.1900    11.9310    16.8170     2.4480 
  207.6250   -30.6340    96.7990    24.3620    10.6210    11.9330    17.2380     2.4470 
  207.7500   -30.6980    93.7160    24.3270    10.6320    11.8070    17.6030     2.4400 
  207.8750   -30.6940    88.9090    24.1430    10.7670    11.5990    17.8530     2.4350 
  208.0000   -30.6460    90.4520    24.1180    10.7540    11.3310    17.9050     2.4330 
  208.1250   -30.5690    95.3580    24.0580    10.9880    10.9830    17.6750     2.4310 
  208.2500   -30.4850    95.3260    24.0230    11.0710    10.5880    17.2210     2.4270 
  208.3750   -30.4010    92.8680    24.0180    10.6610    10.1900    16.6090     2.4250 
  208.5000   -30.3230    94.6520    24.0230    10.4780     9.8440    15.8960     2.4300 
  208.6250   -30.2260    98.1630    24.0570    10.0030     9.6160    15.2210     2.4470 
  208.7500   -30.0910    96.2210    24.0700     9.2720     9.5340    14.7220     2.4710 
  208.8750   -29.9160    90.2440    24.0710     9.3310     9.6120    14.4510     2.4820 
  209.0000   -29.6950    84.1780    24.0680    10.4460     9.8600    14.4430     2.4740 
  209.1250   -29.4280    80.1680    24.0780    12.0260    10.3030    14.7590     2.4660 
  209.2500   -29.1280    78.9270    24.0750    13.2540    10.9180    15.4230     2.4750 
  209.3750   -28.8360    80.0760    24.0820    13.2950    11.7770    16.5550     2.4960 
  209.5000   -28.5660    80.9320    24.1090    12.5910    12.9590    18.2560     2.5150 
  209.6250   -28.3190    79.7350    24.1520    14.0580    14.6480    20.7410     2.5340 
  209.7500   -28.0940    77.5690    24.0780    17.4800    16.8320    23.7110     2.5570 
  209.8750   -27.8630    74.9860    24.0510    20.5840    19.3670    26.7530     2.5770 
  210.0000   -27.5960    72.4520    24.0220    24.0720    21.8130    29.1790     2.5930 
  210.1250   -27.2690    69.7560    24.0170    25.7020    23.0750    29.7860     2.6110 
  210.2500   -26.8950    68.9590    24.0160    28.6080    22.4640    28.2060     2.6270 
  210.3750   -26.4760    70.1720    24.0160    30.2280    20.0190    24.6590     2.6260 
  210.5000   -26.0230    72.9390    24.0140    28.1130    16.5820    20.0290     2.6070 
  210.6250   -25.5680    74.3480    23.9890    22.5810    13.2370    15.5460     2.5780 
  210.7500   -25.1410    72.8340    23.8710    14.6960    10.5530    12.0030     2.5440 
  210.8750   -24.7780    68.8820    23.7310     9.4650     8.6530     9.6310     2.5030 
  211.0000   -24.5280    65.4870    23.4350     7.1000     7.4730     8.3230     2.4650 
  211.1250   -24.4230    65.2730    23.1800     6.2430     6.9750     7.9550     2.4420 
