~V
VERS. 2.00: Ver 2.00
~W
STRT.M 59.0000:
STOP.M 281.0000:
STEP.M 0.1250:
NULL. -999.2500:
UWI. DF3005:
~C
DEPT.M :
DEN.GM/CC :
SP.MV :
AC.US/MT :
GR.API :
CALI.CM :
RXO.OHMM :
RI. :
RML.OHMM :
~A
# ...
  269.0000     2.4280   -10.0850   306.1440    71.5170    24.5450     8.8310     9.0660    10.0010 
  269.1250     2.4230   -10.0550   306.9470    69.7220    24.5700     9.2310     8.9050     9.7520 
  269.2500     2.4320   -10.0350   305.9860    67.8870    24.6000     9.3530     8.8980     9.6610 
  269.3750     2.4440   -10.0550   302.4100    68.4890    24.5850     9.8870     9.0280     9.7440 
  269.5000     2.4570   -10.1000   294.4940    69.1960    24.5060    11.7070     9.2520     9.9660 
  269.6250     2.4730   -10.1260   280.8770    66.1940    24.4340    13.8620     9.5050    10.2660 
  269.7500     2.4870   -10.1390   266.0120    64.4660    24.4570    15.9720     9.7120    10.5530 
  269.8750     2.4820   -10.1680   260.6950    66.9040    24.5070    22.0440     9.8400    10.7550 
  270.0000     2.4530   -10.2160   268.6480    69.7240    24.4460    26.3940     9.8900    10.8230 
  270.1250     2.4180   -10.2210   280.9300    68.4960    24.2220    27.6300     9.8930    10.7610 
  270.2500     2.4060   -10.1530   281.0400    68.4960    23.9780    22.0210     9.9030    10.6810 
  270.3750     2.4190   -10.0320   269.6710    68.4960    23.8300    19.2600     9.9470    10.6760 
  270.5000     2.4450    -9.8960   259.0730    68.4960    23.8570    19.4320    10.0250    10.7810 
  270.6250     2.4690    -9.7830   259.3930    68.4960    24.0870    17.4030    10.1080    10.9100 
  270.7500     2.4810    -9.7030   272.7890    68.4960    24.3450    14.7070    10.1280    10.8910 
  270.8750     2.4810    -9.6360   289.2470    68.4960    24.5030    12.4660    10.0310    10.6390 
  271.0000     2.4710    -9.5450   300.5780    68.4960    24.5390    10.9060     9.8210    10.2060 
  271.1250     2.4550    -9.3960   303.1100    68.4960    24.5170    10.2420     9.5710     9.7950 
  271.2500     2.4360    -9.2270   298.8790    68.4960    24.5180    10.2400     9.3970     9.5960 
  271.3750     2.4250    -9.0740   291.9020    68.4960    24.5160    10.0220     9.3590     9.6750 
  271.5000     2.4250    -8.9560   280.6560    68.4960    24.4440     9.8860     9.4530     9.9630 
  271.6250     2.4280    -8.8820   264.2740    68.4960    24.3390    11.5310     9.6270    10.2600 
  271.7500     2.4280    -8.8320   249.9420    68.4960    24.3370    13.7660     9.7740    10.3800 
  271.8750     2.4300    -8.8050   245.3200    68.4960    24.4210    14.8340     9.8300    10.2870 
  272.0000     2.4360    -8.8250   251.0400    68.4960    24.4790    13.8830     9.7610    10.0490 
  272.1250     2.4420    -8.9070   262.9280    68.4960    24.4710    11.7680     9.5750     9.7890 
  272.2500     2.4450    -8.9960   275.7420    68.4960    24.4620     9.8910     9.3500     9.5880 
  272.3750     2.4470    -9.0310   287.4520    68.4960    24.4590     8.8440     9.1390     9.4660 
  272.5000     2.4480    -8.9900   297.2290    68.4960    24.4530     8.8340     8.9790     9.4290 
  272.6250     2.4470    -8.8920   302.9420    68.4960    24.4520     9.1370     8.8970     9.4890 
  272.7500     2.4450    -8.7820   303.1230    68.4960    24.4590     9.1420     8.8850     9.5780 
  272.8750     2.4460    -8.6790   300.4130    68.4960    24.4680     9.0510     8.9440     9.6120 
  273.0000     2.4470    -8.5870   297.3680    68.4960    24.4710     9.3650     9.0630     9.5500 
  273.1250     2.4450    -8.5270   294.3690    68.4960    24.4710     9.4930     9.2160     9.4410 
  273.2500     2.4380    -8.5290   291.4890    68.4960    24.4700     9.6360     9.3470     9.3910 
  273.3750     2.4340    -8.5930   290.3310    68.4960    24.4740     9.6280     9.4180     9.4330 
  273.5000     2.4380    -8.6740   290.8010    68.4960    24.4910     9.5050     9.4180     9.5430 
  273.6250     2.4470    -8.6960   291.2030    68.4960    24.5120    10.2280     9.3630     9.6440 
  273.7500     2.4570    -8.6330   289.2010    68.4960    24.5040    11.3080     9.3080     9.6890 
  273.8750     2.4690    -8.5130   285.7370    68.4960    24.4720    12.1160     9.2870     9.6960 
  274.0000     2.4790    -8.3970   283.4430    68.4960    24.4460    12.3190     9.3030     9.6920 
  274.1250     2.4800    -8.3610   283.3740    68.4960    24.4570    11.5310     9.3280     9.6850 
  274.2500     2.4640    -8.3810   283.1820    68.4960    24.5050    11.2090     9.3380     9.6850 
  274.3750     2.4400    -8.4120   281.7290    68.4960    24.5770    11.2300     9.3300     9.6960 
  274.5000     2.4230    -8.4330   280.5130    68.4960    24.6500    11.5380     9.3230     9.7170 
  274.6250     2.4270    -8.4530   280.6720    68.4960    24.6970    11.5430     9.3390     9.7340 
  274.7500     2.4540    -8.4770   280.5860    68.4960    24.7170    11.8300     9.3730     9.7350 
  274.8750     2.4860    -8.5150   278.4240    68.4960    24.7050    12.3710     9.4030     9.7100 
  275.0000     2.5080    -8.5680   274.7390    68.4960    24.6530    13.0530     9.4140     9.6470 
  275.1250     2.5210    -8.6180   270.8810    68.4960    24.5910    13.5690     9.4020     9.5590 
  275.2500     2.5300    -8.6500   268.2440    68.4960    24.5440    14.1420     9.3840     9.4920 
  275.3750     2.5290    -8.6530   266.8740    68.4960    24.5010    15.1220     9.3690     9.4820 
  275.5000     2.5080    -8.6290   266.0000    68.4960    24.4460    18.2380     9.3570     9.5410 
  275.6250     2.4770    -8.5940   264.7530    68.4960    24.4010    21.1350     9.3490     9.6440 
  275.7500     2.4640    -8.5840   263.0600    68.4960    24.3810    22.0960     9.3420     9.7380 
  275.8750     2.4790    -8.6090   262.6360    68.4960    24.3740    22.1240     9.3390     9.7960 
  276.0000     2.5030    -8.6390   264.0610    68.4960    24.3670    22.7380     9.3390     9.8050 
  276.1250     2.5150    -8.6430   265.8240    68.4960    24.3600    21.2710     9.3390     9.8050 
  276.2500     2.5170    -8.6320   264.7720    68.4960    24.3640    19.2510     9.3390     9.8050 
  276.3750     2.5210    -8.6160   261.8850    68.4960    24.3880    17.3080     9.3390     9.8050 
  276.5000     2.5270    -8.6050   260.0090    68.4960    24.4160    17.6360     9.3390     9.8050 
  276.6250     2.5300    -8.5970   260.5280    68.4960    24.4110    19.9510     9.3390     9.8050 
  276.7500     2.5270    -8.6020   261.6150    68.4960    24.3760    22.7170     9.3390     9.8050 
  276.8750     2.5260    -8.6340   261.0600    68.4960    24.3470    24.1730     9.3390     9.8050 
  277.0000     2.5260    -8.7150   259.7620    68.4960    24.3370    24.8630     9.3390     9.8050 
  277.1250     2.5250    -8.8260   259.0980    68.4960    24.3270    24.1020     9.3390     9.8050 
  277.2500     2.5210    -8.8260   258.7300    68.4960    24.3070    22.6160     9.3390     9.8050 
  277.3750     2.5200  -999.2500   258.2030    68.4960    24.2820    21.7970     9.3390     9.8050 
  277.5000     2.5280  -999.2500   257.7850    68.4960    24.2570    20.8860     9.3390     9.8050 
  277.6250     2.5370  -999.2500   257.6950    68.4960    24.2440    20.6350     9.3390     9.8050 
  277.7500     2.5060  -999.2500   257.5520    68.4960    24.2360    22.5430     9.3390     9.8050 
  277.8750     2.4200  -999.2500   257.3060    68.4960    24.1740    23.6590     9.3390     9.8050 
  278.0000     2.3130  -999.2500   257.1630    68.4960    24.0790    22.4890     9.3390     9.8050 
  278.1250     2.2420  -999.2500   257.3320    68.4960    23.6410    19.1480     9.3390     9.8050 
  278.2500     2.2380  -999.2500   257.8050    68.4960    22.3810    14.7200     9.3390     9.8050 
  278.3750     2.2600  -999.2500   257.9800    68.4960    20.5500    10.9180     9.3390     9.8050 
  278.5000     2.2770  -999.2500   257.6090    68.4960    19.0780     9.8070     9.3390     9.8050 
  278.6250     2.2830  -999.2500   257.1510    68.4960    18.6920     9.6860     9.3390     9.8050 
  278.7500     2.2790  -999.2500   257.3000    68.4960    18.7560     9.6850     9.3390     9.8050 
  278.8750     2.2720  -999.2500   257.7470    68.4960    18.7760     9.6840     9.3390     9.8050 
