~V
VERS. 2.00: Ver 2.00
~W
STRT.M 60.0000:
STOP.M 282.0000:
STEP.M 0.1250:
NULL. -999.2500:
UWI. DF3058:
~C
DEPT.M :
GR.API :
RML.OHMM :
RI. :
RXO.OHMM :
CALI.CM :
DEN.GM/CC :
SP.MV :
~A
# ...
   93.7500    68.8970    12.1190     9.2080     9.4320    21.8230  -999.2500  -999.2500 
   93.8750    68.4160    11.8150     9.1100     9.4730    21.7590  -999.2500  -999.2500 
   94.0000    67.3970    11.3890     8.9050     9.4280    21.7530  -999.2500  -999.2500 
   94.1250    67.6160    11.0770     8.7170     9.4720    21.7540  -999.2500  -999.2500 
   94.2500    68.3810    10.9770     8.6300     9.6550    21.7630  -999.2500  -999.2500 
   94.3750    68.1090    11.0840     8.6630     9.9950    21.8160  -999.2500  -999.2500 
   94.5000    67.5780    11.3300     8.7890    10.4310    21.9480  -999.2500  -999.2500 
   94.6250    66.2420    11.6050     8.9500    10.7550    22.0720  -999.2500  -999.2500 
   94.7500    63.8220    11.8120     9.0810    11.0570    22.1310  -999.2500  -999.2500 
   94.8750    61.9450    11.9030     9.1510    11.2870    22.1010  -999.2500  -999.2500 
   95.0000    60.8780    11.8760     9.1530    11.4130    22.0050  -999.2500  -999.2500 
   95.1250    61.2300    11.7580     9.0960    11.4130    21.9300  -999.2500  -999.2500 
   95.2500    61.8770    11.6180     9.0170    11.2500    21.9040  -999.2500  -999.2500 
   95.3750    62.7480    11.4970     8.9370    11.0190    21.9240  -999.2500  -999.2500 
   95.5000    64.7110    11.4180     8.8710    10.7700    21.9830  -999.2500  -999.2500 
   95.6250    65.8580    11.3920     8.8270    10.5860    22.0710  -999.2500  -999.2500 
   95.7500    64.4620    11.3900     8.7960    10.4920    22.0800  -999.2500  -999.2500 
   95.8750    61.7720    11.3850     8.7680    10.4580    22.0660  -999.2500  -999.2500 
   96.0000    60.2770    11.3570     8.7330    10.3780    22.0410  -999.2500  -999.2500 
   96.1250    61.4180    11.2880     8.6820    10.1930    21.9810  -999.2500  -999.2500 
   96.2500    62.0940    11.1740     8.6090     9.8710    21.9660  -999.2500  -999.2500 
   96.3750    63.0070    11.0030     8.5050     9.3970    21.9520  -999.2500  -999.2500 
   96.5000    66.0520    10.7590     8.3590     8.9810    21.9310  -999.2500  -999.2500 
   96.6250    70.6020    10.4250     8.1540     8.7260    22.0270  -999.2500  -999.2500 
   96.7500    73.5660    10.0490     7.9150     8.5810    22.2560  -999.2500  -999.2500 
   96.8750    72.8930     9.7000     7.6800     8.2790    22.4520  -999.2500  -999.2500 
   97.0000    71.6670     9.4650     7.5050     8.0770    22.3720  -999.2500  -999.2500 
   97.1250    73.4680     9.4220     7.4520     8.1810    22.2740  -999.2500  -999.2500 
   97.2500    75.1850     9.5140     7.5040     8.5730    22.2360  -999.2500  -999.2500 
   97.3750    73.2140     9.6550     7.6150     9.0790    22.2420  -999.2500  -999.2500 
   97.5000    67.9360     9.7480     7.7160     9.3690    22.3670  -999.2500  -999.2500 
   97.6250    64.4460     9.7320     7.7390     9.1940    22.6190  -999.2500  -999.2500 
   97.7500    66.0440     9.6610     7.6900     8.6100    22.8520  -999.2500  -999.2500 
   97.8750    70.3360     9.5980     7.5960     7.9230    22.8970  -999.2500  -999.2500 
   98.0000    73.1900     9.5600     7.4820     7.6240    22.8840  -999.2500  -999.2500 
   98.1250    72.4510     9.4580     7.3290     8.0010    22.7070  -999.2500  -999.2500 
   98.2500    72.8200     9.1700     7.0980     8.4300    22.5870  -999.2500  -999.2500 
   98.3750    76.2890     8.6660     6.7710     8.5140    22.6780  -999.2500  -999.2500 
   98.5000    80.1030     8.1020     6.4180     8.1110    23.0170  -999.2500  -999.2500 
   98.6250    79.9970     7.9890     6.3130     7.8670    23.5490  -999.2500  -999.2500 
   98.7500    76.6360     8.7830     6.7550     8.6290    24.0280  -999.2500  -999.2500 
   98.8750    72.4400    10.7180     7.9760    10.8950    24.2860  -999.2500  -999.2500 
   99.0000    69.0680    13.6210     9.9900    15.1900    24.3650  -999.2500  -999.2500 
   99.1250    66.4100    16.7150    12.4510    20.4520    24.3150  -999.2500  -999.2500 
   99.2500    65.8920    18.7940    14.4920    24.6630    24.1400  -999.2500  -999.2500 
   99.3750    65.6640    19.0070    15.3510    24.5550    23.7620  -999.2500  -999.2500 
   99.5000    61.6250    17.2790    14.6950    19.0270    23.1300  -999.2500  -999.2500 
   99.6250    56.3240    14.5480    12.9130    13.6220    22.5050  -999.2500  -999.2500 
   99.7500    56.4080    12.2430    11.1140    11.2130    22.2210  -999.2500  -999.2500 
   99.8750    62.5910    10.8430     9.7870    10.4540    22.1560  -999.2500  -999.2500 
  100.0000    68.7130    10.2890     9.0210    10.1800    22.1670  -999.2500  -999.2500 
  100.1250    68.9270    10.3480     8.7600    10.0350    22.1790  -999.2500  -999.2500 
  100.2500    67.7160    10.6260     8.7550     9.9890    22.1780  -999.2500  -999.2500 
  100.3750    69.6830    10.9410     8.8790    10.0220    22.1580  -999.2500  -999.2500 
  100.5000    73.0010    11.2030     9.0430    10.1110    22.2200  -999.2500  -999.2500 
  100.6250    70.8050    11.3740     9.1910    10.2150    22.4390  -999.2500  -999.2500 
  100.7500    65.5360    11.4730     9.2980    10.3380    22.7300  -999.2500  -999.2500 
  100.8750    62.9420    11.4980     9.3480    10.4120    22.8510  -999.2500  -999.2500 
  101.0000    63.3940    11.4500     9.3320    10.4050    22.8600  -999.2500  -999.2500 
  101.1250    63.4260    11.3330     9.2420    10.3350    22.8700  -999.2500  -999.2500 
  101.2500    62.6410    11.1870     9.1080    10.3100    22.8020  -999.2500  -999.2500 
  101.3750    61.6710    11.0480     8.9540    10.4250    22.6500  -999.2500  -999.2500 
  101.5000    62.2770    10.9410     8.8100    10.6850    22.7410  -999.2500  -999.2500 
  101.6250    64.8300    10.8830     8.7040    11.0230    22.9690  -999.2500  -999.2500 
  101.7500    65.8920    10.8490     8.6390    11.2380    23.1540  -999.2500  -999.2500 
  101.8750    64.3750    10.8220     8.6070    11.3140    23.1740  -999.2500  -999.2500 
  102.0000    64.3650    10.7760     8.5990    11.3230    23.0900  -999.2500  -999.2500 
  102.1250    66.0650    10.7040     8.5990    11.2360    22.8590  -999.2500  -999.2500 
  102.2500    65.4960    10.6430     8.5970    11.0250    22.4820  -999.2500  -999.2500 
  102.3750    64.1550    10.5970     8.5880    10.7030    22.1170  -999.2500  -999.2500 
  102.5000    65.9080    10.5500     8.5670    10.4090    21.9450  -999.2500  -999.2500 
  102.6250    69.9780    10.5110     8.5230    10.3140    21.9400  -999.2500  -999.2500 
  102.7500    71.1230    10.5110     8.4500    10.3010    21.9470  -999.2500  -999.2500 
  102.8750    70.2700    10.5100     8.3520    10.2150    21.9450  -999.2500  -999.2500 
  103.0000    69.8210    10.4910     8.2400    10.0650    21.9460  -999.2500  -999.2500 
  103.1250    69.8500    10.4580     8.1460     9.8960    21.9430  -999.2500  -999.2500 
  103.2500    68.6760    10.4250     8.0990     9.8100    21.9380  -999.2500  -999.2500 
  103.3750    67.2100    10.4770     8.1170     9.8740    21.9380  -999.2500  -999.2500 
  103.5000    67.2510    10.6060     8.2010    10.0800    21.9410  -999.2500  -999.2500 
  103.6250    66.2200    10.7700     8.3260    10.2940    21.9400     0.0000  -999.2500 
  103.7500    63.4000    10.8960     8.4390    10.3890    21.9340     0.0000  -999.2500 
  103.8750    61.3560    10.9360     8.5020    10.3530    21.9230     0.0000  -999.2500 
  104.0000    63.4060    10.8730     8.4920    10.2580    21.9180     0.0000  -999.2500 
  104.1250    67.8570    10.7320     8.4090    10.1260    21.9260     0.0000  -999.2500 
  104.2500    69.7510    10.5820     8.3000     9.9810    21.9340     1.0770  -999.2500 
  104.3750    69.6690    10.4710     8.2000     9.8680    21.9320     2.1570  -999.2500 
  104.5000    68.9010    10.4120     8.1300     9.8260    21.9320     2.1610  -999.2500 
  104.6250    68.6220    10.3810     8.0880     9.8360    21.9410     2.1600  -999.2500 
  104.7500    68.8700    10.3210     8.0400     9.8440    21.9490     2.1550  -999.2500 
  104.8750    68.9860    10.2000     7.9660     9.8610    21.9440     2.1510  -999.2500 
