~V
VERS. 2.00: Ver 2.00
~W
STRT.M 67.0000:
STOP.M 279.0000:
STEP.M 0.1250:
NULL. -999.2500:
UWI. DF3057:
~C
DEPT.M :
GR.API :
CALI.CM :
RXO.OHMM :
RI. :
RML.OHMM :
DEN.GM/CC :
SP.MV :
~A
# ...
  145.7500    90.4070    23.0330     8.0740     7.3260     9.7590     2.3010   -24.4000 
  145.8750    88.7980    23.1030     8.3920     7.2780     9.7360     2.2850   -24.2510 
  146.0000    88.3370    23.2550     8.5520     7.3320     9.8530     2.2680   -24.2110 
  146.1250    87.0800    23.7470     8.3140     7.4360    10.0020     2.2710   -24.3120 
  146.2500    85.3880    24.1160     8.0550     7.5270    10.0980     2.2820   -24.3820 
  146.3750    85.7800    24.1800     7.9320     7.5870    10.1360     2.2820   -24.3280 
  146.5000    88.9590    24.2220     7.9210     7.6030    10.1380     2.2650   -24.2230 
  146.6250    93.7480    24.3490     7.9040     7.6030    10.1290     2.2430   -24.2150 
  146.7500    94.5910    24.3710     7.8950     7.6160    10.1410     2.2320   -24.3240 
  146.8750    90.2240    24.3070     8.0000     7.6580    10.2020     2.2350   -24.4550 
  147.0000    84.3490    24.3050     8.1410     7.7390    10.3230     2.2410   -24.5040 
  147.1250    81.0940    24.2120     8.2530     7.9000    10.5350     2.2430   -24.4150 
  147.2500    80.0730    24.1980     8.3880     8.1500    10.8470     2.2460   -24.2900 
  147.3750    79.8970    24.1890     8.6670     8.4850    11.2760     2.2520   -24.2430 
  147.5000    80.9140    24.1420     9.0820     8.8670    11.7620     2.2580   -24.2660 
  147.6250    80.8450    24.1510     9.3370     9.2380    12.2070     2.2480   -24.2230 
  147.7500    81.0820    24.0080     9.5100     9.5160    12.4930     2.2220   -24.0280 
  147.8750    84.8530    23.7110     9.5370     9.6280    12.5180     2.2030   -23.7600 
  148.0000    88.5420    23.6540     9.5420     9.5140    12.2130     2.2180   -23.5220 
  148.1250    86.8000    23.6790     9.5770     9.1320    11.5550     2.2700   -23.4010 
  148.2500    83.9020    24.0170     9.4470     8.6050    10.7230     2.3210   -23.3570 
  148.3750    86.7600    24.5840     8.6130     8.0280     9.8490     2.3460   -23.2990 
  148.5000    94.1100    24.9150     7.3800     7.4950     9.0800     2.3460   -23.1500 
  148.6250    98.5770    25.0530     6.9920     7.0930     8.5460     2.3380   -22.9450 
  148.7500    97.7930    25.1270     6.8820     6.8440     8.2560     2.3360   -22.8600 
  148.8750    94.4840    25.1190     6.8960     6.7650     8.2020     2.3430   -22.8930 
  149.0000    92.1470    25.0920     7.0240     6.8280     8.3220     2.3530   -22.9730 
  149.1250    90.0410    25.0930     7.0920     6.9970     8.5550     2.3540   -22.9860 
  149.2500    88.1950    25.1400     7.0920     7.1810     8.7730     2.3390   -22.9150 
  149.3750    86.6840    25.1250     7.2590     7.3270     8.9110     2.3160   -22.7930 
  149.5000    86.4510    25.1140     7.8260     7.4040     8.9470     2.3010   -22.6860 
  149.6250    87.5570    25.0740     8.0020     7.3430     8.8130     2.3030   -22.7120 
  149.7500    88.3340    25.0860     7.9450     7.1640     8.5410     2.3160   -22.7620 
  149.8750    89.8690    25.0140     7.6760     6.9210     8.2100     2.3310   -22.7300 
  150.0000    91.5410    24.8490     7.4500     6.6990     7.9350     2.3380   -22.5760 
  150.1250    90.4200    24.8330     7.5050     6.6150     7.8750     2.3310   -22.3810 
  150.2500    86.1260    24.9490     7.7040     6.7090     8.1080     2.3260   -22.2590 
  150.3750    82.9970    24.9810     7.6910     7.0310     8.6780     2.3450   -22.2420 
  150.5000    82.2320    24.8170     7.7160     7.6090     9.5800     2.4030   -22.2890 
  150.6250    76.5750    24.7870     9.2070     8.5060    10.8930     2.4880   -22.2350 
  150.7500    67.6130    24.8090    11.8090     9.6800    12.5130     2.5670   -22.0670 
  150.8750    63.2110    24.8180    13.6260    11.0210    14.2460     2.6190   -21.9400 
  151.0000    63.6820    24.8350    13.9670    12.3580    15.8330     2.6440   -21.9780 
  151.1250    60.5530    24.9330    13.4970    13.4590    16.9820     2.6490   -22.1170 
  151.2500    52.8610    25.0060    14.6760    14.2310    17.6530     2.6400   -22.1950 
  151.3750    47.1420    24.8940    17.4170    14.5910    17.7970     2.6210   -22.1670 
  151.5000    46.3570    24.8100    19.7710    14.5080    17.4260     2.5990   -22.1000 
  151.6250    49.3260    24.7800    17.2800    13.9970    16.5960     2.5800   -22.1200 
  151.7500    55.1740    24.7240    12.9500    13.2440    15.5220     2.5620   -22.2860 
  151.8750    61.3790    24.5730    11.1180    12.3140    14.2750     2.5440   -22.4710 
  152.0000    64.2070    24.2490    12.2130    11.2600    12.9180     2.5250   -22.5460 
  152.1250    65.4700    24.2640    13.1380    10.1710    11.5290     2.4970   -22.4950 
  152.2500    71.4270    24.5830    11.2690     9.1520    10.2150     2.4590   -22.4510 
  152.3750    80.6510    25.1000     8.6310     8.2820     9.0980     2.4170   -22.4980 
  152.5000    85.7050    25.1210     7.0490     7.6270     8.2570     2.3820   -22.6310 
  152.6250    85.7450    25.1300     6.7430     7.2540     7.7740     2.3600   -22.7260 
  152.7500    87.7290    25.1250     6.6320     7.1200     7.6170     2.3510   -22.6650 
  152.8750    89.9310    25.1650     6.6530     7.2130     7.7640     2.3510   -22.5350 
  153.0000    87.8640    25.1240     6.9500     7.4780     8.1190     2.3570   -22.4540 
  153.1250    83.3870    24.8670     7.2010     7.7680     8.4700     2.3610   -22.5230 
  153.2500    83.2060    24.8550     7.5910     7.9170     8.6160     2.3670   -22.6430 
  153.3750    86.7250    25.0430     7.8680     7.8210     8.4590     2.3800   -22.6900 
  153.5000    88.6530    25.3460     7.9860     7.5010     8.0280     2.3930   -22.6010 
  153.6250    87.7620    25.2360     7.3220     7.0960     7.5090     2.3940   -22.4560 
  153.7500    86.5020    25.1830     6.8260     6.8220     7.2030     2.3810   -22.4110 
  153.8750    86.9910    25.3320     6.5690     6.8550     7.4240     2.3650   -22.4630 
  154.0000    88.3950    25.4030     6.6250     7.3570     8.4210     2.3660   -22.5390 
  154.1250    83.1440    25.3340     7.5050     8.5150    10.3120     2.4100   -22.5120 
  154.2500    73.3440    25.2250    11.2210    10.2540    12.8190     2.4850   -22.3960 
  154.3750    65.6400    25.1640    18.0960    12.4980    15.6550     2.5640   -22.3260 
  154.5000    63.2190    25.3500    24.0080    14.9340    18.3430     2.6180   -22.4110 
  154.6250    62.2860    25.3030    25.0450    16.8070    20.1270     2.6180   -22.5850 
  154.7500    63.0050    25.2110    23.0340    17.8130    20.8820     2.5630   -22.6860 
  154.8750    67.7900    25.3230    18.6120    18.0580    20.8710     2.4660   -22.6770 
  155.0000    73.5760    25.4020    15.1400    17.8620    20.5030     2.3590   -22.5940 
  155.1250    75.6680    25.4300    15.0330    17.4990    20.1190     2.2820   -22.5430 
  155.2500    75.8240    25.4490    14.7200    17.0360    19.7620     2.2430   -22.5940 
  155.3750    74.6900    25.4800    13.6770    16.3530    19.1840     2.2290   -22.6870 
  155.5000    72.7980    25.5700    13.7710    15.4210    18.2750     2.2270   -22.6860 
  155.6250    71.4430    25.4670    16.1590    14.2600    16.9340     2.2340   -22.5620 
  155.7500    71.5410    25.5400    17.6810    13.0530    15.4570     2.2540   -22.4110 
  155.8750    74.6770    25.4680    15.1160    12.0580    14.2620     2.2930   -22.3060 
  156.0000    79.2270    25.2960    10.1150    11.5450    13.7890     2.3580   -22.2650 
  156.1250    79.7360    25.0840     8.0770    11.7880    14.4220     2.4470   -22.2770 
  156.2500    74.2590    24.9440    10.9420    12.7160    15.9490     2.5320   -22.2440 
  156.3750    66.6300    24.8610    14.4910    14.2780    18.1560     2.5910   -22.1050 
  156.5000    61.2490    24.9660    16.5730    16.2910    20.6890     2.6180   -21.9230 
  156.6250    58.6290    25.0300    16.9950    18.4650    23.1060     2.6230   -21.8610 
  156.7500    56.6860    24.8090    18.3230    20.4440    25.1510     2.6220   -21.9450 
  156.8750    54.3790    24.5680    19.1590    21.9420    26.6340     2.6200   -22.0650 
