~V
VERS. 2.00: Ver 2.00
~W
STRT.M 64.0000:
STOP.M 259.0000:
STEP.M 0.1250:
NULL. -999.2500:
UWI. DF3067:
~C
DEPT.M :
DEN.GM/CC :
GR.API :
CALI.CM :
RXO.OHMM :
RI. :
RML.OHMM :
SP.MV :
~A
# ...
  232.7500     2.4640    81.2930    23.1480    18.2600    19.6100    21.2250   -27.7670 
  232.8750     2.5040    82.0710    23.1220    24.0550    22.3640    24.3800   -27.7490 
  233.0000     2.5370    83.8840    23.0870    31.0580    24.9270    26.9400   -27.6900 
  233.1250     2.5380    83.3370    22.9870    36.4690    25.0760    26.3060   -27.6030 
  233.2500     2.5060    80.3320    22.9070    36.7910    22.2430    22.3810   -27.4970 
  233.3750     2.4540    77.1100    22.8630    30.5370    17.7100    17.0930   -27.3700 
  233.5000     2.4050    74.5380    22.7720    18.2790    13.3190    12.5000   -27.2530 
  233.6250     2.3750    74.3640    22.5480    10.0740    10.2690     9.6410   -27.1670 
  233.7500     2.3550    77.5300    22.2860     7.6900     8.3860     8.0680   -27.1300 
  233.8750     2.3350    82.2450    22.0850     7.9810     7.4070     7.4170   -27.1530 
  234.0000     2.3200    85.2390    21.9760     8.4650     7.0800     7.3770   -27.2150 
  234.1250     2.3240    83.8370    21.9490     8.8290     7.2600     7.7450   -27.2910 
  234.2500     2.3470    79.7780    21.9540     9.1940     7.7010     8.2810   -27.3590 
  234.3750     2.3710    75.0830    21.9550     9.8530     8.2760     8.8740   -27.3980 
  234.5000     2.3810    72.4110    21.9440    10.0990     8.8820     9.4510   -27.4190 
  234.6250     2.3800    74.0810    21.9180    11.0120     9.4280     9.9380   -27.4380 
  234.7500     2.3870    78.2870    21.9400    11.4710     9.8750    10.3110   -27.4650 
  234.8750     2.4000    81.7910    22.0730    11.2570    10.2060    10.5670   -27.5050 
  235.0000     2.4080    81.6970    22.2880    10.6630    10.4180    10.7220   -27.5270 
  235.1250     2.4070    78.2910    22.4490    10.3190    10.5000    10.7940   -27.5200 
  235.2500     2.4090    76.7790    22.4990    10.1720    10.4970    10.8320   -27.4800 
  235.3750     2.4150    78.4890    22.5250    10.2900    10.4440    10.8700   -27.4070 
  235.5000     2.4210    81.7260    22.6200    10.9060    10.3730    10.9300   -27.3200 
  235.6250     2.4180    82.6090    22.7620    10.9970    10.3150    11.0230   -27.2370 
  235.7500     2.4090    80.2220    22.8550    10.7530    10.2850    11.1320   -27.1620 
  235.8750     2.4010    76.1870    22.8860    10.4840    10.2750    11.2280   -27.0970 
  236.0000     2.3970    73.5330    22.8870    10.3820    10.2620    11.2780   -27.0280 
  236.1250     2.3950    73.7760    22.8630    10.2390    10.2210    11.2600   -26.9370 
  236.2500     2.3960    76.3730    22.8230    10.1850    10.1480    11.1990   -26.8250 
  236.3750     2.4000    81.4050    22.7960    10.1290    10.0640    11.1290   -26.7080 
  236.5000     2.4050    87.0350    22.7920     9.9960    10.0170    11.0880   -26.6080 
  236.6250     2.4080    88.5170    22.7920     9.9860    10.0600    11.1190   -26.5330 
  236.7500     2.4100    86.5730    22.7860    10.0070    10.1750    11.2170   -26.4750 
  236.8750     2.4100    85.0120    22.7770     9.9540    10.3300    11.3650   -26.4300 
  237.0000     2.4100    85.3070    22.7730    10.0190    10.5010    11.5420   -26.3950 
  237.1250     2.4110    86.4610    22.7470    10.2010    10.6840    11.7340   -26.3570 
  237.2500     2.4130    86.3590    22.6630    10.3100    10.8730    11.9290   -26.3220 
  237.3750     2.4180    85.3190    22.4710    10.2360    11.0610    12.1190   -26.2860 
  237.5000     2.4270    83.4450    22.1750    10.3000    11.2320    12.2930   -26.2530 
  237.6250     2.4360    78.9630    21.9340    10.6630    11.3560    12.4210   -26.2400 
  237.7500     2.4420    73.7400    21.9560    11.0220    11.4250    12.4900   -26.2400 
  237.8750     2.4460    70.7220    22.2690    11.1700    11.4310    12.4930   -26.2510 
  238.0000     2.4470    71.3020    22.6670    11.3390    11.3830    12.4450   -26.2490 
  238.1250     2.4410    72.5830    22.8960    11.6090    11.3160    12.3870   -26.2290 
  238.2500     2.4320    72.3620    22.9750    11.7130    11.2750    12.3610   -26.2080 
  238.3750     2.4270    72.6250    23.0030    11.5610    11.2790    12.3840   -26.1770 
  238.5000     2.4270    73.8040    23.0270    11.4940    11.3200    12.4470   -26.1360 
  238.6250     2.4240    73.9530    23.0170    12.1710    11.3750    12.5160   -26.0930 
  238.7500     2.4190    73.0060    22.9650    13.2130    11.4220    12.5570   -26.0440 
  238.8750     2.4170    72.3090    22.9040    13.3300    11.4660    12.5780   -26.0050 
  239.0000     2.4200    73.0870    22.8620    12.5170    11.5310    12.6370   -25.9740 
  239.1250     2.4240    74.8330    22.8420    12.2470    11.6750    12.8360   -25.9500 
  239.2500     2.4270    76.6650    22.8270    12.0610    11.9290    13.2030   -25.9270 
  239.3750     2.4330    78.1610    22.8280    11.9690    12.3140    13.7140   -25.8940 
  239.5000     2.4430    78.4300    22.8570    12.0800    12.7970    14.2770   -25.8680 
  239.6250     2.4560    78.6970    22.8360    11.7820    13.2650    14.7190   -25.8530 
  239.7500     2.4700    81.8560    22.7610    11.1940    13.5900    14.9390   -25.8460 
  239.8750     2.4840    88.5940    22.7270    10.8440    13.7220    14.9210   -25.8390 
  240.0000     2.4920    96.4410    22.7970    11.2850    13.6810    14.7270   -25.8050 
  240.1250     2.4810   101.9360    22.8980    11.7460    13.5250    14.4460   -25.7520 
  240.2500     2.4570   102.8950    22.9360    11.5510    13.3320    14.1720   -25.6750 
  240.3750     2.4360    97.7050    22.9340    10.3600    13.1310    13.9430   -25.5630 
  240.5000     2.4300    88.2310    22.9150     8.9310    12.9400    13.7760   -25.4190 
  240.6250     2.4400    79.9030    22.8690     8.3890    12.7870    13.6940   -25.2390 
  240.7500     2.4550    75.6160    22.8280     8.5530    12.6740    13.6740   -25.0370 
  240.8750     2.4670    75.1260    22.8120     9.5730    12.5920    13.6920   -24.8310 
  241.0000     2.4740    76.2290    22.8080    10.4400    12.5390    13.7280   -24.6380 
  241.1250     2.4770    76.2660    22.8320    10.6580    12.5470    13.7960   -24.4790 
  241.2500     2.4720    75.6710    22.9130    11.1780    12.6460    13.9260   -24.3450 
  241.3750     2.4610    75.9780    23.0260    12.3630    12.8560    14.1510   -24.2130 
  241.5000     2.4520    75.9090    23.1100    13.7200    13.1660    14.4740   -24.0650 
  241.6250     2.4540    72.3720    23.1260    14.9510    13.5370    14.8600   -23.9050 
  241.7500     2.4630    69.4010    23.1250    14.8930    13.9050    15.2250   -23.7510 
  241.8750     2.4760    68.9170    23.1360    15.2820    14.2170    15.4970   -23.6180 
  242.0000     2.4850    69.3740    23.1730    16.4730    14.4180    15.6110   -23.4940 
  242.1250     2.4860    69.0580    23.1790    16.5560    14.4170    15.4970   -23.3600 
  242.2500     2.4810    69.8440    23.0270    15.1040    14.2330    15.2140   -23.2190 
  242.3750     2.4760    71.8920    22.7260    13.6270    13.9190    14.8370   -23.0940 
  242.5000     2.4770    72.6430    22.4450    12.6340    13.5640    14.4520   -23.0290 
  242.6250     2.4820    70.2530    22.3550    11.3040    13.2780    14.1590   -23.0100 
  242.7500     2.4890    67.4610    22.3600    10.6310    13.1280    14.0090   -23.0130 
  242.8750     2.4950    67.2370    22.3400    10.6500    13.1360    14.0240   -23.0270 
  243.0000     2.4950    69.2730    22.3070    10.7020    13.2760    14.1740   -23.0250 
  243.1250     2.4880    68.6040    22.3590    10.4880    13.4740    14.3730   -23.0150 
  243.2500     2.4830    67.3320    22.5110    10.3700    13.6080    14.4880   -22.9950 
  243.3750     2.4810    69.9700    22.6780    10.5520    13.6000    14.4260   -22.9590 
  243.5000     2.4820    74.9860    22.7420    10.4890    13.4210    14.1650   -22.9210 
  243.6250     2.4820    74.9430    22.6710    10.1240    13.1010    13.7520   -22.8830 
  243.7500     2.4780    73.2060    22.5840     9.9620    12.7370    13.3140   -22.8540 
  243.8750     2.4710    74.1810    22.5430    10.0330    12.3830    12.9270   -22.8380 
