~V
VERS. 2.00: Ver 2.00
~W
STRT.M 120.0000:
STOP.M 278.0000:
STEP.M 0.1250:
NULL. -999.2500:
UWI. DF3047:
~C
DEPT.M :
DEN.GM/CC :
SP.MV :
AC.US/MT :
GR.API :
CALI.CM :
RXO.OHMM :
RI. :
RML.OHMM :
~A
# ...
  130.0000     2.3340   -16.0860   385.5080    88.3400    25.9990     8.7720     5.2460     5.9950 
  130.1250     2.3310   -16.2080   386.1160    90.8670    26.1010     7.6820     5.1920     5.9120 
  130.2500     2.3110   -16.3750   385.5870    87.5010    26.1480     7.7000     5.1800     5.8870 
  130.3750     2.2840   -16.5500   384.3340    81.5260    25.9930     8.7480     5.2250     5.9360 
  130.5000     2.2720   -16.6970   382.3810    78.8600    25.6880     9.7960     5.3660     6.1250 
  130.6250     2.3000   -16.8200   379.1140    80.0770    25.4920     9.9530     5.7070     6.6380 
  130.7500     2.3580   -16.9490   375.7030    79.5170    25.5220    10.8140     6.3090     7.5830 
  130.8750     2.4280   -17.1000   375.5350    76.8490    25.7150    14.7560     7.2320     9.0340 
  131.0000     2.4810   -17.2680   383.0580    75.2440    25.9940    21.7580     8.4430    10.8900 
  131.1250     2.4810   -17.4650   402.3740    75.1110    26.2820    25.8510     9.6650    12.6010 
  131.2500     2.4330   -17.6810   428.7290    74.2980    26.4300    23.4580    10.4060    13.3840 
  131.3750     2.3560   -17.9200   455.1290    72.9590    26.3150    17.5080    10.3900    12.9270 
  131.5000     2.2780   -18.2010   473.5580    72.7490    25.9630    12.6310     9.7690    11.6780 
  131.6250     2.2240   -18.5300   475.6380    73.9560    25.5690    10.6120     9.0030    10.5040 
  131.7500     2.1980   -18.8690   463.4960    73.4640    25.3280    10.3030     8.4640     9.8610 
  131.8750     2.1950   -19.1920   441.9560    70.5800    25.2800    10.7820     8.2300     9.7450 
  132.0000     2.2070   -19.4900   418.0630    67.4840    25.3300    11.2530     8.2440     9.9860 
  132.1250     2.2290   -19.7610   399.5060    69.4410    25.3570    11.2460     8.4040    10.4680 
  132.2500     2.2550   -20.0200   389.0390    74.2740    25.3290    10.9020     8.5880    11.0850 
  132.3750     2.2760   -20.2740   386.9100    76.5050    25.2510    10.6240     8.7620    11.7300 
  132.5000     2.2760   -20.5250   391.8220    73.8580    25.1670    10.8840     8.9360    12.2520 
  132.6250     2.2410   -20.7720   401.9130    69.4490    25.1710    11.5770     9.1350    12.4580 
  132.7500     2.1930   -20.9880   413.3100    66.6100    25.2590    11.9130     9.3470    12.3770 
  132.8750     2.1560   -21.1630   423.2750    65.6690    25.3770    11.7220     9.5420    12.1430 
  133.0000     2.1440   -21.2790   429.5310    65.7090    25.4900    11.5240     9.6860    11.9270 
  133.1250     2.1530   -21.3050   430.0540    66.9460    25.5550    11.7320     9.7330    11.8200 
  133.2500     2.1680   -21.2680   426.1120    68.9140    25.5220    11.8550     9.6850    11.7190 
  133.3750     2.1770   -21.1710   418.9570    69.6380    25.3950    11.5080     9.5490    11.5330 
  133.5000     2.1760   -21.0190   410.2270    68.5010    25.2460    10.8300     9.3400    11.2560 
  133.6250     2.1730   -20.8240   402.4560    68.6420    25.1320    10.2020     9.0820    10.9290 
  133.7500     2.1770   -20.6480   397.6500    71.0680    25.0580     9.7010     8.8330    10.6320 
  133.8750     2.1910   -20.5190   396.2330    72.3800    25.0420     9.2910     8.6350    10.4250 
  134.0000     2.2050   -20.4480   397.1720    71.6700    25.0710     9.1220     8.5150    10.3360 
  134.1250     2.2060   -20.4450   398.5300    72.4440    25.0920     9.5190     8.4960    10.3810 
  134.2500     2.1970   -20.4740   397.8690    72.4550    25.1150    10.3130     8.5590    10.5270 
  134.3750     2.1960   -20.5420   392.7540    69.0680    25.1840    11.0810     8.7030    10.7660 
  134.5000     2.2150   -20.6460   381.4390    64.6610    25.2940    11.4580     8.9140    11.0820 
  134.6250     2.2480   -20.7740   364.4630    63.8050    25.3930    11.5280     9.1670    11.4400 
  134.7500     2.2690   -20.8990   348.0640    65.9290    25.4790    11.7550     9.4090    11.7670 
  134.8750     2.2650   -21.0150   338.2760    68.1930    25.5660    12.1370     9.5930    11.9900 
  135.0000     2.2450   -21.1260   338.8060    69.1300    25.6360    12.2890     9.6780    12.0560 
  135.1250     2.2230   -21.2240   349.7430    68.1510    25.6690    11.9860     9.6440    11.9600 
  135.2500     2.2070   -21.3160   363.8530    68.3020    25.7040    11.6290     9.5530    11.8190 
  135.3750     2.2020   -21.4050   375.8870    71.7220    25.7670    11.5160     9.4610    11.7200 
  135.5000     2.2080   -21.4770   383.1560    75.1420    25.8500    11.8210     9.4110    11.7100 
  135.6250     2.2210   -21.5140   385.4180    75.1200    25.9120    12.6760     9.4260    11.7850 
  135.7500     2.2300   -21.5280   385.6000    72.1160    25.9240    13.5820     9.4730    11.8720 
  135.8750     2.2310   -21.5090   385.5600    68.7610    25.8920    13.8880     9.5230    11.9220 
  136.0000     2.2270   -21.4510   386.2830    67.3970    25.8450    13.3950     9.5650    11.9340 
  136.1250     2.2190   -21.3570   387.5540    66.7180    25.7990    12.5950     9.6230    11.9620 
  136.2500     2.2050   -21.2460   388.0690    64.4070    25.7360    11.9970     9.7170    12.0480 
  136.3750     2.1870   -21.1190   386.9600    61.1790    25.6350    12.0120     9.8470    12.1940 
  136.5000     2.1740   -20.9900   384.3400    59.1540    25.4830    13.2260     9.9840    12.3520 
  136.6250     2.1750   -20.8930   381.5130    59.9810    25.2920    15.1630    10.0620    12.4130 
  136.7500     2.1810   -20.8180   380.0680    62.6060    25.1300    15.5920    10.0320    12.2970 
  136.8750     2.1790   -20.7760   380.5740    65.9710    25.0420    13.9960     9.8790    11.9880 
  137.0000     2.1660   -20.7710   382.5220    69.3420    25.0190    11.9720     9.6310    11.5480 
  137.1250     2.1520   -20.8060   384.4790    71.0040    25.0220    11.3220     9.3540    11.0970 
  137.2500     2.1480   -20.8510   385.1950    70.9140    25.0240    11.5860     9.1260    10.7460 
  137.3750     2.1520   -20.8770   384.4360    68.8670    25.0260    11.8970     8.9870    10.5460 
  137.5000     2.1610   -20.8690   382.8660    67.1230    25.0110    11.7540     8.9480    10.4970 
  137.6250     2.1760   -20.7980   382.1030    68.3590    24.9580    11.3700     8.9910    10.5520 
  137.7500     2.1980   -20.6460   383.3470    70.7380    24.9000    11.3470     9.0370    10.5870 
  137.8750     2.2260   -20.3840   386.5550    72.3640    24.8670    11.5970     8.9970    10.4690 
  138.0000     2.2500   -19.9980   390.2750    72.5140    24.8620    11.5340     8.7710    10.0610 
  138.1250     2.2700   -19.4850   392.0560    72.6060    24.8890    10.8120     8.2410     9.2250 
  138.2500     2.2900   -18.8970   391.5580    74.4280    24.9760     9.9860     7.4880     8.1170 
  138.3750     2.3090   -18.2730   390.4680    77.9770    25.1540     9.4930     6.6380     6.9350 
  138.5000     2.3260   -17.6450   391.4480    80.8080    25.4330     9.4690     5.8320     5.8780 
  138.6250     2.3390   -17.0710   396.7130    85.5490    25.7980     9.5710     5.2170     5.1350 
  138.7500     2.3470   -16.5740   404.4060    92.3630    26.1480     9.3110     4.8160     4.7110 
  138.8750     2.3410   -16.1760   411.8180    97.3890    26.3720     8.7250     4.6290     4.5790 
  139.0000     2.3220   -15.8840   416.5190    97.1710    26.4000     8.3250     4.6220     4.6730 
  139.1250     2.2990   -15.6750   416.7730    94.9140    26.2630     8.4550     4.7520     4.9100 
  139.2500     2.2930   -15.5170   413.8530    94.1280    26.0640     8.5760     4.9270     5.1650 
  139.3750     2.3060   -15.3720   409.3840    93.5170    25.8900     8.2610     5.0770     5.3530 
  139.5000     2.3190   -15.2150   405.3340    92.3960    25.8870     7.7190     5.1510     5.4230 
  139.6250     2.3050   -15.0010   403.8060    90.6180    26.1120     7.7320     5.1070     5.3400 
  139.7500     2.2820   -14.7520   405.0210    89.5280    26.2950     8.1690     4.9610     5.1350 
  139.8750     2.2820   -14.4800   408.5450    90.8060    26.2840     8.1300     4.7330     4.8290 
