~V
VERS. 2.00: Ver 2.00
~W
STRT.M 125.0000:
STOP.M 255.0000:
STEP.M 0.1250:
NULL. -999.2500:
UWI. DF3006:
~C
DEPT.M :
GR.API :
RML.OHMM :
RI. :
RXO.OHMM :
CALI.CM :
DEN.GM/CC :
SP.MV :
~A
# ...
  181.2500    64.2570   273.6390   264.6980   359.2430    24.8000     2.2320   -29.0180 
  181.3750    64.8160   255.4500   247.1470   245.4720    24.8000     2.2360   -28.9400 
  181.5000    66.1830   233.7240   225.7460   174.5560    24.8000     2.2370   -28.9110 
  181.6250    69.2430   214.7320   206.4350   167.3530    24.8000     2.2370   -28.8610 
  181.7500    71.1880   200.5790   191.5440   170.9640    24.8000     2.2410   -28.7070 
  181.8750    70.2910   191.8240   181.7390   162.2420    24.8000     2.2470   -28.6030 
  182.0000    67.5960   188.4330   177.0650   152.9650    24.8000     2.2520   -28.3740 
  182.1250    67.8500   190.7180   177.9200   150.4410    24.8000     2.2530   -28.1270 
  182.2500    69.2430   197.4900   183.2290   155.6470    24.8000     2.2500   -27.8520 
  182.3750    68.4230   209.5390   193.6460   174.4630    24.8000     2.2460   -27.5360 
  182.5000    65.8050   229.2890   211.0920   196.0700    24.7970     2.2470   -27.2260 
  182.6250    64.1320   261.2730   239.5320   209.1000    24.7730     2.2520   -27.0880 
  182.7500    64.3670   302.3150   276.5930   221.1480    24.7050     2.2540   -26.9910 
  182.8750    64.5110   344.0690   315.6930   251.9480    24.6540     2.2490   -26.9460 
  183.0000    63.5780   371.8750   344.4690   317.9930    24.5680     2.2360   -27.0680 
  183.1250    62.3360   362.7150   342.6770   461.8360    24.3690     2.2210   -27.3610 
  183.2500    61.2230   317.1080   308.1990   563.3400    24.3260     2.2110   -27.6870 
  183.3750    60.6890   251.6380   251.4610   472.8540    24.2340     2.2130   -28.0870 
  183.5000    61.0100   190.6600   192.1280   296.6500    24.1580     2.2240   -28.5570 
  183.6250    63.1470   149.9770   148.0170   173.1870    23.9240     2.2410   -28.7800 
  183.7500    64.9940   124.5480   119.2610   108.7900    23.8220     2.2540   -29.0270 
  183.8750    65.2360   109.1590   101.8370    86.2950    23.8100     2.2590   -29.1410 
  184.0000    64.2780    99.7440    91.3970    87.0280    23.8560     2.2560   -29.1310 
  184.1250    63.9270    94.0680    85.2650    85.4820    23.8700     2.2490   -29.1090 
  184.2500    63.1480    90.0260    81.0200    71.1130    23.9090     2.2440   -28.9480 
  184.3750    63.1220    86.7100    77.7020    60.0490    23.9840     2.2440   -28.7310 
  184.5000    66.3640    83.3800    74.5710    62.8770    24.0670     2.2480   -28.2820 
  184.6250    72.7010    79.4040    71.0550    72.4830    24.1490     2.2560   -27.8980 
  184.7500    77.4590    74.9080    67.1850    73.7820    24.2260     2.2690   -27.4190 
  184.8750    77.4880    70.6410    63.5040    67.6390    24.2690     2.2850   -26.8530 
  185.0000    72.6890    67.9680    61.0300    58.3660    24.3260     2.3030   -26.2680 
  185.1250    68.0600    68.8860    61.3130    53.5170    24.3590     2.3210   -25.4340 
  185.2500    68.5440    73.0680    64.0760    54.8250    24.4330     2.3390   -24.5680 
  185.3750    71.7080    78.7500    67.8870    57.3300    24.5050     2.3640   -23.6250 
  185.5000    72.5710    82.4210    70.0500    64.0130    24.5030     2.4050   -22.6920 
  185.6250    71.7290    78.7390    66.3730    76.4010    23.9960     2.4700   -21.7300 
  185.7500    70.9820    66.6720    56.3360    74.5760    24.0430     2.5480   -20.7540 
  185.8750    70.3160    48.9810    42.1520    56.7200    24.1370     2.6180   -19.8320 
  186.0000    70.1060    31.0170    28.1070    49.5660    24.1250     2.6540   -18.9930 
  186.1250    71.0730    18.2880    18.2090    31.7450    23.9740     2.6400   -18.2760 
  186.2500    69.5610    11.8230    12.2140    15.5180    23.9110     2.5980   -17.6990 
  186.3750    64.4030     9.0860     9.0710     7.7760    23.8910     2.5560   -17.2500 
  186.5000    59.9670     8.0890     7.7150     5.7730    23.9000     2.5290   -16.9480 
  186.6250    59.1000     8.1110     7.4930     5.6900    23.9200     2.5230   -16.7180 
  186.7500    59.3790     8.4420     7.7410     5.7870    23.9390     2.5220   -16.5940 
  186.8750    59.2440     8.7720     8.1470     5.9020    23.9500     2.5140   -16.5990 
  187.0000    58.7180     8.9230     8.4780     5.9700    23.9620     2.4950   -16.5510 
  187.1250    57.7160     8.8270     8.5740     5.9910    23.9840     2.4710   -16.6600 
  187.2500    56.7310     8.5980     8.4800     5.9620    23.9930     2.4500   -16.7220 
  187.3750    55.7100     8.3300     8.2720     5.8900    23.9890     2.4340   -16.8630 
  187.5000    54.0640     8.1040     8.0290     5.8620    23.9660     2.4210   -17.0580 
  187.6250    52.2530     7.9940     7.8280     5.9190    23.8820     2.4100   -17.2920 
  187.7500    53.0740     8.0070     7.6980     6.0120    23.7980     2.4020   -17.6500 
  187.8750    56.8570     8.1380     7.6420     6.1340    23.8180     2.3980   -18.0320 
  188.0000    62.6610     8.3660     7.6550     6.2960    23.8930     2.3960   -18.6210 
  188.1250    69.8280     8.6680     7.7310     6.5080    23.9740     2.3980   -19.2130 
  188.2500    76.5090     8.9970     7.8420     6.7270    24.0280     2.4030   -19.9210 
  188.3750    82.7220     9.3320     7.9730     6.9870    24.0500     2.4140   -20.7200 
  188.5000    90.2510     9.6650     8.1130     7.3750    24.0360     2.4320   -21.5320 
  188.6250    98.8080    10.0060     8.2600     7.8220    24.0240     2.4490   -22.4440 
  188.7500   105.1310    10.3650     8.4180     8.3130    24.0270     2.4590   -23.3660 
  188.8750   108.6970    10.7340     8.5840     8.7980    24.0150     2.4570   -24.2140 
  189.0000   110.3160    11.0900     8.7460     9.1710    23.9380     2.4440   -24.9860 
  189.1250   107.4940    11.3900     8.8790     9.5370    24.0790     2.4280   -25.8200 
  189.2500   102.4370    11.6060     8.9660     9.8540    24.1980     2.4160   -26.5950 
  189.3750    98.8850    11.7270     9.0030     9.9020    24.2680     2.4110   -27.2690 
  189.5000    98.1140    11.7810     9.0070     9.6010    24.2110     2.4100   -27.8550 
  189.6250    96.5850    11.8610     9.0420     9.4880    24.0930     2.4100   -28.4140 
  189.7500    94.2050    12.0920     9.1840     9.8930    24.0340     2.4080   -28.9110 
  189.8750    92.9230    12.5740     9.4950    10.8790    24.0360     2.4040   -29.4730 
  190.0000    93.4300    13.3390     9.9990    11.8860    23.8700     2.3990   -30.0100 
  190.1250    93.6500    14.3120    10.6640    13.0320    23.6860     2.3980   -30.3650 
  190.2500    91.8560    15.2310    11.3350    14.5980    23.4920     2.4020   -30.6810 
  190.3750    88.3310    15.8600    11.8630    15.8230    23.4170     2.4070   -30.8230 
  190.5000    85.3980    16.0360    12.1210    15.7380    23.4050     2.4100   -30.9440 
  190.6250    85.6380    15.7010    12.0210    15.2290    23.4050     2.4060   -30.8700 
  190.7500    87.9110    15.1500    11.7100    15.1900    23.4040     2.3970   -30.6930 
  190.8750    90.5060    14.6800    11.3680    15.1110    23.4340     2.3850   -30.3740 
  191.0000    91.2700    14.5510    11.1850    15.2400    23.5280     2.3770   -29.8080 
  191.1250    89.8940    14.9360    11.3180    15.4660    23.7350     2.3790   -29.2090 
  191.2500    91.0210    15.6020    11.6680    15.3180    23.8560     2.3930   -28.4590 
  191.3750    96.1800    16.2250    12.0500    15.3640    23.9450     2.4190   -27.7650 
  191.5000   103.3980    16.4270    12.2180    16.4100    23.9980     2.4470   -27.0070 
  191.6250   108.6990    15.8010    11.8780    17.5950    23.9920     2.4600   -26.1780 
  191.7500   112.6800    14.5090    11.0830    16.5720    24.0450     2.4500   -25.3680 
  191.8750   114.3830    12.9020    10.0310    13.3110    24.1540     2.4220   -24.5120 
  192.0000   110.3320    11.4490     9.0170    11.0120    24.2120     2.3910   -23.7050 
  192.1250   101.4540    10.6570     8.3730     9.9940    24.1150     2.3750   -22.9770 
  192.2500    94.2710    10.5610     8.1700     9.3360    24.0100     2.3800   -22.3010 
  192.3750    91.1940    11.0210     8.3710     9.0420    23.8650     2.4010   -21.6620 
