~V
VERS. 2.00: Ver 2.00
~W
STRT.M 58.0000:
STOP.M 259.0000:
STEP.M 0.1250:
NULL. -999.2500:
UWI. DF3010:
~C
DEPT.M :
GR.API :
RML.OHMM :
RI. :
RXO.OHMM :
CALI.CM :
DEN.GM/CC :
SP.MV :
~A
# ...
   69.2500    73.4430     9.0210    10.8690    21.4660    22.9280  -999.2500   -31.4390 
   69.3750    74.0150     9.0100    10.7850    18.3790    22.7400  -999.2500   -32.0600 
   69.5000    75.8840     8.8440    10.4820    12.6880    22.6750  -999.2500   -32.6050 
   69.6250    75.3990     8.6920    10.1550    10.5850    22.6670  -999.2500   -33.0950 
   69.7500    72.1540     8.6640     9.9540    10.1560    22.6610  -999.2500   -33.4840 
   69.8750    70.4950     8.7720     9.9130    10.2030    22.6880  -999.2500   -33.8040 
   70.0000    74.4810     8.9600     9.9890    10.3520    22.7620  -999.2500   -34.0450 
   70.1250    80.8030     9.1270    10.0800    10.3590    22.8600  -999.2500   -34.2710 
   70.2500    82.5630     9.1950    10.0960    10.3700    22.9050  -999.2500   -34.4360 
   70.3750    79.2820     9.1570    10.0190    10.5700    22.8890  -999.2500   -34.5280 
   70.5000    75.4910     9.0700     9.8950    10.7080    22.8510  -999.2500   -34.5820 
   70.6250    75.0440     9.0510     9.8330    10.6650    22.8270  -999.2500   -34.5460 
   70.7500    75.8500     9.1720     9.9030    10.7970    22.8590  -999.2500   -34.5490 
   70.8750    76.7860     9.4240    10.1040    11.2650    22.9470  -999.2500   -34.5790 
   71.0000    77.6340     9.7320    10.3670    12.0410    23.0780  -999.2500   -34.6740 
   71.1250    78.2900     9.9570    10.5610    13.5050    23.2030  -999.2500   -34.7200 
   71.2500    76.9480    10.0210    10.5950    15.0920    23.1360  -999.2500   -34.8420 
   71.3750    72.4520     9.9240    10.4580    14.4850    22.9220  -999.2500   -35.0420 
   71.5000    70.3630     9.7340    10.2080    12.0270    22.7190  -999.2500   -35.1680 
   71.6250    73.3760     9.5530     9.9460    10.5780    22.6170  -999.2500   -35.3290 
   71.7500    75.2580     9.4390     9.7500    10.2020    22.5950  -999.2500   -35.5710 
   71.8750    72.7180     9.4010     9.6390    10.3350    22.6050  -999.2500   -35.8370 
   72.0000    68.0800     9.4210     9.6010    10.6090    22.6180  -999.2500   -35.9980 
   72.1250    67.6940     9.4820     9.6130    10.7580    22.6240  -999.2500   -36.1860 
   72.2500    71.6430     9.5600     9.6440    10.7300    22.6170  -999.2500   -36.3770 
   72.3750    76.9530     9.6430     9.6790    10.6230    22.5910  -999.2500   -36.4530 
   72.5000    80.6900     9.7130     9.7060    10.6310    22.5620  -999.2500   -36.5660 
   72.6250    82.1340     9.7460     9.7040    10.5050    22.5490  -999.2500   -36.7710 
   72.7500    82.8150     9.7420     9.6640    10.3910    22.5660  -999.2500   -36.8650 
   72.8750    83.3120     9.7180     9.5940    10.3750    22.6160  -999.2500   -36.8090 
   73.0000    82.5610     9.7020     9.5140    10.5270    22.6490  -999.2500   -36.8650 
   73.1250    79.2640     9.7290     9.4570    10.6640    22.6680  -999.2500   -36.9780 
   73.2500    75.5820     9.7990     9.4410    10.7780    22.6710  -999.2500   -36.9630 
   73.3750    73.9770     9.8970     9.4650    10.7970    22.6730  -999.2500   -37.0480 
   73.5000    75.0140     9.9950     9.5130    10.7330    22.6680  -999.2500   -37.2010 
   73.6250    74.0400    10.0540     9.5630    10.6330    22.6650  -999.2500   -37.1440 
   73.7500    70.8930    10.0670     9.5970    10.6300    22.6730  -999.2500   -37.0700 
   73.8750    69.1150    10.0470     9.6140    10.6840    22.6910  -999.2500   -37.1090 
   74.0000    69.6420    10.0320     9.6300    10.7530    22.7030  -999.2500   -36.9990 
   74.1250    72.3740    10.0870     9.6810    10.7960    22.7060  -999.2500   -36.7610 
   74.2500    73.0940    10.2380     9.7850    10.8280    22.7100  -999.2500   -36.5750 
   74.3750    69.5670    10.4730     9.9340    10.8070    22.7140  -999.2500   -36.2150 
   74.5000    64.9680    10.7300    10.0820    10.6990    22.7200  -999.2500   -35.7850 
   74.6250    65.5800    10.8710    10.1160    10.6310    22.7410  -999.2500   -35.3970 
   74.7500    69.8470    10.7870     9.9490    10.5970    22.7690  -999.2500   -34.8540 
   74.8750    73.7860    10.4210     9.5350    10.3850    22.8110  -999.2500   -34.1600 
   75.0000    77.8550     9.7990     8.8980     9.7770    22.8750  -999.2500   -33.5270 
   75.1250    83.4940     9.0360     8.1370     8.7210    22.9590  -999.2500   -33.0250 
   75.2500    89.3760     8.3540     7.4410     7.6940    23.0390  -999.2500   -32.5070 
   75.3750    96.2430     7.9270     6.9540     7.1370    23.0840  -999.2500   -32.0720 
   75.5000   101.9860     7.8850     6.7860     7.0330    23.0840  -999.2500   -31.7630 
   75.6250   100.0490     8.3530     7.0580     7.2640    23.0300  -999.2500   -31.6120 
   75.7500    92.4970     9.2000     7.6870     8.0270    22.9650  -999.2500   -31.5460 
   75.8750    84.0610    10.2560     8.5600     9.2930    22.9380  -999.2500   -31.5670 
   76.0000    77.4410    11.2540     9.4710    11.0580    22.9620  -999.2500   -31.6340 
   76.1250    74.1420    11.7850    10.0770    12.2630    23.0450  -999.2500   -31.5090 
   76.2500    76.1660    11.7020    10.1840    12.9690    23.1500  -999.2500   -31.3140 
   76.3750    83.3590    11.0550     9.7770    13.6300    23.2570  -999.2500   -31.2060 
   76.5000    91.5620    10.1190     9.0480    13.5940    23.3030  -999.2500   -30.9750 
   76.6250    97.4320     9.3270     8.3360    11.2800    23.2710  -999.2500   -30.7010 
   76.7500    99.7590     8.9280     7.8940     8.3630    23.1990  -999.2500   -30.6550 
   76.8750    97.6030     8.9330     7.7870     7.6610    23.0890  -999.2500   -30.6230 
   77.0000    92.4440     9.2110     7.9620     8.0880    23.0150  -999.2500   -30.5110 
   77.1250    88.4920     9.5720     8.3140     8.8890    23.0380  -999.2500   -30.5750 
   77.2500    86.3490     9.8740     8.6840     9.1140    23.0810  -999.2500   -30.7340 
   77.3750    84.0590    10.1040     9.0020     8.8590    23.1000  -999.2500   -30.7330 
   77.5000    81.6610    10.3130     9.2600     8.5980    23.1020  -999.2500   -30.7250 
   77.6250    80.3610    10.5600     9.4730     8.6630    23.1020  -999.2500   -30.6350 
   77.7500    78.9340    10.8070     9.6420     9.2280    23.1020  -999.2500   -30.2550 
   77.8750    77.8040    10.9570     9.7120     9.6310    23.1020  -999.2500   -29.8480 
   78.0000    81.1820    10.9110     9.6160     9.7130    23.1100  -999.2500   -29.5290 
   78.1250    90.5520    10.5900     9.2830     9.5540    23.1580  -999.2500   -29.0800 
   78.2500    98.8040    10.0910     8.7930     9.1240    23.2410  -999.2500   -28.5520 
   78.3750   100.9390     9.5090     8.2340     8.4920    23.2990  -999.2500   -28.2120 
   78.5000    98.7650     8.9360     7.6960     8.0910    23.3090  -999.2500   -27.9780 
   78.6250    95.6710     8.5000     7.2910     8.2080    23.2720  -999.2500   -27.7080 
   78.7500    92.5370     8.3710     7.1360     8.7720    23.1880  -999.2500   -27.5850 
   78.8750    89.8830     8.8190     7.4300     9.5800    23.1090  -999.2500   -27.5890 
   79.0000    87.5770    10.1080     8.3950    10.1840    23.0930  -999.2500   -27.5390 
   79.1250    85.7920    12.4160    10.2620    11.3290    23.1230  -999.2500   -27.4170 
   79.2500    84.1240    15.1280    12.6390    14.5920    23.2020  -999.2500   -27.2950 
   79.3750    82.7460    17.4200    14.9030    19.7630    23.3600  -999.2500   -27.1180 
   79.5000    82.5330    18.3730    16.2240    28.3690    23.5590  -999.2500   -26.7760 
   79.6250    82.9890    17.1390    15.6490    30.2330    23.5870  -999.2500   -26.4160 
   79.7500    85.9020    14.4950    13.6320    20.6080    23.4280  -999.2500   -26.0440 
   79.8750    92.7440    11.4990    11.0640    11.7770    23.3370  -999.2500   -25.4520 
   80.0000   102.3910     9.0700     8.8100     7.9760    23.5080  -999.2500   -24.8230 
   80.1250   110.8640     7.7180     7.3680     6.6430    23.9130  -999.2500   -24.4320 
   80.2500   114.1680     7.1300     6.5620     5.8180    24.2160  -999.2500   -24.0870 
   80.3750   113.8440     7.0220     6.2100     5.4210    24.3580  -999.2500   -23.6970 
