~V
VERS. 2.00: Ver 2.00
~W
STRT.M 125.0000:
STOP.M 275.0000:
STEP.M 0.1250:
NULL. -999.2500:
UWI. DF3074:
~C
DEPT.M :
GR.API :
CALI.CM :
RXO.OHMM :
RI. :
RML.OHMM :
DEN.GM/CC :
SP.MV :
~A
# ...
  158.7500    77.8260    24.9530     9.0560     8.3710     8.8160     2.4300    -9.9480 
  158.8750    76.8350    24.8800     8.2210     8.8130     9.2950     2.4380    -9.9810 
  159.0000    76.6340    24.8480     9.6310     9.3280     9.9160     2.4530   -10.1020 
  159.1250    74.6420    24.9550    12.4050     9.9460    10.6910     2.4650   -10.2530 
  159.2500    72.3660    25.2570    13.1750    10.5780    11.4370     2.4550   -10.4380 
  159.3750    72.3740    25.5030    11.8970    11.0920    11.9500     2.4220   -10.6400 
  159.5000    74.6580    25.5910    10.9400    11.3730    12.1100     2.3850   -10.8260 
  159.6250    77.7390    25.6110    11.7250    11.4170    12.0040     2.3700   -11.0130 
  159.7500    80.9570    25.6150    12.7300    11.4760    12.0190     2.3690   -11.2330 
  159.8750    84.2180    25.5960    12.7180    11.7410    12.4050     2.3540   -11.4630 
  160.0000    86.5850    25.5590    12.0880    12.2630    13.2010     2.3130   -11.6900 
  160.1250    85.7770    25.5750    12.2270    12.8800    14.1680     2.2650   -12.0080 
  160.2500    81.8880    25.6000    13.1350    13.2010    14.7340     2.2350   -12.3200 
  160.3750    78.1390    25.5910    12.9790    12.8720    14.3830     2.2260   -12.6360 
  160.5000    77.3930    25.5120    11.4080    11.8140    12.9870     2.2280   -12.9340 
  160.6250    79.3880    25.3030     9.5060    10.3890    11.0770     2.2350   -13.2160 
  160.7500    80.0290    25.0270     8.1870     9.2440     9.6020     2.2460   -13.3300 
  160.8750    79.4970    24.8530     7.5440     8.7590     9.1150     2.2590   -13.2680 
  161.0000    80.6330    24.8960     7.7940     9.1870     9.9470     2.2630   -13.0950 
  161.1250    80.8030    25.1530    10.5970    10.9460    12.5720     2.2430   -12.7680 
  161.2500    76.6480    25.4760    15.4070    13.9650    16.7770     2.2090   -12.3890 
  161.3750    71.0180    25.7430    20.7720    17.9620    22.0830     2.1790   -11.9330 
  161.5000    68.1910    25.8700    24.8330    21.9400    27.0540     2.1730   -11.4120 
  161.6250    67.5520    25.8440    25.1060    23.9990    29.0590     2.2130   -10.8790 
  161.7500    65.2950    25.7270    22.5300    23.8610    28.0680     2.2920   -10.4090 
  161.8750    64.1320    25.5730    19.5340    22.4280    25.6540     2.3960   -10.0270 
  162.0000    66.1700    25.4690    17.7190    20.7930    23.3880     2.4960    -9.7210 
  162.1250    68.2320    25.4620    16.4580    19.6270    22.0790     2.5640    -9.4280 
  162.2500    66.6440    25.4830    15.9650    18.9430    21.5150     2.5950    -9.1940 
  162.3750    62.2930    25.4920    15.8570    18.5980    21.3630     2.5900    -8.9980 
  162.5000    59.5280    25.4700    15.2930    18.4040    21.2890     2.5600    -8.8720 
  162.6250    61.7090    25.3870    14.3520    18.2350    21.0980     2.5230    -8.7460 
  162.7500    65.0570    25.3140    13.7300    18.0870    20.8730     2.4960    -8.6410 
  162.8750    66.5240    25.2400    13.6060    18.0160    20.7490     2.4760    -8.5310 
  163.0000    66.0800    25.2150    13.7400    18.0260    20.7560     2.4640    -8.4030 
  163.1250    65.5230    25.2620    14.1720    17.9610    20.6800     2.4680    -8.2840 
  163.2500    64.1090    25.3090    14.6360    17.6200    20.2440     2.4850    -8.1840 
  163.3750    61.8150    25.3290    14.7190    16.9350    19.3580     2.5020    -8.0890 
  163.5000    60.3440    25.3150    14.0090    16.0270    18.1940     2.5080    -7.9710 
  163.6250    61.2940    25.2830    12.4290    15.1750    17.1300     2.5120    -7.9640 
  163.7500    62.9220    25.3140    11.3130    14.6120    16.4710     2.5270    -7.9930 
  163.8750    63.7770    25.3550    11.3090    14.4350    16.3340     2.5460    -8.1380 
  164.0000    64.0120    25.3830    11.8970    14.6440    16.6840     2.5460    -8.3230 
  164.1250    65.0610    25.3670    12.2750    15.1770    17.3930     2.5110    -8.5440 
  164.2500    66.1710    25.3490    12.4530    15.8020    18.1560     2.4700    -8.7510 
  164.3750    65.6430    25.3290    12.4760    16.3450    18.7710     2.4540    -8.9690 
  164.5000    63.7720    25.3100    12.3340    16.7030    19.1510     2.4710    -9.2010 
  164.6250    62.6810    25.2310    12.1100    16.8370    19.2850     2.4990    -9.3660 
  164.7500    62.8450    25.1650    11.9620    16.8060    19.2420     2.5170    -9.5050 
  164.8750    62.9440    25.2130    12.1670    16.6110    19.0130     2.5270    -9.5950 
  165.0000    62.0120    25.3050    12.6710    16.2550    18.5980     2.5340    -9.6920 
  165.1250    61.0370    25.3590    12.8790    15.7950    18.0760     2.5290    -9.7940 
  165.2500    61.2950    25.3860    12.4860    15.3870    17.6410     2.5100    -9.8710 
  165.3750    61.8000    25.4030    11.9730    15.1620    17.4610     2.4870    -9.9420 
  165.5000    62.3790    25.3990    11.7300    15.2140    17.6580     2.4750    -9.9920 
  165.6250    64.2090    25.3610    12.0520    15.6300    18.3320     2.4840   -10.0830 
  165.7500    66.0330    25.2950    13.1170    16.3000    19.3160     2.4990   -10.1600 
  165.8750    66.1960    25.1970    14.5770    17.0930    20.4100     2.4990   -10.2100 
  166.0000    67.0370    25.2260    15.6050    17.8470    21.3910     2.4820   -10.2920 
  166.1250    70.8140    25.3140    15.8450    18.4260    22.1100     2.4620   -10.3410 
  166.2500    74.1380    25.3790    15.7620    18.8710    22.6780     2.4460   -10.4200 
  166.3750    76.8140    25.4150    15.6650    19.2470    23.1970     2.4300   -10.4880 
  166.5000    80.6510    25.4390    15.8700    19.5790    23.6870     2.4170   -10.5700 
  166.6250    82.7710    25.4810    16.7060    19.7620    23.9600     2.4210   -10.6470 
  166.7500    80.3710    25.4700    17.5550    19.6880    23.8400     2.4360   -10.7310 
  166.8750    77.7320    25.4420    17.6040    19.3310    23.3060     2.4540   -10.8260 
  167.0000    79.3120    25.3770    16.7320    18.8060    22.5500     2.4630   -10.8630 
  167.1250    80.0180    25.2670    15.8550    18.3520    21.9570     2.4580   -10.9530 
  167.2500    76.9630    25.1900    15.7400    18.1610    21.7990     2.4450   -10.9840 
  167.3750    74.9000    25.1650    16.2040    18.3060    22.1560     2.4360   -11.0040 
  167.5000    77.8370    25.1650    16.9540    18.7200    22.8820     2.4410   -10.9870 
  167.6250    80.1420    25.1850    17.4390    19.1380    23.5250     2.4550   -10.9450 
  167.7500    77.1130    25.2180    17.5300    19.2190    23.6000     2.4730   -10.8670 
  167.8750    73.8090    25.2370    17.1280    18.7950    22.9160     2.4980   -10.7880 
  168.0000    73.3710    25.2400    15.9730    17.9200    21.6220     2.5330   -10.6800 
  168.1250    71.8780    25.2320    14.3460    16.8300    20.1160     2.5620   -10.5100 
  168.2500    67.6610    25.2180    13.1140    15.8310    18.8190     2.5730   -10.3500 
  168.3750    62.2980    25.2060    12.7340    15.0690    17.8990     2.5730   -10.2080 
  168.5000    58.0010    25.2110    12.8500    14.5890    17.3760     2.5770   -10.0870 
  168.6250    56.3460    25.1840    12.9360    14.3960    17.2160     2.5920    -9.9840 
  168.7500    56.3210    25.1030    12.9970    14.3700    17.2490     2.6040    -9.9190 
  168.8750    56.7450    24.9730    13.2550    14.4350    17.3700     2.6070    -9.8640 
  169.0000    59.0670    24.8750    13.7830    14.5250    17.4980     2.6050    -9.8380 
  169.1250    62.8080    24.8540    14.3980    14.5900    17.5730     2.6050    -9.8600 
  169.2500    64.4630    24.8930    14.0020    14.6110    17.5810     2.6020    -9.8420 
  169.3750    63.0550    24.9280    13.1010    14.5760    17.5200     2.5900    -9.8070 
  169.5000    60.4170    24.9400    12.5160    14.4790    17.3900     2.5760    -9.7940 
  169.6250    57.4670    24.9690    12.2600    14.3030    17.1750     2.5740    -9.7230 
  169.7500    55.3760    25.0560    12.0330    14.0640    16.8900     2.5820    -9.7170 
  169.8750    55.7810    25.1500    11.8360    13.7920    16.5600     2.5870    -9.7060 
