~V
VERS. 2.00: Ver 2.00
~W
STRT.M 64.0000:
STOP.M 262.0000:
STEP.M 0.1250:
NULL. -999.2500:
UWI. DF3019:
~C
DEPT.M :
GR.API :
RML.OHMM :
RI. :
RXO.OHMM :
CALI.CM :
DEN.GM/CC :
SP.MV :
~A
# ...
   75.2500    73.9240    10.2250     9.6790     9.4100    24.2470  -999.2500   -26.7190 
   75.3750    79.3850     9.2590     8.7160     8.1370    23.9930  -999.2500   -27.2470 
   75.5000    82.6180     8.9040     8.1810     7.7500    23.8120  -999.2500   -27.8240 
   75.6250    81.0310     9.1700     8.1350     8.0760    23.7750  -999.2500   -28.2810 
   75.7500    75.7110     9.7430     8.3850     8.8980    23.8570  -999.2500   -28.7180 
   75.8750    70.3850    10.4110     8.7920     9.6880    24.0160  -999.2500   -29.1400 
   76.0000    68.7590    11.0020     9.2230     9.8660    24.1700  -999.2500   -29.5020 
   76.1250    69.2130    11.3670     9.5460     9.5870    24.3960  -999.2500   -29.9050 
   76.2500    68.3840    11.5060     9.7130     9.3620    24.6640  -999.2500   -30.3350 
   76.3750    67.5100    11.4420     9.7150     9.3910    24.7950  -999.2500   -30.7380 
   76.5000    67.1950    11.2280     9.5810     9.5770    24.5940  -999.2500   -31.0710 
   76.6250    66.3590    10.9300     9.3530     9.6850    24.4240  -999.2500   -31.4490 
   76.7500    67.7350    10.6580     9.1230     9.6210    24.2480  -999.2500   -31.7300 
   76.8750    71.0250    10.5100     8.9640     9.4870    24.1630  -999.2500   -31.9600 
   77.0000    70.6650    10.5690     8.9430     9.3590    24.1480  -999.2500   -32.2300 
   77.1250    65.6580    10.8900     9.1180     9.7040    24.1790  -999.2500   -32.3770 
   77.2500    65.0510    11.3420     9.4110    10.0530    24.1890  -999.2500   -32.5050 
   77.3750    70.7450    11.7650     9.7210    10.4840    24.1520  -999.2500   -32.6520 
   77.5000    75.8100    11.9930     9.9220    11.1310    24.0500  -999.2500   -32.8040 
   77.6250    74.5570    11.8760     9.8890    11.6470    23.9160  -999.2500   -32.8210 
   77.7500    72.1090    11.5180     9.6600    11.3330    23.9020  -999.2500   -32.8500 
   77.8750    69.6090    11.0690     9.3270    10.5190    23.9110  -999.2500   -32.8510 
   78.0000    66.4650    10.6910     9.0070    10.0980    23.8970  -999.2500   -32.6760 
   78.1250    65.6430    10.5120     8.8070    10.1130    23.8680  -999.2500   -32.5720 
   78.2500    68.3220    10.5050     8.7290    10.2280    23.8560  -999.2500   -32.4260 
   78.3750    71.5260    10.6170     8.7450    10.2890    23.8540  -999.2500   -32.1780 
   78.5000    72.0510    10.7760     8.8040    10.1890    23.8420  -999.2500   -31.9440 
   78.6250    72.0790    10.9090     8.8560     9.9930    23.7770  -999.2500   -31.7450 
   78.7500    73.2450    10.9750     8.8800     9.8990    23.6550  -999.2500   -31.5680 
   78.8750    73.1420    10.9560     8.8760     9.9280    23.5510  -999.2500   -31.4280 
   79.0000    71.6120    10.8580     8.8560    10.1210    23.5120  -999.2500   -31.4490 
   79.1250    70.8670    10.7080     8.8350    10.1860    23.5260  -999.2500   -31.4170 
   79.2500    69.4380    10.5520     8.8180    10.2790    23.5580  -999.2500   -31.3390 
   79.3750    66.3770    10.4180     8.7970    10.4200    23.6140  -999.2500   -31.2750 
   79.5000    64.0760    10.3150     8.7550    10.6680    23.7310  -999.2500   -31.1440 
   79.6250    65.1060    10.2500     8.6790    10.9880    23.9070  -999.2500   -31.0010 
   79.7500    65.8410    10.2110     8.5760    10.9050    24.0670  -999.2500   -30.8080 
   79.8750    64.9150    10.1850     8.4630    10.1530    24.1610  -999.2500   -30.5790 
   80.0000    65.1470    10.1600     8.3570     9.3990    24.2010  -999.2500   -30.3380 
   80.1250    69.4650    10.1270     8.2740     9.1480    24.2640  -999.2500   -30.0830 
   80.2500    74.2320    10.0870     8.2150     9.1270    24.3880  -999.2500   -29.9080 
   80.3750    76.2000    10.0440     8.1800     9.1220    24.5190  -999.2500   -29.7740 
   80.5000    75.3120     9.9990     8.1740     9.0380    24.5920  -999.2500   -29.6300 
   80.6250    73.9340     9.9570     8.2070     8.9320    24.5420  -999.2500   -29.5560 
   80.7500    73.7560     9.9310     8.2690     8.8900    24.3460  -999.2500   -29.5270 
   80.8750    73.5940     9.9370     8.3520     9.1120    24.1370  -999.2500   -29.4980 
   81.0000    71.5100     9.9830     8.4410     9.7220    23.9140  -999.2500   -29.4530 
   81.1250    70.2780    10.0630     8.5180    10.0120    23.6730  -999.2500   -29.5250 
   81.2500    70.5200    10.1490     8.5780    10.1540    23.6470  -999.2500   -29.5630 
   81.3750    69.6720    10.2230     8.6240     9.8280    23.7570  -999.2500   -29.5780 
   81.5000    67.2140    10.2720     8.6550     9.5570    23.7920  -999.2500   -29.7220 
   81.6250    66.8530    10.2780     8.6580     9.5520    23.6750  -999.2500   -29.7480 
   81.7500    68.8940    10.2260     8.6150     9.3590    23.5720  -999.2500   -29.7190 
   81.8750    69.3800    10.1100     8.5110     9.3060    23.5910  -999.2500   -29.6810 
   82.0000    68.5660     9.9470     8.3480     9.3060    23.7340  -999.2500   -29.4900 
   82.1250    70.5960     9.7970     8.1580     9.2710    23.9140  -999.2500   -29.1710 
   82.2500    74.2680     9.7260     7.9960     8.8080    23.9930  -999.2500   -28.7940 
   82.3750    77.8390     9.7610     7.8960     8.3460    23.9660  -999.2500   -28.3620 
   82.5000    79.5150     9.8730     7.8610     8.3970    23.8720  -999.2500   -27.7810 
   82.6250    77.0860     9.9700     7.8530     9.0700    23.8850  -999.2500   -27.1810 
   82.7500    73.2740     9.9540     7.8040     9.4020    23.9510  -999.2500   -26.4930 
   82.8750    72.1320     9.7860     7.6700     9.2020    24.0220  -999.2500   -25.7270 
   83.0000    77.9430     9.4970     7.4470     8.7660    24.0850  -999.2500   -25.0530 
   83.1250    89.2830     9.2060     7.1870     8.0350    24.2170  -999.2500   -24.3260 
   83.2500    98.1660     9.0540     6.9850     7.2900    24.3920  -999.2500   -23.7590 
   83.3750   100.4990     9.1030     6.9040     6.9110    24.5010  -999.2500   -23.3100 
   83.5000    99.2700     9.3140     6.9560     6.9180    24.4900  -999.2500   -22.9410 
   83.6250    97.2100     9.5330     7.0860     7.1030    24.3300  -999.2500   -22.7780 
   83.7500    94.2030     9.5850     7.1770     7.4090    24.1240  -999.2500   -22.7300 
   83.8750    91.0480     9.4070     7.1570     7.7720    24.0020  -999.2500   -22.7790 
   84.0000    91.0980     9.0710     7.0200     7.9260    23.9830  -999.2500   -22.9410 
   84.1250    96.6360     8.7800     6.8400     7.5550    24.0170  -999.2500   -23.3100 
   84.2500   101.1090     8.7070     6.7400     6.9470    24.0240  -999.2500   -23.6490 
   84.3750    99.8070     8.8960     6.7870     6.7190    24.0120  -999.2500   -23.9600 
   84.5000    92.7870     9.2750     6.9820     7.1050    24.0240  -999.2500   -24.2900 
   84.6250    83.8160     9.6680     7.2580     7.7150    24.0340  -999.2500   -24.3490 
   84.7500    76.8950     9.8880     7.4830     8.2390    24.0400  -999.2500   -24.3050 
   84.8750    73.0520     9.8430     7.5650     8.3470    24.0460  -999.2500   -24.1370 
   85.0000    73.6130     9.5460     7.4710     8.2060    24.0660  -999.2500   -23.7100 
   85.1250    80.3750     9.1020     7.2320     7.9090    24.1160  -999.2500   -23.0610 
   85.2500    90.2550     8.6870     6.9620     7.3160    24.1700  -999.2500   -22.2510 
   85.3750    98.7920     8.3910     6.7350     6.6270    24.2560  -999.2500   -21.3720 
   85.5000   101.6760     8.2350     6.5880     6.3760    24.4030  -999.2500   -20.4870 
   85.6250    98.9960     8.1840     6.5310     6.5020    24.5040  -999.2500   -19.6980 
   85.7500    97.0350     8.1450     6.5160     6.5690    24.5420  -999.2500   -19.0190 
   85.8750    99.1460     8.0490     6.5000     6.4010    24.5420  -999.2500   -18.4690 
   86.0000   102.7260     7.8530     6.4410     6.1700    24.5290  -999.2500   -18.1070 
   86.1250   103.2550     7.5380     6.2990     6.0580    24.5010  -999.2500   -17.8930 
   86.2500   100.5360     7.1660     6.0890     5.9140    24.4880  -999.2500   -17.7930 
   86.3750    97.5770     6.8070     5.8500     5.7680    24.4810  -999.2500   -17.7700 
