~V
VERS. 2.00: Ver 2.00
~W
STRT.M 61.0000:
STOP.M 318.0000:
STEP.M 0.1250:
NULL. -999.2500:
UWI. DF302:
~C
DEPT.M :
DEN.GM/CC :
SP.MV :
AC.US/MT :
GR.API :
CALI.CM :
RXO.OHMM :
RI. :
RML.OHMM :
~A
# ...
   91.0000  -999.2500   -21.9600  -999.2500    88.1460    23.3950     7.5280     6.6860    10.1260 
   91.1250  -999.2500   -20.7410  -999.2500    91.7660    23.7860     6.1610     6.1010     8.9660 
   91.2500  -999.2500   -19.6520  -999.2500    94.0130    24.2960     5.3680     5.5660     8.0150 
   91.3750  -999.2500   -18.7450  -999.2500    98.2420    24.7130     5.1440     5.1560     7.3910 
   91.5000  -999.2500   -18.0610  -999.2500   104.2760    24.8630     5.1890     4.9030     7.0970 
   91.6250  -999.2500   -17.6530  -999.2500   106.1930    24.7130     5.2580     4.8230     7.0990 
   91.7500  -999.2500   -17.5150  -999.2500   102.6080    24.4760     5.3640     4.8680     7.2730 
   91.8750  -999.2500   -17.6130  -999.2500    97.0490    24.2310     5.6070     5.0180     7.5810 
   92.0000  -999.2500   -17.9030  -999.2500    93.2810    23.9790     5.9790     5.2660     8.0340 
   92.1250  -999.2500   -18.3250  -999.2500    90.3390    23.7550     6.3770     5.6260     8.6810 
   92.2500  -999.2500   -18.7570  -999.2500    86.1170    23.6230     6.8330     6.0540     9.4440 
   92.3750  -999.2500   -19.1320  -999.2500    80.7490    23.5740     7.4870     6.4840    10.1790 
   92.5000  -999.2500   -19.3890  -999.2500    76.7590    23.5400     8.1780     6.8110    10.6600 
   92.6250  -999.2500   -19.4580  -999.2500    78.0230    23.5110     8.2400     6.8790    10.5850 
   92.7500  -999.2500   -19.3380  -999.2500    84.2120    23.5090     7.5680     6.6900    10.0340 
   92.8750  -999.2500   -19.0570  -999.2500    91.5950    23.5280     6.6150     6.3170     9.2190 
   93.0000  -999.2500   -18.6590  -999.2500    96.6350    23.5740     5.8730     5.8740     8.3910 
   93.1250  -999.2500   -18.1820  -999.2500    98.2840    23.6600     5.5810     5.4710     7.7480 
   93.2500  -999.2500   -17.7000  -999.2500    98.4600    23.7180     5.5650     5.1650     7.3310 
   93.3750  -999.2500   -17.2410  -999.2500    99.5840    23.6960     5.5680     4.9820     7.1600 
   93.5000  -999.2500   -16.8360  -999.2500   101.6750    23.6430     5.3610     4.9310     7.2230 
   93.6250  -999.2500   -16.5310  -999.2500   100.9020    23.7400     5.2520     5.0160     7.4980 
   93.7500  -999.2500   -16.3530  -999.2500    95.5800    23.9780     5.8290     5.1780     7.8580 
   93.8750  -999.2500   -16.2810  -999.2500    91.1500    24.2110     6.9420     5.3630     8.1800 
   94.0000  -999.2500   -16.2890  -999.2500    94.3250    24.2720     7.5700     5.5130     8.3520 
   94.1250  -999.2500   -16.3680  -999.2500   102.4280    24.1520     6.9280     5.5800     8.3210 
   94.2500  -999.2500   -16.4710  -999.2500   105.8060    24.0810     5.9910     5.5910     8.2110 
   94.3750  -999.2500   -16.6020  -999.2500   103.1540    24.1160     5.5780     5.5830     8.1170 
   94.5000  -999.2500   -16.7590  -999.2500    99.9080    24.1720     5.6920     5.5860     8.0870 
   94.6250  -999.2500   -16.9080  -999.2500    99.1810    24.0880     5.9170     5.6130     8.1150 
   94.7500  -999.2500   -17.0230  -999.2500    98.4900    23.9000     5.9660     5.6390     8.1280 
   94.8750  -999.2500   -17.1100  -999.2500    96.7610    23.7090     5.8120     5.6360     8.0760 
   95.0000  -999.2500   -17.1990  -999.2500    95.1810    23.6040     5.5900     5.5960     7.9780 
   95.1250  -999.2500   -17.3170  -999.2500    95.3610    23.7000     5.5170     5.5450     7.9120 
   95.2500  -999.2500   -17.4700  -999.2500    95.3790    23.9210     5.5780     5.5110     7.9040 
   95.3750  -999.2500   -17.6380  -999.2500    95.0650    24.1420     5.6800     5.4920     7.9070 
   95.5000  -999.2500   -17.8260  -999.2500    96.7370    24.2530     5.8000     5.4700     7.8490 
   95.6250  -999.2500   -18.0690  -999.2500    99.3050    24.1950     5.8960     5.4320     7.7100 
   95.7500  -999.2500   -18.3490  -999.2500    97.5520    24.0760     5.8720     5.4090     7.6030 
   95.8750  -999.2500   -18.6460  -999.2500    90.1930    23.9680     5.8080     5.4530     7.6710 
   96.0000  -999.2500   -18.9190  -999.2500    82.6610    23.9300     6.0160     5.6140     8.0210 
   96.1250  -999.2500   -19.0870  -999.2500    80.1390    23.9760     6.7750     5.9240     8.6810 
   96.2500  -999.2500   -19.1260  -999.2500    80.1740    24.0070     7.6560     6.2880     9.4070 
   96.3750  -999.2500   -18.9990  -999.2500    82.3500    23.9800     8.1250     6.5660     9.8850 
   96.5000  -999.2500   -18.6970  -999.2500    86.5080    23.9290     7.9180     6.5980     9.8150 
   96.6250  -999.2500   -18.2220  -999.2500    92.0750    23.9640     7.0550     6.2600     9.0360 
   96.7500  -999.2500   -17.6410  -999.2500    97.7090    24.1020     5.9350     5.7110     7.9340 
   96.8750  -999.2500   -17.0240  -999.2500   103.2230    24.2770     4.9190     5.1170     6.8430 
   97.0000  -999.2500   -16.4340  -999.2500   109.7390    24.4810     4.3210     4.6120     5.9890 
   97.1250  -999.2500   -15.9790  -999.2500   112.9660    24.7150     4.2450     4.3170     5.5710 
   97.2500  -999.2500   -15.7380  -999.2500   109.3810    24.9000     4.3710     4.2550     5.6190 
   97.3750  -999.2500   -15.7850  -999.2500    99.2530    24.9030     4.6300     4.4570     6.1850 
   97.5000  -999.2500   -16.1480  -999.2500    86.3310    24.6380     5.3700     4.9350     7.2810 
   97.6250  -999.2500   -16.8510  -999.2500    77.8630    24.1340     7.3040     5.7000     8.8690 
   97.7500  -999.2500   -17.7690  -999.2500    74.9480    23.6270     9.7430     6.5880    10.5270 
   97.8750  -999.2500   -18.8050  -999.2500    74.1070    23.3040    11.0540     7.3780    11.7490 
   98.0000  -999.2500   -19.8670  -999.2500    72.1710    23.2150    10.4500     7.8350    12.1360 
   98.1250  -999.2500   -20.8750  -999.2500    68.5130    23.2420     9.1450     7.8190    11.6630 
   98.2500  -999.2500   -21.7650  -999.2500    66.3770    23.2470     8.5310     7.5560    10.9500 
   98.3750  -999.2500   -22.4960  -999.2500    67.2210    23.2260     8.4430     7.2430    10.3810 
   98.5000  -999.2500   -23.0530  -999.2500    68.9690    23.2110     8.5250     7.0060    10.0970 
   98.6250  -999.2500   -23.4160  -999.2500    68.5930    23.2250     8.7570     6.8730     9.9890 
   98.7500  -999.2500   -23.6360  -999.2500    66.0210    23.2570     9.0790     6.7680     9.8130 
   98.8750  -999.2500   -23.7630  -999.2500    65.4290    23.2940     9.3840     6.6950     9.6070 
   99.0000  -999.2500   -23.8380  -999.2500    67.5210    23.2750     9.6480     6.7740     9.7050 
   99.1250  -999.2500   -23.8840  -999.2500    68.0480    23.1740    10.1790     7.3060    10.7830 
   99.2500  -999.2500   -23.9240  -999.2500    65.3410    23.1360    12.0270     8.4960    13.1760 
   99.3750  -999.2500   -23.9830  -999.2500    61.8770    23.2820    17.6580    10.5410    17.1300 
   99.5000  -999.2500   -24.0600  -999.2500    60.2930    23.5620    31.3480    13.3860    22.3120 
   99.6250  -999.2500   -24.1440  -999.2500    60.3690    23.7620    46.6150    15.9770    26.1460 
   99.7500  -999.2500   -24.2360  -999.2500    61.4090    23.7900    44.8860    16.5820    25.4840 
   99.8750  -999.2500   -24.3050  -999.2500    64.1480    23.6960    29.0060    14.8620    20.8940 
  100.0000  -999.2500   -24.3380  -999.2500    67.8300    23.5750    15.9780    12.1280    15.6880 
  100.1250  -999.2500   -24.3260  -999.2500    70.0690    23.5150    11.5840     9.8410    12.2570 
  100.2500  -999.2500   -24.2800  -999.2500    70.6810    23.5030     9.9150     8.3520    10.4590 
  100.3750  -999.2500   -24.2090  -999.2500    68.7740    23.4810     9.3120     7.5640     9.8530 
  100.5000  -999.2500   -24.1120  -999.2500    64.4410    23.4070     9.1430     7.2820     9.9800 
  100.6250  -999.2500   -23.9870  -999.2500    60.8110    23.2700     9.1270     7.3300    10.4330 
  100.7500  -999.2500   -23.8580  -999.2500    60.4490    23.1180     9.1620     7.4810    10.8490 
  100.8750  -999.2500   -23.7480  -999.2500    62.2230    22.9710     9.1680     7.6380    11.1150 
