~V
VERS. 2.00: Ver 2.00
~W
STRT.M 60.0000:
STOP.M 254.0000:
STEP.M 0.1250:
NULL. -999.2500:
UWI. DF3029:
~C
DEPT.M :
SP.MV :
GR.API :
RML.OHMM :
RI. :
RXO.OHMM :
CALI.CM :
DEN.GM/CC :
~A
# ...
  195.0000   -16.1190    62.2190     7.9150     7.1850     6.7070    23.4030     2.4440 
  195.1250   -15.2880    59.3990     7.8940     7.0480     6.6150    22.8380     2.4030 
  195.2500   -14.6030    58.4060     8.1230     7.0910     6.6630    22.0460     2.3500 
  195.3750   -14.1010    63.1480     8.6200     7.3340     6.8660    21.1160     2.2950 
  195.5000   -13.8670    72.1190     9.3310     7.7530     7.1110    20.3550     2.2530 
  195.6250   -13.8470    81.4100    10.1270     8.2810     7.6970    20.0380     2.2390 
  195.7500   -14.1330    88.8940    10.8080     8.7820     8.8430    20.2350     2.2470 
  195.8750   -14.5510    91.3270    11.2390     9.1590     9.9210    20.9660     2.2690 
  196.0000   -15.1310    87.8850    11.3650     9.3480    10.3450    22.0620     2.2910 
  196.1250   -15.6660    87.8480    11.2010     9.3200     9.9430    23.0560     2.3060 
  196.2500   -16.2440    96.3860    10.9260     9.1670     9.6200    23.4820     2.3130 
  196.3750   -16.7860   106.6950    10.6610     8.9650     9.3410    23.5530     2.3190 
  196.5000   -17.3340   109.8510    10.4840     8.7790     9.0010    23.5230     2.3260 
  196.6250   -17.9270   104.9920    10.4390     8.6570     8.5960    23.5340     2.3370 
  196.7500   -18.5760   101.1360    10.4950     8.6000     8.2290    23.6370     2.3520 
  196.8750   -19.3210   101.3400    10.6250     8.6100     8.3790    23.8100     2.3710 
  197.0000   -20.1230   104.3060    10.8030     8.6800     9.1890    23.8650     2.3900 
  197.1250   -21.0050   104.4430    10.9970     8.8080     9.8230    23.7510     2.4020 
  197.2500   -21.9480   100.5020    11.1900     8.9710    10.2390    23.5530     2.4040 
  197.3750   -22.9050    95.6730    11.3870     9.1620    10.7150    23.3120     2.3970 
  197.5000   -23.7790    92.7090    11.6110     9.3780    11.8010    23.0310     2.3860 
  197.6250   -24.4990    92.7970    11.8930     9.6250    12.6300    22.7790     2.3780 
  197.7500   -24.9880    93.0360    12.2240     9.8930    13.2010    22.5710     2.3770 
  197.8750   -25.2150    92.3840    12.5720    10.1580    13.4300    22.4270     2.3830 
  198.0000   -25.1710    89.9470    12.8690    10.3690    13.6730    22.3360     2.3940 
  198.1250   -24.7920    86.7250    12.9910    10.4340    13.9530    22.3640     2.4090 
  198.2500   -24.1670    86.0640    12.8770    10.3110    13.7710    22.4670     2.4250 
  198.3750   -23.3350    89.3710    12.5050     9.9840    13.4540    22.6340     2.4410 
  198.5000   -22.4490    95.1580    11.9220     9.4900    12.9640    22.9240     2.4490 
  198.6250   -21.5240    98.9500    11.2700     8.9360    11.9780    23.3190     2.4410 
  198.7500   -20.6820   100.8850    10.7590     8.4840    10.7980    23.7550     2.4180 
  198.8750   -19.9950   102.8640    10.5520     8.2580     9.7700    24.3490     2.3850 
  199.0000   -19.4030   103.7110    10.7480     8.3450     9.3620    24.7590     2.3570 
  199.1250   -19.0830    98.6060    11.4090     8.8290     9.8270    24.6790     2.3490 
  199.2500   -18.8020    90.7370    12.3350     9.5860    10.9910    24.3880     2.3620 
  199.3750   -18.5810    86.2180    13.3020    10.4620    12.6140    24.1610     2.3930 
  199.5000   -18.2620    87.5030    14.0420    11.2330    14.4950    24.0410     2.4330 
  199.6250   -17.9290    91.9330    14.2100    11.5770    14.7370    24.0160     2.4660 
  199.7500   -17.4130    93.8500    13.7820    11.4050    14.1760    24.0660     2.4820 
  199.8750   -16.7190    92.9100    12.8540    10.7570    13.4920    24.2670     2.4750 
  200.0000   -15.8690    90.3300    11.6600     9.8130    12.6550    24.7330     2.4480 
  200.1250   -14.8420    85.9830    10.5150     8.8310    10.8930    25.4120     2.4090 
  200.2500   -13.7660    79.5800     9.6330     8.0180     8.8010    26.0130     2.3750 
  200.3750   -12.7040    71.5130     9.0790     7.4540     7.2930    26.3810     2.3530 
  200.5000   -11.7190    64.5350     8.8250     7.1440     6.8380    26.4940     2.3470 
  200.6250   -10.8250    62.1710     8.8020     7.0710     6.7360    26.2400     2.3580 
  200.7500   -10.0680    65.6400     8.8630     7.1280     6.5250    25.6940     2.3770 
  200.8750    -9.4440    74.4750     8.9320     7.2520     6.3560    25.1980     2.4020 
  201.0000    -8.9660    84.2410     8.9680     7.3910     6.3350    24.9650     2.4250 
  201.1250    -8.6260    89.8520     8.9550     7.5120     6.4700    24.8980     2.4420 
  201.2500    -8.3530    91.7140     8.9170     7.6040     6.6890    24.8760     2.4510 
  201.3750    -8.1530    93.1220     8.8730     7.6610     6.9320    24.8700     2.4560 
  201.5000    -7.9830    94.8660     8.8310     7.6820     7.0760    24.8600     2.4600 
  201.6250    -7.9220    94.2360     8.7880     7.6610     7.2430    24.8340     2.4660 
  201.7500    -7.8770    91.7320     8.7360     7.6100     7.4540    24.8040     2.4700 
  201.8750    -7.9090    88.7800     8.6730     7.5400     7.5800    24.7930     2.4690 
  202.0000    -8.0140    88.0050     8.6060     7.4660     7.5720    24.8000     2.4600 
  202.1250    -8.1010    91.5490     8.5580     7.4100     7.4280    24.8240     2.4440 
  202.2500    -8.2790    95.4720     8.5470     7.3880     7.3080    24.8550     2.4280 
  202.3750    -8.4810    96.7250     8.5890     7.4190     7.3770    24.8690     2.4140 
  202.5000    -8.7340    94.5910     8.6970     7.5160     7.5750    24.8710     2.4050 
  202.6250    -8.9200    90.0110     8.8890     7.7050     7.8800    24.8710     2.4020 
  202.7500    -9.1740    85.5940     9.1520     7.9740     8.3020    24.8710     2.4020 
  202.8750    -9.3860    85.0670     9.4710     8.3160     8.8720    24.8710     2.4020 
  203.0000    -9.5760    88.8200     9.8320     8.7120     9.7120    24.8710     2.4010 
  203.1250    -9.7410    91.2560    10.2170     9.1430    10.4220    24.8710     2.3980 
  203.2500    -9.8940    91.4670    10.6000     9.5750    10.8940    24.8710     2.3930 
  203.3750   -10.0460    91.3350    10.9650     9.9870    11.2800    24.8700     2.3890 
  203.5000   -10.1870    91.5780    11.3100    10.3670    11.4240    24.8600     2.3840 
  203.6250   -10.3500    90.8530    11.6490    10.7190    11.9680    24.8320     2.3780 
  203.7500   -10.5130    89.6180    11.9960    11.0610    12.5190    24.7990     2.3750 
  203.8750   -10.7410    87.4420    12.3340    11.3870    12.8230    24.7850     2.3740 
  204.0000   -10.9920    83.9440    12.6160    11.6750    12.7120    24.7830     2.3770 
  204.1250   -11.3400    81.8910    12.7760    11.8860    13.4470    24.7900     2.3810 
  204.2500   -11.7190    82.5710    12.8490    12.0400    14.6680    24.8170     2.3850 
  204.3750   -12.1290    84.7720    12.9580    12.2160    15.6870    24.8720     2.3850 
  204.5000   -12.5670    86.9230    13.3320    12.5620    15.7800    24.9410     2.3830 
  204.6250   -13.1040    87.6180    14.3060    13.3840    16.5450    24.9690     2.3770 
  204.7500   -13.7080    86.5590    15.9410    14.8730    18.7820    24.9570     2.3700 
  204.8750   -14.2810    82.4280    18.4970    17.2300    23.1240    24.8870     2.3600 
  205.0000   -14.9170    75.9240    22.0030    20.5870    29.3040    24.7530     2.3450 
  205.1250   -15.4740    71.0390    27.2380    25.1240    34.4140    24.6590     2.3240 
  205.2500   -16.0520    70.9180    33.6900    30.5480    36.9590    24.6100     2.3000 
  205.3750   -16.6080    73.1700    41.4910    36.6890    40.3530    24.5740     2.2780 
  205.5000   -17.1940    73.7850    50.3950    43.3890    46.3970    24.5700     2.2660 
  205.6250   -17.6730    72.6600    57.9690    50.5470    53.6920    24.6440     2.2750 
  205.7500   -18.0690    72.0820    65.7020    57.8680    64.0240    24.7790     2.3010 
  205.8750   -18.4250    70.3910    73.3320    65.0430    76.6440    24.8980     2.3340 
  206.0000   -18.7380    66.7170    80.5170    71.7190    86.3120    24.9350     2.3540 
  206.1250   -19.1050    64.7540    86.7830    77.4790    90.0270    24.9220     2.3440 
