~V
VERS. 2.00: Ver 2.00
~W
STRT.M 59.0000:
STOP.M 281.0000:
STEP.M 0.1250:
NULL. -999.2500:
UWI. DF3005:
~C
DEPT.M :
DEN.GM/CC :
SP.MV :
AC.US/MT :
GR.API :
CALI.CM :
RXO.OHMM :
RI. :
RML.OHMM :
~A
# ...
  199.0000     2.3720   -23.9490   403.4440    57.6070    25.4110     5.7380     5.3310     6.6660 
  199.1250     2.3850   -24.4860   410.6440    66.4190    25.4300     5.7290     5.5920     6.9840 
  199.2500     2.4060   -25.0740   411.2870    75.6410    25.4310     6.1590     5.9380     7.4920 
  199.3750     2.4160   -25.7210   404.1470    83.2500    25.4230     7.5980     6.3500     8.1880 
  199.5000     2.4130   -26.4200   393.6470    89.4430    25.3830    10.1520     6.8010     8.9880 
  199.6250     2.4070   -27.1220   389.0160    95.1660    25.2840    12.6950     7.2350     9.7320 
  199.7500     2.4050   -27.7870   391.1650    98.5720    25.1810    14.1070     7.5850    10.2770 
  199.8750     2.4100   -28.3670   396.2900    98.5400    25.1200    14.4750     7.7990    10.5610 
  200.0000     2.4190   -28.8310   400.7390    98.0890    25.0900    15.4450     7.8650    10.6200 
  200.1250     2.4210   -29.1710   403.4290    99.5170    25.0520    16.8760     7.8200    10.5800 
  200.2500     2.4130   -29.4370   405.9560   101.9100    25.0130    17.2530     7.7560    10.5620 
  200.3750     2.3950   -29.6840   407.9960   104.4270    24.9780    16.8980     7.7080    10.5520 
  200.5000     2.3760   -29.9520   409.2030   105.1000    24.9440    16.1950     7.6610    10.4800 
  200.6250     2.3750   -30.2610   412.1170   102.7190    24.9120    15.1420     7.5550    10.2840 
  200.7500     2.3920   -30.6150   418.7190    98.9750    24.8880    12.4500     7.3770    10.0490 
  200.8750     2.4070   -31.0000   426.4920    96.5640    24.9050    10.1070     7.1630     9.8940 
  201.0000     2.4000   -31.4080   430.3230    96.6850    24.9520     9.0300     6.9880     9.9070 
  201.1250     2.3710   -31.8530   427.1180    97.4750    24.9430     9.8400     6.9460    10.1300 
  201.2500     2.3490   -32.3310   423.4430    97.3760    24.8450    11.2990     7.0550    10.4920 
  201.3750     2.3430   -32.8550   425.4170    95.5020    24.7090    12.6220     7.3100    10.9780 
  201.5000     2.3440   -33.4130   432.6740    92.9290    24.6060    13.4510     7.6870    11.6190 
  201.6250     2.3380   -33.9640   441.7460    90.4350    24.5480    13.3970     8.1840    12.4990 
  201.7500     2.3200   -34.4840   453.5770    87.3880    24.5050    14.3960     8.7980    13.5940 
  201.8750     2.2970   -34.9480   471.3000    84.2470    24.4690    17.3250     9.5700    14.8730 
  202.0000     2.2780   -35.3500   490.9080    83.2470    24.4350    20.8330    10.5200    16.2670 
  202.1250     2.2710   -35.6510   501.7150    82.7050    24.4050    24.1420    11.6120    17.6430 
  202.2500     2.2740   -35.8340   502.9720    80.2490    24.3780    26.4050    12.6800    18.8550 
  202.3750     2.2810   -35.8930   499.8710    76.3430    24.3520    28.7940    13.5990    19.8520 
  202.5000     2.2870   -35.8070   497.2650    73.0420    24.3250    33.0860    14.3350    20.7080 
  202.6250     2.2930   -35.5370   495.3510    72.8760    24.2950    33.2090    14.9240    21.5140 
  202.7500     2.2950   -35.1110   492.5690    74.7450    24.2690    31.0820    15.3480    22.0980 
  202.8750     2.2880   -34.5400   489.8220    76.4260    24.2560    28.9690    15.3660    21.9670 
  203.0000     2.2800   -33.8550   487.5970    77.1190    24.2460    28.7470    14.6830    20.6100 
  203.1250     2.2990   -33.0610   483.0740    78.5950    24.2160    26.5430    13.1440    17.9490 
  203.2500     2.3440   -32.2030   472.5180    81.1390    24.2050    20.3210    11.2530    14.9990 
  203.3750     2.3870   -31.2990   454.1020    83.7180    24.2720    12.4080     9.4720    12.5010 
  203.5000     2.4030   -30.3650   429.3860    85.7530    24.3890     7.6920     8.1150    10.8320 
  203.6250     2.3990   -29.4960   407.7510    85.1600    24.4490     8.2800     7.3780    10.1550 
  203.7500     2.3980   -28.7860   397.9180    82.5490    24.4350     9.0210     7.1250    10.1360 
  203.8750     2.3980   -28.3250   398.8440    82.4410    24.4030     8.9960     7.2490    10.5250 
  204.0000     2.3900   -28.1420   402.3950    87.9550    24.3900     8.7640     7.6160    11.0400 
  204.1250     2.3830   -28.2160   401.6500    94.5160    24.3570     9.8770     8.0860    11.3830 
  204.2500     2.3840   -28.4290   398.6120    95.4230    24.2790    10.9830     8.5380    11.4920 
  204.3750     2.3910   -28.6860   395.9070    92.1520    24.1780    11.8520     8.9560    11.5280 
  204.5000     2.3970   -28.9210   394.0160    89.5840    24.1000    12.7840     9.4010    11.7850 
  204.6250     2.4090   -29.0710   391.9740    89.2450    24.0710    14.9010    10.0390    12.6260 
  204.7500     2.4340   -29.1010   387.7980    87.9430    24.0540    15.9840    10.9360    13.9970 
  204.8750     2.4680   -29.0010   377.7370    85.1080    24.0230    19.0230    12.0010    15.5760 
  205.0000     2.4930   -28.7600   360.6980    83.0080    23.9850    26.7760    12.8820    16.6760 
  205.1250     2.4910   -28.3720   347.0170    81.4170    23.9600    30.7260    12.8210    16.1460 
  205.2500     2.4650   -27.8650   350.4120    79.7660    23.9460    25.9180    11.6760    14.0800 
  205.3750     2.4270   -27.2300   371.7800    79.3510    23.9620    16.1890     9.8650    11.3300 
  205.5000     2.3950   -26.4880   406.5580    80.4560    24.0560     7.7800     8.0440     8.8690 
  205.6250     2.3830   -25.7080   415.0630    81.4100    24.2400     5.2670     6.7410     7.3310 
  205.7500     2.3860   -25.0040   410.5830    82.2700    24.3880     5.1630     5.9690     6.5720 
  205.8750     2.3980   -24.4690   403.2260    83.8840    24.4250     5.5040     5.6430     6.3810 
  206.0000     2.4110   -24.1430   398.8760    85.4200    24.3800     5.9110     5.6220     6.4830 
  206.1250     2.4200   -24.0620   398.9650    86.1500    24.2810     6.0680     5.7370     6.5990 
  206.2500     2.4210   -24.1590   401.3970    85.7330    24.1180     5.9960     5.8180     6.5930 
  206.3750     2.4140   -24.3870   404.8890    84.7280    23.9480     5.8850     5.8150     6.4750 
  206.5000     2.4060   -24.7120   407.9560    84.6650    23.8760     5.6160     5.7510     6.3130 
  206.6250     2.4060   -25.1030   408.6820    86.6300    23.9230     5.4800     5.6910     6.1890 
  206.7500     2.4110   -25.5180   406.6130    87.4060    23.9830     5.4920     5.6850     6.1510 
  206.8750     2.4130   -25.9550   403.0720    87.2660    24.0240     5.6700     5.7500     6.2150 
  207.0000     2.4060   -26.4090   400.5750    87.3040    24.0640     6.0370     5.8710     6.3780 
  207.1250     2.3900   -26.8850   400.9040    85.9400    24.0980     6.4050     6.0220     6.6290 
  207.2500     2.3740   -27.3700   401.9240    82.0900    24.1210     6.7800     6.1840     6.9280 
  207.3750     2.3630   -27.8350   401.5480    79.5810    24.1310     7.1680     6.3820     7.2890 
  207.5000     2.3610   -28.2730   399.2790    81.9580    24.1370     7.5030     6.6650     7.7630 
  207.6250     2.3670   -28.6800   396.3350    85.7790    24.1790     8.3170     7.0860     8.4250 
  207.7500     2.3710   -29.0670   394.8420    86.0940    24.2530     9.6010     7.6200     9.2300 
  207.8750     2.3680   -29.4400   395.5810    83.8910    24.3230    10.7920     8.2540    10.1510 
  208.0000     2.3610   -29.7830   397.7970    82.0100    24.3280    11.7730     9.0330    11.2380 
  208.1250     2.3620   -30.1010   397.3990    81.4880    24.2440    12.7870    10.1680    12.7840 
  208.2500     2.3710   -30.4080   389.3530    80.7940    24.1450    14.1370    11.9030    15.1030 
  208.3750     2.3810   -30.6970   373.5350    79.4910    24.1120    18.4650    14.6350    18.6220 
  208.5000     2.3800   -30.9800   356.9460    77.2870    24.1720    28.8250    18.8580    23.8110 
  208.6250     2.3590   -31.2390   352.8220    73.3360    24.2800    42.4290    25.3310    31.3910 
  208.7500     2.3250   -31.4710   361.8310    68.6750    24.3830    52.5650    33.5110    40.6870 
  208.8750     2.2910   -31.6850   376.3540    65.5010    24.4750    58.3110    42.1950    50.2010 
