~V
VERS. 2.00: Ver 2.00
~W
STRT.M 64.0000:
STOP.M 278.0000:
STEP.M 0.1250:
NULL. -999.2500:
UWI. DF3056:
~C
DEPT.M :
SP.MV :
GR.API :
CALI.CM :
RXO.OHMM :
RI. :
RML.OHMM :
DEN.GM/CC :
~A
# ...
  176.5000   -40.2660    66.0560    24.8490   120.1910   130.2200   148.3170     2.2260 
  176.6250   -40.2780    69.0360    24.8560   125.1130   120.5050   137.5740     2.2370 
  176.7500   -40.2200    69.2740    24.8090   118.9870   112.3160   128.5750     2.2520 
  176.8750   -40.0850    66.1560    24.7470   100.5280   106.1100   122.0050     2.2600 
  177.0000   -39.9120    66.4120    24.7380    78.1620   102.5340   118.6350     2.2540 
  177.1250   -39.7550    70.8270    24.7520    70.9380   102.6880   119.6980     2.2380 
  177.2500   -39.6680    71.2230    24.7460    77.3490   105.8520   124.0360     2.2300 
  177.3750   -39.6590    69.4680    24.7590    91.3040   111.1620   130.5870     2.2300 
  177.5000   -39.7110    71.1920    24.9520   105.4400   117.2560   137.8840     2.2340 
  177.6250   -39.8210    73.0570    24.9770   114.7210   122.4190   143.8800     2.2320 
  177.7500   -39.9820    69.4760    24.9420   117.1810   125.6740   147.2330     2.2260 
  177.8750   -40.1620    64.0290    24.8160   116.2260   126.4830   147.5260     2.2190 
  178.0000   -40.3210    63.8510    24.7070   111.3580   125.0170   145.1880     2.2170 
  178.1250   -40.3940    67.5840    24.4490   107.9670   122.1740   141.6120     2.2250 
  178.2500   -40.3730    70.3500    24.2850   104.4840   119.3670   138.4780     2.2370 
  178.3750   -40.3100    70.7110    24.1520   101.5320   117.2450   136.3100     2.2430 
  178.5000   -40.2170    69.0650    24.1740   102.4750   115.9420   135.0160     2.2400 
  178.6250   -40.1150    66.9240    24.1160   106.4340   115.3490   134.4320     2.2350 
  178.7500   -39.9980    67.1550    24.1060   106.8690   115.0390   134.1190     2.2330 
  178.8750   -39.8850    70.2730    24.0870   105.7310   114.7460   133.8700     2.2360 
  179.0000   -39.8090    71.5000    23.9960   107.1330   114.3930   133.6350     2.2360 
  179.1250   -39.8280    66.0840    23.8540   108.8220   114.0010   133.5080     2.2310 
  179.2500   -39.9150    59.9770    23.8380   111.6370   113.8380   133.8270     2.2250 
  179.3750   -40.0430    59.2740    23.8760   111.3690   114.2780   135.0170     2.2280 
  179.5000   -40.1870    63.4590    24.1420   104.2850   115.5660   137.2760     2.2390 
  179.6250   -40.3120    65.5400    24.4880    97.2000   117.4990   140.0540     2.2480 
  179.7500   -40.4030    63.5440    24.7440    95.5560   119.1770   142.4410     2.2450 
  179.8750   -40.4450    62.4160    24.8000   100.5350   119.9590   143.4470     2.2350 
  180.0000   -40.4430    65.4210    24.8770   109.8820   119.1230   142.2120     2.2260 
  180.1250   -40.3790    69.2910    24.9260   120.5680   116.2490   138.3160     2.2260 
  180.2500   -40.2510    68.4350    24.8980   118.4400   112.2340   133.0930     2.2300 
  180.3750   -40.0590    65.8010    24.9590   102.2890   108.0600   127.8920     2.2370 
  180.5000   -39.8270    66.3020    25.0230    84.5030   104.6770   123.9000     2.2460 
  180.6250   -39.5780    67.3000    25.0860    80.4150   103.1890   122.4920     2.2600 
  180.7500   -39.3110    65.0400    25.0670    85.2370   103.5860   123.3640     2.2700 
  180.8750   -39.0630    62.5100    25.0670    92.2330   105.3180   125.7940     2.2640 
  181.0000   -38.8390    62.8640    25.0670    97.4370   107.6860   128.8750     2.2420 
  181.1250   -38.5950    64.8830    25.0820    97.0890   109.8350   131.3750     2.2190 
  181.2500   -38.3510    66.9850    25.1150    94.0060   111.0640   132.5280     2.2080 
  181.3750   -38.1160    68.6960    25.1180    95.2300   111.3050   132.4070     2.2050 
  181.5000   -37.8870    67.6170    25.1120    98.9530   111.1230   131.8560     2.2070 
  181.6250   -37.6490    64.6880    25.0710    96.8190   111.2650   131.8560     2.2130 
  181.7500   -37.4450    62.1040    25.0650    96.4670   112.0570   132.8280     2.2180 
  181.8750   -37.2450    59.5900    25.0700   102.3760   113.7820   135.1620     2.2160 
  182.0000   -37.0450    59.0990    25.0980   104.9350   116.2980   138.6130     2.2110 
  182.1250   -36.9030    64.1560    25.1820   103.9650   119.1330   142.4330     2.2210 
  182.2500   -36.8170    69.3150    25.1950   105.8490   121.7340   146.0570     2.2420 
  182.3750   -36.7570    67.5580    25.1940   111.3620   123.9280   149.2870     2.2550 
  182.5000   -36.7520    59.9510    25.1780   113.1330   125.7980   152.2650     2.2440 
  182.6250   -36.7910    56.2060    25.0890   112.2750   127.9100   155.7060     2.2180 
  182.7500   -36.8440    58.7970    25.0760   114.1380   130.7570   160.1670     2.2020 
  182.8750   -36.9520    62.2770    25.0690   115.4170   134.8880   166.2360     2.2040 
  183.0000   -37.0880    62.2710    25.0950   113.9680   141.0200   174.7570     2.2160 
  183.1250   -37.2330    60.6600    25.1390   114.4210   149.9700   186.7970     2.2210 
  183.2500   -37.3750    60.5160    25.2510   121.3990   161.6250   201.7710     2.2150 
  183.3750   -37.5070    61.0680    25.2720   132.2830   175.6840   219.0600     2.2010 
  183.5000   -37.6070    60.8450    25.2780   137.6460   190.8040   236.6870     2.1830 
  183.6250   -37.6900    60.0110    25.2930   143.6360   203.0310   249.1050     2.1700 
  183.7500   -37.7590    58.5020    25.3200   151.7200   208.7450   251.7300     2.1720 
  183.8750   -37.7820    57.6360    25.1730   164.4520   205.8830   242.1790     2.1970 
  184.0000   -37.7900    60.0800    25.0920   176.3030   193.6490   220.7950     2.2390 
  184.1250   -37.7860    65.3250    25.0810   163.6250   172.0660   190.1900     2.2740 
  184.2500   -37.7740    70.4120    25.0360   131.4740   146.1360   157.5570     2.2870 
  184.3750   -37.7850    73.7110    24.9760    97.0330   120.1900   127.4910     2.2900 
  184.5000   -37.8140    75.3410    24.9690    78.6470    97.2640   102.4120     2.3020 
  184.6250   -37.7970    73.8440    24.9780    77.5810    79.7810    83.7320     2.3150 
  184.7500   -37.7220    69.6710    24.9510    73.5130    67.0220    70.1160     2.3070 
  184.8750   -37.5740    64.8110    24.9030    58.3990    58.3790    60.9210     2.2830 
  185.0000   -37.3630    63.2730    24.7410    44.5390    53.1100    55.4160     2.2710 
  185.1250   -37.1440    67.1030    24.7160    42.2490    50.9110    53.1120     2.2830 
  185.2500   -36.9450    72.2830    24.7200    44.7630    50.3510    52.6040     2.2980 
  185.3750   -36.7490    74.8030    24.7980    47.2700    50.7480    53.1200     2.3010 
  185.5000   -36.5570    72.6830    24.8090    51.2350    51.6070    54.0790     2.2910 
  185.6250   -36.4350    68.3030    24.7720    56.3820    52.6600    55.3180     2.2740 
  185.7500   -36.4140    66.3910    24.5650    57.3050    53.7750    56.6910     2.2660 
  185.8750   -36.5120    67.4830    24.1430    48.5900    54.9740    58.2480     2.2720 
  186.0000   -36.6910    68.0860    23.9580    40.1250    56.3990    60.1530     2.2830 
  186.1250   -36.9230    64.9180    24.5370    47.7270    58.3260    62.6630     2.2800 
  186.2500   -37.1670    62.4070    25.0600    58.5640    60.5980    65.5350     2.2670 
  186.3750   -37.4300    62.6960    25.1250    68.3630    62.9180    68.5110     2.2560 
  186.5000   -37.7100    64.2090    25.2900    78.0840    65.2170    71.6260     2.2580 
  186.6250   -37.9860    65.4720    25.3120    77.0770    67.6920    75.1950     2.2690 
  186.7500   -38.2710    65.9800    25.3280    66.8720    70.5120    79.4120     2.2760 
  186.8750   -38.5570    64.6090    25.3420    63.9030    74.0830    84.7060     2.2720 
  187.0000   -38.8390    61.7640    25.4170    70.8460    78.7060    91.3170     2.2600 
  187.1250   -39.0780    61.2100    25.3300    82.5440    84.0540    98.8480     2.2440 
  187.2500   -39.3020    63.2520    25.2870    97.4460    89.2170   106.3880     2.2300 
  187.3750   -39.5080    64.3300    25.0890   104.2880    93.6640   113.2300     2.2190 
  187.5000   -39.6800    62.3000    24.8960   100.4530    97.1950   118.9220     2.2150 
  187.6250   -39.8360    60.4810    24.2600    90.1300   100.2230   123.9110     2.2200 
