~V
VERS. 2.00: Ver 2.00
~W
STRT.M 100.0000:
STOP.M 258.0000:
STEP.M 0.1250:
NULL. -999.2500:
UWI. DF3025:
~C
DEPT.M :
AC.US/MT :
DEN.GM/CC :
GR.API :
CALI.CM :
RXO.OHMM :
RI. :
RML.OHMM :
SP.MV :
~A
# ...
  240.0000   250.7670     2.4750    75.8560    24.2410    34.8740    15.8840    16.7810   -15.7330 
  240.1250   246.3130     2.4920    73.8520    24.2480    31.3370    15.7420    16.6400   -15.7040 
  240.2500   244.8720     2.5240    72.8310    24.2840    23.8310    15.5750    16.4640   -15.6980 
  240.3750   251.2590     2.5440    74.3520    24.3400    18.7130    15.3350    16.2000   -15.7000 
  240.5000   258.8260     2.5450    76.9010    24.4290    21.2190    15.0100    15.8470   -15.6930 
  240.6250   261.0130     2.5380    77.0460    24.5160    24.7080    14.6500    15.4700   -15.6780 
  240.7500   257.4320     2.5320    74.7060    24.5290    23.1950    14.3500    15.1680   -15.6680 
  240.8750   252.8790     2.5400    72.4370    24.4540    23.7560    14.1810    15.0130   -15.6780 
  241.0000   249.6390     2.5560    72.4050    24.3340    33.7220    14.1890    15.0450   -15.7030 
  241.1250   246.7260     2.5670    74.3520    24.2650    40.1660    14.3940    15.2890   -15.7230 
  241.2500   244.3680     2.5660    76.5230    24.2870    38.4620    14.7190    15.6650   -15.7320 
  241.3750   242.2420     2.5560    77.4680    24.3580    32.2550    15.1060    16.1100   -15.7370 
  241.5000   239.9220     2.5460    76.9590    24.4210    30.6420    15.4960    16.5380   -15.7490 
  241.6250   236.5160     2.5430    76.2510    24.4480    30.4770    15.7970    16.8050   -15.7640 
  241.7500   232.3580     2.5440    75.9100    24.4560    26.0120    15.9260    16.8290   -15.7760 
  241.8750   231.3570     2.5470    75.8570    24.4370    19.9630    15.8240    16.5740   -15.7860 
  242.0000   235.0850     2.5510    76.9200    24.4420    16.1350    15.4840    16.0770   -15.7840 
  242.1250   240.2860     2.5570    78.4430    24.5030    15.1320    14.9250    15.4140   -15.7670 
  242.2500   241.4310     2.5610    78.7110    24.5150    14.8980    14.2740    14.7190   -15.7400 
  242.3750   235.3890     2.5530    78.4340    24.4280    15.6550    13.6370    14.0950   -15.7170 
  242.5000   228.1350     2.5340    78.3470    24.3130    16.5200    13.1300    13.6460   -15.6990 
  242.6250   225.1830     2.5160    78.3170    24.2810    17.1690    12.9100    13.5150   -15.6730 
  242.7500   227.5510     2.5100    78.3450    24.3020    17.2140    13.0000    13.6890   -15.6390 
  242.8750   229.2540     2.5200    78.8260    24.3230    20.7670    13.3800    14.1110   -15.6100 
  243.0000   226.1860     2.5250    78.6850    24.3330    28.6460    13.9370    14.6340   -15.6210 
  243.1250   221.7360     2.5170    77.9440    24.3460    41.7890    14.4510    15.0010   -15.6950 
  243.2500   222.4050     2.5020    77.9210    24.3710    43.6030    14.7020    15.0370   -15.7680 
  243.3750   230.5840     2.4900    77.4600    24.3960    36.8660    14.5850    14.6920   -15.7880 
  243.5000   242.1990     2.4820    75.7690    24.4050    31.4070    14.1250    14.0490   -15.7300 
  243.6250   254.7530     2.4830    75.0910    24.3920    24.0660    13.4300    13.2760   -15.6170 
  243.7500   265.2830     2.4960    76.0870    24.3810    14.9520    12.7000    12.5490   -15.5150 
  243.8750   271.3150     2.5130    76.8110    24.3850     9.0250    12.0420    11.9420   -15.4650 
  244.0000   277.4490     2.5180    76.3370    24.3990     7.2040    11.5170    11.4780   -15.4900 
  244.1250   287.6810     2.5080    74.7140    24.4050     6.7450    11.1840    11.1930   -15.5690 
  244.2500   297.3360     2.4960    72.0910    24.4030     6.8360    11.0180    11.0610   -15.6540 
  244.3750   295.8270     2.4940    69.3860    24.4030     7.0290    11.0010    11.0660   -15.7330 
  244.5000   287.5050     2.5010    67.4860    24.4050     7.2420    11.0970    11.1800   -15.7820 
  244.6250   280.7210     2.5090    66.8650    24.4070     7.7210    11.2750    11.3660   -15.7780 
  244.7500   279.2600     2.5130    68.1870    24.4060     8.2870    11.4790    11.5690   -15.7480 
  244.8750   278.9130     2.5140    70.6700    24.4110     8.3850    11.6720    11.7630   -15.7130 
  245.0000   275.0130     2.5140    72.5720    24.4280     8.4740    11.8280    11.9280   -15.6890 
  245.1250   268.7370     2.5190    72.3090    24.4460     9.5720    11.9230    12.0430   -15.6780 
  245.2500   264.6660     2.5240    70.6150    24.4380    11.3470    11.9570    12.1090   -15.6690 
  245.3750   266.8130     2.5260    68.3220    24.4020    12.6940    11.9310    12.1330   -15.6570 
  245.5000   268.9350     2.5230    66.3950    24.3600    13.3170    11.8630    12.1380   -15.6490 
  245.6250   264.1880     2.5180    66.9580    24.3510    15.1190    11.7910    12.1650   -15.6600 
  245.7500   251.7250     2.5150    68.8980    24.3800    17.1470    11.7570    12.2410   -15.6740 
  245.8750   235.9580     2.5110    70.6190    24.4080    16.4090    11.7840    12.3740   -15.6760 
  246.0000   226.1010     2.5010    71.3300    24.3930    13.0680    11.8750    12.5550   -15.6840 
  246.1250   229.0630     2.4830    70.2570    24.3610    12.2270    12.0330    12.7860   -15.7280 
  246.2500   242.6750     2.4650    68.8340    24.3700    14.9610    12.2580    13.0810   -15.7990 
  246.3750   252.6920     2.4650    68.5510    24.4020    18.8710    12.5680    13.4740   -15.8690 
  246.5000   251.1860     2.4870    70.1150    24.4160    25.0570    12.9620    13.9690   -15.9030 
  246.6250   242.7210     2.5230    71.8070    24.4350    39.3990    13.4010    14.5070   -15.8770 
  246.7500   234.9850     2.5570    70.8100    24.4580    37.4820    13.7880    14.9570   -15.8270 
  246.8750   231.9980     2.5730    66.9880    24.4380    24.6550    14.0360    15.2130   -15.7930 
  247.0000   233.9580     2.5710    63.5800    24.3790    20.5860    14.0920    15.2320   -15.7920 
  247.1250   239.9340     2.5550    64.3180    24.3460    21.9450    13.9640    15.0470   -15.8340 
  247.2500   245.6740     2.5320    66.5930    24.3500    24.8770    13.7590    14.7970   -15.9250 
  247.3750   245.8310     2.5080    67.3240    24.3660    31.1090    13.5340    14.5500   -16.0550 
  247.5000   241.7840     2.4930    67.3240    24.3900    33.5540    13.3210    14.3480   -16.1800 
  247.6250   238.7660     2.4960    67.3240    24.4140    26.6450    13.1680    14.2540   -16.2590 
  247.7500   241.3890     2.5150    67.3240    24.4300    20.0340    13.1200    14.3150   -16.3060 
  247.8750   247.9160     2.5290    67.3240    24.4540    20.6660    13.2370    14.5850   -16.3330 
  248.0000   251.4710     2.5280    67.3240    24.4970    22.3420    13.5610    15.0800   -16.3360 
  248.1250   249.9660     2.5210    67.3240    24.5030    22.1290    14.0840    15.7310   -16.2960 
  248.2500   245.7820     2.5210    67.3240    24.4250    19.3590    14.6400    16.3060   -16.2180 
  248.3750   243.1390     2.5340    67.3240    24.3260    16.3250    15.0530    16.5870   -16.1180 
  248.5000   243.1260     2.5460    67.3240    24.3100    15.1480    15.1690    16.4410   -16.0370 
  248.6250   245.4000     2.5490    67.3240    24.3790    15.7240    14.8950    15.8610   -16.0370 
  248.7500   248.6610     2.5420    67.3240    24.4070    16.8150    14.4170    15.1510   -16.1040 
  248.8750   251.2670     2.5380    67.3240    24.3730    17.9260    13.9180    14.5650   -16.1870 
  249.0000   251.9450     2.5450    67.3240    24.3330    19.1550    13.5620    14.2710   -16.2410 
  249.1250   249.1060     2.5560    67.3240    24.3320    21.9110    13.4930    14.3720   -16.2490 
  249.2500   242.6060     2.5510    67.3240    24.3650    28.2440    13.6630    14.7200   -16.2460 
  249.3750   237.2910     2.5150    67.3240    24.4200    33.4790    13.9790    15.1510   -16.2670 
  249.5000   238.4690     2.4720    67.3240    24.4720    31.3750    14.2950    15.4730   -16.3300 
  249.6250   245.6440     2.4530    67.3240    24.4840    24.7810    14.4250    15.4850   -16.4300 
  249.7500   254.2340     2.4670    67.3240    24.4570    20.1220    14.3250    15.2070   -16.5420 
  249.8750   260.1930     2.4930    67.3240    24.4090    18.2440    14.0340    14.7240   -16.6390 
