~V
VERS. 2.00: Ver 2.00
~W
STRT.M 130.0000:
STOP.M 279.0000:
STEP.M 0.1250:
NULL. -999.2500:
UWI. DF307:
~C
DEPT.M :
DEN.GM/CC :
AC.US/MT :
GR.API :
CALI.CM :
RXO.OHMM :
RI. :
RML.OHMM :
SP.MV :
~A
# ...
  220.0000     2.3590   433.7580   102.4610    26.1610     8.7950     7.4300     7.7770   -20.3880 
  220.1250     2.3440   441.1990   103.4910    26.1870     8.3720     7.4530     8.1260   -20.0660 
  220.2500     2.3340   445.4830   102.7490    26.1600     7.9800     7.6600     8.4900   -19.8720 
  220.3750     2.3310   446.5680   103.2940    26.1370     7.8950     7.8190     8.6070   -19.7610 
  220.5000     2.3390   444.6610   103.5140    26.1430     7.9650     7.8310     8.4530   -19.7310 
  220.6250     2.3580   439.3010   101.2780    26.1560     8.0240     7.7250     8.1750   -19.7330 
  220.7500     2.3720   429.9390   100.1130    26.1510     8.0440     7.6220     7.9540   -19.7220 
  220.8750     2.3780   415.3900   102.0540    26.1480     8.0620     7.6170     7.9050   -19.6990 
  221.0000     2.3830   395.8290   103.5530    26.1670     8.2370     7.8000     8.1430   -19.6150 
  221.1250     2.4010   373.6380    97.4440    26.1760     9.0700     8.3070     8.8840   -19.4200 
  221.2500     2.4300   353.1100    89.4150    26.1580    10.7430     9.1690    10.1730   -19.1520 
  221.3750     2.4600   336.8560    85.4970    26.1490    12.7970    10.3940    11.9830   -18.8200 
  221.5000     2.4790   326.1380    84.9670    26.1660    14.4060    11.8240    14.0220   -18.3900 
  221.6250     2.4860   322.5800    84.5470    26.1790    15.4060    12.8850    15.4350   -17.8890 
  221.7500     2.5000   323.0420    83.4940    26.1700    16.1370    12.9650    15.4370   -17.3570 
  221.8750     2.5230   336.6540    82.0560    26.1390    15.4700    11.8810    13.8600   -16.7980 
  222.0000     2.5440   350.8560    79.1660    26.0880    12.4700    10.0530    11.3410   -16.2890 
  222.1250     2.5570   365.8890    74.6030    26.0020     8.5750     8.1990     8.9130   -15.8940 
  222.2500     2.5640   380.0930    73.2130    25.8750     6.1040     6.7490     7.1420   -15.5970 
  222.3750     2.5660   393.0090    76.8120    25.7200     5.2100     5.7830     6.0960   -15.4060 
  222.5000     2.5550   404.3350    84.0450    25.5880     5.1390     5.2540     5.6640   -15.3240 
  222.6250     2.5320   413.2920    91.0070    25.5330     5.2200     5.1240     5.7400   -15.3600 
  222.7500     2.5010   418.1510    95.6510    25.5030     5.2490     5.2390     6.0880   -15.4760 
  222.8750     2.4720   417.6300    98.1140    25.4530     5.3690     5.5290     6.6120   -15.6450 
  223.0000     2.4550   411.5050    98.1910    25.3860     5.7660     5.9460     7.2660   -15.8710 
  223.1250     2.4580   403.0750    95.7990    25.3570     6.6110     6.4640     8.0250   -16.1650 
  223.2500     2.4700   394.7900    94.1420    25.4530     7.7410     7.0110     8.7940   -16.5370 
  223.3750     2.4690   387.9930    96.9360    25.6800     8.8130     7.5190     9.4750   -17.0170 
  223.5000     2.4540   382.7590   101.7890    25.8930     9.3970     7.9420    10.0150   -17.6510 
  223.6250     2.4370   378.2560   104.2820    25.8710     9.3220     8.2750    10.4510   -18.4850 
  223.7500     2.4200   374.8440   102.4750    25.6540     9.2560     8.5890    10.9280   -19.4830 
  223.8750     2.3980   373.7550    97.5240    25.3630     9.8120     8.9350    11.5380   -20.6190 
  224.0000     2.3720   376.5750    90.2300    25.0610    11.0290     9.3270    12.2880   -21.8230 
  224.1250     2.3460   382.0570    82.1370    24.7920    12.0710     9.7130    13.0700   -23.0480 
  224.2500     2.3230   388.2870    78.6950    24.6130    12.2860    10.0080    13.7080   -24.2330 
  224.3750     2.3040   393.3320    80.8930    24.5370    11.9400    10.1600    14.0970   -25.3060 
  224.5000     2.2940   395.5530    85.0810    24.5070    11.6290    10.1580    14.2290   -26.2550 
  224.6250     2.2920   394.7620    88.5090    24.4890    11.6300    10.0230    14.1550   -27.0000 
  224.7500     2.2960   390.4440    88.7490    24.4850    11.7520     9.8350    14.0100   -27.5530 
  224.8750     2.3020   385.8440    85.3490    24.4950    11.8360     9.6530    13.8820   -27.9430 
  225.0000     2.3120   380.1310    80.6850    24.5010    11.7680     9.5470    13.8720   -28.1600 
  225.1250     2.3240   368.5340    78.3110    24.5020    11.6810     9.6480    14.1920   -28.1700 
  225.2500     2.3400   356.2040    78.5260    24.5380    12.1490    10.0430    15.0050   -28.0290 
  225.3750     2.3650   343.9390    78.8660    24.6300    13.7510    10.8340    16.5100   -27.7480 
  225.5000     2.4010   330.4720    78.0860    24.7480    16.5190    12.1330    18.9050   -27.3100 
  225.6250     2.4430   314.1200    76.3990    24.8390    19.7550    14.1870    22.5630   -26.7060 
  225.7500     2.4760   294.9600    74.3300    24.9050    22.9610    16.9320    27.2740   -25.9800 
  225.8750     2.5010   276.0930    71.9340    24.9830    26.7790    20.0510    32.3590   -25.1740 
  226.0000     2.5270   264.7340    70.1570    25.1090    32.2880    22.6730    36.1230   -24.3250 
  226.1250     2.5520   264.7120    73.1380    25.3330    37.1420    23.2000    35.7260   -23.4690 
  226.2500     2.5580   276.1090    78.6690    25.6210    34.7470    21.5400    31.6880   -22.6490 
  226.3750     2.5490   294.7100    81.2490    25.8380    25.2240    18.5830    26.1340   -21.9160 
  226.5000     2.5240   312.9040    80.2130    25.8600    15.7650    15.5230    21.1640   -21.2720 
  226.6250     2.4910   324.5990    82.6430    25.7340    12.3360    13.2760    18.0470   -20.7430 
  226.7500     2.4790   328.4150    87.3230    25.6530    12.2860    11.9010    16.5030   -20.3220 
  226.8750     2.4800   326.8630    88.5890    25.7020    13.0090    11.2910    16.1860   -19.9850 
  227.0000     2.4810   325.2080    86.8100    25.8510    13.2480    11.2680    16.6690   -19.7390 
  227.1250     2.4770   327.8130    86.9990    26.0070    13.5570    11.6210    17.4280   -19.5940 
  227.2500     2.4680   335.8210    87.9480    26.0840    14.4630    12.0000    17.9080   -19.4850 
  227.3750     2.4550   347.8360    88.9750    26.0390    15.1540    12.2180    17.9090   -19.3570 
  227.5000     2.4360   360.5370    91.4900    25.9010    14.7910    12.2250    17.5200   -19.2050 
  227.6250     2.4140   370.7280    95.6250    25.7620    13.6410    12.0580    16.9650   -19.0140 
  227.7500     2.4000   377.5170    96.6570    25.7310    12.7600    11.8240    16.4370   -18.7660 
  227.8750     2.4010   381.8330    93.6860    25.8080    12.2750    11.5340    15.9180   -18.4560 
  228.0000     2.4140   385.6850    88.6600    25.9040    11.8940    11.1140    15.2250   -18.0610 
  228.1250     2.4210   390.4770    84.3000    25.9480    11.3150    10.3940    14.0360   -17.5330 
  228.2500     2.4060   395.7860    82.6230    25.9660    10.2400     9.3880    12.3900   -16.9250 
  228.3750     2.3800   400.0420    80.8370    25.9540     8.5780     8.2280    10.5500   -16.2890 
  228.5000     2.3630   401.2140    73.7590    25.8600     6.7640     7.1230     8.8890   -15.6610 
  228.6250     2.3650   399.9140    63.6960    25.6820     5.6010     6.2980     7.7650   -15.0860 
  228.7500     2.3900   398.0700    58.4980    25.5300     5.1620     5.7700     7.1360   -14.5850 
  228.8750     2.4220   398.1470    60.6240    25.4610     5.1520     5.4970     6.8800   -14.1620 
  229.0000     2.4490   402.0560    66.5820    25.4500     5.2630     5.3960     6.8230   -13.8170 
  229.1250     2.4620   407.7360    74.2310    25.4510     5.3140     5.3750     6.7820   -13.5800 
  229.2500     2.4550   411.8940    82.0030    25.4510     5.2490     5.3470     6.6630   -13.4240 
  229.3750     2.4350   411.5600    86.5360    25.4480     5.0950     5.3030     6.5010   -13.3350 
  229.5000     2.4160   405.3270    86.3150    25.4420     4.9640     5.2740     6.3900   -13.2790 
  229.6250     2.4110   396.3600    85.0970    25.4390     4.9820     5.3180     6.4370   -13.2470 
  229.7500     2.4240   387.4300    85.5050    25.4410     5.1670     5.4410     6.6340   -13.2380 
  229.8750     2.4340   380.2500    87.1670    25.4440     5.4710     5.6210     6.9210   -13.2390 
