~V
VERS. 2.00: Ver 2.00
~W
STRT.M 63.0000:
STOP.M 272.0000:
STEP.M 0.1250:
NULL. -999.2500:
UWI. DF3013:
~C
DEPT.M :
DEN.GM/CC :
SP.MV :
AC.US/MT :
GR.API :
CALI.CM :
RXO.OHMM :
RI. :
RML.OHMM :
~A
# ...
   93.0000     2.2000   -19.1800   426.5350    72.8980    23.1740     8.7190     8.1180    10.2660 
   93.1250     2.2030   -19.2420   428.3040    75.6390    23.1660     8.8030     8.2450    10.6170 
   93.2500     2.2060   -19.2840   430.2910    73.6780    23.1660     8.8930     8.4920    10.9700 
   93.3750     2.2100   -19.3200   429.6020    68.6090    23.1670     9.0590     8.7440    11.2240 
   93.5000     2.2150   -19.3550   423.9650    65.5830    23.1780     9.1460     8.9500    11.3700 
   93.6250     2.2290   -19.3870   413.4270    71.2320    23.2050     9.0230     9.1040    11.4710 
   93.7500     2.2560   -19.4000   402.1410    82.6780    23.2330     8.9590     9.2510    11.6220 
   93.8750     2.2850   -19.3890   393.6220    93.4920    23.2500     9.1960     9.4250    11.8670 
   94.0000     2.2980   -19.3550   391.8040    96.5770    23.2450     9.4270     9.6400    12.1920 
   94.1250     2.2840   -19.3020   400.2530    88.4680    23.2060     9.2460     9.8640    12.4940 
   94.2500     2.2600   -19.2510   411.2570    77.6670    23.2000     9.0130    10.0170    12.6390 
   94.3750     2.2340   -19.2130   416.1540    71.5320    23.2890     8.8570    10.0190    12.5330 
   94.5000     2.2070   -19.1910   412.9120    70.9840    23.4370     8.6430     9.8260    12.1560 
   94.6250     2.1800   -19.1840   407.4950    71.1620    23.5200     8.3740     9.4410    11.5770 
   94.7500     2.1650   -19.1770   404.8440    70.4150    23.4770     8.2790     8.9870    10.9870 
   94.8750     2.1630   -19.1600   405.2490    69.3130    23.3590     8.4020     8.5520    10.5010 
   95.0000     2.1690   -19.1330   408.9730    67.2470    23.2470     8.5460     8.1960    10.1720 
   95.1250     2.1720   -19.1020   416.3990    65.5540    23.2230     8.6170     7.9590    10.0070 
   95.2500     2.1740   -19.0770   424.8990    67.4400    23.3020     8.6510     7.8090     9.9240 
   95.3750     2.1810   -19.0570   434.1300    72.9020    23.4470     8.6360     7.7150     9.8700 
   95.5000     2.1930   -19.0350   444.1830    78.3160    23.5940     8.5960     7.6480     9.8120 
   95.6250     2.2050   -18.9950   451.2020    78.5300    23.6650     8.3820     7.5910     9.7430 
   95.7500     2.2230   -18.9280   448.3870    73.8850    23.6850     7.6690     7.5390     9.6820 
   95.8750     2.2480   -18.8440   434.6710    69.2380    23.6920     6.9260     7.4940     9.6430 
   96.0000     2.2710   -18.7580   419.5950    69.3910    23.6500     6.9760     7.4600     9.6380 
   96.1250     2.2680   -18.6870   418.4860    73.1670    23.5200     7.3570     7.4400     9.6670 
   96.2500     2.2430   -18.6400   427.6280    75.3400    23.3870     7.6400     7.4300     9.7090 
   96.3750     2.2120   -18.6260   434.2100    74.1810    23.3240     7.9290     7.4160     9.7430 
   96.5000     2.1910   -18.6410   431.9680    71.0910    23.3270     8.0990     7.3840     9.7470 
   96.6250     2.1830   -18.6690   427.3600    70.0480    23.3480     8.2480     7.3120     9.6950 
   96.7500     2.1780   -18.6760   427.8810    71.4840    23.3400     8.2390     7.2000     9.5800 
   96.8750     2.1740   -18.6370   432.5740    74.6730    23.2990     8.0090     7.0460     9.3940 
   97.0000     2.1730   -18.5430   436.6820    77.8780    23.2830     7.8530     6.8570     9.1450 
   97.1250     2.1790   -18.4000   438.3250    78.1160    23.3560     7.8900     6.6560     8.8750 
   97.2500     2.1910   -18.2300   439.3960    74.8990    23.4690     8.0580     6.5060     8.6930 
   97.3750     2.2090   -18.0310   435.7070    71.5180    23.5650     8.3060     6.5020     8.7390 
   97.5000     2.2390   -17.7920   414.9220    71.2040    23.6070     8.6780     6.7530     9.1540 
   97.6250     2.2990   -17.5010   363.1890    72.0640    23.6010     9.4430     7.4300    10.1260 
   97.7500     2.3880   -17.1660   297.9850    71.2640    23.7150    13.3850     8.5040    11.5410 
   97.8750     2.4830   -16.7960   245.0600    71.1280    24.0730    22.9330     9.8350    13.1310 
   98.0000     2.5520   -16.4060   223.3000    72.3060    24.5620    32.2880    11.0490    14.3280 
   98.1250     2.5620   -16.0130   241.7570    71.3740    24.8260    30.6790    11.4350    14.2180 
   98.2500     2.5160   -15.6460   287.7550    69.4460    24.7350    22.5440    10.8430    12.9010 
   98.3750     2.4270   -15.3280   349.4210    69.1270    24.3910    14.1960     9.5780    11.0050 
   98.5000     2.3280   -15.0680   407.7750    71.8860    23.9950     8.8030     8.1320     9.2060 
   98.6250     2.2660   -14.8660   440.6890    75.0330    23.7250     7.1140     6.8940     7.8960 
   98.7500     2.2500   -14.6910   453.2620    77.5750    23.5440     6.1840     5.9260     6.9660 
   98.8750     2.2640   -14.5310   457.8530    81.1830    23.4440     5.6680     5.1860     6.2810 
   99.0000     2.2850   -14.3860   463.4900    85.0370    23.5560     5.3840     4.6110     5.7320 
   99.1250     2.2950   -14.2630   470.8970    88.0830    23.9890     4.7830     4.1860     5.3110 
   99.2500     2.2970   -14.1650   476.2840    90.3550    24.4950     4.0170     3.9050     5.0500 
   99.3750     2.3000   -14.0920   475.2310    90.7210    24.8480     3.6410     3.8010     4.9990 
   99.5000     2.3030   -14.0500   466.5000    88.2160    24.9690     3.7360     3.8910     5.1690 
   99.6250     2.2930   -14.0640   454.6740    83.7150    24.8350     4.1640     4.1790     5.5360 
   99.7500     2.2730   -14.1440   447.0260    81.8960    24.5350     4.8890     4.5520     5.9420 
   99.8750     2.2590   -14.2960   445.9130    82.8460    24.2250     5.3890     4.8760     6.2230 
  100.0000     2.2670   -14.5060   449.7800    85.8670    24.1390     5.4240     5.0110     6.2390 
  100.1250     2.2950   -14.7420   454.9100    90.1050    24.3620     4.7540     4.8690     5.9530 
  100.2500     2.3230   -14.9680   456.8410    93.8470    24.6140     4.5500     4.5960     5.5860 
  100.3750     2.3410   -15.1730   451.6750    95.5960    24.7130     4.4940     4.3350     5.3230 
  100.5000     2.3490   -15.3640   438.6720    96.1070    24.7080     4.4480     4.1950     5.2780 
  100.6250     2.3490   -15.5640   425.0350    96.3520    24.7020     4.5400     4.2400     5.4910 
  100.7500     2.3460   -15.7870   422.8370    95.0150    24.6620     5.4350     4.4060     5.8340 
  100.8750     2.3390   -16.0410   433.6450    90.2950    24.5670     6.0130     4.6240     6.2000 
  101.0000     2.3300   -16.3300   446.4710    84.9040    24.4820     5.7390     4.8430     6.5300 
  101.1250     2.3210   -16.6540   447.1590    84.2520    24.4810     5.5040     5.0640     6.8540 
  101.2500     2.3100   -16.9990   436.4930    87.5270    24.4840     5.7310     5.3360     7.2530 
  101.3750     2.2970   -17.3480   420.5850    89.7990    24.3850     6.7250     5.7060     7.7680 
  101.5000     2.2870   -17.6850   406.7830    87.1580    24.1430     8.7060     6.1890     8.3810 
  101.6250     2.2830   -18.0010   404.2330    81.2690    23.8550    10.2380     6.7310     8.9730 
  101.7500     2.2720   -18.2930   413.2450    76.7770    23.6680     9.8550     7.1940     9.3890 
  101.8750     2.2470   -18.5550   426.7520    73.8850    23.5860     8.5870     7.4780     9.5580 
  102.0000     2.2120   -18.7780   436.6210    71.7270    23.4960     7.7120     7.5630     9.5220 
  102.1250     2.1840   -18.9420   439.2240    71.0050    23.3220     7.3790     7.5060     9.4110 
  102.2500     2.1710   -19.0480   438.2260    71.9490    23.1410     7.2030     7.4280     9.3560 
  102.3750     2.1730   -19.0980   438.1120    72.4080    23.0070     7.0260     7.3660     9.3670 
  102.5000     2.1820   -19.0990   441.8270    71.5760    22.9150     6.8360     7.2850     9.3520 
  102.6250     2.1870   -19.0580   449.3290    72.9360    22.8950     6.5970     7.0750     9.1220 
  102.7500     2.1900   -18.9980   456.8760    75.5170    22.9380     6.5810     6.7080     8.6450 
  102.8750     2.2020   -18.9300   462.9940    76.2120    22.9740     6.7770     6.2320     8.0210 
