~V
VERS. 2.00: Ver 2.00
~W
STRT.M 120.0000:
STOP.M 233.0000:
STEP.M 0.1250:
NULL. -999.2500:
UWI. DF3066:
~C
DEPT.M :
GR.API :
RML.OHMM :
RI. :
RXO.OHMM :
CALI.CM :
DEN.GM/CC :
SP.MV :
~A
# ...
  165.0000    79.5070    65.1100    61.2310    61.1900    24.6040     2.2430   -22.3510 
  165.1250    79.4060    60.3040    56.3890    50.3820    24.6080     2.2580   -22.5160 
  165.2500    79.4550    58.6100    54.2860    45.0910    24.6290     2.2680   -22.7200 
  165.3750    79.2780    60.4340    55.4350    45.7620    24.6410     2.2700   -22.9840 
  165.5000    76.7830    66.0500    60.1520    49.8930    24.6400     2.2650   -23.2300 
  165.6250    73.2950    76.1250    69.0420    56.8440    24.6640     2.2550   -23.5020 
  165.7500    71.6830    89.4210    80.8580    67.8430    24.7040     2.2460   -23.8860 
  165.8750    72.3960   104.5890    94.2800    82.8390    24.7470     2.2360   -24.2110 
  166.0000    73.4810   119.6380   107.4730    97.7400    24.6870     2.2270   -24.5060 
  166.1250    72.6790   131.8250   118.0320   107.1680    24.6580     2.2190   -24.7800 
  166.2500    70.5390   140.2330   125.2380   110.0080    24.6390     2.2110   -24.9690 
  166.3750    67.0420   145.1700   129.3520   108.4370    24.6940     2.2070   -25.0950 
  166.5000    65.4410   147.9670   131.4730   105.5390    24.6880     2.2050   -25.2620 
  166.6250    68.2960   150.1280   132.9110   102.7590    24.6670     2.2070   -25.3630 
  166.7500    71.0610   152.4870   134.5810   100.4230    24.2580     2.2110   -25.4000 
  166.8750    69.6830   154.9070   136.5530   101.0040    23.9880     2.2150   -25.5460 
  167.0000    65.6430   156.9000   138.5250   104.3270    24.0750     2.2180   -25.5860 
  167.1250    67.0600   157.7360   139.9410   110.5530    24.2860     2.2180   -25.7060 
  167.2500    73.6980   157.3070   140.5370   116.2390    24.5480     2.2150   -25.7690 
  167.3750    78.4310   155.6880   140.2380   118.9320    24.7050     2.2090   -25.8500 
  167.5000    77.7150   153.1070   139.1290   119.0400    24.7620     2.2010   -25.9280 
  167.6250    75.0440   149.6360   137.2110   117.6440    24.7560     2.1930   -25.9350 
  167.7500    73.3530   145.4250   134.5970   115.4470    24.7120     2.1850   -26.0190 
  167.8750    72.5820   140.4850   131.2400   113.1150    24.6680     2.1790   -25.9980 
  168.0000    73.8590   135.0630   127.2700   110.9570    24.7060     2.1760   -26.0860 
  168.1250    77.6440   129.9980   123.3210   107.2430    24.7370     2.1770   -26.1110 
  168.2500    78.6090   126.4230   120.4710   103.5490    24.6960     2.1820   -26.1840 
  168.3750    74.9630   125.2190   119.6420    98.1940    24.6290     2.1870   -26.2070 
  168.5000    70.9090   126.2480   121.1490    91.8000    24.5960     2.1910   -26.1660 
  168.6250    70.4140   128.8790   124.3170    89.8610    24.5950     2.1910   -26.2590 
  168.7500    71.0970   130.9530   126.9870    91.1340    24.5950     2.1880   -26.2420 
  168.8750    70.6630   131.6140   127.4490    95.8830    24.5970     2.1840   -26.2210 
  169.0000    70.1310   129.5940   124.8200   103.2130    24.6080     2.1820   -26.1900 
  169.1250    70.5260   127.0730   119.3110   106.1890    24.6370     2.1830   -26.1030 
  169.2500    70.8720   124.7500   113.3370    96.7590    24.6690     2.1870   -26.0220 
  169.3750    70.7400   121.9300   108.9920    83.7180    24.6810     2.1930   -25.9000 
  169.5000    70.4720   120.7120   107.8250    80.9170    24.6830     2.1970   -25.8060 
  169.6250    70.5020   124.4290   110.9700    86.8730    24.6850     2.2010   -25.6320 
  169.7500    69.7220   131.2710   116.9670    92.7170    24.6970     2.2060   -25.4610 
  169.8750    67.5130   139.0190   123.9500   101.2450    24.7230     2.2110   -25.3680 
  170.0000    66.2600   144.7010   129.3890   115.6370    24.7490     2.2160   -25.1280 
  170.1250    67.9760   144.3700   129.9200   124.0360    24.7290     2.2160   -24.9970 
  170.2500    70.8770   137.7530   125.0880   123.3520    24.6920     2.2120   -24.8200 
  170.3750    72.7100   126.4870   115.9080   114.7180    24.6940     2.2060   -24.7020 
  170.5000    74.7530   113.9780   104.9250    94.7870    24.6950     2.2030   -24.5910 
  170.6250    79.2690   104.4340    95.6560    71.1510    24.5770     2.2100   -24.4370 
  170.7500    80.8240    99.3080    89.9200    56.5420    24.3290     2.2240   -24.3350 
  170.8750    76.4610    98.4620    87.9790    56.4360    24.2300     2.2400   -24.1000 
  171.0000    70.4220   100.7970    89.0420    63.2700    24.2230     2.2520   -23.9440 
  171.1250    70.1110   104.9030    91.8640    75.7260    24.2290     2.2560   -23.6510 
  171.2500    72.0320   109.1510    94.8730    89.4850    24.2340     2.2560   -23.3830 
  171.3750    70.7990   113.1070    97.6020    95.8840    24.2640     2.2560   -23.0590 
  171.5000    68.1080   117.2330   100.3920    94.7410    24.3650     2.2560   -22.7170 
  171.6250    68.1920   123.0610   104.4600    91.2170    24.5910     2.2570   -22.4320 
  171.7500    70.0400   131.3630   110.4450    91.6520    24.7540     2.2600   -22.0180 
  171.8750    70.4500   141.8380   118.1310    96.9460    24.7310     2.2670   -21.6690 
  172.0000    69.5430   152.8380   126.2430   106.3740    24.4510     2.2750   -21.3680 
  172.1250    69.1340   160.9620   132.2020   118.0940    24.3750     2.2780   -21.0510 
  172.2500    68.1210   164.0290   134.3610   127.0730    24.4830     2.2710   -20.6910 
  172.3750    67.2640   161.6080   132.3050   128.6170    24.6280     2.2520   -20.3580 
  172.5000    66.8750   155.3280   127.0720   124.1970    24.6830     2.2260   -20.0010 
  172.6250    65.8010   147.7140   120.4590   117.2350    24.6930     2.2040   -19.6080 
  172.7500    66.3930   140.1050   113.7890   110.0370    24.7250     2.1940   -19.2080 
  172.8750    69.0550   131.1420   106.4380   101.8420    24.7720     2.2050   -18.8030 
  173.0000    69.9550   118.3280    96.7780    94.5000    24.7920     2.2420   -18.2490 
  173.1250    64.9070    99.4890    82.8900    89.4120    24.7580     2.3120   -17.7750 
  173.2500    61.6330    77.2530    66.2340    84.8980    24.6040     2.3980   -17.2970 
  173.3750    62.9550    55.6930    49.4070    74.8220    24.4570     2.4790   -16.8060 
  173.5000    64.9830    37.9950    35.1110    57.5670    24.3090     2.5350   -16.3700 
  173.6250    67.9170    26.1950    25.3670    37.8100    24.2500     2.5500   -15.8650 
  173.7500    73.8280    19.4560    19.1130    24.8040    24.2570     2.5410   -15.5180 
  173.8750    77.2810    15.1690    15.3390    18.0670    24.2120     2.5280   -15.1350 
  174.0000    74.4580    13.2380    13.1310    15.9170    24.1540     2.5200   -14.8620 
  174.1250    68.0950    12.4580    11.9510    14.8820    24.1420     2.5210   -14.6350 
  174.2500    63.6850    12.0580    11.2670    14.2770    24.1430     2.5190   -14.4590 
  174.3750    62.4930    11.8780    10.9230    14.7750    24.1750     2.5090   -14.3570 
  174.5000    63.7180    11.9080    10.8670    16.1250    24.2490     2.4910   -14.2520 
  174.6250    64.3330    12.2260    11.1130    15.9270    24.3240     2.4750   -14.2750 
  174.7500    60.8770    12.7180    11.5090    15.1310    24.3550     2.4720   -14.2240 
  174.8750    56.0820    13.1760    11.8760    14.3720    24.3610     2.4830   -14.3020 
  175.0000    54.9710    13.3510    12.0140    14.6870    24.3610     2.5020   -14.4100 
  175.1250    59.4530    13.0110    11.7340    15.6230    24.3680     2.5150   -14.4640 
  175.2500    62.3490    12.3250    11.1440    15.4340    24.3610     2.5160   -14.5780 
  175.3750    60.8900    11.5480    10.4180    12.4940    24.3060     2.5040   -14.6830 
  175.5000    57.9830    10.9320     9.7480     9.1430    24.2600     2.4860   -14.8010 
  175.6250    58.1770    10.6570     9.2980     8.3960    24.2420     2.4660   -14.9380 
  175.7500    59.9870    10.6440     9.0650     8.7600    24.2460     2.4460   -15.0660 
  175.8750    61.5370    10.7870     9.0110     9.1490    24.2540     2.4300   -15.1720 
  176.0000    62.0350    10.9730     9.0720     9.0210    24.2720     2.4190   -15.2340 
  176.1250    61.2090    11.1170     9.1690     8.7540    24.2800     2.4170   -15.3630 
