~V
VERS. 2.00: Ver 2.00
~W
STRT.M 64.0000:
STOP.M 259.0000:
STEP.M 0.1250:
NULL. -999.2500:
UWI. DF3067:
~C
DEPT.M :
DEN.GM/CC :
GR.API :
CALI.CM :
RXO.OHMM :
RI. :
RML.OHMM :
SP.MV :
~A
# ...
   75.2500  -999.2500    86.9410    22.6160     6.1190     5.6790     7.5850  -999.2500 
   75.3750  -999.2500    95.0420    23.2110     5.9480     5.3200     7.2310  -999.2500 
   75.5000  -999.2500    98.8960    23.4260     5.6680     5.0880     7.0230  -999.2500 
   75.6250  -999.2500    98.3400    23.2410     5.6580     4.9560     6.9010  -999.2500 
   75.7500  -999.2500    97.4910    22.9760     5.8070     4.8690     6.8000  -999.2500 
   75.8750  -999.2500    96.4700    22.7680     5.9350     4.8180     6.7210  -999.2500 
   76.0000  -999.2500    95.1540    22.6720     5.7440     4.8260     6.7160  -999.2500 
   76.1250  -999.2500    95.7920    22.7350     5.5380     4.9440     6.8770  -999.2500 
   76.2500  -999.2500    97.2000    22.8460     5.3970     5.1660     7.1930  -999.2500 
   76.3750  -999.2500    96.0900    22.7390     5.7560     5.4530     7.5850  -999.2500 
   76.5000  -999.2500    91.9120    22.2460     6.3910     5.7180     7.8930  -999.2500 
   76.6250  -999.2500    89.7420    21.6220     6.7490     5.7870     7.8530  -999.2500 
   76.7500  -999.2500    93.2680    21.3000     6.4720     5.5850     7.4300  -999.2500 
   76.8750  -999.2500   100.4870    21.4130     5.8380     5.1460     6.7580  -999.2500 
   77.0000  -999.2500   104.8790    21.8970     5.1100     4.6270     6.0890  -999.2500 
   77.1250  -999.2500   104.5940    22.5780     4.6750     4.2440     5.7210  -999.2500 
   77.2500  -999.2500   104.9960    23.1160     4.4560     4.1040     5.7400  -999.2500 
   77.3750  -999.2500   106.2350    23.2760     4.7090     4.2530     6.1650  -999.2500 
   77.5000  -999.2500   103.5780    22.9800     5.6650     4.6890     6.9430  -999.2500 
   77.6250  -999.2500    94.8090    22.3320     6.6280     5.3610     7.9160  -999.2500 
   77.7500  -999.2500    87.0860    21.7710     7.1170     6.0350     8.7270  -999.2500 
   77.8750  -999.2500    84.6400    21.5870     7.4850     6.4770     9.0710  -999.2500 
   78.0000  -999.2500    85.7490    21.7240     7.8100     6.5250     8.8230  -999.2500 
   78.1250  -999.2500    88.9150    21.9210     7.2280     6.1540     8.1130  -999.2500 
   78.2500  -999.2500    93.6320    22.2060     6.1530     5.6310     7.3580  -999.2500 
   78.3750  -999.2500    97.9720    22.7240     5.4820     5.1430     6.7710  -999.2500 
   78.5000  -999.2500    98.7340    23.3960     5.3860     4.7870     6.4160  -999.2500 
   78.6250  -999.2500    94.9610    23.9110     5.5600     4.6230     6.3370  -999.2500 
   78.7500  -999.2500    91.3630    24.1270     5.8440     4.6450     6.5320  -999.2500 
   78.8750  -999.2500    90.1390    24.0430     6.2490     4.8850     7.0520  -999.2500 
   79.0000  -999.2500    88.9490    23.7100     6.6490     5.3570     7.8910  -999.2500 
   79.1250  -999.2500    87.1760    23.3120     7.2220     6.0270     8.9170  -999.2500 
   79.2500  -999.2500    88.0510    22.9020     9.0720     6.6680     9.7400  -999.2500 
   79.3750  -999.2500    90.6870    22.3580    10.4380     7.0100     9.9860  -999.2500 
   79.5000  -999.2500    91.6440    21.8140     9.5520     6.8840     9.5220  -999.2500 
   79.6250  -999.2500    89.5810    21.8230     7.2010     6.3660     8.6360  -999.2500 
   79.7500  -999.2500    88.0540    22.2990     5.9000     5.8340     7.8910  -999.2500 
   79.8750  -999.2500    88.6700    22.6460     5.9850     5.5030     7.5310  -999.2500 
   80.0000  -999.2500    88.2020    22.4470     6.8280     5.4600     7.6030  -999.2500 
   80.1250  -999.2500    85.1140    21.8990     7.4720     5.7400     8.0620  -999.2500 
   80.2500  -999.2500    81.2820    21.4790     7.7540     6.2010     8.6700  -999.2500 
   80.3750  -999.2500    78.4110    21.2930     8.0360     6.7130     9.2490  -999.2500 
   80.5000  -999.2500    77.5890    21.3070     8.3040     7.1540     9.6700  -999.2500 
   80.6250  -999.2500    76.7240    21.4610     8.6500     7.4100     9.8360  -999.2500 
   80.7500  -999.2500    74.2930    21.6700     8.9670     7.4540     9.7450  -999.2500 
   80.8750  -999.2500    71.1480    21.9080     8.9310     7.2440     9.3570  -999.2500 
   81.0000  -999.2500    70.2830    22.1200     8.4700     6.7730     8.6660  -999.2500 
   81.1250  -999.2500    74.7850    22.3000     7.6510     6.0830     7.7510  -999.2500 
   81.2500  -999.2500    82.6370    22.6310     6.2960     5.3510     6.8540  -999.2500 
   81.3750  -999.2500    91.4110    23.2000     4.9630     4.7140     6.1520  -999.2500 
   81.5000  -999.2500   100.0490    23.7860     4.3170     4.2680     5.7460  -999.2500 
   81.6250  -999.2500   106.7600    24.0390     4.3310     4.0800     5.6830  -999.2500 
   81.7500  -999.2500   111.0660    24.0680     4.6800     4.0810     5.8320  -999.2500 
   81.8750  -999.2500   111.2980    24.0570     5.0810     4.2090     6.0790  -999.2500 
   82.0000  -999.2500   106.8890    24.0340     5.3000     4.3880     6.3030  -999.2500 
   82.1250  -999.2500   102.5180    23.9670     5.3150     4.5300     6.3820  -999.2500 
   82.2500  -999.2500   102.2070    23.8880     5.3750     4.5920     6.3300  -999.2500 
   82.3750  -999.2500   102.4480    23.7960     5.3860     4.5870     6.2280  -999.2500 
   82.5000  -999.2500    99.4080    23.6870     5.4740     4.5660     6.1740  -999.2500 
   82.6250  -999.2500    94.9020    23.6570     5.3550     4.5940     6.2550  -999.2500 
   82.7500  -999.2500    93.3240    23.7400     5.4470     4.6870     6.4440  -999.2500 
   82.8750  -999.2500    93.8750    23.8570     5.9950     4.8230     6.6780  -999.2500 
   83.0000  -999.2500    93.7790    23.8970     6.1650     4.9400     6.8640  -999.2500 
   83.1250  -999.2500    91.6140    23.7980     5.6870     4.9550     6.8930  -999.2500 
   83.2500  -999.2500    88.3710    23.6160     5.0790     4.8640     6.7710  -999.2500 
   83.3750  -999.2500    87.6440    23.3810     5.0800     4.6990     6.5490  -999.2500 
   83.5000  -999.2500    90.7420    23.1370     5.1800     4.5240     6.3430  -999.2500 
   83.6250  -999.2500    92.7590    22.9190     5.3630     4.4680     6.3750  -999.2500 
   83.7500  -999.2500    89.8410    22.7380     5.4080     4.6290     6.7650  -999.2500 
   83.8750  -999.2500    84.9700    22.5680     5.5910     5.0670     7.5550  -999.2500 
   84.0000  -999.2500    82.5840    22.3570     6.2850     5.7770     8.6670  -999.2500 
   84.1250  -999.2500    82.5780    22.0790     8.5120     6.6310     9.8020  -999.2500 
   84.2500  -999.2500    80.6390    21.8210    11.1130     7.2810    10.4500  -999.2500 
   84.3750  -999.2500    77.0770    21.6680    11.1490     7.4390    10.2890  -999.2500 
   84.5000  -999.2500    75.6630    21.6280     8.7370     7.0890     9.4770  -999.2500 
   84.6250  -999.2500    78.6040    21.6070     6.9500     6.5400     8.6330  -999.2500 
   84.7500  -999.2500    81.1100    21.5250     6.4160     6.1740     8.2410  -999.2500 
   84.8750  -999.2500    80.7900    21.3830     6.1010     6.1260     8.3830  -999.2500 
   85.0000  -999.2500    78.3320    21.2210     6.1240     6.3760     8.9010  -999.2500 
   85.1250  -999.2500    75.9570    21.1690     6.5570     6.7450     9.4010  -999.2500 
   85.2500  -999.2500    74.1850    21.2730     7.1670     6.9220     9.4700  -999.2500 
   85.3750  -999.2500    73.5010    21.5450     6.9760     6.7420     9.0010  -999.2500 
   85.5000  -999.2500    76.9600    22.0400     6.0390     6.2600     8.2070  -999.2500 
   85.6250  -999.2500    85.0900    22.7200     5.4310     5.6870     7.4630  -999.2500 
   85.7500  -999.2500    89.9850    23.2720     5.5580     5.2330     6.9690  -999.2500 
   85.8750  -999.2500    86.7910    23.4750     5.8530     4.9610     6.7360  -999.2500 
   86.0000  -999.2500    81.1700    23.4240     5.8940     4.8540     6.6760  -999.2500 
   86.1250  -999.2500    83.9620    23.4360     5.6450     4.8340     6.6530  -999.2500 
   86.2500  -999.2500    89.9890    23.5740     5.3350     4.8030     6.5730  -999.2500 
   86.3750  -999.2500    92.5480    23.7250     5.3740     4.7400     6.4410  -999.2500 
