~V
VERS. 2.00: Ver 2.00
~W
STRT.M 61.0000:
STOP.M 276.0000:
STEP.M 0.1250:
NULL. -999.2500:
UWI. DF3051:
~C
DEPT.M :
SP.MV :
GR.API :
CALI.CM :
RXO.OHMM :
RI. :
RML.OHMM :
DEN.GM/CC :
~A
# ...
  207.2500   -21.6350    83.6660    26.6070     6.3490     6.5040     8.0020     2.4440 
  207.3750   -21.5560    83.5830    26.6990     6.3000     6.3950     8.0090     2.4380 
  207.5000   -21.3640    82.6630    26.7670     6.5950     6.3660     8.1970     2.4230 
  207.6250   -21.0270    82.8090    26.7860     7.2090     6.4160     8.4940     2.4010 
  207.7500   -20.6540    83.7490    26.7940     7.7220     6.4780     8.7280     2.3900 
  207.8750   -20.3350    86.5420    26.8100     7.8500     6.4840     8.7640     2.3970 
  208.0000   -20.1010    88.7680    26.8280     7.6970     6.3900     8.5450     2.4200 
  208.1250   -19.9590    86.7470    26.8370     7.6510     6.2190     8.1830     2.4380 
  208.2500   -19.8800    83.1510    26.8400     7.8210     6.1310     8.0310     2.4410 
  208.3750   -19.8850    82.1240    26.8390     8.2910     6.3150     8.4540     2.4360 
  208.5000   -19.9840    82.2720    26.8390     9.7810     6.9830     9.8210     2.4360 
  208.6250   -20.2540    77.7060    26.8680    14.8630     8.5840    12.7970     2.4400 
  208.7500   -20.6250    70.3550    26.9260    25.4440    11.4140    17.6070     2.4270 
  208.8750   -21.0030    64.3660    26.9660    39.9140    15.8210    24.4620     2.3940 
  209.0000   -21.3750    62.2670    26.9370    50.9740    21.7580    32.9370     2.3590 
  209.1250   -21.7360    64.7740    26.8560    53.2040    28.2070    41.1700     2.3520 
  209.2500   -22.1400    68.2230    26.7960    53.1520    33.4520    47.0390     2.3670 
  209.3750   -22.6010    68.7830    26.7720    54.7260    36.8560    50.2350     2.3770 
  209.5000   -23.0880    66.1930    26.7700    56.5610    38.9000    51.9900     2.3610 
  209.6250   -23.5400    65.1590    26.7870    57.6250    40.4810    53.7980     2.3220 
  209.7500   -23.9040    65.7110    26.8240    59.8230    42.1660    56.1630     2.2890 
  209.8750   -24.2080    65.4870    26.8700    64.0550    43.9750    58.9040     2.2730 
  210.0000   -24.5110    64.7510    26.9000    68.3820    45.8420    61.7650     2.2620 
  210.1250   -24.9030    64.5130    26.8950    69.3950    47.7920    64.6590     2.2450 
  210.2500   -25.4470    63.8760    26.8810    68.7950    49.9510    67.7540     2.2330 
  210.3750   -26.1030    62.9340    26.8860    70.0790    52.4880    71.3330     2.2310 
  210.5000   -26.7770    63.0690    26.9190    74.2540    55.5010    75.5270     2.2380 
  210.6250   -27.3620    64.3030    26.9630    79.4080    58.9300    80.1290     2.2430 
  210.7500   -27.8660    64.9670    26.9940    84.1540    62.3780    84.5000     2.2410 
  210.8750   -28.3070    64.8480    27.0110    88.1680    65.4860    88.1370     2.2330 
  211.0000   -28.7090    63.7940    27.0300    90.0820    68.0150    90.8620     2.2230 
  211.1250   -29.1030    62.2320    27.0640    89.6620    69.9890    92.9860     2.2180 
  211.2500   -29.4210    61.6600    27.0990    90.3440    71.9400    95.3360     2.2180 
  211.3750   -29.6380    63.4690    27.1210    93.3680    74.2930    98.4070     2.2210 
  211.5000   -29.7890    65.8060    27.1290    97.0630    77.2750   102.3580     2.2230 
  211.6250   -29.8600    65.7350    27.1270   100.5890    81.0480   107.3190     2.2250 
  211.7500   -29.9230    63.1180    27.1130   104.8820    85.4940   113.1350     2.2350 
  211.8750   -30.0660    60.8070    27.0840   109.3130    90.5930   119.7870     2.2550 
  212.0000   -30.2720    60.1320    27.0410   114.4240    96.2630   127.1750     2.2810 
  212.1250   -30.4890    59.8990    27.0000   125.8800   102.2240   134.8230     2.2960 
  212.2500   -30.6660    59.9090    26.9670   141.8820   107.6400   141.3720     2.2930 
  212.3750   -30.8200    61.0670    26.9370   150.8240   111.4190   145.0550     2.2770 
  212.5000   -30.9790    62.3540    26.9150   145.2900   112.5960   144.5170     2.2600 
  212.6250   -31.2100    63.4550    26.9010   132.0410   110.5370   139.3950     2.2490 
  212.7500   -31.4620    63.7520    26.8560   121.3140   106.6210   132.3120     2.2390 
  212.8750   -31.7190    63.0970    26.7920   113.0280   102.1640   125.3360     2.2260 
  213.0000   -32.0510    62.8090    26.8220   106.5810    98.3350   119.8570     2.2150 
  213.1250   -32.4240    64.4820    26.9970   104.1810    95.8890   116.4780     2.2140 
  213.2500   -32.8030    66.3660    27.1290   104.8580    94.3350   114.1900     2.2180 
  213.3750   -33.1520    66.5650    27.1080   105.7630    92.9490   111.9110     2.2180 
  213.5000   -33.4350    67.0400    26.9860   104.0550    90.8690   108.4750     2.2120 
  213.6250   -33.6070    67.5330    26.8620    99.2430    87.2250   102.9630     2.2090 
  213.7500   -33.7550    65.9760    26.7400    93.5970    82.5380    96.4840     2.2180 
  213.8750   -33.8840    62.4660    26.6270    87.1390    77.9120    90.6650     2.2380 
  214.0000   -33.9690    60.2490    26.5600    79.7560    74.7760    87.2050     2.2550 
  214.1250   -34.0910    61.2030    26.5890    76.5220    75.2640    88.3510     2.2550 
  214.2500   -34.2560    61.5360    26.6990    83.7960    80.2800    94.7140     2.2380 
  214.3750   -34.4740    58.8060    26.8360   102.9700    90.7070   107.2030     2.2150 
  214.5000   -34.7630    55.2640    26.9010   126.7370   106.8910   126.4320     2.1980 
  214.6250   -35.0930    55.9580    26.7930   143.7520   128.5540   152.6250     2.1950 
  214.7500   -35.4130    58.6320    26.5920   154.5820   151.2730   180.3660     2.2070 
  214.8750   -35.7460    60.1750    26.4110   162.8480   169.6970   202.0000     2.2280 
  215.0000   -36.0620    62.0610    26.3230   167.3030   178.7700   210.3010     2.2450 
  215.1250   -36.3580    64.9730    26.3420   162.6630   175.0010   201.9150     2.2380 
  215.2500   -36.6540    65.9220    26.4430   151.7590   163.4210   185.3380     2.2170 
  215.3750   -36.8940    64.0580    26.6250   140.6570   148.9560   167.4230     2.2010 
  215.5000   -37.0470    63.6120    26.8500   133.9320   136.0720   153.0100     2.2060 
  215.6250   -37.0730    66.3740    27.0370   130.2220   128.4020   145.3270     2.2270 
  215.7500   -37.0780    66.4970    27.1460   127.2960   126.0740   143.6170     2.2460 
  215.8750   -37.1650    62.8300    27.1900   128.1560   128.7280   147.0870     2.2550 
  216.0000   -37.3840    58.7100    27.1990   135.5490   135.1870   154.1930     2.2540 
  216.1250   -37.6580    57.4800    27.1990   146.6920   143.3670   162.2790     2.2450 
  216.2500   -37.8560    57.2960    27.1990   155.0740   150.0190   167.6840     2.2310 
  216.3750   -37.9710    58.2140    27.2010   158.2830   152.5850   167.6550     2.2190 
  216.5000   -37.9910    60.8130    27.2030   155.9290   149.6680   161.2980     2.2080 
  216.6250   -38.0890    62.6390    27.2030   147.4830   141.5970   150.3670     2.1960 
  216.7500   -38.2970    61.8780    27.2010   134.8020   132.2850   139.6830     2.1900 
  216.8750   -38.5160    61.2230    27.1990   120.0170   124.6970   132.1770     2.1980 
  217.0000   -38.7160    63.0740    27.1990   107.7780   120.7900   129.3260     2.2140 
  217.1250   -38.9010    66.7510    27.1920   106.3630   122.1060   132.2020     2.2170 
  217.2500   -39.0970    69.1280    27.1670   115.6690   127.6040   139.3450     2.2060 
  217.3750   -39.2210    69.1390    27.1250   128.7890   136.2820   149.5540     2.1930 
  217.5000   -39.3050    67.2350    27.0880   136.3050   146.6310   161.1300     2.1940 
  217.6250   -39.3860    65.5890    27.0730   135.0520   156.6430   171.7640     2.2130 
  217.7500   -39.4090    64.1300    27.0600   132.8490   164.7250   179.8500     2.2250 
  217.8750   -39.4140    61.1890    27.0340   134.0790   170.0670   184.6750     2.2160 
  218.0000   -39.3930    57.6300    27.0020   139.1940   172.4090   186.1530     2.1890 
  218.1250   -39.2860    58.0100    26.9900   144.5600   171.3120   183.9430     2.1690 
  218.2500   -39.1130    60.3810    27.0500   144.1870   167.3990   178.7910     2.1680 
  218.3750   -39.0030    61.8120    27.2560   138.2200   161.0610   171.2300     2.1800 
