~V
VERS. 2.00: Ver 2.00
~W
STRT.M 135.0000:
STOP.M 270.0000:
STEP.M 0.1250:
NULL. -999.2500:
UWI. DF3063:
~C
DEPT.M :
SP.MV :
GR.API :
CALI.CM :
RXO.OHMM :
RI. :
RML.OHMM :
DEN.GM/CC :
~A
  135.0000   -15.2160    78.7580    24.4360     6.5230     6.8700     8.2710     2.3330 
  135.1250   -15.1310    78.5600    24.2420     7.1500     6.8780     8.3190     2.3260 
  135.2500   -15.0730    77.9890    24.2590     6.9930     6.8440     8.2990     2.3250 
  135.3750   -15.2000    76.7180    24.4330     6.4170     6.7090     8.1540     2.3300 
  135.5000   -15.3630    76.5180    24.4510     6.1620     6.4630     7.8590     2.3390 
  135.6250   -15.5030    79.8230    24.5150     5.7790     6.1170     7.4250     2.3510 
  135.7500   -15.6710    84.3450    24.5440     5.4800     5.7570     6.9950     2.3640 
  135.8750   -15.8950    87.1460    24.5540     5.3740     5.4750     6.6970     2.3660 
  136.0000   -16.1410    89.3430    24.5540     5.0350     5.3530     6.6430     2.3500 
  136.1250   -16.4270    90.8050    24.5600     4.6160     5.4850     6.9650     2.3350 
  136.2500   -16.7630    87.3920    24.5340     4.5470     5.8810     7.6480     2.3510 
  136.3750   -17.1460    78.1510    24.4870     5.4050     6.5550     8.6140     2.4010 
  136.5000   -17.5650    67.4180    24.1210     7.2350     7.4310     9.7440     2.4510 
  136.6250   -17.9710    64.0160    23.9580     8.8420     8.3820    10.8540     2.4430 
  136.7500   -18.4280    66.0230    23.9340     9.4650     9.2340    11.7640     2.3790 
  136.8750   -18.9330    68.2630    23.9300     9.5160     9.8570    12.3690     2.3040 
  137.0000   -19.3340    68.3800    23.9270     9.6070    10.2080    12.6370     2.2590 
  137.1250   -19.6340    69.9490    23.9040     9.9330    10.3210    12.6640     2.2460 
  137.2500   -19.9470    73.7110    23.8990    10.1900    10.3330    12.6420     2.2290 
  137.3750   -20.2250    73.8830    23.8390    10.3950    10.3510    12.7210     2.2030 
  137.5000   -20.3890    68.8020    23.7520    10.8320    10.4550    12.9480     2.1810 
  137.6250   -20.4990    64.1280    23.7840    11.3430    10.6560    13.2840     2.1750 
  137.7500   -20.6120    62.2060    23.7310    11.8070    10.8800    13.6120     2.1770 
  137.8750   -20.6530    60.2730    23.7180    12.0880    11.0900    13.8730     2.1790 
  138.0000   -20.6000    58.2320    23.5600    12.2500    11.2600    14.0470     2.1820 
  138.1250   -20.5600    57.8260    23.7360    12.3360    11.3440    14.0710     2.1820 
  138.2500   -20.5510    58.8950    23.6920    12.3480    11.3400    13.9580     2.1800 
  138.3750   -20.4030    58.8960    23.6330    12.3480    11.2670    13.7950     2.1790 
  138.5000   -20.1510    58.0190    23.6050    12.3800    11.1610    13.6360     2.1800 
  138.6250   -19.9410    59.8060    23.5800    12.2970    11.0870    13.5770     2.1810 
  138.7500   -19.7270    64.0970    23.4760    12.1250    11.0980    13.6400     2.1790 
  138.8750   -19.3750    67.9700    23.4550    11.9860    11.1750    13.7750     2.1800 
  139.0000   -19.0080    67.9330    23.4660    12.1130    11.2300    13.8260     2.1910 
  139.1250   -18.6860    66.2000    23.4800    12.3660    11.1090    13.5720     2.2080 
  139.2500   -18.3550    66.4310    23.4860    12.5940    10.7540    12.9880     2.2170 
  139.3750   -18.0060    68.1300    23.5710    12.5820    10.1580    12.0720     2.2180 
  139.5000   -17.6780    69.5020    23.6090    12.1670     9.3980    10.9740     2.2270 
  139.6250   -17.4050    71.9050    23.5810    10.6010     8.6250     9.9530     2.2540 
  139.7500   -17.1410    76.5710    23.5140     7.9420     7.9680     9.1590     2.2820 
  139.8750   -16.9030    80.0990    23.4780     6.1990     7.4980     8.6760     2.2950 
  140.0000   -16.7930    79.1640    23.4950     6.6050     7.2430     8.4850     2.2900 
  140.1250   -16.7700    74.3920    23.4790     7.5570     7.1790     8.5250     2.2790 
  140.2500   -16.7140    72.3510    23.5190     8.1160     7.1810     8.6020     2.2800 
  140.3750   -16.6410    75.2090    23.6160     7.7910     7.1840     8.6280     2.2960 
  140.5000   -16.6770    80.6340    23.7630     6.7870     7.1230     8.5170     2.3220 
  140.6250   -16.7780    82.8910    23.8840     6.0460     6.9380     8.2410     2.3470 
  140.7500   -16.8670    81.8530    23.7130     6.3200     6.6780     7.9000     2.3580 
  140.8750   -16.9750    82.3120    23.5690     6.5570     6.4100     7.5790     2.3530 
  141.0000   -17.1380    87.2750    23.8260     6.3170     6.2030     7.3730     2.3390 
  141.1250   -17.3190    92.5640    24.3090     5.7900     6.1430     7.3770     2.3280 
  141.2500   -17.5070    92.3230    24.4130     5.5870     6.2430     7.5900     2.3250 
  141.3750   -17.8530    88.0810    24.4300     5.5470     6.4950     7.9660     2.3240 
  141.5000   -18.3120    85.2590    24.3050     6.6280     6.8820     8.4700     2.3210 
  141.6250   -18.7250    83.6680    24.1870     7.4840     7.3640     9.0230     2.3130 
  141.7500   -19.0810    79.5400    24.0900     8.2860     7.8090     9.4640     2.2990 
  141.8750   -19.5220    72.3760    23.8800     9.0630     8.1520     9.7600     2.2780 
  142.0000   -19.9500    66.6460    23.7920     9.7540     8.3840     9.9510     2.2580 
  142.1250   -20.2500    66.1040    23.7790     9.7230     8.5360    10.0830     2.2600 
  142.2500   -20.4590    69.6530    23.7910     9.4460     8.6890    10.2920     2.2930 
  142.3750   -20.6010    73.4890    23.8650     8.9890     8.9400    10.7110     2.3390 
  142.5000   -20.6730    72.4740    23.8300     8.8870     9.3080    11.2930     2.3670 
  142.6250   -20.6850    65.8610    23.8470    11.4450     9.6660    11.8300     2.3480 
  142.7500   -20.6970    61.7480    23.9100    15.8110     9.8990    12.1790     2.3010 
  142.8750   -20.7250    63.8380    23.8330    16.5020     9.9100    12.2390     2.2500 
  143.0000   -20.7130    69.9310    23.7990    12.4400     9.6880    11.9590     2.2150 
  143.1250   -20.6360    74.3540    23.7850    10.4050     9.3240    11.4990     2.2090 
  143.2500   -20.5690    76.3590    23.8190     9.2230     9.0200    11.1490     2.2340 
  143.3750   -20.5400    78.0960    23.9090     8.1060     8.9060    11.1030     2.2890 
  143.5000   -20.4620    80.1510    23.9450     7.6770     9.0420    11.4360     2.3680 
  143.6250   -20.3480    79.9360    23.9420     9.0680     9.4910    12.1460     2.4580 
  143.7500   -20.2950    75.7750    23.8970    12.1670    10.0640    12.9080     2.5340 
  143.8750   -20.3160    69.9810    23.9990    15.5110    10.5630    13.4620     2.5650 
  144.0000   -20.3400    66.6590    24.0580    17.1120    10.8090    13.6560     2.5350 
  144.1250   -20.4470    66.5540    23.9980    15.2810    10.7060    13.3990     2.4530 
  144.2500   -20.7030    66.7770    23.8300    12.7320    10.3650    12.8630     2.3640 
  144.3750   -21.0400    66.4760    23.8180    10.7480     9.9110    12.2340     2.2970 
  144.5000   -21.3410    66.5790    23.8230    10.2170     9.4950    11.7250     2.2600 
  144.6250   -21.6500    68.2060    23.8440     9.9130     9.2700    11.5290     2.2460 
  144.7500   -22.0030    70.9210    23.8040     9.9760     9.2170    11.5890     2.2310 
  144.8750   -22.2380    73.4140    23.5690    10.1870     9.3020    11.7950     2.2130 
  145.0000   -22.3750    73.4790    23.4370    10.5260     9.4720    12.0480     2.2050 
  145.1250   -22.5440    72.0320    23.2370    10.5650     9.6550    12.2410     2.2150 
  145.2500   -22.7040    70.2960    23.3480    10.7320     9.7900    12.3330     2.2250 
  145.3750   -22.6770    67.8670    23.5520    10.8310     9.8630    12.3240     2.2180 
  145.5000   -22.5880    65.7530    23.5480    10.6270     9.8770    12.2420     2.1960 
  145.6250   -22.5680    67.2710    23.1720    10.3730     9.8470    12.1380     2.1830 
  145.7500   -22.5580    72.0640    22.6600    10.5820     9.8070    12.0200     2.1900 
  145.8750   -22.4890    74.8640    22.3050    11.0140     9.7730    11.9230     2.2100 
  146.0000   -22.4210    74.4000    22.3410    11.0520     9.7570    11.8770     2.2260 
  146.1250   -22.3470    72.9780    22.7890    11.0210     9.7840    11.9060     2.2200 
