~V
VERS. 2.00: Ver 2.00
~W
STRT.M 62.0000:
STOP.M 282.0000:
STEP.M 0.1250:
NULL. -999.2500:
UWI. DF3054:
~C
DEPT.M :
DEN.GM/CC :
GR.API :
CALI.CM :
RXO.OHMM :
RI. :
RML.OHMM :
SP.MV :
~A
# ...
  208.2500     2.3510    75.8330    24.3970    18.6210    11.1910    16.1200   -29.7530 
  208.3750     2.3840    73.7510    24.4170    19.3400    11.5020    16.5870   -30.4130 
  208.5000     2.4180    70.9950    24.5070    19.9870    11.9180    17.1290   -30.8770 
  208.6250     2.4380    71.3550    24.5620    20.5780    12.4380    17.7750   -31.1350 
  208.7500     2.4490    73.0830    24.5670    21.5860    12.9630    18.4310   -31.1970 
  208.8750     2.4510    74.7840    24.5390    22.8380    13.3400    18.8940   -31.0380 
  209.0000     2.4420    76.8200    24.5300    23.1180    13.3630    18.8840   -30.6360 
  209.1250     2.4290    80.0940    24.5640    20.8340    12.7910    18.0710   -29.9370 
  209.2500     2.4200    83.5240    24.6170    17.2150    11.7910    16.6550   -28.9980 
  209.3750     2.4110    86.2510    24.6940    13.8370    10.6220    14.9650   -27.8650 
  209.5000     2.4020    89.8400    24.8890    11.0970     9.5600    13.4120   -26.6050 
  209.6250     2.4020    95.1300    25.3430     9.5860     8.8500    12.4320   -25.2890 
  209.7500     2.4090    99.5780    25.9800     9.6070     8.5130    12.0970   -23.9780 
  209.8750     2.4050   102.4470    26.2970    11.0640     8.5470    12.3770   -22.7160 
  210.0000     2.3900   102.0060    26.0600    13.2980     8.9300    13.1640   -21.5840 
  210.1250     2.3900    96.0480    25.6840    15.2690     9.6980    14.4360   -20.7460 
  210.2500     2.4120    90.9900    25.3690    16.5200    10.8220    16.1480   -20.2390 
  210.3750     2.4460    91.7080    25.2060    17.5940    12.3630    18.3450   -20.0230 
  210.5000     2.4760    96.6780    25.1150    20.0190    14.3110    20.8490   -19.9600 
  210.6250     2.5010    99.5490    25.0880    24.7390    16.2890    22.7640   -19.8940 
  210.7500     2.5210    97.5050    25.1310    29.1990    17.3660    23.0210   -19.7650 
  210.8750     2.5320    91.5690    25.2190    29.4270    16.7170    21.1250   -19.5550 
  211.0000     2.5320    83.8960    25.3760    23.3650    14.4030    17.5870   -19.1810 
  211.1250     2.5170    79.1050    25.4690    15.1320    11.4680    13.7320   -18.4640 
  211.2500     2.4950    76.3370    25.6060     9.2800     9.0180    10.7160   -17.4140 
  211.3750     2.4660    72.8470    25.9290     6.8410     7.3420     8.8340   -16.1230 
  211.5000     2.4320    68.0440    26.1840     6.2310     6.3970     7.9660   -14.7520 
  211.6250     2.4040    64.0080    26.1600     6.1410     6.1300     7.9350   -13.4490 
  211.7500     2.3910    62.0570    25.9470     6.0930     6.2780     8.3180   -12.2360 
  211.8750     2.3910    62.7090    26.1060     6.0620     6.6670     8.8510   -11.0940 
  212.0000     2.3960    65.7100    26.5650     6.1210     7.0970     9.3000   -10.0610 
  212.1250     2.3960    71.0530    26.7730     6.3120     7.3740     9.4640    -9.2930 
  212.2500     2.3960    77.2670    26.7230     6.5650     7.4800     9.3840    -8.8200 
  212.3750     2.4040    83.4370    26.4400     6.7330     7.4700     9.1760    -8.6050 
  212.5000     2.4180    88.2580    25.9370     6.7250     7.4240     8.9900    -8.5500 
  212.6250     2.4250    90.9500    25.6760     6.8680     7.4240     8.9950    -8.5900 
  212.7500     2.4170    90.8830    25.5590     7.4010     7.5020     9.2160    -8.7210 
  212.8750     2.4030    89.2460    25.7070     8.0490     7.6530     9.5890    -8.9810 
  213.0000     2.3960    90.0230    26.0060     8.3690     7.8480     9.9700    -9.3630 
  213.1250     2.3960    94.0120    25.9780     8.5290     8.0640    10.1760    -9.7740 
  213.2500     2.3840    98.2900    25.6740     8.8900     8.2790    10.2010   -10.1140 
  213.3750     2.3550   103.1040    25.4410     9.3340     8.4840    10.1590   -10.3880 
  213.5000     2.3270   107.7900    25.3370     9.6120     8.6830    10.2250   -10.6760 
  213.6250     2.3270   107.5320    25.2790     9.7540     8.9180    10.5760   -11.0460 
  213.7500     2.3520   101.1110    25.2270    10.0690     9.2200    11.1810   -11.4380 
  213.8750     2.3790    94.3900    25.2280    10.4140     9.6170    11.9690   -11.7760 
  214.0000     2.3910    92.5590    25.2350    10.9370    10.1270    12.8690   -12.0330 
  214.1250     2.3870    93.6420    25.2010    12.2700    10.7690    13.8440   -12.2550 
  214.2500     2.3790    94.1470    25.1040    13.7300    11.4810    14.8570   -12.5250 
  214.3750     2.3730    93.4900    24.9760    14.9110    12.2410    15.9330   -12.8580 
  214.5000     2.3690    93.4020    24.8870    16.2540    13.1350    17.2150   -13.1910 
  214.6250     2.3570    93.1050    24.8830    17.2100    14.4960    19.1670   -13.4260 
  214.7500     2.3370    91.3650    24.9300    18.4860    16.7010    22.2680   -13.5890 
  214.8750     2.3240    88.6440    25.0030    22.2300    20.3470    27.1670   -13.7590 
  215.0000     2.3270    84.5310    25.0670    32.9830    26.1740    34.5560   -14.0070 
  215.1250     2.3370    78.3350    25.1090    50.4090    35.2230    45.3400   -14.3480 
  215.2500     2.3330    71.9050    25.1300    66.4100    46.5740    58.3980   -14.6940 
  215.3750     2.3050    67.6140    25.2110    75.1580    58.5820    71.9700   -14.9810 
  215.5000     2.2630    66.4770    25.4000    79.0350    69.1360    83.8410   -15.2080 
  215.6250     2.2310    65.7960    25.5110    84.2160    76.4070    92.0020   -15.4550 
  215.7500     2.2150    64.8850    25.5320    91.3060    81.2620    97.3020   -15.7720 
  215.8750     2.2040    64.5550    25.5140    96.9620    84.7610   100.8730   -16.1170 
  216.0000     2.1960    63.3150    25.5030    94.7940    87.5560   103.5480   -16.3990 
  216.1250     2.1940    59.4220    25.5020    84.8180    89.5660   105.3040   -16.5520 
  216.2500     2.1970    58.6050    25.5000    78.5210    90.6370   105.8090   -16.6470 
  216.3750     2.1970    63.1500    25.4910    81.2390    90.3320   104.4990   -16.7500 
  216.5000     2.1950    66.7990    25.4640    86.9800    88.1670   101.0220   -16.9000 
  216.6250     2.1970    61.8060    25.4240    85.2160    83.8760    95.3940   -17.0730 
  216.7500     2.2060    57.6230    25.4410    76.7260    78.6690    89.0100   -17.1970 
  216.8750     2.2160    60.6070    25.4900    67.8500    73.6740    83.0460   -17.2420 
  217.0000     2.2160    66.2350    25.5370    63.7630    69.7860    78.3820   -17.2460 
  217.1250     2.2020    67.6840    25.5640    65.9310    67.5730    75.5810   -17.2980 
  217.2500     2.1840    66.6990    25.5810    68.6680    66.4320    74.0150   -17.3930 
  217.3750     2.1760    65.6630    25.5720    68.8660    65.8040    73.1050   -17.4710 
  217.5000     2.1820    64.3760    25.5360    65.6820    65.3160    72.4150   -17.4840 
  217.6250     2.1960    62.7950    25.4830    61.0840    65.0260    71.9820   -17.4420 
  217.7500     2.2070    63.2420    25.4430    58.7800    65.3130    72.1830   -17.4240 
  217.8750     2.2140    65.3360    25.4290    60.6180    66.5690    73.3610   -17.4660 
  218.0000     2.2180    67.0420    25.4190    66.3840    68.8600    75.4580   -17.5430 
  218.1250     2.2180    68.3430    25.4200    71.7720    71.7020    77.8220   -17.5760 
  218.2500     2.2180    69.1170    25.4090    73.5490    74.0990    79.5000   -17.5570 
  218.3750     2.2220    69.5860    25.3820    71.5290    75.4390    80.0380   -17.5360 
  218.5000     2.2300    69.2590    25.3440    68.2670    75.6390    79.5560   -17.5500 
  218.6250     2.2350    68.8140    25.4070    67.0570    75.1080    78.5990   -17.5720 
  218.7500     2.2290    68.4120    25.5180    68.4910    74.5920    77.7850   -17.5390 
  218.8750     2.2070    67.2190    25.6000    71.1810    74.3230    77.2090   -17.4540 
  219.0000     2.1740    65.0740    25.6320    72.8860    74.1260    76.6030   -17.3740 
  219.1250     2.1520    63.9490    25.6590    72.5070    73.4350    75.3570   -17.3760 
  219.2500     2.1570    65.8500    25.6590    68.9690    71.8610    73.1340   -17.4540 
  219.3750     2.1810    70.2410    25.6410    63.0720    69.2620    69.8330   -17.5530 
