~V
VERS. 2.00: Ver 2.00
~W
STRT.M 110.0000:
STOP.M 266.0000:
STEP.M 0.1250:
NULL. -999.2500:
UWI. DF309:
~C
DEPT.M :
DEN.GM/CC :
SP.MV :
AC.US/MT :
GR.API :
CALI.CM :
RXO.OHMM :
RI. :
RML.OHMM :
~A
# ...
  140.0000     2.4610   -19.2040   305.9550    58.0020    24.8350    10.5910    10.9370    12.2360 
  140.1250     2.4390   -19.1290   310.2310    58.4690    24.8350    10.2950     9.9330    11.1240 
  140.2500     2.4070   -19.0560   311.0460    62.8150    24.8290    10.2840     8.7980     9.8450 
  140.3750     2.3760   -18.9960   313.3460    70.8480    24.8060     9.5300     7.5630     8.4120 
  140.5000     2.3560   -18.9630   323.5830    78.3910    24.7720     7.7890     6.3450     6.9740 
  140.6250     2.3470   -18.9500   344.6610    84.1870    24.8380     5.9920     5.3300     5.7960 
  140.7500     2.3390   -18.9350   368.2300    89.1160    24.9740     5.0470     4.5800     4.9750 
  140.8750     2.3310   -18.9080   386.6640    93.1940    25.0220     4.8820     4.0970     4.5030 
  141.0000     2.3260   -18.8910   396.9340    95.3840    24.8460     5.0330     3.8410     4.3100 
  141.1250     2.3280   -18.8870   401.1020    95.3330    24.6340     5.0250     3.7680     4.3150 
  141.2500     2.3330   -18.8970   404.2980    94.7100    24.5230     4.8570     3.7820     4.3920 
  141.3750     2.3360   -18.9230   407.9930    95.5300    24.6020     4.6640     3.8350     4.4910 
  141.5000     2.3320   -18.9630   411.5920    98.4830    24.8570     4.5100     3.8960     4.5870 
  141.6250     2.3250   -19.0120   413.1650   100.9970    25.1340     4.4820     3.9360     4.6520 
  141.7500     2.3230   -19.0700   411.8960   101.1570    25.1850     4.6800     3.9350     4.6650 
  141.8750     2.3270   -19.1320   408.3630   100.2910    25.0700     5.0220     3.8840     4.6090 
  142.0000     2.3350   -19.1820   404.7660   100.7530    24.9140     5.1490     3.7860     4.4850 
  142.1250     2.3370   -19.2020   404.3600   102.8690    24.7650     4.8610     3.6530     4.3170 
  142.2500     2.3410   -19.2130   407.4490   103.1050    24.5820     4.5000     3.5190     4.1560 
  142.3750     2.3530   -19.2110   412.3630   100.1320    24.3280     4.3080     3.4040     4.0380 
  142.5000     2.3690   -19.1990   416.4110    98.2300    24.1490     4.2350     3.3230     3.9830 
  142.6250     2.3720   -19.1780   417.2300   105.5360    24.1120     4.1720     3.2820     3.9950 
  142.7500     2.3620   -19.1520   415.9410   111.5560    24.1240     4.0560     3.2600     4.0300 
  142.8750     2.3550   -19.1220   414.6140   108.8720    24.1050     3.9410     3.2430     4.0590 
  143.0000     2.3550   -19.1050   414.8040   101.8390    24.1250     3.9370     3.2200     4.0620 
  143.1250     2.3500   -19.1140   416.7850   100.0200    24.2050     3.9860     3.1890     4.0340 
  143.2500     2.3430   -19.1270   419.3570   102.1550    24.1900     4.0260     3.1570     3.9920 
  143.3750     2.3490   -19.1410   421.7830   102.0400    23.9850     4.0440     3.1300     3.9540 
  143.5000     2.3710   -19.1440   423.3970   100.6440    23.8050     4.1100     3.1160     3.9340 
  143.6250     2.3850   -19.1490   423.1920    99.9900    23.6950     4.2050     3.1200     3.9490 
  143.7500     2.3790   -19.1580   421.3310    99.0630    23.5890     4.3280     3.1390     3.9960 
  143.8750     2.3620   -19.1820   418.6090    99.0400    23.5120     4.4200     3.1670     4.0650 
  144.0000     2.3500   -19.2040   415.9890   100.7250    23.4930     4.4510     3.1980     4.1400 
  144.1250     2.3510   -19.2400   413.8460   102.4090    23.4950     4.4240     3.2230     4.2000 
  144.2500     2.3560   -19.2870   411.8030    99.7890    23.4910     4.3400     3.2400     4.2400 
  144.3750     2.3560   -19.3460   409.8500    94.0610    23.4830     4.2640     3.2540     4.2640 
  144.5000     2.3520   -19.4180   408.4360    93.0690    23.4820     4.2180     3.2720     4.2840 
  144.6250     2.3520   -19.5030   408.3320   100.1370    23.4890     4.2210     3.3080     4.3260 
  144.7500     2.3550   -19.5970   409.1670   104.5110    23.4920     4.3070     3.3690     4.4070 
  144.8750     2.3550   -19.6860   409.6690   101.7220    23.4870     4.5000     3.4640     4.5430 
  145.0000     2.3470   -19.7810   408.1820    97.9010    23.4740     4.7280     3.5940     4.7340 
  145.1250     2.3360   -19.8770   403.8880    99.5280    23.4370     4.8820     3.7610     4.9740 
  145.2500     2.3260   -19.9670   399.8470   100.7500    23.3950     4.9620     3.9470     5.2320 
  145.3750     2.3170   -20.0460   400.0360    97.0340    23.3550     5.0150     4.1390     5.4850 
  145.5000     2.3050   -20.1100   405.7240    91.8100    23.3150     5.0560     4.3170     5.7120 
  145.6250     2.2940   -20.1420   413.4100    89.2330    23.2970     5.0520     4.4540     5.8860 
  145.7500     2.2910   -20.1650   418.4000    89.4340    23.2920     5.0120     4.5350     5.9920 
  145.8750     2.2950   -20.1840   420.5270    90.6190    23.2920     4.9960     4.5450     6.0050 
  146.0000     2.3010   -20.1810   421.1940    92.3640    23.2920     4.9630     4.4730     5.8950 
  146.1250     2.3180   -20.1350   418.3460    97.1720    23.3050     4.8650     4.3090     5.6370 
  146.2500     2.3340   -20.0580   411.1610   103.6220    23.3370     4.7730     4.1070     5.3120 
  146.3750     2.3460   -19.9650   403.4370   108.0570    23.3920     4.7210     3.9300     5.0320 
  146.5000     2.3520   -19.8850   400.8060   107.9040    23.5070     4.6850     3.8570     4.9250 
  146.6250     2.3500   -19.8330   404.4530   104.8250    23.7590     4.7280     3.9890     5.1530 
  146.7500     2.3390   -19.7920   407.2970   101.2840    24.0430     5.0460     4.3330     5.7110 
  146.8750     2.3250   -19.7590   405.2100    97.7300    24.2420     5.7690     4.8610     6.5440 
  147.0000     2.3110   -19.7420   398.6560    95.9520    24.3020     6.7280     5.4860     7.4950 
  147.1250     2.3020   -19.7440   391.1630    96.1370    24.1350     7.2700     6.0370     8.2560 
  147.2500     2.2980   -19.7510   386.2650    96.4890    23.7680     7.1750     6.3880     8.6320 
  147.3750     2.2980   -19.7490   384.9290    94.2410    23.4380     6.8950     6.5330     8.6540 
  147.5000     2.3000   -19.7200   386.0550    92.0770    23.3210     6.9100     6.5690     8.5390 
  147.6250     2.3040   -19.6710   387.3620    97.8530    23.4000     7.4600     6.6530     8.5890 
  147.7500     2.3090   -19.6160   387.5620   104.7620    23.5740     8.3610     6.8720     8.9180 
  147.8750     2.3140   -19.5690   387.0880   104.5080    23.8670     9.1920     7.2430     9.5050 
  148.0000     2.3100   -19.5390   386.8480    98.1220    24.2440     9.6770     7.7480    10.2780 
  148.1250     2.2920   -19.5310   387.1080    95.1300    24.6390    10.1020     8.3990    11.1990 
  148.2500     2.2740   -19.5610   386.8220    96.1660    24.9640    10.6350     9.2060    12.2740 
  148.3750     2.2740   -19.6410   385.0080    96.0690    25.1850    11.4180    10.2250    13.5900 
  148.5000     2.2900   -19.7590   381.6520    94.7920    25.2720    12.6120    11.5010    15.2260 
  148.6250     2.3060   -19.9080   378.2240    92.6550    25.2800    14.6960    13.0670    17.2100 
  148.7500     2.3090   -20.0470   376.5160    89.7360    25.2800    17.3750    14.7870    19.3020 
  148.8750     2.3040   -20.1650   377.1840    86.5850    25.2800    19.7250    16.5220    21.2370 
  149.0000     2.2990   -20.2580   379.6460    82.5280    25.2800    20.7200    18.1420    22.7960 
  149.1250     2.2960   -20.3340   382.3960    77.4750    25.2800    21.0360    19.5810    23.9080 
  149.2500     2.2890   -20.3680   384.1330    75.5320    25.2800    22.9260    20.9150    24.8110 
  149.3750     2.2770   -20.3610   384.7150    79.6300    25.2800    25.7700    22.1490    25.5980 
  149.5000     2.2600   -20.3130   384.6950    87.1340    25.2800    27.3470    23.1840    26.2080 
  149.6250     2.2500   -20.2130   384.7040    87.4920    25.2800    26.9350    23.8130    26.4730 
  149.7500     2.2550   -20.0880   384.5410    84.0630    25.2850    26.0500    24.0270    26.4370 
  149.8750     2.2730   -19.9390   383.5270    86.1020    25.3050    24.8320    23.7820    26.1040 
