~V
VERS. 2.00: Ver 2.00
~W
STRT.M 64.0000:
STOP.M 268.0000:
STEP.M 0.1250:
NULL. -999.2500:
UWI. DF3073:
~C
DEPT.M :
SP.MV :
GR.API :
CALI.CM :
RXO.OHMM :
RI. :
RML.OHMM :
DEN.GM/CC :
~A
# ...
  255.2500   -13.2520    70.4040    24.0400     7.7940     7.1240     7.7300     2.4180 
  255.3750   -13.1760    70.8810    24.2180     7.8050     7.2740     7.8450     2.4210 
  255.5000   -13.1090    69.6800    24.3260     7.8170     7.4050     7.9440     2.4320 
  255.6250   -13.1210    67.2460    24.3370     7.7000     7.4850     8.0200     2.4380 
  255.7500   -13.1610    66.4960    24.3100     7.6080     7.5180     8.0530     2.4350 
  255.8750   -13.2100    66.8650    24.1920     7.5740     7.5030     8.0400     2.4290 
  256.0000   -13.2190    65.8940    24.2390     7.6440     7.4390     7.9980     2.4270 
  256.1250   -13.1710    65.3390    24.2350     7.9350     7.3420     7.9380     2.4300 
  256.2500   -13.1270    66.3000    24.1310     8.1850     7.2320     7.8650     2.4350 
  256.3750   -13.1240    68.2570    24.0830     8.1260     7.1310     7.8200     2.4380 
  256.5000   -13.2000    68.8860    24.0780     7.9470     7.0520     7.8130     2.4370 
  256.6250   -13.3100    65.4030    24.2480     7.8810     6.9910     7.8390     2.4350 
  256.7500   -13.3560    61.8560    24.3000     8.1670     6.9290     7.8640     2.4340 
  256.8750   -13.2740    61.5690    24.2980     8.4010     6.8640     7.8700     2.4320 
  257.0000   -13.1760    63.9820    24.2860     8.4050     6.8020     7.8490     2.4320 
  257.1250   -13.2100    65.4340    24.2900     7.9450     6.7480     7.8210     2.4330 
  257.2500   -13.3070    65.2050    24.3280     7.3720     6.6940     7.7900     2.4330 
  257.3750   -13.3680    66.2300    24.3200     6.7600     6.6500     7.7500     2.4260 
  257.5000   -13.4380    66.5760    24.3640     6.5680     6.6250     7.7070     2.4160 
  257.6250   -13.5220    66.5760    24.2890     6.7550     6.6370     7.6940     2.4130 
  257.7500   -13.5880    66.5760    24.2000     7.1380     6.6770     7.6980     2.4250 
  257.8750   -13.7130    66.5760    24.2000     7.5290     6.7430     7.7250     2.4440 
  258.0000   -13.8840    66.5760    24.0870     7.6410     6.8420     7.7840     2.4470 
  258.1250   -14.0120    66.5760    24.1930     7.5080     6.9850     7.8640     2.4270 
  258.2500   -14.0240    66.5760    24.2070     7.4210     7.1630     7.9670     2.4050 
  258.3750   -14.0360    66.5760    24.3110     7.6600     7.3660     8.1020     2.4020 
  258.5000   -14.0060    66.5760    24.4590     7.8950     7.5700     8.2440     2.4110 
  258.6250   -13.9100    66.5760    24.5550     7.9660     7.7430     8.3610     2.4180 
  258.7500   -13.8590    66.5760    24.5730     8.0120     7.8660     8.4450     2.4220 
  258.8750   -13.8270    66.5760    24.5740     8.7540     7.9190     8.4930     2.4290 
  259.0000   -13.7740    66.5760    24.5530     9.3820     7.8890     8.4870     2.4340 
  259.1250   -13.6150    66.5760    24.5620     9.6140     7.7700     8.4540     2.4350 
  259.2500   -13.5270    66.5760    24.5570     9.4310     7.5990     8.3980     2.4410 
  259.3750   -13.5300    66.5760    24.6090     9.6570     7.4010     8.3360     2.4570 
  259.5000   -13.5660    66.5760    24.5180     9.2170     7.2080     8.2860     2.4710 
  259.6250   -13.5650    66.5760    24.4900     8.1230     7.0580     8.2580     2.4750 
  259.7500   -13.6030    66.5760    24.4720     7.1050     6.9450     8.2390     2.4700 
  259.8750   -13.6590    66.5760    24.4400     6.9800     6.8730     8.2290     2.4670 
  260.0000   -13.7250    66.5760    24.4350     7.2590     6.8420     8.2310     2.4690 
  260.1250   -13.8350    66.5760    24.4230     7.5930     6.8450     8.2390     2.4720 
  260.2500   -13.9720    66.5760    24.4220     7.6280     6.8580     8.2520     2.4720 
  260.3750   -14.1050    66.5760    24.4620     7.4560     6.8680     8.2600     2.4640 
  260.5000   -14.2130    66.5760    24.4360     7.1510     6.8630     8.2570     2.4490 
  260.6250   -14.3010    66.5760    24.4620     7.0880     6.8400     8.2530     2.4310 
  260.7500   -14.3050    66.5760    24.4540     7.2130     6.8050     8.2250     2.4130 
  260.8750   -14.2760    66.5760    24.4560     7.3350     6.7610     8.1610     2.4010 
  261.0000   -14.2440    66.5760    24.5250     7.2780     6.7020     8.0760     2.4050 
  261.1250   -14.2820    66.5760    24.6350     6.9980     6.6350     7.9660     2.4240 
  261.2500   -14.3290    66.5760    24.6630     6.7940     6.5700     7.8600     2.4480 
  261.3750   -14.2850    66.5760    24.7600     6.7820     6.5240     7.7920     2.4570 
  261.5000   -14.1340    66.5760    24.8760     6.8960     6.5160     7.7750     2.4560 
  261.6250   -14.0640    66.5760    24.8260     6.9690     6.5560     7.8140     2.4530 
  261.7500   -14.0940    66.5760    24.8290     7.0550     6.6350     7.8970     2.4490 
  261.8750   -14.0970    66.5760    24.7030     7.2180     6.7390     8.0100     2.4380 
  262.0000   -14.0480    66.5760    24.5940     7.5200     6.8570     8.1170     2.4240 
  262.1250   -13.9750    66.5760    24.4300     7.9500     6.9660     8.2020     2.4100 
  262.2500   -13.8500    66.5760    24.3040     8.3690     7.0520     8.2610     2.3960 
  262.3750   -13.8530    66.5760    24.2030     8.4440     7.1040     8.2860     2.3820 
  262.5000   -13.9260    66.5760    24.1870     7.9810     7.1240     8.2970     2.3720 
  262.6250   -13.9610    66.5760    24.1750     7.1970     7.1280     8.3210     2.3680 
  262.7500   -13.9780    66.5760    24.1590     6.9760     7.1280     8.3440     2.3670 
  262.8750   -14.0450    66.5760    24.0750     7.1260     7.1280     8.3700     2.3740 
  263.0000   -14.1090    66.5760    24.0000     7.3700     7.1290     8.3960     2.3940 
  263.1250   -14.1180    66.5760    23.9840     7.6880     7.1280     8.4170     2.4230 
  263.2500   -14.2040    66.5760    24.0250     8.2150     7.1280     8.4330     2.4440 
  263.3750   -14.1890    66.5760    24.1280     8.9490     7.1280     8.4350     2.4420 
  263.5000   -14.1950    66.5760    24.1630     8.6750     7.1280     8.4350     2.4250 
  263.6250   -14.2050    66.5760    24.1410     7.6910     7.1280     8.4350     2.4040 
  263.7500   -14.1950    66.5760    24.1140     7.1650     7.1280     8.4350     2.3880 
  263.8750   -14.1290    66.5760    24.0850     7.5940     7.1280     8.4350     2.3810 
  264.0000   -14.1150    66.5760    24.1330     8.0360     7.1280     8.4350     2.3840 
  264.1250   -14.1760    66.5760    24.0880     7.9010     7.1280     8.4350     2.3950 
  264.2500   -14.1580    66.5760    24.1490     7.5540     7.1280     8.4350     2.4060 
  264.3750   -14.1950    66.5760    24.1580     7.1820     7.1280     8.4350     2.4080 
  264.5000   -14.2500    66.5760    24.1520     7.0780     7.1280     8.4350     2.4050 
  264.6250   -14.3290    66.5760    24.1040     7.0360     7.1280     8.4350     2.4070 
  264.7500   -14.3870    66.5760    23.9050     6.8740     7.1280     8.4350     2.4200 
  264.8750   -14.4360    66.5760    23.5240     6.6120     7.1280     8.4350     2.4440 
  265.0000   -14.5360    66.5760    22.0050     6.4400     7.1280     8.4350     2.4670 
  265.1250   -14.6930    66.5760    21.6750     6.5890     7.1280     8.4350     2.4830 
  265.2500   -14.8470    66.5760    21.9360     6.7450     7.1280     8.4350     2.4880 
  265.3750   -15.0150    66.5760    22.7580     6.8020     7.1280     8.4350     2.4780 
  265.5000   -15.1340    66.5760    23.7780     6.8660     7.1280     8.4350     2.4660 
  265.6250   -15.2850    66.5760    24.1720     7.6550     7.1280     8.4350     2.4610 
  265.7500   -15.4390    66.5760    24.1620    10.8230     7.1280     8.4350     2.4640 
  265.8750   -15.6210    66.5760    24.0640    13.4190     7.1280     8.4350     2.4600 
  266.0000   -15.6650    66.5760    23.9440    12.8180     7.1280     8.4350     2.4510 
  266.1250   -15.6650    66.5760    23.7470     9.4930     7.1280     8.4350     2.4470 
  266.2500  -999.2500    66.5760    23.8540     9.2790     7.1280     8.4350     2.4490 
  266.3750  -999.2500    66.5760    24.1330     9.5980     7.1280     8.4350     2.4560 
