~V
VERS. 2.00: Ver 2.00
~W
STRT.M 60.0000:
STOP.M 277.0000:
STEP.M 0.1250:
NULL. -999.2500:
UWI. DF3044:
~C
DEPT.M :
GR.API :
CALI.CM :
RXO.OHMM :
RI. :
RML.OHMM :
DEN.GM/CC :
SP.MV :
~A
# ...
  195.0000    43.6020    23.8260   960.8710   439.0270   439.9640     2.4130   -22.2770 
  195.1250    46.8440    23.8320   672.1330   314.4930   293.0560     2.4780   -22.0740 
  195.2500    49.2370    23.8360   374.9290   210.0100   184.3210     2.5370   -21.8560 
  195.3750    50.2400    23.8510   197.5310   132.8950   113.6000     2.5810   -21.6340 
  195.5000    51.4840    23.8860   119.0140    82.1810    71.7000     2.5960   -21.3810 
  195.6250    52.0230    23.8800    70.5210    54.0720    49.5860     2.5830   -21.1010 
  195.7500    50.9340    23.8300    34.8940    37.5460    36.1330     2.5750   -20.8070 
  195.8750    49.2650    23.7730    19.8460    27.4910    27.2720     2.5870   -20.5270 
  196.0000    48.5640    23.7470    20.1300    20.6060    20.7420     2.6070   -20.2460 
  196.1250    50.4090    23.7470    28.3390    15.4170    15.6140     2.6080   -19.9760 
  196.2500    53.7590    23.7470    28.6520    11.3030    11.4410     2.5900   -19.7240 
  196.3750    55.9650    23.7430    19.1970     8.2590     8.2830     2.5700   -19.4860 
  196.5000    55.9900    23.7040     9.4940     6.2000     6.1430     2.5650   -19.2820 
  196.6250    55.6500    23.5960     6.0130     5.0640     5.0280     2.5710   -19.1100 
  196.7500    54.9150    23.4650     5.0510     4.5180     4.5770     2.5700   -18.9890 
  196.8750    52.3310    23.3920     4.7650     4.3800     4.5660     2.5570   -18.8920 
  197.0000    51.5530    23.3470     4.6310     4.4430     4.7340     2.5390   -18.8370 
  197.1250    53.4360    23.2950     4.6400     4.4740     4.7900     2.5140   -18.8200 
  197.2500    52.5740    23.2400     4.7210     4.3460     4.6170     2.4760   -18.8430 
  197.3750    47.4580    23.1960     4.7110     4.0790     4.2690     2.4290   -18.9020 
  197.5000    42.3840    23.1530     4.5080     3.7700     3.8900     2.3880   -19.0010 
  197.6250    43.0960    23.0910     4.1520     3.5560     3.6660     2.3650   -19.1590 
  197.7500    46.8680    23.0490     3.9520     3.5000     3.6760     2.3540   -19.3430 
  197.8750    51.0110    23.0360     4.1040     3.6220     3.9390     2.3550   -19.5600 
  198.0000    53.7690    23.0360     4.5050     3.9030     4.4190     2.3670   -19.8070 
  198.1250    57.0930    23.0340     4.8920     4.2950     5.0360     2.3870   -20.0660 
  198.2500    61.7780    23.0320     5.2430     4.6920     5.6430     2.4050   -20.3250 
  198.3750    65.0630    23.0370     5.5720     5.0210     6.1430     2.4190   -20.5890 
  198.5000    64.7150    23.0740     5.8760     5.2470     6.4970     2.4320   -20.8800 
  198.6250    62.9680    23.1880     6.1840     5.3620     6.7050     2.4470   -21.1870 
  198.7500    64.0590    23.2980     6.4760     5.4150     6.8310     2.4570   -21.5150 
  198.8750    69.6440    23.3490     6.6130     5.4500     6.9290     2.4580   -21.8700 
  199.0000    78.0050    23.3840     6.4860     5.5180     7.0730     2.4520   -22.2530 
  199.1250    83.2290    23.4860     6.3860     5.6940     7.3890     2.4450   -22.6920 
  199.2500    83.2620    23.6250     6.7470     5.9910     7.9180     2.4360   -23.1680 
  199.3750    82.2850    23.7370     7.7170     6.4030     8.6530     2.4220   -23.6800 
  199.5000    83.9450    23.8020     9.0040     6.8940     9.5110     2.4020   -24.1930 
  199.6250    86.2010    23.8040     9.8490     7.3800    10.3150     2.3880   -24.7280 
  199.7500    85.7040    23.7860     9.9710     7.7740    10.9200     2.3810   -25.2690 
  199.8750    83.5510    23.7710     9.6830     8.0290    11.2840     2.3700   -25.8150 
  200.0000    81.1800    23.7660     9.5270     8.1500    11.4520     2.3550   -26.3640 
  200.1250    78.1920    23.7660     9.9140     8.1660    11.5030     2.3520   -26.9130 
  200.2500    76.7900    23.7660    10.3910     8.1430    11.5240     2.3630   -27.4650 
  200.3750    79.0590    23.7470    10.4100     8.1260    11.5590     2.3690   -28.0310 
  200.5000    83.7500    23.6910     9.9190     8.1610    11.6630     2.3500   -28.6150 
  200.6250    85.3850    23.5800     9.6330     8.3220    11.9550     2.3160   -29.1960 
  200.7500    81.8340    23.5280    10.0500     8.6200    12.4750     2.2990   -29.7340 
  200.8750    77.7780    23.5120    10.9940     9.0430    13.2090     2.3090   -30.2090 
  201.0000    77.0940    23.5070    11.9500     9.5350    14.0480     2.3300   -30.5910 
  201.1250    76.7570    23.5020    12.6190     9.9860    14.7640     2.3370   -30.8740 
  201.2500    74.2140    23.5160    13.1130    10.3130    15.1950     2.3310   -31.0430 
  201.3750    72.2090    23.5720    13.5630    10.5170    15.3610     2.3260   -31.0700 
  201.5000    73.5560    23.6890    14.0120    10.7060    15.4910     2.3320   -30.9510 
  201.6250    73.6990    23.7470    14.3720    11.1280    16.0480     2.3510   -30.6400 
  201.7500    71.4810    23.7660    14.8200    11.9450    17.3120     2.3820   -30.1950 
  201.8750    68.7570    23.7680    16.0310    13.1760    19.3390     2.4210   -29.6310 
  202.0000    67.9330    23.7720    19.3210    14.5830    21.7710     2.4590   -28.9930 
  202.1250    70.3950    23.7770    26.2180    15.4600    23.3780     2.4810   -28.2610 
  202.2500    72.9110    23.7980    30.5810    15.2800    23.0640     2.4890   -27.4960 
  202.3750    72.6430    23.8560    26.8620    14.0820    20.8390     2.4840   -26.7260 
  202.5000    70.7480    23.9450    17.9190    12.4420    17.8780     2.4650   -25.9860 
  202.6250    72.9210    24.0430    12.2560    11.0880    15.6190     2.4310   -25.3100 
  202.7500    78.0640    24.1250    11.4280    10.2950    14.4530     2.4040   -24.6990 
  202.8750    83.2580    24.1570    12.2570    10.0630    14.2720     2.4000   -24.1330 
  203.0000    87.3260    24.1460    13.0060    10.2550    14.7600     2.4230   -23.5830 
  203.1250    86.6140    24.1180    13.3320    10.6280    15.4150     2.4530   -23.0340 
  203.2500    82.6390    24.0790    13.3900    10.8260    15.6460     2.4720   -22.4820 
  203.3750    79.2760    24.0300    12.9120    10.6230    15.1390     2.4700   -21.9070 
  203.5000    78.6890    23.9970    11.9190     9.9640    13.9160     2.4470   -21.3010 
  203.6250    77.6090    23.9770    10.7700     8.9320    12.2230     2.4170   -20.6650 
  203.7500    72.7410    23.9610     9.5520     7.8040    10.4940     2.4010   -20.0260 
  203.8750    64.5000    23.9090     7.9810     6.7670     8.9880     2.4000   -19.4060 
  204.0000    55.1360    23.7800     6.3780     5.9470     7.8620     2.4050   -18.8250 
  204.1250    49.5190    23.6370     5.5330     5.4360     7.2290     2.4100   -18.3370 
  204.2500    48.9610    23.5670     5.2900     5.1700     6.9660     2.4170   -17.9000 
  204.3750    51.0310    23.5430     5.2410     5.0970     6.9790     2.4240   -17.5280 
  204.5000    55.0620    23.5350     5.1680     5.1580     7.1520     2.4260   -17.2080 
  204.6250    60.7580    23.5300     5.1000     5.2860     7.3610     2.4260   -16.9460 
  204.7500    65.6980    23.5280     5.1580     5.4160     7.5140     2.4300   -16.7050 
  204.8750    70.1670    23.5270     5.3370     5.5280     7.5970     2.4370   -16.4870 
  205.0000    75.6500    23.5230     5.5080     5.6140     7.6210     2.4410   -16.2810 
  205.1250    78.8240    23.5130     5.5980     5.6580     7.5920     2.4390   -16.0340 
  205.2500    76.9450    23.5030     5.6600     5.6540     7.5250     2.4370   -15.7690 
  205.3750    74.4130    23.4990     5.7300     5.6010     7.4250     2.4370   -15.4890 
  205.5000    74.9490    23.5070     5.7510     5.5080     7.2980     2.4360   -15.1830 
  205.6250    74.9640    23.5290     5.6960     5.3870     7.1490     2.4310   -14.8290 
  205.7500    71.4590    23.5580     5.6940     5.2610     6.9990     2.4240   -14.4570 
  205.8750    68.2120    23.5680     5.7450     5.1450     6.8700     2.4170   -14.0710 
  206.0000    69.4620    23.5670     5.8200     5.0490     6.7790     2.4140   -13.6820 
  206.1250    76.0530    23.5640     5.9020     4.9720     6.7300     2.4190   -13.3380 
