~V
VERS. 2.00: Ver 2.00
~W
STRT.M 60.0000:
STOP.M 270.0000:
STEP.M 0.1250:
NULL. -999.2500:
UWI. DF3075:
~C
DEPT.M :
GR.API :
RML.OHMM :
RI. :
RXO.OHMM :
CALI.CM :
DEN.GM/CC :
SP.MV :
~A
# ...
  127.5000    72.8350    10.8440     9.2050    11.7900    23.8300     2.2670   -24.6510 
  127.6250    71.9930    10.8670     9.4340    11.6750    23.8000     2.2710   -25.2320 
  127.7500    71.7190    10.7840     9.5530    11.7200    23.7860     2.2730   -25.6790 
  127.8750    70.4080    10.6660     9.6170    11.9730    23.7820     2.2690   -25.9660 
  128.0000    67.0060    10.5920     9.6820    12.3490    23.7820     2.2570   -26.0850 
  128.1250    65.1100    10.6370     9.7760    12.7850    23.7830     2.2410   -25.9980 
  128.2500    65.4280    10.7570     9.8770    13.0190    23.7850     2.2260   -25.7800 
  128.3750    67.6640    10.8560     9.9290    12.9820    23.7900     2.2140   -25.3790 
  128.5000    68.6420    10.8120     9.8620    13.0840    23.8060     2.2030   -24.8460 
  128.6250    66.7210    10.5030     9.6000    13.3340    23.8730     2.1910   -24.1350 
  128.7500    67.1830     9.9890     9.1650    13.2060    24.0340     2.1810   -23.2470 
  128.8750    73.1780     9.3470     8.5870    12.4660    24.3000     2.1810   -22.2450 
  129.0000    82.2690     8.6590     7.9320    11.2000    24.6250     2.1960   -21.2150 
  129.1250    88.3470     8.0140     7.2890     9.0840    24.8900     2.2270   -20.3110 
  129.2500    92.4460     7.4860     6.7540     7.2310    24.9070     2.2630   -19.5570 
  129.3750    95.4060     7.1520     6.3940     6.4200    24.7520     2.2920   -19.0100 
  129.5000    96.1650     7.0700     6.2470     6.3210    24.6890     2.3100   -18.6330 
  129.6250    93.8630     7.2600     6.3480     6.3530    24.8400     2.3170   -18.5460 
  129.7500    91.0070     7.5860     6.5970     6.4260    25.0920     2.3170   -18.6240 
  129.8750    88.1170     7.9450     6.9300     6.9280    25.3360     2.3100   -18.9120 
  130.0000    83.4450     8.2590     7.2650     7.6730    25.5100     2.2970   -19.2550 
  130.1250    77.5790     8.4510     7.5020     8.4070    25.4830     2.2780   -19.6170 
  130.2500    75.1730     8.5100     7.6090     9.3200    25.2620     2.2630   -19.9240 
  130.3750    79.3760     8.4480     7.5860     9.5600    24.9040     2.2600   -20.1660 
  130.5000    86.5910     8.3130     7.4890     8.8260    24.5150     2.2730   -20.3910 
  130.6250    87.8020     8.2190     7.4130     7.8050    24.2210     2.2950   -20.6180 
  130.7500    85.1480     8.2700     7.4280     7.5310    24.0590     2.3120   -20.9430 
  130.8750    83.2760     8.4830     7.5660     8.0750    23.9370     2.3140   -21.2630 
  131.0000    82.7050     8.8010     7.8050     8.9720    23.8510     2.3000   -21.6540 
  131.1250    81.9070     9.1140     8.1240     9.8550    23.8230     2.2780   -22.0320 
  131.2500    81.2480     9.3950     8.4840    10.5640    23.8540     2.2560   -22.4870 
  131.3750    81.6670     9.6710     8.8800    10.9540    23.9600     2.2390   -22.9830 
  131.5000    81.8500    10.0790     9.3290    11.0820    24.1940     2.2250   -23.4850 
  131.6250    80.1300    10.7050     9.9080    11.1590    24.4990     2.2210   -23.9530 
  131.7500    77.0780    11.6590    10.6750    11.4130    24.7870     2.2400   -24.3670 
  131.8750    72.1840    12.8870    11.6530    12.0280    24.8700     2.2890   -24.7800 
  132.0000    67.4000    14.0770    12.7810    13.0970    24.5430     2.3600   -25.1880 
  132.1250    66.6980    15.2200    13.8980    14.8560    24.2330     2.4180   -25.6000 
  132.2500    68.9120    16.1090    14.7780    17.1200    23.9390     2.4310   -25.9660 
  132.3750    69.6090    16.5040    15.2530    19.9330    23.8450     2.3910   -26.3000 
  132.5000    68.0590    16.3230    15.2490    22.5480    23.8390     2.3230   -26.5550 
  132.6250    68.9570    15.6670    14.7700    22.1820    23.8270     2.2630   -26.6790 
  132.7500    72.2990    14.8960    14.0780    19.6610    23.7820     2.2290   -26.7930 
  132.8750    74.8520    14.2140    13.3840    16.8810    23.7240     2.2190   -26.7980 
  133.0000    75.5270    13.7410    12.8630    15.3970    23.6840     2.2230   -26.8180 
  133.1250    76.7840    13.5990    12.6800    15.0570    23.6720     2.2360   -26.8450 
  133.2500    77.5020    13.7790    12.8020    15.6570    23.6710     2.2480   -26.9180 
  133.3750    75.3720    14.2510    13.1880    16.6930    23.6730     2.2580   -27.0370 
  133.5000    71.7930    14.8980    13.7740    17.9880    23.6750     2.2620   -27.1960 
  133.6250    69.6150    15.5380    14.4560    19.6680    23.6610     2.2590   -27.4510 
  133.7500    70.2510    16.0630    15.1150    20.9970    23.6280     2.2500   -27.6690 
  133.8750    72.1020    16.4750    15.6840    22.2330    23.5720     2.2410   -27.9600 
  134.0000    72.8710    16.7790    16.1120    22.7890    23.5010     2.2330   -28.1660 
  134.1250    72.0980    16.9000    16.3420    22.7580    23.4610     2.2270   -28.3460 
  134.2500    70.0950    16.8160    16.3730    23.1280    23.4480     2.2200   -28.4590 
  134.3750    68.6520    16.5340    16.2050    23.7020    23.4470     2.2110   -28.5270 
  134.5000    68.3450    16.0900    15.8370    23.7310    23.4500     2.2020   -28.5690 
  134.6250    68.1000    15.5460    15.2840    23.1840    23.4640     2.1900   -28.5750 
  134.7500    68.6700    14.9930    14.6800    21.9480    23.4910     2.1780   -28.5300 
  134.8750    71.9190    14.4980    14.1230    19.9040    23.5350     2.1690   -28.4520 
  135.0000    76.6330    14.1440    13.7110    18.3630    23.5960     2.1670   -28.3680 
  135.1250    77.1330    14.0850    13.5690    18.1420    23.6820     2.1770   -28.2850 
  135.2500    72.9910    14.3230    13.6850    17.2710    23.7810     2.1960   -28.1660 
  135.3750    70.4810    14.7720    14.0030    17.4460    23.8840     2.2190   -28.0340 
  135.5000    71.9070    15.2710    14.4050    19.4420    23.9770     2.2370   -27.9040 
  135.6250    71.1970    15.5960    14.7150    23.0660    23.9960     2.2410   -27.7280 
  135.7500    66.7690    15.6560    14.8110    24.4110    23.9740     2.2340   -27.5590 
  135.8750    62.3400    15.4470    14.6290    23.8200    23.9250     2.2200   -27.4030 
  136.0000    61.7270    14.9950    14.1680    22.3730    23.8930     2.2040   -27.2750 
  136.1250    65.5860    14.3070    13.4680    19.4610    23.8750     2.1930   -27.2140 
  136.2500    69.7810    13.5230    12.6790    16.3690    23.8480     2.1870   -27.1900 
  136.3750    71.5970    12.7790    11.9260    14.0080    23.8130     2.1860   -27.2340 
  136.5000    69.3650    12.2080    11.3080    13.8110    23.7770     2.1880   -27.2510 
  136.6250    65.7100    11.9210    10.9230    13.5830    23.7690     2.1920   -27.2690 
  136.7500    64.7190    11.8590    10.7750    13.0740    23.7720     2.1980   -27.3490 
  136.8750    68.3130    11.9900    10.8650    12.5130    23.7810     2.2050   -27.3960 
  137.0000    75.2910    12.2980    11.1670    12.6340    23.7930     2.2140   -27.4890 
  137.1250    77.6150    12.7450    11.6030    13.6170    23.8030     2.2240   -27.4780 
  137.2500    72.8620    13.1630    12.0220    15.3870    23.7980     2.2320   -27.4890 
  137.3750    66.7080    13.3980    12.3010    17.2990    23.7720     2.2370   -27.4130 
  137.5000    65.8880    13.3550    12.3670    18.2060    23.7310     2.2360   -27.3550 
  137.6250    71.6620    13.0650    12.2040    17.9730    23.6590     2.2320   -27.3290 
  137.7500    77.3970    12.7410    11.9370    16.5590    23.5680     2.2270   -27.2880 
  137.8750    78.4700    12.5270    11.6890    14.8950    23.4890     2.2230   -27.2550 
  138.0000    75.3580    12.4860    11.5630    13.9280    23.4210     2.2180   -27.1960 
  138.1250    72.9050    12.6690    11.6610    13.2470    23.3700     2.2090   -27.1360 
  138.2500    72.9370    13.0240    11.9550    12.9100    23.3550     2.1990   -27.0310 
  138.3750    73.8280    13.4690    12.3660    13.4730    23.4150     2.1900   -26.8760 
  138.5000    73.5660    13.8450    12.7520    13.9620    23.5460     2.1870   -26.6280 
  138.6250    73.2790    13.8820    12.8880    14.0970    23.6610     2.1940   -26.2300 
