~V
VERS. 2.00: Ver 2.00
~W
STRT.M 60.0000:
STOP.M 280.0000:
STEP.M 0.1250:
NULL. -999.2500:
UWI. DF3041:
~C
DEPT.M :
SP.MV :
GR.API :
RML.OHMM :
RI. :
RXO.OHMM :
CALI.CM :
DEN.GM/CC :
~A
# ...
  127.5000   -11.2910    91.2970     6.7310     5.8690     6.9410    23.5130     2.3100 
  127.6250   -11.9020    88.2900     6.9880     6.0700     7.2060    23.5800     2.3100 
  127.7500   -12.4970    84.7740     7.5120     6.3900     7.5190    23.7170     2.3130 
  127.8750   -13.0690    81.8880     8.4240     6.9350     8.2950    23.9500     2.3150 
  128.0000   -13.6290    78.6570     9.7290     7.7830    10.0220    24.3350     2.3120 
  128.1250   -14.1520    75.1340    11.0340     8.9470    13.0070    24.2590     2.3020 
  128.2500   -14.6450    73.7580    12.2650    10.1750    17.8390    24.3030     2.2880 
  128.3750   -15.0790    73.7130    13.1000    11.1660    24.2040    24.4120     2.2700 
  128.5000   -15.4480    73.1180    13.2890    11.6290    28.8810    24.2380     2.2520 
  128.6250   -15.7390    71.9240    12.7440    11.3610    27.5510    24.1150     2.2370 
  128.7500   -16.0160    72.4790    11.9090    10.6860    20.6750    23.4420     2.2280 
  128.8750   -16.2830    75.0020    11.1610     9.9440    13.2640    22.9720     2.2280 
  129.0000   -16.5280    78.8450    10.7290     9.4060    10.0760    22.8060     2.2350 
  129.1250   -16.7820    80.3560    10.6730     9.2210     9.6600    22.7990     2.2460 
  129.2500   -16.9950    77.4990    10.7930     9.2670    10.1480    22.8130     2.2560 
  129.3750   -17.1950    72.5610    10.9420     9.4150    10.6010    22.8290     2.2610 
  129.5000   -17.3770    71.0290    11.0340     9.5540    10.7820    22.8540     2.2630 
  129.6250   -17.5280    72.3800    11.0800     9.6280    10.6380    22.8670     2.2610 
  129.7500   -17.7030    71.6730    11.1680     9.6840    10.4590    22.8520     2.2550 
  129.8750   -17.8700    70.4100    11.3470     9.7780    10.4420    22.8050     2.2430 
  130.0000   -18.0480    71.7800    11.5950     9.9370    10.8150    22.7290     2.2300 
  130.1250   -18.1810    72.6200    11.7930    10.1230    11.1980    22.7300     2.2210 
  130.2500   -18.2770    70.0580    11.8220    10.2460    11.3870    22.8270     2.2190 
  130.3750   -18.3140    67.5260    11.6330    10.2400    11.6180    23.0570     2.2260 
  130.5000   -18.3100    70.1120    11.2650    10.0820    12.1130    23.4930     2.2370 
  130.6250   -18.3000    75.8560    10.8340     9.8000    12.4390    24.2470     2.2450 
  130.7500   -18.2400    77.9760    10.4750     9.4870    12.0280    24.8370     2.2460 
  130.8750   -18.1620    76.4490    10.2480     9.2080    11.0840    24.7070     2.2400 
  131.0000   -18.0720    75.8570    10.1550     9.0000    10.6760    24.3500     2.2290 
  131.1250   -17.9430    77.0810    10.1670     8.8930    10.7210    24.1400     2.2210 
  131.2500   -17.8710    76.2730    10.2200     8.8730    10.8440    24.0900     2.2190 
  131.3750   -17.8040    74.7310    10.2860     8.9340    10.8680    24.1650     2.2240 
  131.5000   -17.7310    76.1470    10.3550     9.0640    10.8820    24.4870     2.2340 
  131.6250   -17.6220    79.8790    10.4100     9.2320    11.0460    24.9810     2.2430 
  131.7500   -17.5020    82.2130    10.4200     9.3690    11.3020    25.3230     2.2480 
  131.8750   -17.3580    81.8020    10.3400     9.4010    11.1570    25.4560     2.2490 
  132.0000   -17.1630    80.6670    10.1250     9.2640    10.8260    25.2850     2.2470 
  132.1250   -16.9620    80.6840     9.7570     8.9120    10.4510    25.1580     2.2470 
  132.2500   -16.7050    81.5240     9.3360     8.4490     9.9150    24.6610     2.2540 
  132.3750   -16.5130    82.3520     8.9830     7.9960     9.1920    24.1060     2.2630 
  132.5000   -16.4060    85.1870     8.8060     7.6810     8.4650    24.1010     2.2700 
  132.6250   -16.4400    88.8890     8.9000     7.6400     7.8650    24.6540     2.2640 
  132.7500   -16.5740    87.5800     9.1930     7.8450     7.7740    24.9310     2.2470 
  132.8750   -16.7770    80.9340     9.5930     8.2310     8.4090    24.3900     2.2250 
  133.0000   -17.0350    73.4400     9.9990     8.6910     9.6600    23.5690     2.2080 
  133.1250   -17.3230    69.8340    10.3060     9.0870    10.9480    23.0830     2.2040 
  133.2500   -17.6330    70.9820    10.5000     9.3470    11.4270    22.9570     2.2120 
  133.3750   -17.9110    74.6500    10.5990     9.4600    11.2180    23.0050     2.2240 
  133.5000   -18.1520    77.2560    10.6410     9.4580    10.8730    23.1440     2.2350 
  133.6250   -18.2750    77.3780    10.6570     9.3880    10.6260    23.1640     2.2400 
  133.7500   -18.3560    79.1460    10.6640     9.3000    10.5680    23.0690     2.2390 
  133.8750   -18.3960    80.7130    10.6610     9.2090    10.6120    23.1060     2.2360 
  134.0000   -18.4140    78.8140    10.6440     9.1200    10.6860    23.1590     2.2350 
  134.1250   -18.4620    75.4990    10.6050     9.0360    10.7340    23.1410     2.2390 
  134.2500   -18.4780    73.6390    10.5370     8.9540    10.9740    22.9800     2.2460 
  134.3750   -18.4630    72.2980    10.4470     8.8780    11.2710    22.8920     2.2510 
  134.5000   -18.3590    71.0030    10.3720     8.8290    11.4530    22.9120     2.2470 
  134.6250   -18.2330    71.4800    10.4350     8.8870    11.5270    22.9990     2.2320 
  134.7500   -17.9990    72.8800    10.7550     9.1390    11.9670    23.0680     2.2230 
  134.8750   -17.7060    73.3490    11.4300     9.6850    13.3480    23.0950     2.2360 
  135.0000   -17.4250    72.6570    12.4740    10.5740    16.2830    23.3110     2.2870 
  135.1250   -17.1290    71.0510    13.7560    11.7710    22.0810    23.5550     2.3840 
  135.2500   -16.9190    70.0680    14.9030    12.9830    30.0450    23.7970     2.4930 
  135.3750   -16.7860    69.1890    15.5690    13.8950    35.7620    23.7250     2.5790 
  135.5000   -16.7970    67.7080    15.5210    14.2250    36.0170    23.3160     2.6080 
  135.6250   -16.9740    66.5130    14.6730    13.7550    33.2230    23.1170     2.5640 
  135.7500   -17.2940    65.7460    13.4550    12.7700    29.8340    23.0490     2.4830 
  135.8750   -17.7200    65.2240    12.2060    11.5620    24.7660    23.0910     2.3900 
  136.0000   -18.1520    65.1140    11.1620    10.3990    18.5990    23.2090     2.3040 
  136.1250   -18.5820    66.1310    10.4760     9.5050    13.4360    23.3470     2.2420 
  136.2500   -18.9420    67.7830    10.0840     8.9070    11.7000    23.4350     2.2060 
  136.3750   -19.2380    68.9080     9.9230     8.5860    11.3910    23.4240     2.1950 
  136.5000   -19.4640    70.7100     9.9140     8.4890    11.5640    23.3740     2.2030 
  136.6250   -19.5460    72.7920     9.9900     8.5670    11.6440    23.4160     2.2220 
  136.7500   -19.5280    74.3570    10.0880     8.7240    11.4650    23.5050     2.2390 
  136.8750   -19.4270    75.5030    10.1830     8.9120    11.1970    23.5260     2.2480 
  137.0000   -19.2810    75.7880    10.2640     9.0980    11.0460    23.2210     2.2480 
  137.1250   -19.0470    75.9920    10.3260     9.2510    11.0290    22.8800     2.2410 
  137.2500   -18.7770    76.0550    10.3810     9.3650    11.1210    22.7990     2.2320 
  137.3750   -18.4430    75.8010    10.4420     9.4380    11.3220    22.9240     2.2270 
  137.5000   -18.0300    75.7350    10.5060     9.4650    11.5660    22.9680     2.2270 
  137.6250   -17.5020    76.6170    10.5200     9.4070    11.9480    23.0920     2.2310 
  137.7500   -16.9310    78.1620    10.3980     9.2260    12.3750    23.2030     2.2350 
  137.8750   -16.2460    78.6880    10.0590     8.8730    12.3870    23.5140     2.2410 
  138.0000   -15.4360    78.7380     9.4690     8.3320    11.4930    23.9600     2.2490 
  138.1250   -14.5580    81.4260     8.6600     7.6200    10.2950    24.0700     2.2620 
  138.2500   -13.6230    85.2240     7.8020     6.8590     9.1620    24.2970     2.2800 
  138.3750   -12.7200    89.5290     7.0310     6.1520     7.8460    24.6190     2.2990 
  138.5000   -11.8840    94.7430     6.4580     5.5930     6.9120    24.8320     2.3170 
  138.6250   -11.1910   101.1230     6.2000     5.2940     6.1380    24.9150     2.3340 
