~V
VERS. 2.00: Ver 2.00
~W
STRT.M 125.0000:
STOP.M 245.0000:
STEP.M 0.1250:
NULL. -999.2500:
UWI. DF3026:
~C
DEPT.M :
SP.MV :
GR.API :
CALI.CM :
RXO.OHMM :
RI. :
RML.OHMM :
DEN.GM/CC :
~A
# ...
  158.7500   -17.9460    55.2940    27.7160    10.9900    12.1540    14.8190     2.3940 
  158.8750   -18.3840    57.6830    27.8660    15.6940    14.3360    17.5490     2.3530 
  159.0000   -18.9100    57.6940    28.0840    27.6930    18.6170    22.6160     2.3190 
  159.1250   -19.4880    55.6770    28.2690    49.6860    26.4910    31.5730     2.2960 
  159.2500   -20.0960    54.1310    28.3940    70.1730    37.7050    44.4510     2.2770 
  159.3750   -20.6960    54.2240    28.4350    78.0310    50.1120    59.2320     2.2600 
  159.5000   -21.2710    54.8480    28.4290    72.7320    58.5250    69.1910     2.2500 
  159.6250   -21.7880    55.7800    28.4000    63.5040    56.6610    65.3250     2.2520 
  159.7500   -22.2440    56.4160    28.3700    56.2150    48.2190    53.7160     2.2690 
  159.8750   -22.6220    57.4680    28.3580    48.7830    38.2480    41.5330     2.2990 
  160.0000   -22.9180    58.7850    28.3470    38.0480    29.8090    31.9110     2.3350 
  160.1250   -23.1310    61.7930    28.3330    26.0410    24.1380    25.6560     2.3620 
  160.2500   -23.2900    66.4770    28.3420    19.2630    20.6100    21.8540     2.3800 
  160.3750   -23.3980    70.3590    28.4190    18.1650    18.8640    20.0970     2.3900 
  160.5000   -23.4910    71.4730    28.5740    18.3420    18.6400    20.0680     2.3950 
  160.6250   -23.5660    70.9390    28.6710    18.5630    20.0560    21.8040     2.3890 
  160.7500   -23.6340    70.6180    28.7180    20.8770    22.7930    24.8670     2.3760 
  160.8750   -23.7120    69.0290    28.7270    25.1030    26.5340    28.8830     2.3620 
  161.0000   -23.8080    66.2750    28.7200    27.6460    30.4750    33.0220     2.3480 
  161.1250   -23.9240    64.5380    28.7040    27.4810    32.8270    35.3850     2.3390 
  161.2500   -24.0550    64.6130    28.7450    28.3700    32.4850    34.7690     2.3410 
  161.3750   -24.2090    66.6400    28.9170    28.9560    29.7440    31.4910     2.3560 
  161.5000   -24.3570    69.6560    29.1060    26.4430    26.1510    27.2950     2.3760 
  161.6250   -24.5270    72.8730    29.1840    21.3000    23.4420    24.1700     2.3910 
  161.7500   -24.7110    73.4380    29.2000    17.1040    22.2120    22.7830     2.3920 
  161.8750   -24.9280    69.9090    29.2030    16.3670    22.6880    23.3580     2.3780 
  162.0000   -25.1620    64.4570    29.2020    21.1840    25.0380    25.9850     2.3480 
  162.1250   -25.4310    61.2760    29.2030    29.7920    29.5270    30.8100     2.3100 
  162.2500   -25.7110    61.1750    29.2020    35.9070    35.1930    36.7420     2.2830 
  162.3750   -25.9970    61.7270    29.2030    40.6620    40.7310    42.3740     2.2810 
  162.5000   -26.2850    61.8050    29.2020    46.9660    44.6130    46.0740     2.2980 
  162.6250   -26.5730    62.3880    29.1870    47.2240    45.6880    46.6940     2.3100 
  162.7500   -26.8520    63.4340    29.1590    40.5190    45.1350    45.7150     2.3090 
  162.8750   -27.1040    64.4650    29.1320    35.5810    44.2100    44.6090     2.3060 
  163.0000   -27.3280    63.7940    29.1210    36.0160    43.8690    44.3700     2.3090 
  163.1250   -27.5060    63.3040    29.1210    37.0330    44.9150    45.7530     2.3110 
  163.2500   -27.6630    65.1360    29.1320    37.4680    47.4710    48.7760     2.3080 
  163.3750   -27.8110    67.5650    29.1840    41.3140    51.5490    53.4400     2.3080 
  163.5000   -27.9620    66.6490    29.3200    48.9170    56.8000    59.4000     2.3150 
  163.6250   -28.1240    63.8630    29.4670    55.6500    62.4130    65.7780     2.3160 
  163.7500   -28.2890    64.0950    29.5880    55.0580    67.2440    71.1790     2.3010 
  163.8750   -28.4530    66.7660    29.6570    51.3540    70.5610    74.6070     2.2760 
  164.0000   -28.6330    69.0040    29.7060    47.3880    72.3050    75.9670     2.2580 
  164.1250   -28.8360    69.2970    29.7680    44.1140    73.3470    76.4880     2.2590 
  164.2500   -29.0570    65.8670    29.8020    42.9730    75.1570    78.1020     2.2690 
  164.3750   -29.2880    63.1560    29.8090    46.9370    78.4950    81.7370     2.2740 
  164.5000   -29.5180    66.3250    29.8070    56.1600    83.2930    87.2750     2.2670 
  164.6250   -29.7300    71.6340    29.8140    63.9830    88.6290    93.5240     2.2520 
  164.7500   -29.9360    70.1370    29.8250    64.7890    93.2320    98.7720     2.2400 
  164.8750   -30.1510    63.6080    29.8270    60.5400    96.7460   102.4650     2.2410 
  165.0000   -30.3470    59.1260    29.8180    55.4400    99.8970   105.4200     2.2540 
  165.1250   -30.5180    57.9440    29.8120    53.6010   104.8160   110.0880     2.2650 
  165.2500   -30.6680    56.6130    29.8070    53.8130   113.1570   118.5030     2.2590 
  165.3750   -30.8030    55.1410    29.7990    56.1140   125.3350   131.5750     2.2370 
  165.5000   -30.9090    53.8970    29.7830    59.3950   139.7560   148.2540     2.2120 
  165.6250   -31.0120    53.4440    29.7690    61.5190   152.2190   164.0650     2.2030 
  165.7500   -31.0980    55.0110    29.7630    62.1750   159.4060   173.6680     2.2080 
  165.8750   -31.1560    57.1450    29.7600    61.0960   161.1270   175.7600     2.2200 
  166.0000   -31.1830    57.0810    29.7580    57.9400   160.7080   174.1330     2.2320 
  166.1250   -31.2120    53.8550    29.7570    54.8930   164.4060   176.0740     2.2400 
  166.2500   -31.2290    52.1780    29.7530    56.9310   174.6030   184.9720     2.2390 
  166.3750   -31.2320    52.7030    29.7490    64.9550   188.8420   199.2030     2.2290 
  166.5000   -31.2320    52.5220    29.7480    74.4020   200.1930   211.5180     2.2160 
  166.6250   -31.2020    50.4580    29.7480    78.4370   197.6940   207.9270     2.2100 
  166.7500   -31.1710    49.8850    29.7480    75.2860   181.0710   187.7080     2.2150 
  166.8750   -31.1310    52.3760    29.7480    65.7910   156.7280   160.0270     2.2270 
  167.0000   -31.1100    56.7040    29.7480    54.7080   133.0880   134.8450     2.2390 
  167.1250   -31.0700    59.7350    29.7450    47.8310   116.0920   117.5030     2.2460 
  167.2500   -31.0220    60.3880    29.7200    44.8490   104.8860   106.1880     2.2560 
  167.3750   -30.9590    59.8070    29.6470    44.0600    97.9210    99.1410     2.2680 
  167.5000   -30.9090    60.4950    29.5510    44.5540    93.6330    94.7250     2.2790 
  167.6250   -30.8550    60.0050    29.4820    45.8810    90.3680    92.3160     2.2800 
  167.7500   -30.7990    57.3530    29.4560    47.1730    88.0110    90.1260     2.2730 
  167.8750   -30.7420    57.4210    29.4370    47.5780    86.1310    88.3960     2.2640 
  168.0000   -30.6830    62.4050    29.4060    46.7840    84.9180    87.2500     2.2570 
  168.1250   -30.6190    65.3110    29.3690    45.6320    84.7330    87.0080     2.2530 
  168.2500   -30.5760    62.3400    29.3370    45.6260    85.5040    87.6370     2.2500 
  168.3750   -30.5520    58.9170    29.3000    47.3240    87.0930    89.0050     2.2540 
  168.5000   -30.5490    58.7730    29.2760    50.2990    88.9980    90.6160     2.2650 
  168.6250   -30.5580    59.9390    29.2700    53.8800    89.9000    91.2710     2.2760 
  168.7500   -30.5790    60.3780    29.2700    57.1640    88.7160    90.0740     2.2760 
  168.8750   -30.6240    61.0490    29.2690    59.8010    85.2190    86.8740     2.2710 
  169.0000   -30.6950    63.8700    29.2670    60.2810    80.3070    82.4870     2.2760 
  169.1250   -30.8100    66.8470    29.2600    56.1900    75.8660    78.6260     2.2980 
  169.2500   -30.9240    66.7880    29.2540    51.7670    73.4410    76.7210     2.3130 
  169.3750   -31.0380    62.8980    29.2480    51.7150    73.7280    77.4330     2.3030 
  169.5000   -31.1280    59.7120    29.2410    56.5920    76.5700    80.5360     2.2780 
  169.6250   -31.2170    64.1170    29.2340    61.3930    80.4430    84.3670     2.2670 
  169.7500   -31.2930    71.2500    29.2100    63.6820    81.9400    85.6650     2.2730 
  169.8750   -31.3650    73.1220    29.1680    63.9930    78.3070    81.9670     2.2820 
