~V
VERS. 2.00: Ver 2.00
~W
STRT.M 110.0000:
STOP.M 277.0000:
STEP.M 0.1250:
NULL. -999.2500:
UWI. DF3015:
~C
DEPT.M :
DEN.GM/CC :
SP.MV :
AC.US/MT :
GR.API :
CALI.CM :
RXO.OHMM :
RI. :
RML.OHMM :
~A
# ...
  200.0000     2.3450   -15.4310   398.3570    83.9800    24.6060     7.3370     9.0520    12.6120 
  200.1250     2.3390   -15.4900   396.6630    85.1590    24.6070     7.4800     9.2830    12.8670 
  200.2500     2.3340   -15.5180   394.2310    86.5340    24.6100     8.2220     9.7120    13.5370 
  200.3750     2.3280   -15.5720   392.1680    87.2100    24.6110     9.3050    10.4130    14.6930 
  200.5000     2.3180   -15.6930   391.9350    85.9520    24.6080    10.7630    11.3280    16.1740 
  200.6250     2.3060   -15.9290   395.0880    84.5200    24.6090    12.5410    12.2060    17.4930 
  200.7500     2.2890   -16.2090   400.5340    84.6700    24.6250    13.2630    12.7510    18.1870 
  200.8750     2.2690   -16.4590   406.1070    83.3150    24.6640    12.3970    12.8870    18.2090 
  201.0000     2.2530   -16.6050   409.2590    78.6640    24.7290    10.8820    12.8210    17.9820 
  201.1250     2.2550   -16.6000   407.9940    74.7570    24.8420    10.4510    12.9810    18.2540 
  201.2500     2.2710   -16.4710   404.0640    75.1720    24.9490    11.8810    13.6670    19.4330 
  201.3750     2.2850   -16.2460   399.9600    77.8710    24.9950    15.6030    15.0640    21.6960 
  201.5000     2.2850   -15.9740   397.8640    79.0000    25.0040    20.5950    17.2890    25.0750 
  201.6250     2.2690   -15.6810   398.8740    78.2160    25.0030    26.1390    20.5760    29.7230 
  201.7500     2.2500   -15.4070   401.5120    75.3010    25.0000    29.9300    24.8550    35.5180 
  201.8750     2.2330   -15.2200   404.0510    71.5800    24.9970    34.3740    30.3360    42.7350 
  202.0000     2.2180   -15.1560   404.8440    69.8100    24.9970    45.2380    37.3800    51.8500 
  202.1250     2.2080   -15.2700   402.6220    69.6690    25.0000    64.6360    46.4840    63.5920 
  202.2500     2.2090   -15.5010   398.6860    68.0120    24.9980    80.9070    56.7910    77.0290 
  202.3750     2.2200   -15.8030   394.9760    65.9230    24.9620    85.1170    66.9860    90.4280 
  202.5000     2.2360   -16.1150   393.2160    64.9080    24.7980    77.4240    75.3960   101.2310 
  202.6250     2.2440   -16.4040   394.2340    64.2020    24.4050    65.4350    80.1870   106.5590 
  202.7500     2.2350   -16.6550   396.4870    63.3570    24.0130    56.6770    81.9910   107.6540 
  202.8750     2.2160   -16.8570   398.6340    64.0650    23.8040    53.1730    81.8220   106.3120 
  203.0000     2.2060   -17.0480   400.0280    65.6500    23.7440    52.6780    80.5780   103.7840 
  203.1250     2.2140   -17.2560   400.6420    67.9320    23.7360    50.1760    78.6680   100.4660 
  203.2500     2.2220   -17.4540   400.8420    71.0930    23.7360    46.2370    76.5390    96.8770 
  203.3750     2.2200   -17.6420   400.6400    72.7280    23.7360    44.3350    74.4630    93.3910 
  203.5000     2.2100   -17.8200   400.0390    70.7130    23.7360    45.4380    72.6410    90.3130 
  203.6250     2.2060   -17.9470   399.3620    67.7920    23.7400    46.8320    71.3510    88.0550 
  203.7500     2.2110   -18.0410   399.0650    66.5040    23.7490    46.8990    70.7070    86.7250 
  203.8750     2.2190   -18.1250   399.3960    66.4240    23.7590    46.6150    70.7680    86.3550 
  204.0000     2.2210   -18.1890   400.3570    66.3510    23.7980    46.4060    71.4060    86.7320 
  204.1250     2.2090   -18.2110   401.7260    66.4450    23.9030    45.4070    72.3500    87.4980 
  204.2500     2.1940   -18.2660   403.0340    66.2260    24.0540    44.4360    73.3920    88.4130 
  204.3750     2.1860   -18.3560   404.0230    64.4560    24.1580    44.2160    74.7340    89.7520 
  204.5000     2.1840   -18.4910   404.7180    62.7490    24.2420    44.5460    76.8640    92.1380 
  204.6250     2.1800   -18.7220   405.3760    61.8010    24.2780    45.8060    80.8680    96.8870 
  204.7500     2.1760   -19.0270   406.2230    61.6220    24.2880    50.9060    87.4120   104.7100 
  204.8750     2.1770   -19.3830   407.2820    62.1610    24.2880    59.7860    97.1430   116.3470 
  205.0000     2.1840   -19.7860   408.2710    61.9020    24.2880    67.5760   110.2780   132.1470 
  205.1250     2.1910   -20.2500   408.4540    59.7900    24.3050    73.4560   126.9310   152.4970 
  205.2500     2.2030   -20.6880   406.8140    56.1800    24.4130    85.9750   145.8190   175.8450 
  205.3750     2.2210   -21.1260   402.7130    53.2620    24.6800   116.4220   165.9770   200.8050 
  205.5000     2.2410   -21.5170   396.6680    52.7440    25.0110   175.0520   185.6190   224.8920 
  205.6250     2.2520   -21.8100   390.3540    55.4990    25.1820   233.6890   200.1060   241.6500 
  205.7500     2.2460   -22.0500   384.3370    60.0480    25.2450   250.9850   205.7380   246.0390 
  205.8750     2.2240   -22.2500   377.2410    63.1670    25.2990   231.3820   201.4090   237.5400 
  206.0000     2.2040   -22.4230   368.0400    63.7500    25.3740   198.7740   190.3020   221.9060 
  206.1250     2.2210   -22.5150   357.1550    63.8350    25.4390   161.6730   178.7710   207.8010 
  206.2500     2.2780   -22.6010   347.6290    65.1160    25.4620   139.2730   171.8910   199.9220 
  206.3750     2.3450   -22.6360   342.6950    66.3120    25.4670   139.9850   171.0320   198.8360 
  206.5000     2.3840   -22.6510   344.4720    65.0110    25.4670   154.3100   175.1210   202.8050 
  206.6250     2.3770   -22.6710   353.7460    61.4260    25.4670   170.1320   181.5000   208.3540 
  206.7500     2.3480   -22.7010   366.7420    59.4550    25.4670   181.4720   186.3720   211.1760 
  206.8750     2.3160   -22.6910   380.4320    60.7690    25.4670   185.3400   187.6740   209.3940 
  207.0000     2.2870   -22.5970   391.9640    61.9360    25.4670   178.5140   185.4860   204.0370 
  207.1250     2.2610   -22.4010   398.4800    62.1400    25.4660   172.2420   181.9370   198.2910 
  207.2500     2.2420   -22.1510   401.3960    61.2310    25.4610   169.8820   179.3850   194.3810 
  207.3750     2.2290   -21.9010   402.6740    58.6030    25.4430   166.7250   177.9420   191.8750 
  207.5000     2.2150   -21.6780   403.9730    57.3530    25.4080   162.5370   175.8580   188.1840 
  207.6250     2.1980   -21.5370   405.6990    61.4000    25.3910   163.5170   169.1770   178.3470 
  207.7500     2.1910   -21.4130   406.9940    68.0620    25.3850   163.2690   156.8570   162.2930 
  207.8750     2.1990   -21.3240   407.1090    70.2160    25.3850   150.6260   140.9450   143.7780 
  208.0000     2.2140   -21.2690   405.8280    68.2460    25.3850   123.4220   125.6380   127.8170 
  208.1250     2.2230   -21.2800   404.0150    64.6000    25.3850    96.1360   116.1230   119.1290 
  208.2500     2.2220   -21.2990   403.3800    61.2320    25.3850    84.1920   114.0470   118.1370 
  208.3750     2.2160   -21.3020   404.8830    59.1890    25.3850    95.3750   119.8720   124.9330 
  208.5000     2.2080   -21.2820   408.2850    59.7450    25.3850   127.3040   132.3200   138.3570 
  208.6250     2.1990   -21.1730   411.9650    61.5590    25.3850   163.2430   146.8700   153.5580 
  208.7500     2.1900   -21.0140   414.1470    61.0390    25.3850   179.8000   155.1810   160.6530 
  208.8750     2.1830   -20.8040   414.1920    58.8300    25.3840   171.1270   151.6050   153.5200 
  209.0000     2.1790   -20.5570   412.2600    59.1930    25.3670   146.0800   137.1300   135.6090 
  209.1250     2.1820   -20.2810   409.0310    62.6350    25.3060   114.6740   119.1130   116.9270 
  209.2500     2.1870   -20.0170   405.6910    65.3190    25.2170    87.5080   104.8360   103.5040 
  209.3750     2.1940   -19.7840   403.0680    64.6820    25.1640    74.0920    96.1060    95.8590 
  209.5000     2.2010   -19.5710   401.7960    63.6090    25.1490    80.5540    92.2130    92.7570 
  209.6250     2.2080   -19.3900   402.2670    62.9850    25.1490    96.9650    91.6740    92.6190 
  209.7500     2.2120   -19.2390   403.7740    62.2070    25.1490   105.4060    91.9670    92.9760 
  209.8750     2.2100   -19.1380   405.6100    61.5310    25.1490    97.5600    91.5950    92.3070 
