~V
VERS. 2.00: Ver 2.00
~W
STRT.M 66.0000:
STOP.M 262.0000:
STEP.M 0.1250:
NULL. -999.2500:
UWI. DF3009:
~C
DEPT.M :
GR.API :
RML.OHMM :
RI. :
RXO.OHMM :
CALI.CM :
DEN.GM/CC :
SP.MV :
~A
# ...
  246.0000    68.0260    10.1890     8.3650     6.5760    23.4280     2.3790   -19.6110 
  246.1250    65.0550    10.2850     8.2120     6.6350    23.3240     2.3640   -19.6270 
  246.2500    64.2430    10.3860     8.1320     6.8070    23.3590     2.3550   -19.6690 
  246.3750    63.9720    10.4370     8.0940     6.8400    23.4280     2.3530   -19.7140 
  246.5000    63.5710    10.4130     8.0640     6.7670    23.2890     2.3580   -19.8060 
  246.6250    65.2330    10.3180     8.0190     6.7960    23.1350     2.3690   -19.8300 
  246.7500    69.2760    10.2090     7.9650     7.0770    23.0670     2.3810   -19.9430 
  246.8750    72.5330    10.1380     7.9210     7.5460    23.1020     2.3920   -19.9920 
  247.0000    72.5600    10.1480     7.9150     8.0870    23.1720     2.4000   -20.0560 
  247.1250    71.4240    10.2840     7.9730     8.3580    23.2650     2.4050   -20.1310 
  247.2500    71.2560    10.5240     8.0900     8.6120    23.2760     2.4060   -20.1630 
  247.3750    70.2920    10.8380     8.2530     8.9150    23.2920     2.4030   -20.1860 
  247.5000    71.2540    11.1810     8.4450     9.1890    23.1880     2.3970   -20.2150 
  247.6250    81.1550    11.4910     8.6450     9.5640    23.2190     2.3900   -20.2700 
  247.7500    94.7850    11.7330     8.8320    10.1420    23.4000     2.3830   -20.2640 
  247.8750   103.8500    11.8990     8.9950    10.6970    23.6220     2.3800   -20.2670 
  248.0000   105.6230    12.0050     9.1300    11.3200    23.6420     2.3810   -20.3860 
  248.1250   103.4780    12.0720     9.2280    12.2370    23.1930     2.3860   -20.3550 
  248.2500    98.9900    12.1170     9.2950    13.2430    23.0610     2.3960   -20.3550 
  248.3750    90.5170    12.1330     9.3370    13.4030    23.1850     2.4070   -20.3510 
  248.5000    79.9760    12.1230     9.3630    13.0070    23.5830     2.4140   -20.3490 
  248.6250    72.9760    12.1130     9.3900    12.5190    23.7660     2.4180   -20.3250 
  248.7500    71.0880    12.1370     9.4320    12.4560    23.6480     2.4180   -20.3190 
  248.8750    71.2270    12.2030     9.4970    12.5400    23.5110     2.4190   -20.3490 
  249.0000    70.5010    12.2830     9.5850    12.2960    23.5470     2.4200   -20.2580 
  249.1250    70.1650    12.3330     9.6960    12.1540    23.7440     2.4220   -20.2800 
  249.2500    71.4860    12.3580     9.8310    12.3370    23.9170     2.4240   -20.2580 
  249.3750    72.8280    12.4180    10.0020    12.6100    23.9200     2.4250   -20.2670 
  249.5000    72.3460    12.5900    10.2260    12.8070    23.9250     2.4290   -20.2270 
  249.6250    71.2390    12.9460    10.5310    12.8420    23.8580     2.4370   -20.1490 
  249.7500    71.1330    13.4340    10.9010    12.7340    23.9360     2.4470   -20.0870 
  249.8750    70.6050    13.9860    11.3110    12.9180    23.9540     2.4510   -19.9420 
  250.0000    68.9170    14.5140    11.7120    13.4180    23.9230     2.4400   -19.8610 
  250.1250    69.9610    14.8880    12.0250    13.7510    23.8910     2.4120   -19.7300 
  250.2500    74.7930    15.0410    12.2040    13.5870    23.6750     2.3780   -19.5160 
  250.3750    77.6490    14.9530    12.2300    13.5750    23.5570     2.3580   -19.2470 
  250.5000    74.1890    14.6720    12.1170    14.0290    23.4720     2.3600   -18.9570 
  250.6250    69.8550    14.3120    11.9000    13.8470    23.5210     2.3850   -18.7350 
  250.7500    70.2210    14.0020    11.6540    12.8890    23.7770     2.4200   -18.4360 
  250.8750    74.4840    13.7750    11.4130    12.4800    23.8250     2.4460   -18.1780 
  251.0000    77.3470    13.6070    11.1960    12.5650    23.8850     2.4560   -17.8710 
  251.1250    75.9880    13.4670    11.0110    13.1870    23.8750     2.4550   -17.5380 
  251.2500    72.4330    13.3590    10.8600    13.6360    23.9390     2.4510   -17.3580 
  251.3750    69.8750    13.3240    10.7510    13.7350    23.9260     2.4460   -17.1830 
  251.5000    69.5510    13.4090    10.7030    13.3150    23.8640     2.4400   -17.0350 
  251.6250    69.5510    13.6480    10.7480    13.0360    23.9360     2.4320   -16.8930 
  251.7500    69.5510    13.9820    10.8820    12.8670    23.9670     2.4230   -16.7880 
  251.8750    69.5510    14.3570    11.1060    13.0540    24.0600     2.4180   -16.6920 
  252.0000    69.5510    14.7380    11.4110    13.7960    24.0440     2.4180   -16.6440 
  252.1250    69.5510    15.1120    11.7840    14.5360    23.9950     2.4250   -16.6320 
  252.2500    69.5510    15.4950    12.1860    14.7720    23.9900     2.4370   -16.5860 
  252.3750    69.5510    15.9030    12.5820    14.8590    23.9050     2.4500   -16.5630 
  252.5000    69.5510    16.3170    12.9340    15.0700    23.9470     2.4630   -16.6140 
  252.6250    69.5510    16.6470    13.1830    15.7840    23.9460     2.4770   -16.6210 
  252.7500    69.5510    16.8130    13.3120    16.8760    23.9410     2.4940   -16.6260 
  252.8750    69.5510    16.7940    13.3300    18.4020    24.0550     2.5120   -16.6490 
  253.0000    69.5510    16.6530    13.2860    19.6390    24.0560     2.5300   -16.6690 
  253.1250    69.5510    16.5510    13.2640    18.6730    24.0590     2.5440   -16.6370 
  253.2500    69.5510    16.6190    13.3220    17.8100    24.0380     2.5510   -16.6560 
  253.3750    69.5510    16.8500    13.4560    17.0100    24.0210     2.5510   -16.6580 
  253.5000    69.5510    17.1110    13.6000    16.2360    24.1200     2.5460   -16.5830 
  253.6250    69.5510    17.1580    13.6370    15.8770    24.1000     2.5350   -16.5310 
  253.7500    69.5510    16.9070    13.5160    16.6780    24.1740     2.5220   -16.4980 
  253.8750    69.5510    16.4350    13.2580    17.8940    24.2170     2.5110   -16.3860 
  254.0000    69.5510    15.9390    12.9560    18.8090    24.2430     2.5080   -16.2960 
  254.1250    69.5510    15.6680    12.7460    19.8790    24.1190     2.5170   -16.2540 
  254.2500    69.5510    15.6450    12.6790    21.7390    23.8810     2.5330   -16.1620 
  254.3750    69.5510    15.7530    12.7220    23.5660    23.9230     2.5500   -16.0610 
  254.5000    69.5510    15.8130    12.7840    23.3190    23.9360     2.5590   -15.9850 
  254.6250    69.5510    15.6440    12.7510    22.0000    24.0120     2.5580   -15.9800 
  254.7500    69.5510    15.2720    12.6030    19.6070    23.9740     2.5480   -15.9090 
  254.8750    69.5510    14.8100    12.3880    17.4510    23.9870     2.5390   -15.9100 
  255.0000    69.5510    14.3980    12.1800    16.9830    24.0930     2.5330   -15.8570 
  255.1250    69.5510    14.1660    12.0480    18.1070    24.0250     2.5320   -15.7520 
  255.2500    69.5510    14.1020    11.9910    20.7280    23.9560     2.5330   -15.5820 
  255.3750    69.5510    14.1600    11.9820    24.5790    23.8590     2.5330   -15.4590 
  255.5000    69.5510    14.2740    11.9920    29.0810    23.8240     2.5330   -15.3750 
  255.6250    69.5510    14.3800    11.9990    35.6420    24.0130     2.5340   -15.1950 
  255.7500    69.5510    14.4370    11.9980    36.5680    24.0590     2.5350   -14.9840 
  255.8750    69.5510    14.4330    11.9920    31.8070    24.0680     2.5340   -14.7510 
  256.0000    69.5510    14.3730    11.9870    28.0000    24.1300     2.5280   -14.5510 
  256.1250    69.5510    14.2910    11.9890    24.7020    24.0550     2.5170   -14.4440 
  256.2500    69.5510    14.2390    11.9930    20.2580    24.0750     2.5040   -14.3710 
  256.3750    69.5510    14.2360    11.9960    16.4160    24.0290     2.4920   -14.2970 
  256.5000    69.5510    14.2750    11.9990    14.7390    23.9760     2.4800   -14.1420 
  256.6250    69.5510    14.3260    12.0020    15.8660    24.0550     2.4700   -14.0530 
  256.7500    69.5510    14.3610    12.0070    19.0090    23.9800     2.4630   -14.0260 
  256.8750    69.5510    14.3770    12.0150    23.0330    23.7800     2.4620   -14.0580 
  257.0000    69.5510    14.3810    12.0230    26.7120    23.6950     2.4640   -14.0320 
  257.1250    69.5510    14.3830    12.0260    26.6740    23.6380     2.4700   -13.9540 
