~V
VERS. 2.00: Ver 2.00
~W
STRT.M 64.0000:
STOP.M 278.0000:
STEP.M 0.1250:
NULL. -999.2500:
UWI. DF3056:
~C
DEPT.M :
SP.MV :
GR.API :
CALI.CM :
RXO.OHMM :
RI. :
RML.OHMM :
DEN.GM/CC :
~A
# ...
  109.0000   -33.2450    63.2340    23.5080     9.8320     7.8860    10.3310  -999.2500 
  109.1250   -33.3460    63.6640    23.5200     9.1210     7.6910    10.1980  -999.2500 
  109.2500   -33.4620    62.7550    23.5640     9.7800     7.6210    10.2400  -999.2500 
  109.3750   -33.6190    64.4190    23.8010    10.6140     7.6820    10.4240  -999.2500 
  109.5000   -33.8060    69.3430    23.9770    11.3370     7.8380    10.6920  -999.2500 
  109.6250   -33.9790    71.1660    24.0850    11.7950     8.0360    10.9730  -999.2500 
  109.7500   -34.1140    69.5580    24.1870    12.6870     8.2300    11.2140  -999.2500 
  109.8750   -34.1680    66.7490    23.9950    13.2990     8.3970    11.3940  -999.2500 
  110.0000   -34.1480    64.3960    23.9020    13.5650     8.5210    11.5030  -999.2500 
  110.1250   -34.0880    64.9810    23.9010    12.7210     8.5920    11.5390  -999.2500 
  110.2500   -34.0470    68.3260    23.9730    10.9450     8.6210    11.5220  -999.2500 
  110.3750   -34.0290    70.3740    23.9880     9.2000     8.6090    11.4760  -999.2500 
  110.5000   -34.0200    68.1580    23.9960     8.4540     8.5720    11.4290  -999.2500 
  110.6250   -34.1020    65.7640    24.0360     8.3560     8.5490    11.4180  -999.2500 
  110.7500   -34.2670    65.9760    24.1320     8.3910     8.5550    11.4820  -999.2500 
  110.8750   -34.5050    65.7510    24.2150     8.7620     8.6200    11.6310  -999.2500 
  111.0000   -34.7640    62.5570    24.1340    10.1940     8.7600    11.8730  -999.2500 
  111.1250   -34.9770    58.8870    24.2170    11.9050     8.9750    12.1870  -999.2500 
  111.2500   -35.0930    56.7690    24.5320    13.2380     9.2180    12.5000  -999.2500 
  111.3750   -35.1360    56.6680    24.7860    13.7960     9.4390    12.7450  -999.2500 
  111.5000   -35.1480    58.4970    24.8360    13.7870     9.5970    12.8590  -999.2500 
  111.6250   -35.0720    60.4870    24.6680    13.6590     9.6250    12.7890  -999.2500 
  111.7500   -34.9620    61.1590    24.4610    13.4410     9.5380    12.5750  -999.2500 
  111.8750   -34.8520    60.4350    24.3320    13.2850     9.3730    12.2730  -999.2500 
  112.0000   -34.7640    60.0780    24.1370    13.1740     9.1680    11.9580  -999.2500 
  112.1250   -34.7270    58.7870    24.1900    13.2470     8.9820    11.7090  -999.2500 
  112.2500   -34.7360    56.5330    24.3610    13.2980     8.8410    11.5500  -999.2500 
  112.3750   -34.7550    55.3990    24.3920    13.0350     8.7510    11.4810  -999.2500 
  112.5000   -34.7460    57.6820    24.4090    11.7820     8.7030    11.4650  -999.2500 
  112.6250   -34.6740    62.9130    24.2530    10.9490     8.6630    11.4520  -999.2500 
  112.7500   -34.5380    67.4670    24.1910    11.0380     8.6290    11.4030  -999.2500 
  112.8750   -34.3380    69.9370    24.2410    11.1060     8.5710    11.3250  -999.2500 
  113.0000   -34.0990    70.5400    24.2490    10.4920     8.4930    11.2230  -999.2500 
  113.1250   -33.8810    70.6470    24.1730    10.0990     8.4100    11.1160  -999.2500 
  113.2500   -33.7330    69.5900    23.9100    10.0840     8.3340    11.0410  -999.2500 
  113.3750   -33.6720    65.6490    23.5920     9.7030     8.2760    11.0070  -999.2500 
  113.5000   -33.7150    62.2520    23.4910     9.5760     8.2430    11.0140  -999.2500 
  113.6250   -33.8600    63.9080    23.5260     9.6060     8.2400    11.0710  -999.2500 
  113.7500   -34.0320    67.8690    23.5050    10.0850     8.2670    11.1590  -999.2500 
  113.8750   -34.1810    69.2160    23.3030    11.0530     8.3190    11.2550  -999.2500 
  114.0000   -34.2940    68.1990    23.3220    11.9660     8.3910    11.3510  -999.2500 
  114.1250   -34.3020    67.4420    23.6330    12.2980     8.4570    11.4310  -999.2500 
  114.2500   -34.1780    63.6590    24.0410    11.9150     8.5020    11.4740  -999.2500 
  114.3750   -33.9360    56.9890    24.2690    11.5520     8.5180    11.4800  -999.2500 
  114.5000   -33.5810    53.7880    24.2360    11.6220     8.5030    11.4540  -999.2500 
  114.6250   -33.1490    58.3020    24.1850    11.9320     8.4570    11.3940  -999.2500 
  114.7500   -32.7050    63.1250    24.1880    11.8810     8.3920    11.3180  -999.2500 
  114.8750   -32.2890    62.9960    24.1960    11.8430     8.3280    11.2490  -999.2500 
  115.0000   -31.8790    60.3600    24.2030    11.9470     8.2680    11.1980  -999.2500 
  115.1250   -31.4380    59.8370    24.3170    12.0430     8.2400    11.1740  -999.2500 
  115.2500   -30.9420    59.9330    24.3360    12.0550     8.2460    11.1750  -999.2500 
  115.3750   -30.3510    58.6760    24.3470    12.1370     8.2840    11.1890  -999.2500 
  115.5000   -29.6830    57.6390    24.3950    12.1100     8.3410    11.2030  -999.2500 
  115.6250   -28.9000    59.7090    24.4380    12.1000     8.4020    11.2190  -999.2500 
  115.7500   -28.0110    60.9280    24.4650    11.8560     8.4420    11.2150  -999.2500 
  115.8750   -27.3370    59.3360    24.4400    11.2690     8.4350    11.1690  -999.2500 
  116.0000   -26.8340    59.2800    24.5630    10.6410     8.3530    11.0490  -999.2500 
  116.1250   -25.7570    64.9660    24.5040    10.5800     8.1470    10.7970  -999.2500 
  116.2500   -24.6900    71.3860    24.6070    11.2380     7.8120    10.4040     2.1210 
  116.3750   -23.6950    74.5070    24.5050    11.4030     7.3800     9.8790     2.1210 
  116.5000   -22.8140    74.0660    24.1420    10.2150     6.8740     9.2490     2.1560 
  116.6250   -22.0360    72.8940    23.7560     8.3810     6.3500     8.5800     2.1860 
  116.7500   -21.3560    75.2480    23.6210     8.0600     5.9360     8.0750     2.1990 
  116.8750   -20.7670    83.9240    23.5420     8.7080     5.7400     7.8960     2.2050 
  117.0000   -20.2640    94.6260    23.4170     8.7510     5.8200     8.1340     2.2230 
  117.1250   -19.8800    97.5460    22.8330     9.3670     6.2440     8.8610     2.2770 
  117.2500   -19.5600    92.3560    22.4860    10.1520     6.9300     9.8720     2.3580 
  117.3750   -19.2760    85.7610    22.7040    12.1890     7.7450    10.8940     2.4330 
  117.5000   -19.0380    81.8970    23.5610    19.0510     8.4570    11.6130     2.4620 
  117.6250   -18.9040    79.6330    24.2970    25.5580     8.7460    11.6800     2.4230 
  117.7500   -18.8610    81.3590    24.5020    23.5130     8.5410    11.1210     2.3580 
  117.8750   -18.8600    90.4080    24.5190    15.6130     7.9230    10.1040     2.3020 
  118.0000   -18.8790   101.5860    24.5180    10.0120     7.1190     8.9360     2.2760 
  118.1250   -18.9020   105.3790    24.4190     8.4750     6.3800     7.9590     2.2800 
  118.2500   -18.9190   103.3760    24.2220     8.3690     5.8210     7.3140     2.2880 
  118.3750   -18.9180   102.3970    24.2200     8.6230     5.4750     7.0220     2.2840 
  118.5000   -18.8920   102.8760    24.4630     8.7700     5.3300     7.0060     2.2760 
  118.6250   -18.8170   102.9180    24.7080     8.3840     5.3510     7.1360     2.2860 
  118.7500   -18.7270   102.8940    24.7700     7.7100     5.4140     7.2590     2.3020 
  118.8750   -18.6920   102.6410    24.7680     7.3400     5.4860     7.3600     2.2950 
  119.0000   -18.7390   101.6610    24.7590     7.7540     5.5680     7.4660     2.2600 
  119.1250   -18.8610    98.7950    24.7650     8.3530     5.6660     7.5930     2.2240 
  119.2500   -19.0320    96.2580    24.7790     8.7230     5.7750     7.7370     2.2120 
  119.3750   -19.2440    96.2490    24.7740     9.1200     5.8970     7.9050     2.2180 
  119.5000   -19.4530    97.5430    24.7740     9.3260     6.0280     8.0900     2.2310 
  119.6250   -19.6180    98.4580    24.7770     9.1980     6.1380     8.2470     2.2360 
  119.7500   -19.7120    97.4670    24.7710     9.1770     6.1990     8.3310     2.2330 
  119.8750   -19.7200    97.1310    24.7570     9.4220     6.2060     8.3180     2.2260 
  120.0000   -19.6480    98.2440    24.7570     9.6760     6.1530     8.2130     2.2260 
  120.1250   -19.5350    96.7220    24.7720     9.4430     6.0510     8.0280     2.2320 
