~V
VERS. 2.00: Ver 2.00
~W
STRT.M 61.0000:
STOP.M 318.0000:
STEP.M 0.1250:
NULL. -999.2500:
UWI. DF302:
~C
DEPT.M :
DEN.GM/CC :
SP.MV :
AC.US/MT :
GR.API :
CALI.CM :
RXO.OHMM :
RI. :
RML.OHMM :
~A
# ...
  111.0000  -999.2500   -19.6620  -999.2500    97.9450    23.2630     4.8490     5.3010     6.4740 
  111.1250  -999.2500   -18.8010  -999.2500   100.8870    23.3200     4.7360     4.9990     6.1800 
  111.2500  -999.2500   -17.8800  -999.2500   105.1840    23.3500     4.6380     4.7420     5.8550 
  111.3750  -999.2500   -16.9580  -999.2500   107.1950    23.3620     4.5260     4.4820     5.4060 
  111.5000  -999.2500   -16.0840  -999.2500   106.5830    23.3870     4.4450     4.2260     4.8980 
  111.6250  -999.2500   -15.3360  -999.2500   103.8340    23.6180     4.4550     4.0850     4.6310 
  111.7500  -999.2500   -14.7480  -999.2500    99.0710    24.0820     4.8900     4.1780     4.8720 
  111.8750  -999.2500   -14.3390  -999.2500    90.7170    24.5670     6.6390     4.6370     5.8330 
  112.0000  -999.2500   -14.1410  -999.2500    79.1020    24.8210    11.0660     5.6120     7.7080 
  112.1250  -999.2500   -14.2390  -999.2500    68.8450    24.8200    19.1560     7.4000    10.8210 
  112.2500  -999.2500   -14.6130  -999.2500    64.3890    24.7820    25.6870     9.8570    14.7160 
  112.3750  -999.2500   -15.2620  -999.2500    63.0420    24.7430    25.8600    12.4340    18.2750 
  112.5000  -999.2500   -16.1570  -999.2500    61.3770    24.6430    21.2590    14.0950    19.8560 
  112.6250  -999.2500   -17.2670  -999.2500    60.6250    24.4010    17.8390    13.8880    18.4870 
  112.7500  -999.2500   -18.4750  -999.2500    61.1760    24.0040    15.8450    12.5780    15.9080 
  112.8750  -999.2500   -19.6870  -999.2500    63.0960    23.5260    13.5870    10.9570    13.3820 
  113.0000  -999.2500   -20.8150  -999.2500    66.6610    23.1180    11.1440     9.5140    11.4550 
  113.1250  -999.2500   -21.7630  -999.2500    71.6510    22.9090     9.6470     8.4720    10.2730 
  113.2500  -999.2500   -22.5280  -999.2500    74.2700    22.8500     9.0040     7.7730     9.6100 
  113.3750  -999.2500   -23.0930  -999.2500    73.7980    22.8840     8.7640     7.3810     9.3660 
  113.5000  -999.2500   -23.4750  -999.2500    73.3760    22.9480     8.7140     7.2370     9.4230 
  113.6250  -999.2500   -23.6880  -999.2500    74.1960    22.9640     8.8210     7.2770     9.6480 
  113.7500  -999.2500   -23.7890  -999.2500    74.3290    22.9400     8.9820     7.3870     9.8810 
  113.8750  -999.2500   -23.8560  -999.2500    73.1060    22.9230     9.1110     7.5100    10.0490 
  114.0000  -999.2500   -23.9320  -999.2500    71.9740    22.9270     9.1490     7.6100    10.1250 
  114.1250  -999.2500   -24.0600  -999.2500    71.5790    22.9110     9.0880     7.6630    10.1150 
  114.2500  -999.2500   -24.2480  -999.2500    69.7190    22.8130     9.0200     7.6830    10.0750 
  114.3750  -999.2500   -24.4810  -999.2500    66.4630    22.6380     9.0030     7.6910    10.0450 
  114.5000  -999.2500   -24.7650  -999.2500    63.8460    22.4780     9.0510     7.7040    10.0480 
  114.6250  -999.2500   -25.0830  -999.2500    63.7360    22.4460     9.1680     7.7350    10.0990 
  114.7500  -999.2500   -25.4140  -999.2500    65.5100    22.4970     9.3100     7.7720    10.1740 
  114.8750  -999.2500   -25.7290  -999.2500    66.4410    22.5660     9.3970     7.8010    10.2460 
  115.0000  -999.2500   -25.9990  -999.2500    65.5900    22.6270     9.3720     7.8060    10.2870 
  115.1250  -999.2500   -26.1940  -999.2500    65.9270    22.6900     9.2760     7.7790    10.2770 
  115.2500  -999.2500   -26.3110  -999.2500    68.7400    22.7780     9.2240     7.7290    10.2300 
  115.3750  -999.2500   -26.3370  -999.2500    69.7100    22.8920     9.3040     7.6700    10.1750 
  115.5000  -999.2500   -26.2640  -999.2500    66.2920    23.0030     9.5550     7.6160    10.1420 
  115.6250  -999.2500   -26.0790  -999.2500    62.3910    23.0590     9.8830     7.5750    10.1400 
  115.7500  -999.2500   -25.8200  -999.2500    60.7780    23.0790    10.0760     7.5380    10.1250 
  115.8750  -999.2500   -25.5190  -999.2500    60.3790    23.1030    10.1050     7.4990    10.0600 
  116.0000  -999.2500   -25.2180  -999.2500    61.9860    23.1500    10.0820     7.4810     9.9960 
  116.1250  -999.2500   -24.9570  -999.2500    66.4930    23.2440     9.9840     7.5830    10.1310 
  116.2500  -999.2500   -24.7460  -999.2500    69.6170    23.3580     9.7040     7.8680    10.6020 
  116.3750  -999.2500   -24.6210  -999.2500    69.0400    23.4130     9.3630     8.3530    11.4320 
  116.5000  -999.2500   -24.5860  -999.2500    66.9770    23.4200     9.2640     8.9700    12.4680 
  116.6250  -999.2500   -24.6730  -999.2500    65.5140    23.4770     9.5520     9.5010    13.2540 
  116.7500  -999.2500   -24.8590  -999.2500    63.6960    23.5520     9.9050     9.6970    13.3520 
  116.8750  -999.2500   -25.1090  -999.2500    61.8680    23.5530    10.1110     9.4580    12.6770 
  117.0000  -999.2500   -25.3970  -999.2500    62.3500    23.5000    10.1940     8.8970    11.5540 
  117.1250  -999.2500   -25.7070  -999.2500    64.4460    23.5130    10.2370     8.2580    10.4980 
  117.2500  -999.2500   -26.0080  -999.2500    65.2640    23.5580    10.2110     7.7450     9.7980 
  117.3750  -999.2500   -26.2800  -999.2500    65.4840    23.5550    10.0870     7.4230     9.4990 
  117.5000  -999.2500   -26.5110  -999.2500    66.0020    23.5070     9.9130     7.2780     9.4990 
  117.6250  -999.2500   -26.6560  -999.2500    67.1420    23.4900     9.7330     7.2560     9.6220 
  117.7500  -999.2500   -26.7360  -999.2500    66.1560    23.5570     9.5560     7.2720     9.7060 
  117.8750  -999.2500   -26.7580  -999.2500    62.8040    23.6560     9.3980     7.2990     9.7180 
  118.0000  -999.2500   -26.7420  -999.2500    61.2360    23.6600     9.2840     7.3230     9.6800 
  118.1250  -999.2500   -26.6810  -999.2500    64.7550    23.5090     9.2290     7.3340     9.6190 
  118.2500  -999.2500   -26.6100  -999.2500    68.6080    23.3420     9.2310     7.3260     9.5590 
  118.3750  -999.2500   -26.5250  -999.2500    69.4090    23.2570     9.2900     7.3030     9.5050 
  118.5000  -999.2500   -26.4350  -999.2500    68.1960    23.2520     9.3770     7.2740     9.4580 
  118.6250  -999.2500   -26.3420  -999.2500    66.2780    23.2730     9.4520     7.2520     9.4260 
  118.7500  -999.2500   -26.2490  -999.2500    62.6100    23.2910     9.5010     7.2380     9.4070 
  118.8750  -999.2500   -26.1720  -999.2500    59.3060    23.2990     9.5020     7.2220     9.3890 
  119.0000  -999.2500   -26.0890  -999.2500    59.4300    23.2600     9.4200     7.1900     9.3520 
  119.1250  -999.2500   -26.0050  -999.2500    62.5390    23.1900     9.2240     7.1280     9.2780 
  119.2500  -999.2500   -25.9070  -999.2500    65.4520    23.1840     8.9750     7.0490     9.1850 
  119.3750  -999.2500   -25.8030  -999.2500    66.9870    23.2460     8.7610     6.9680     9.0950 
  119.5000  -999.2500   -25.6960  -999.2500    66.6470    23.2280     8.6460     6.9040     9.0330 
  119.6250  -999.2500   -25.5940  -999.2500    66.4980    22.9620     8.6020     6.8700     9.0210 
  119.7500  -999.2500   -25.4930  -999.2500    67.0210    22.6390     8.5550     6.8510     9.0360 
  119.8750  -999.2500   -25.3950  -999.2500    67.7290    22.5160     8.5300     6.8260     9.0420 
  120.0000  -999.2500   -25.3160  -999.2500    68.4610    22.6820     8.5500     6.7760     8.9990 
  120.1250  -999.2500   -25.2540  -999.2500    70.1690    22.9760     8.4960     6.6900     8.8830 
  120.2500  -999.2500   -25.2110  -999.2500    71.5830    23.1600     8.2790     6.5900     8.7310 
  120.3750  -999.2500   -25.2010  -999.2500    71.6050    23.2000     8.0030     6.4940     8.5840 
  120.5000  -999.2500   -25.2180  -999.2500    71.0320    23.1820     7.8530     6.4250     8.4900 
  120.6250  -999.2500   -25.2780  -999.2500    71.5780    23.1780     7.9090     6.4080     8.4940 
  120.7500  -999.2500   -25.3780  -999.2500    71.1470    23.1800     8.0410     6.4390     8.5780 
  120.8750  -999.2500   -25.4990  -999.2500    70.0830    23.1780     8.2430     6.5070     8.7090 
