~V
VERS. 2.00: Ver 2.00
~W
STRT.M 67.0000:
STOP.M 279.0000:
STEP.M 0.1250:
NULL. -999.2500:
UWI. DF3057:
~C
DEPT.M :
GR.API :
CALI.CM :
RXO.OHMM :
RI. :
RML.OHMM :
DEN.GM/CC :
SP.MV :
~A
# ...
  258.2500    92.7730    24.1580     7.5150     9.3540    10.5500     2.3050   -24.5130 
  258.3750    92.4310    24.3500     7.7010     9.5870    10.8940     2.3360   -24.5370 
  258.5000    92.1630    24.5040     8.3300     9.9760    11.3850     2.3550   -24.6990 
  258.6250    89.1910    24.9290     9.9100    10.3340    11.7920     2.3440   -24.8220 
  258.7500    88.7700    24.9660    12.1850    10.5110    11.9570     2.3200   -24.8120 
  258.8750    91.0090    25.1910    13.4370    10.4000    11.7810     2.3060   -24.6780 
  259.0000    89.5500    25.0780    12.1270     9.9780    11.2470     2.3070   -24.5040 
  259.1250    79.9960    25.0870     9.4060     9.2950    10.4230     2.3160   -24.3620 
  259.2500    70.9980    25.2240     7.7040     8.5670     9.5690     2.3310   -24.3270 
  259.3750    64.6940    25.3380     7.1440     7.9180     8.8340     2.3630   -24.3100 
  259.5000    58.9720    25.2760     7.1090     7.4220     8.3110     2.4110   -24.1870 
  259.6250    54.2920    25.1900     7.1580     7.1490     8.0840     2.4510   -24.0570 
  259.7500    52.3270    25.3480     7.1670     7.0620     8.0990     2.4640   -24.0890 
  259.8750    53.0470    25.3800     7.1870     7.1340     8.3010     2.4570   -24.3410 
  260.0000    57.1850    25.3050     7.3450     7.3310     8.6350     2.4380   -24.7720 
  260.1250    63.3190    25.3210     8.1600     7.6060     9.0310     2.4120   -25.2680 
  260.2500    67.7650    25.3250     9.1740     7.8950     9.4110     2.3840   -25.6690 
  260.3750    70.3180    25.1580     9.7550     8.1520     9.7250     2.3580   -26.0610 
  260.5000    73.5250    25.1050     9.8060     8.3450     9.9350     2.3310   -26.5590 
  260.6250    75.3230    25.2870     9.6270     8.4430    10.0170     2.2990   -27.0580 
  260.7500    73.1210    25.3730     9.4900     8.4690    10.0310     2.2740   -27.4190 
  260.8750    69.8880    25.3320     9.3420     8.4650    10.0400     2.2660   -27.5800 
  261.0000    70.3920    25.1140     9.1670     8.4730    10.1050     2.2720   -27.5420 
  261.1250    73.0680    25.1640     9.1370     8.5480    10.2770     2.2790   -27.4650 
  261.2500    73.7900    25.3360     9.5290     8.6670    10.5230     2.2850   -27.4100 
  261.3750    72.8400    25.3050    10.6980     8.8140    10.7960     2.2950   -27.2590 
  261.5000    72.8210    25.0950    11.6820     8.9690    11.0460     2.3110   -26.9380 
  261.6250    74.9630    25.0690    11.6810     9.1070    11.2210     2.3270   -26.5370 
  261.7500    75.7430    25.1100    10.9550     9.2180    11.3140     2.3360   -26.1690 
  261.8750    74.9640    24.9710    10.2380     9.3020    11.3560     2.3420   -25.9070 
  262.0000    74.1760    24.6460     9.6500     9.3890    11.4020     2.3540   -25.7540 
  262.1250    75.7120    24.5600     9.8580     9.5130    11.5030     2.3700   -25.5090 
  262.2500    78.7870    24.6830    10.5410     9.6840    11.6740     2.3710   -25.2020 
  262.3750    80.6780    24.5550    10.7290     9.8940    11.9060     2.3490   -24.9460 
  262.5000    81.7140    24.6410    10.4660    10.1000    12.1440     2.3190   -24.7780 
  262.6250    83.5560    24.6660    10.6560    10.2490    12.2800     2.3120   -24.7160 
  262.7500    88.2850    24.7420    10.8430    10.3010    12.2790     2.3270   -24.6380 
  262.8750    94.9990    24.7470    11.6910    10.2390    12.1200     2.3480   -24.4180 
  263.0000    99.3330    24.7810    14.1070    10.0620    11.8130     2.3620   -24.1320 
  263.1250    96.9270    24.9820    13.4820     9.8020    11.4500     2.3630   -23.9440 
  263.2500    91.1390    25.0650    10.9570     9.5520    11.1060     2.3630   -23.7990 
  263.3750    86.2850    25.0290     9.2630     9.3760    10.8770     2.3630   -23.6540 
  263.5000    87.1550    24.8070     9.5010     9.3310    10.8260     2.3610   -23.5030 
  263.6250    94.2450    24.8710    10.0660     9.4690    11.0090     2.3550   -23.2790 
  263.7500    99.4390    25.1150    10.5680     9.7460    11.3460     2.3500   -23.0490 
  263.8750    97.8210    25.1510    10.6800    10.1180    11.7690     2.3460   -22.9700 
  264.0000    93.2100    25.1470    11.0660    10.5200    12.1870     2.3390   -22.9730 
  264.1250    93.5040    25.0720    12.1170    10.8200    12.4410     2.3360   -22.9210 
  264.2500    94.2380    25.0520    12.7160    10.9380    12.4730     2.3480   -22.8540 
  264.3750    90.5750    25.0130    11.9130    10.8470    12.2800     2.3720   -22.8050 
  264.5000    85.1330    24.8530    10.5750    10.5850    11.9130     2.3890   -22.7590 
  264.6250    84.0620    24.8300     9.7970    10.2190    11.4700     2.3850   -22.8170 
  264.7500    86.5000    24.7640     9.6780     9.8650    11.0680     2.3660   -23.0120 
  264.8750    87.5710    24.7750     9.7670     9.5830    10.7710     2.3430   -23.1890 
  265.0000    85.8560    24.9140     9.7890     9.4100    10.6130     2.3250   -23.2530 
  265.1250    85.7720    24.7180     9.6330     9.3740    10.6300     2.3110   -23.2930 
  265.2500    88.6300    23.8580     9.6400     9.4460    10.7390     2.2970   -23.3870 
  265.3750    92.1020    22.9890     9.3940     9.5890    10.9100     2.2850   -23.5370 
  265.5000    94.4310    22.2770     8.9410     9.7970    11.1480     2.2790   -23.7410 
  265.6250    95.5970    21.7960     9.0500    10.0460    11.4180     2.2770   -23.8310 
  265.7500    94.9350    21.9900     9.7950    10.2860    11.6750     2.2770   -23.7780 
  265.8750    93.4720    22.4400    10.8420    10.4910    11.9020     2.2820   -23.7560 
  266.0000    93.2310    22.4930    12.1280    10.6590    12.0790     2.2970   -23.8390 
  266.1250    94.8800    23.3550    14.1170    10.7830    12.1900     2.3160   -23.9420 
  266.2500    94.8290    24.1670    14.8920    10.8810    12.2720     2.3310   -23.9640 
  266.3750    94.0300    24.6290    14.1810    10.9810    12.3730     2.3360   -23.8890 
  266.5000    95.3220    24.8620    13.5380    11.1140    12.5240     2.3300   -23.7960 
  266.6250    97.5660    25.3170    13.1080    11.3550    12.8250     2.3080   -23.7600 
  266.7500    97.8760    25.7720    13.2460    11.7030    13.2610     2.2800   -23.6890 
  266.8750    97.0720    25.9400    13.9800    12.1040    13.7380     2.2620   -23.4960 
  267.0000    97.0610    25.4870    14.3390    12.4660    14.1330     2.2650   -23.2230 
  267.1250    94.5980    25.2080    14.8820    12.6590    14.3200     2.2920   -22.9540 
  267.2500    90.0010    25.2370    15.7690    12.6160    14.2210     2.3240   -22.7900 
  267.3750    88.7230    25.1460    15.5780    12.3060    13.8070     2.3460   -22.6980 
  267.5000    93.2550    25.1040    13.0820    11.7770    13.1490     2.3520   -22.4850 
  267.6250    98.4440    25.2760    11.1320    11.1370    12.4000     2.3460   -22.1610 
  267.7500    98.4440    25.2710     9.9880    10.5590    11.7430     2.3400   -21.9110 
  267.8750    98.4440    25.1150     9.9050    10.1610    11.3480     2.3380   -21.7070 
  268.0000    98.4440    24.8400    10.0080    10.0010    11.2910     2.3360   -21.5270 
  268.1250    98.4440    24.9020    10.1800    10.1560    11.6070     2.3370   -21.3390 
  268.2500    98.4440    25.1620    10.7070    10.5470    12.1620     2.3480   -21.0020 
  268.3750    98.4440    25.1680    11.7240    11.1020    12.8480     2.3690   -20.5550 
  268.5000    98.4440    25.0700    12.7090    11.6850    13.4820     2.3930   -20.2090 
  268.6250    98.4440    25.0600    12.9270    12.0580    13.7670     2.4040   -19.8970 
  268.7500    98.4440    25.0970    12.4510    12.0870    13.6230     2.4010   -19.4800 
  268.8750    98.4440    25.1210    11.6150    11.7470    13.0420     2.3880   -18.9360 
  269.0000    98.4440    25.0700    11.4390    11.1060    12.1380     2.3760   -18.2940 
  269.1250    98.4440    25.3740    10.2460    10.2770    11.0980     2.3710   -17.6610 
  269.2500    98.4440    25.4600     8.7010     9.4430    10.1220     2.3640   -17.1040 
  269.3750    98.4440    25.3770     7.7340     8.7060     9.3090     2.3430   -16.5390 
