~V
VERS. 2.00: Ver 2.00
~W
STRT.M 60.0000:
STOP.M 250.0000:
STEP.M 0.1250:
NULL. -999.2500:
UWI. DF3018:
~C
DEPT.M :
DEN.GM/CC :
GR.API :
RML.OHMM :
RI. :
RXO.OHMM :
CALI.CM :
SP.MV :
~A
# ...
  138.7500     2.3500    98.1680    10.1030     8.7450     9.6040    24.0590   -14.0900 
  138.8750     2.3490    91.5500    12.9000    10.8820    12.2050    23.7730   -14.4870 
  139.0000     2.3340    84.7950    16.2050    13.3200    14.2910    23.6120   -14.7520 
  139.1250     2.3080    78.8190    18.5690    15.6840    15.7380    23.6040   -14.8790 
  139.2500     2.2830    74.5340    20.2060    17.4440    17.6300    23.6500   -14.8100 
  139.3750     2.2660    71.8750    20.5680    18.1150    19.7670    23.6880   -14.5580 
  139.5000     2.2570    69.9740    19.4320    17.4250    21.0850    23.7270   -14.1480 
  139.6250     2.2550    70.6920    16.8280    15.4010    20.6950    23.8270   -13.6400 
  139.7500     2.2570    76.1930    13.8550    12.9090    17.8140    24.0060   -13.0980 
  139.8750     2.2620    84.1570    11.3770    10.5970    13.4270    24.2080   -12.5790 
  140.0000     2.2710    89.0780     9.7950     8.8970     9.5410    24.3820   -12.1220 
  140.1250     2.2900    87.7980     9.3410     8.1560     8.1930    24.4890   -11.7030 
  140.2500     2.3250    84.5150     9.8750     8.2940     8.4250    24.5600   -11.3530 
  140.3750     2.3780    79.4960    11.3180     9.2990     9.5720    24.5770   -11.0840 
  140.5000     2.4460    72.4240    13.4730    11.0710    11.4900    24.5560   -10.8830 
  140.6250     2.5180    66.0060    15.9820    13.3960    15.5090    24.5290   -10.7420 
  140.7500     2.5770    60.9600    18.2820    15.7390    20.3190    24.5040   -10.6290 
  140.8750     2.6160    56.7330    20.0020    17.6920    22.5060    24.4920   -10.5480 
  141.0000     2.6350    54.9320    21.0070    19.0110    22.1470    24.5140   -10.4800 
  141.1250     2.6410    57.1800    21.3590    19.6140    21.7160    24.5280   -10.4550 
  141.2500     2.6430    58.4860    21.4080    19.8000    21.8780    24.5200   -10.4550 
  141.3750     2.6400    56.0840    21.2940    19.7280    22.1990    24.4980   -10.4600 
  141.5000     2.6340    51.3620    21.0570    19.4820    22.9880    24.5090   -10.4740 
  141.6250     2.6220    49.9930    20.7190    19.1060    22.8250    24.4960   -10.4810 
  141.7500     2.6110    52.9070    20.4040    18.7220    21.3240    24.4530   -10.4890 
  141.8750     2.6050    56.8610    20.2390    18.4430    19.7600    24.4080   -10.4740 
  142.0000     2.6050    58.2810    20.2910    18.3460    18.9680    24.4070   -10.4610 
  142.1250     2.6060    55.8950    20.5400    18.4570    19.4160    24.4330   -10.4430 
  142.2500     2.6020    54.6350    20.8060    18.6490    20.4140    24.4510   -10.4370 
  142.3750     2.5900    57.4830    20.9410    18.7970    21.3810    24.4430   -10.4350 
  142.5000     2.5690    62.8370    20.8520    18.7980    20.9610    24.4290   -10.4130 
  142.6250     2.5450    64.6260    20.5080    18.5760    20.2990    24.4210   -10.3910 
  142.7500     2.5230    62.8550    20.0230    18.1950    20.0730    24.4030   -10.3300 
  142.8750     2.5100    61.7510    19.4760    17.7200    19.4520    24.3630   -10.2740 
  143.0000     2.5070    62.5820    18.9340    17.2220    18.5710    24.3370   -10.1990 
  143.1250     2.5140    63.5620    18.4710    16.7800    18.4140    24.4010   -10.1290 
  143.2500     2.5250    64.1120    18.1460    16.4520    18.6800    24.4530   -10.0370 
  143.3750     2.5350    64.4900    18.0310    16.2980    18.9930    24.4690    -9.9550 
  143.5000     2.5420    64.8010    18.1750    16.3610    18.1180    24.4810    -9.9180 
  143.6250     2.5490    65.8050    18.5840    16.6680    17.2920    24.5110    -9.8820 
  143.7500     2.5570    67.4750    19.0840    17.0860    17.4630    24.5280    -9.8970 
  143.8750     2.5640    68.2540    19.4890    17.4650    18.1010    24.5250    -9.9300 
  144.0000     2.5630    66.8960    19.6320    17.6480    18.6450    24.4970    -9.9910 
  144.1250     2.5510    63.6960    19.3810    17.4840    18.9860    24.4550   -10.0490 
  144.2500     2.5380    61.6070    18.8750    17.0500    18.2850    24.4530   -10.1130 
  144.3750     2.5320    61.6620    18.2680    16.4640    17.1860    24.4900   -10.1640 
  144.5000     2.5390    62.4010    17.7030    15.8550    15.9030    24.5180   -10.1870 
  144.6250     2.5570    61.2080    17.2800    15.3390    14.5110    24.5340   -10.1900 
  144.7500     2.5710    59.0900    16.9820    14.9420    14.6390    24.5190   -10.1680 
  144.8750     2.5700    59.5590    16.7800    14.6570    15.1350    24.4750   -10.1420 
  145.0000     2.5530    62.6830    16.6570    14.4690    14.8110    24.4400   -10.1260 
  145.1250     2.5250    65.7840    16.6410    14.3880    14.6310    24.4210   -10.1040 
  145.2500     2.4980    66.8300    16.7410    14.4060    14.6450    24.4190   -10.0830 
  145.3750     2.4810    66.1700    16.9630    14.5260    14.5390    24.4520   -10.0620 
  145.5000     2.4760    65.6900    17.2900    14.7410    14.5980    24.4940   -10.0340 
  145.6250     2.4820    64.4120    17.6850    15.0350    14.8800    24.4890   -10.0340 
  145.7500     2.4940    61.9410    18.0790    15.3560    15.6610    24.4520   -10.0130 
  145.8750     2.5080    58.6960    18.4400    15.6730    16.4450    24.4410    -9.9960 
  146.0000     2.5220    56.3350    18.7590    15.9680    16.6190    24.4340    -9.9430 
  146.1250     2.5320    55.8950    19.0440    16.2310    16.8960    24.4670    -9.8660 
  146.2500     2.5360    56.2340    19.3130    16.4680    17.3050    24.4530    -9.7660 
  146.3750     2.5340    57.4610    19.5620    16.6760    17.5710    24.4360    -9.6600 
  146.5000     2.5290    58.8300    19.7680    16.8390    17.9250    24.4290    -9.5520 
  146.6250     2.5230    57.0360    19.8750    16.9140    18.2650    24.4190    -9.3640 
  146.7500     2.5200    53.9460    19.8580    16.8860    18.2380    24.4010    -9.1950 
  146.8750     2.5190    53.7390    19.7000    16.7430    18.0830    24.3970    -8.9840 
  147.0000     2.5180    57.3330    19.4040    16.4890    17.4280    24.4200    -8.7710 
  147.1250     2.5160    60.0300    18.9910    16.1400    16.8720    24.3980    -8.5490 
  147.2500     2.5130    60.0170    18.5530    15.7630    16.8700    24.3080    -8.3250 
  147.3750     2.5110    60.3140    18.1680    15.4130    16.7960    24.2440    -8.1150 
  147.5000     2.5070    62.0970    17.8990    15.1370    15.9200    24.2800    -7.9280 
  147.6250     2.4980    63.7210    17.7760    14.9720    15.1340    24.3190    -7.8170 
  147.7500     2.4840    64.0610    17.7160    14.8710    14.8730    24.3400    -7.7120 
  147.8750     2.4660    63.5660    17.6270    14.7820    15.0920    24.3650    -7.6480 
  148.0000     2.4470    65.1780    17.4290    14.6500    15.3830    24.4010    -7.6230 
  148.1250     2.4320    69.1640    17.0730    14.4330    15.5720    24.3980    -7.6770 
  148.2500     2.4240    71.4490    16.6480    14.1680    15.6580    24.3690    -7.7820 
  148.3750     2.4230    69.7150    16.2710    13.9250    14.9630    24.3480    -7.9150 
  148.5000     2.4300    66.7570    16.0570    13.7890    14.2890    24.3320    -8.0750 
  148.6250     2.4470    66.9200    16.1000    13.8390    14.2130    24.2860    -8.2520 
  148.7500     2.4670    68.2730    16.3070    14.0240    14.5300    24.1820    -8.4750 
  148.8750     2.4880    69.3440    16.5380    14.2440    14.9120    24.0620    -8.7340 
  149.0000     2.5040    69.3820    16.6060    14.3480    15.1510    24.0010    -9.0580 
  149.1250     2.5110    68.8500    16.2710    14.1270    15.4170    23.9930    -9.3760 
  149.2500     2.5090    70.4240    15.5410    13.5640    15.1540    23.9790    -9.7380 
  149.3750     2.4970    75.6880    14.5300    12.7310    14.3130    23.9470   -10.1090 
  149.5000     2.4780    83.0280    13.4510    11.7920    12.9670    23.9310   -10.4740 
  149.6250     2.4540    88.6270    12.5760    10.9700    11.3410    23.9650   -10.8280 
  149.7500     2.4290    91.5720    12.0150    10.3870    10.1660    24.0080   -11.1450 
  149.8750     2.4070    92.8210    11.7710    10.0740     9.7600    24.0140   -11.4390 
