~V
VERS. 2.00: Ver 2.00
~W
STRT.M 65.0000:
STOP.M 270.0000:
STEP.M 0.1250:
NULL. -999.2500:
UWI. DF3062:
~C
DEPT.M :
SP.MV :
GR.API :
CALI.CM :
RXO.OHMM :
RI. :
RML.OHMM :
DEN.GM/CC :
~A
# ...
  245.0000   -23.9670    70.6310    23.7130     9.9120    15.7210    15.6210     2.2610 
  245.1250   -23.7670    70.8700    23.7300    10.3410    15.8280    15.8450     2.2750 
  245.2500   -23.5550    70.1300    23.7480    10.5260    16.6630    16.7490     2.2860 
  245.3750   -23.3290    67.4730    23.7360    10.5070    17.7880    17.7910     2.2800 
  245.5000   -23.1130    67.0730    23.7060    13.3120    18.6760    18.4860     2.2560 
  245.6250   -22.9360    70.5890    23.6280    14.8730    18.7440    18.4060     2.2330 
  245.7500   -22.7900    73.8640    23.4830    13.7220    17.9690    17.6120     2.2300 
  245.8750   -22.6750    77.5900    23.4080    11.2520    16.6360    16.3470     2.2470 
  246.0000   -22.6010    84.4200    23.1360     9.1780    15.1860    15.0020     2.2700 
  246.1250   -22.5560    91.8770    23.0200     7.4580    13.9920    13.9960     2.2960 
  246.2500   -22.5640    93.5710    23.0530     6.9150    13.2290    13.5440     2.3190 
  246.3750   -22.6310    88.8440    23.1450     7.2230    12.9850    13.7610     2.3280 
  246.5000   -22.7830    83.7450    23.3780     7.8950    13.2780    14.6240     2.3280 
  246.6250   -22.9950    83.7680    23.3870     9.2060    14.1590    16.1690     2.3380 
  246.7500   -23.2380    84.9850    23.4320    11.6870    15.5720    18.3730     2.3700 
  246.8750   -23.4900    82.6100    23.4530    16.8590    17.6230    21.4900     2.4120 
  247.0000   -23.7470    78.5290    23.5290    21.3650    20.5770    25.9410     2.4400 
  247.1250   -24.0050    79.2440    23.6690    26.0080    25.0840    32.2580     2.4510 
  247.2500   -24.2510    81.6660    23.6760    34.3880    31.1050    40.2510     2.4610 
  247.3750   -24.4640    81.5780    23.7870    47.8930    38.6070    49.8640     2.4730 
  247.5000   -24.6130    79.5750    23.7900    61.6510    47.1460    60.6680     2.4740 
  247.6250   -24.6880    78.3460    23.5340    66.5970    55.3570    71.2770     2.4660 
  247.7500   -24.7140    77.2930    23.2070    58.6460    61.7540    79.8130     2.4630 
  247.8750   -24.7030    77.1220    23.3950    54.2050    65.3390    84.6800     2.4750 
  248.0000   -24.6560    78.7260    23.4880    53.8660    66.0880    85.6310     2.4820 
  248.1250   -24.5540    78.1280    23.4700    52.6110    64.9320    83.9620     2.4740 
  248.2500   -24.3940    75.4180    23.4510    58.5830    64.2230    83.2150     2.4630 
  248.3750   -24.1830    73.7550    23.4090    61.2300    65.2380    84.8110     2.4690 
  248.5000   -23.9120    76.5630    23.4310    53.9200    68.8900    89.3730     2.4960 
  248.6250   -23.6130    79.6590    23.4200    51.9480    76.4020    97.9110     2.5320 
  248.7500   -23.3080    78.7350    23.2920    56.6690    87.3750   109.8340     2.5670 
  248.8750   -23.0030    75.5070    23.1660    69.7420   100.9610   123.7640     2.5930 
  249.0000   -22.6920    71.5130    22.9380    87.9220   113.4360   134.8240     2.6150 
  249.1250   -22.3980    69.1520    23.1700   133.7060   116.1540   132.5580     2.6370 
  249.2500   -22.1220    68.5090    23.4440   204.0250   105.5130   115.4930     2.6550 
  249.3750   -21.8780    66.3000    23.4020   222.6090    84.1400    89.0330     2.6660 
  249.5000   -21.6790    58.2260    23.0670   155.2790    59.7110    61.9590     2.6780 
  249.6250   -21.5380    47.3130    22.8200    70.2710    39.7010    41.1580     2.6870 
  249.7500   -21.4080    43.0610    22.7290    37.6560    25.6040    26.7720     2.6730 
  249.8750   -21.3010    45.7670    22.5570    19.0200    16.5500    17.6200     2.6120 
  250.0000   -21.2220    49.6510    22.3290     8.1580    11.2600    12.2320     2.5290 
  250.1250   -21.1590    50.8750    22.2700     6.6910     8.7530     9.6120     2.4550 
  250.2500   -21.1400    52.3410    22.4400     7.2810     7.3940     8.3230     2.4100 
  250.3750   -21.1560    55.3070    22.6800     7.3030     6.7610     7.8680     2.3980 
  250.5000   -21.1910    57.9140    22.7450     7.1570     6.6000     7.9020     2.4010 
  250.6250   -21.2230    56.6150    22.7590     6.7870     6.7010     8.1320     2.4020 
  250.7500   -21.2650    54.0320    22.8030     6.4470     6.8480     8.3210     2.3940 
  250.8750   -21.3010    53.8480    23.0700     5.8770     6.9430     8.3790     2.3840 
  251.0000   -21.3440    55.0640    23.7300     4.9840     6.9550     8.3440     2.3810 
  251.1250   -21.3960    54.9470    23.8680     4.6000     6.8940     8.2470     2.3770 
  251.2500   -21.4290    55.0240    23.7980     5.3110     6.7910     8.1310     2.3680 
  251.3750   -21.4310    56.1630    23.7090     6.1960     6.6570     8.0410     2.3650 
  251.5000   -21.4050    57.9550    23.7140     6.5920     6.5110     7.9930     2.3740 
  251.6250   -21.3330    59.4030    23.8240     6.9060     6.3600     7.9800     2.3830 
  251.7500   -21.2520    59.4740    23.7710     7.0340     6.2130     7.9820     2.3800 
  251.8750   -21.1620    56.7920    23.7210     6.9050     6.0820     7.9920     2.3640 
  252.0000   -21.0510    53.0710    23.8710     6.8600     5.9710     7.9840     2.3510 
  252.1250   -20.9080    52.7190    23.8410     6.3050     5.8740     7.9710     2.3510 
  252.2500   -20.7370    54.0180    23.7640     5.3420     5.7940     7.9740     2.3580 
  252.3750   -20.5620    53.5450    23.7030     4.2850     5.7310     7.9870     2.3600 
  252.5000   -20.3740    52.5330    23.7120     3.9150     5.6840     8.0390     2.3570 
  252.6250   -20.1850    53.4440    23.8290     4.5320     5.6520     8.1170     2.3590 
  252.7500   -19.9960    55.0520    23.8600     5.4690     5.6350     8.2110     2.3720 
  252.8750   -19.8110    55.2930    23.7590     5.8430     5.6340     8.3010     2.3850 
  253.0000   -19.6420    55.0010    23.7070     5.2860     5.6440     8.3900     2.3870 
  253.1250   -19.4970    55.3450    23.7430     4.5750     5.6600     8.4630     2.3800 
  253.2500   -19.3950    55.2670    23.8290     4.3210     5.6720     8.5250     2.3750 
  253.3750   -19.3340    54.6340    23.7730     4.9320     5.6800     8.5670     2.3750 
  253.5000   -19.3430    53.0200    23.7320     5.5040     5.6760     8.5640     2.3760 
  253.6250   -19.3950    51.6490    23.7600     5.2890     5.6500     8.5070     2.3760 
  253.7500   -19.4470    52.2280    23.8080     5.2360     5.6150     8.4450     2.3730 
  253.8750   -19.5120    53.4170    23.8160     5.2050     5.5800     8.3690     2.3580 
  254.0000   -19.5810    52.3460    23.7260     4.8940     5.5500     8.2770     2.3340 
  254.1250   -19.6510    50.2620    23.7010     4.6980     5.5300     8.1810     2.3150 
  254.2500   -19.7300    51.4170    23.6460     4.2850     5.5130     8.1280     2.3110 
  254.3750   -19.8140    54.1020    23.4320     3.6260     5.5020     8.1090     2.3200 
  254.5000   -19.8800    53.4870    23.1270     2.8450     5.4980     8.1070     2.3290 
  254.6250   -19.9580    50.5230    23.0150     2.5330     5.4950     8.1160     2.3390 
  254.7500   -20.0380    50.4720    23.2380     2.4450     5.4890     8.1110     2.3530 
  254.8750   -20.1060    52.2200    23.5560     2.3880     5.4770     8.1050     2.3670 
  255.0000   -20.1600    52.5570    23.6960     2.2960     5.4630     8.1060     2.3750 
  255.1250   -20.2180    51.6700    23.7310     2.1690     5.4520     8.0980     2.3700 
  255.2500   -20.2610    53.1390    23.7640     2.3850     5.4400     8.0800     2.3510 
  255.3750   -20.2900    54.6020    23.7930     3.3850     5.4370     8.0690     2.3270 
  255.5000   -20.3010    53.8960    23.8150     4.7170     5.4450     8.0770     2.3160 
  255.6250   -20.2870    54.5270    23.8030     5.3790     5.4770     8.0890     2.3230 
  255.7500   -20.2760    56.9320    23.7570     5.5130     5.5250     8.0870     2.3410 
  255.8750   -20.2570    56.7950    23.8100     5.7630     5.5810     8.0840     2.3570 
  256.0000   -20.2340    52.6500    23.8310     6.1770     5.6320     8.0890     2.3650 
  256.1250   -20.2140    50.0260    23.8030     5.8840     5.6800     8.0880     2.3660 
