~V
VERS. 2.00: Ver 2.00
~W
STRT.M 60.0000:
STOP.M 268.0000:
STEP.M 0.1250:
NULL. -999.2500:
UWI. DF3035:
~C
DEPT.M :
GR.API :
CALI.CM :
RXO.OHMM :
RI. :
RML.OHMM :
SP.MV :
DEN.GM/CC :
AC.US/MT :
~A
# ...
  250.0000    72.9990    24.5910   106.4170    89.9800   104.4040   -20.0640     2.5520   224.7200 
  250.1250    72.8090    24.6610   128.6140    94.6370   109.7940   -19.7130     2.5820   213.9710 
  250.2500    72.5480    24.6620   183.6670   105.4530   121.9290   -19.3740     2.6070   206.8720 
  250.3750    71.8440    24.6390   266.7410   120.6380   139.1050   -19.0550     2.6340   200.5740 
  250.5000    69.5880    24.5810   349.7520   135.1140   154.4400   -18.7230     2.6610   194.7110 
  250.6250    64.6590    24.5690   380.7850   134.9510   146.4960   -18.3640     2.6830   190.4430 
  250.7500    57.0410    24.6210   345.3100   113.1290   111.7740   -17.9950     2.6890   190.4260 
  250.8750    49.6950    24.6490   255.7090    77.8770    70.4900   -17.6100     2.6850   196.0460 
  251.0000    48.0330    24.5900   146.0920    45.5240    39.9170   -17.2240     2.6780   208.7860 
  251.1250    54.0400    24.5230    63.4300    25.9540    23.2870   -16.8710     2.6660   229.3240 
  251.2500    60.3180    24.5530    24.0700    15.2840    14.0830   -16.5370     2.6300   256.9000 
  251.3750    63.6540    24.6690    10.1390     9.9440     9.2270   -16.2150     2.5680   285.5910 
  251.5000    65.2050    24.7750     5.9300     7.3980     6.8590   -15.9430     2.4970   309.7390 
  251.6250    66.5870    24.7820     5.2000     6.3730     6.0470   -15.7440     2.4360   325.0700 
  251.7500    67.1790    24.6990     5.0640     6.0150     5.9290   -15.5950     2.4040   329.6210 
  251.8750    67.7590    24.6210     5.0050     6.0360     6.1490   -15.4920     2.3980   328.5810 
  252.0000    69.9730    24.6590     5.0350     6.2200     6.4430   -15.4310     2.4060   325.8930 
  252.1250    72.1630    24.7790     5.1900     6.4030     6.6330   -15.3930     2.4140   323.8130 
  252.2500    71.9520    24.8830     5.3890     6.5150     6.7080   -15.3580     2.4140   322.5350 
  252.3750    70.9370    24.9890     5.5190     6.5610     6.7110   -15.3230     2.4070   320.7800 
  252.5000    71.1480    25.0740     5.5380     6.5660     6.6990   -15.2690     2.3970   317.4880 
  252.6250    71.5450    25.1650     5.5410     6.5650     6.6910   -15.1860     2.3880   312.1810 
  252.7500    70.6100    25.2910     5.6150     6.5630     6.7070   -15.0960     2.3830   305.5110 
  252.8750    67.0920    25.4040     5.9280     6.5750     6.7780   -15.0080     2.3760   299.9270 
  253.0000    63.8660    25.5790     6.4790     6.6030     6.9040   -14.9140     2.3660   297.4770 
  253.1250    63.0670    25.7280     6.8730     6.6320     7.0670   -14.8070     2.3610   298.7670 
  253.2500    64.1350    25.7520     6.7590     6.6460     7.2250   -14.7110     2.3670   302.1100 
  253.3750    65.0720    25.6590     6.3280     6.6380     7.3560   -14.6570     2.3780   303.6970 
  253.5000    66.6840    25.4470     6.1230     6.6170     7.4580   -14.6450     2.3870   301.1120 
  253.6250    70.6960    25.1080     6.5120     6.6000     7.5460   -14.6760     2.3930   293.9860 
  253.7500    74.2550    24.7670     7.2540     6.5910     7.6280   -14.7370     2.3990   284.2220 
  253.8750    74.1470    24.5280     8.2400     6.5830     7.6950   -14.8430     2.4080   275.8350 
  254.0000    70.8150    24.4070     9.3140     6.5660     7.7350   -14.9870     2.4190   271.6020 
  254.1250    69.8720    24.3870     9.8480     6.5400     7.7510   -15.1670     2.4240   272.6970 
  254.2500    71.4090    24.4580     9.5940     6.5220     7.7820   -15.3710     2.4220   278.4810 
  254.3750    72.3830    24.5470     9.0210     6.5380     7.8790   -15.5910     2.4190   285.1110 
  254.5000    72.4140    24.5520     8.8300     6.6160     8.0920   -15.8110     2.4140   289.8970 
  254.6250    70.8120    24.4640    10.1960     6.7830     8.4650   -16.0180     2.4000   291.8610 
  254.7500    69.0990    24.3890    13.9630     7.0180     8.9350   -16.2080     2.3830   292.3030 
  254.8750    68.8630    24.4030    19.7710     7.2790     9.3990   -16.3600     2.3830   293.7840 
  255.0000    70.3270    24.5130    25.2290     7.4970     9.7290   -16.4850     2.4060   296.5860 
  255.1250    71.7650    24.6080    26.3070     7.5790     9.7890   -16.5690     2.4370   298.6710 
  255.2500    72.5430    24.5520    23.1140     7.5310     9.6420   -16.6330     2.4400   296.2250 
  255.3750    73.1730    24.3480    18.0640     7.3890     9.3870   -16.6460     2.4170   288.8220 
  255.5000    73.9410    24.1420    13.6210     7.2050     9.1250   -16.6090     2.3950   278.9380 
  255.6250    76.0210    24.1210    10.8500     7.0210     8.9140   -16.5360     2.4000   271.3280 
  255.7500    77.6880    24.2730     9.1030     6.8520     8.7400   -16.4390     2.4320   272.0530 
  255.8750    76.1270    24.4930     7.9680     6.6920     8.5670   -16.3060     2.4560   281.4090 
  256.0000    71.3050    24.6550     7.1890     6.5350     8.3710   -16.1310     2.4590   297.4590 
  256.1250    68.7740    24.6880     6.5300     6.4000     8.1780   -15.9400     2.4460   316.7060 
  256.2500    70.8890    24.6240     5.9280     6.3110     8.0560   -15.7320     2.4320   334.7640 
  256.3750    74.4530    24.5110     5.5950     6.2900     8.0590   -15.5300     2.4240   348.8350 
  256.5000    77.1080    24.4290     5.4910     6.3440     8.1920   -15.3330     2.4250   358.2780 
  256.6250    77.0990    24.4430     5.4300     6.4550     8.3900   -15.1460     2.4300   363.8160 
  256.7500    76.1560    24.4870     5.3700     6.5750     8.5530   -14.9650     2.4280   366.1590 
  256.8750    76.1720    24.4860     5.3870     6.6770     8.6400   -14.8140     2.4270   366.3100 
  257.0000    75.6450    24.4600     5.5040     6.7530     8.6630   -14.6920     2.4330   364.3270 
  257.1250    75.6450    24.4940     5.5900     6.8030     8.6580   -14.6020     2.4400   360.7190 
  257.2500    75.6450    24.5780     5.5060     6.8340     8.6410   -14.5110     2.4240   356.8860 
  257.3750    75.6450    24.6610     5.2840     6.8390     8.5910   -14.4190     2.3920   354.1510 
  257.5000    75.6450    24.7110     5.0780     6.8110     8.4990   -14.3460     2.3710   352.8060 
  257.6250    75.6450    24.7100     5.0930     6.7470     8.3870   -14.2670     2.3780   352.5530 
  257.7500    75.6450    24.6800     5.3000     6.6630     8.2960   -14.1920     2.3960   353.2270 
  257.8750    75.6450    24.6110     5.5180     6.5800     8.2470   -14.1210     2.3960   354.4310 
  258.0000    75.6450    24.5110     5.5910     6.5240     8.2510   -14.0640     2.3760   355.3570 
  258.1250    75.6450    24.5150     5.6660     6.5220     8.3170   -14.0290     2.3590   354.8130 
  258.2500    75.6450    24.6710     5.9550     6.5710     8.4340   -14.0410     2.3710   351.8710 
  258.3750    75.6450    24.8450     6.3960     6.6690     8.6080   -14.0810     2.3970   347.9500 
  258.5000    75.6450    24.8760     6.7730     6.8120     8.8450   -14.1280     2.4140   344.8680 
  258.6250    75.6450    24.7770     6.8160     7.0050     9.1460   -14.2100     2.4130   343.6140 
  258.7500    75.6450    24.7120     6.5160     7.2290     9.4800   -14.2910     2.4110   343.5400 
  258.8750    75.6450    24.6800     6.0430     7.4690     9.8230   -14.3490     2.4220   343.0120 
  259.0000    75.6450    24.6070     5.7070     7.6970    10.1400   -14.3630     2.4410   341.6220 
  259.1250    75.6450    24.5090     5.7310     7.8680    10.3690   -14.3280     2.4520   339.8670 
  259.2500    75.6450    24.4830     5.9140     7.9650    10.4850   -14.2460     2.4510   337.9870 
  259.3750    75.6450    24.5380     6.0420     7.9820    10.4770   -14.1380     2.4520   334.9760 
  259.5000    75.6450    24.6240     6.0910     7.9320    10.3690   -14.0130     2.4590   329.2280 
  259.6250    75.6450    24.6840     6.2530     7.8340    10.2070   -13.8710     2.4690   319.8050 
  259.7500    75.6450    24.7220     6.6640     7.7310    10.0510   -13.7460     2.4830   307.6660 
  259.8750    75.6450    24.7470     7.2250     7.6470     9.9270   -13.6500     2.5010   296.6680 
