~V
VERS. 2.00: Ver 2.00
~W
STRT.M 56.0000:
STOP.M 270.0000:
STEP.M 0.1250:
NULL. -999.2500:
UWI. DF3053:
~C
DEPT.M :
GR.API :
CALI.CM :
RXO.OHMM :
RI. :
RML.OHMM :
DEN.GM/CC :
SP.MV :
~A
# ...
  100.8750    65.7430    23.4760     8.7430     8.1620    10.5160  -999.2500   -10.5840 
  101.0000    64.2300    23.3250     8.8520     7.6640    10.0460  -999.2500   -10.8970 
  101.1250    62.7000    23.1750     8.9200     7.4720    10.0830  -999.2500   -11.2080 
  101.2500    59.2800    23.0540     8.6380     7.4650    10.2570  -999.2500   -11.5110 
  101.3750    56.7260    22.9520     8.3990     7.5800    10.4290  -999.2500   -11.7880 
  101.5000    58.8580    22.8660     8.3560     7.7990    10.6560  -999.2500   -12.0270 
  101.6250    64.0660    22.8110     8.3430     8.1440    11.1040  -999.2500   -12.2110 
  101.7500    67.0120    22.7750     8.6260     8.5670    11.7130  -999.2500   -12.3470 
  101.8750    65.5630    22.7790     9.2790     8.9830    12.2660  -999.2500   -12.4520 
  102.0000    62.7050    22.8700    10.4030     9.2720    12.4970  -999.2500   -12.5440 
  102.1250    62.1310    23.0450    13.1180     9.2780    12.1960  -999.2500   -12.6400 
  102.2500    63.1680    23.2020    13.3400     9.0250    11.5840  -999.2500   -12.7520 
  102.3750    62.6210    23.2560    11.1450     8.6050    10.9090  -999.2500   -12.8750 
  102.5000    58.8180    23.1740     9.4910     8.1450    10.3380  -999.2500   -13.0050 
  102.6250    55.4450    23.0130     8.8580     7.7710     9.9520  -999.2500   -13.1320 
  102.7500    55.0930    22.8900     8.7220     7.5260     9.7290  -999.2500   -13.2550 
  102.8750    57.2240    22.8470     8.8090     7.4170     9.6520  -999.2500   -13.3760 
  103.0000    59.1920    22.8910     8.9160     7.4160     9.6830  -999.2500   -13.4860 
  103.1250    59.0110    23.0070     9.1190     7.4840     9.7640  -999.2500   -13.5630 
  103.2500    57.8200    23.1140     9.2380     7.5660     9.8370  -999.2500   -13.6040 
  103.3750    56.2360    23.1700     9.2680     7.6330     9.8930  -999.2500   -13.6210 
  103.5000    55.1310    23.1950     9.2550     7.6670     9.9450  -999.2500   -13.6300 
  103.6250    55.3090    23.2210     9.0080     7.6530    10.0070  -999.2500   -13.6460 
  103.7500    55.3930    23.2460     8.8990     7.6020    10.0810  -999.2500   -13.6520 
  103.8750    54.3490    23.2710     8.9840     7.5300    10.1450     2.1370   -13.6290 
  104.0000    52.9390    23.2980     9.1520     7.4570    10.1730     2.1370   -13.5620 
  104.1250    53.5550    23.3160     9.4430     7.4090    10.1380     2.1550   -13.4450 
  104.2500    55.8630    23.3160     9.4140     7.3760    10.0400     2.1650   -13.2990 
  104.3750    56.5690    23.3040     9.1080     7.3390     9.8710     2.1630   -13.1300 
  104.5000    54.3050    23.3000     8.8140     7.2930     9.6270     2.1590   -12.9410 
  104.6250    51.2290    23.3110     8.8840     7.2740     9.3640     2.1630   -12.7470 
  104.7500    51.5380    23.3210     8.9440     7.3220     9.1600     2.1810   -12.5580 
  104.8750    55.7360    23.3190     8.8760     7.4570     9.0440     2.2160   -12.3830 
  105.0000    60.7570    23.3060     8.7330     7.6640     9.0690     2.2610   -12.2140 
  105.1250    63.3240    23.2930     8.5800     7.8830     9.2720     2.2910   -12.0380 
  105.2500    63.6240    23.2530     8.2070     8.0160     9.5000     2.2890   -11.8630 
  105.3750    62.3090    23.1240     7.8380     7.9900     9.5250     2.2620   -11.7070 
  105.5000    59.7500    22.8870     7.6110     7.7970     9.2360     2.2340   -11.5910 
  105.6250    57.7590    22.6360     7.6010     7.4960     8.7440     2.2180   -11.5400 
  105.7500    57.9030    22.4870     7.7640     7.2050     8.2860     2.2120   -11.5370 
  105.8750    59.0770    22.4360     7.8470     7.0030     7.9980     2.2090   -11.5660 
  106.0000    59.6280    22.4250     7.8350     6.9270     7.9130     2.2100   -11.6020 
  106.1250    58.5230    22.4230     8.2170     6.9820     8.0090     2.2100   -11.6230 
  106.2500    57.2070    22.4600     8.5370     7.0990     8.2550     2.2070   -11.6270 
  106.3750    56.8260    22.5920     8.7120     7.2420     8.6980     2.2020   -11.6200 
  106.5000    58.7770    22.8230     8.9400     7.3880     9.3410     2.2010   -11.6010 
  106.6250    62.7540    23.0560     9.2800     7.5230     9.9720     2.2040   -11.5650 
  106.7500    65.4580    23.1940     9.6530     7.6410    10.3680     2.2110   -11.5120 
  106.8750    64.5470    23.2340     9.8450     7.7260    10.4840     2.2190   -11.4520 
  107.0000    61.4250    23.2200     9.8030     7.7600    10.3740     2.2220   -11.3950 
  107.1250    59.1160    23.1930     9.6790     7.7290    10.1500     2.2150   -11.3330 
  107.2500    58.5150    23.1880     9.5780     7.6630     9.9510     2.1960   -11.2490 
  107.3750    57.6230    23.2060     9.3780     7.5910     9.8240     2.1670   -11.1280 
  107.5000    56.2410    23.2370     9.0030     7.5350     9.7440     2.1360   -10.9720 
  107.6250    56.9040    23.2690     8.8060     7.5110     9.6730     2.1120   -10.7830 
  107.7500    57.6400    23.2950     8.9230     7.5170     9.6510     2.1030   -10.5730 
  107.8750    57.4580    23.3110     9.2930     7.5540     9.6990     2.1090   -10.3440 
  108.0000    57.4440    23.3510     9.6040     7.6180     9.7810     2.1300   -10.0960 
  108.1250    57.7460    23.4620     9.5130     7.6780     9.8250     2.1590    -9.8270 
  108.2500    57.0700    23.5950     9.3450     7.6720     9.7270     2.1830    -9.5560 
  108.3750    54.6040    23.6910     9.2780     7.5370     9.3900     2.1980    -9.2840 
  108.5000    53.5620    23.7440     9.1240     7.2440     8.8060     2.2060    -9.0110 
  108.6250    57.5470    23.8060     8.4870     6.8330     8.1040     2.2120    -8.7130 
  108.7500    63.3410    23.9080     7.3600     6.4380     7.5150     2.2190    -8.3750 
  108.8750    67.9490    24.0430     6.5750     6.1570     7.1830     2.2270    -7.9890 
  109.0000    70.1680    24.1520     6.5970     6.0270     7.1600     2.2300    -7.5710 
  109.1250    72.3840    24.0920     7.2950     6.0280     7.4200     2.2270    -7.1490 
  109.2500    73.8180    23.8960     8.0860     6.0530     7.7250     2.2210    -6.7580 
  109.3750    72.4170    23.7150     8.3280     6.0310     7.9180     2.2180    -6.4230 
  109.5000    69.7730    23.6900     7.4420     5.9380     7.9480     2.2210    -6.1800 
  109.6250    69.1160    23.8060     6.4090     5.7990     7.8360     2.2290    -6.0600 
  109.7500    69.5240    23.8990     6.2140     5.6730     7.6940     2.2370    -6.0320 
  109.8750    69.7600    23.9390     6.6240     5.5860     7.5940     2.2430    -6.0350 
  110.0000    70.3500    23.9770     6.7080     5.5240     7.5420     2.2490    -6.0100 
  110.1250    70.9940    24.0490     6.4510     5.4390     7.4420     2.2550    -5.9280 
  110.2500    72.1960    24.1050     6.2600     5.2710     7.1690     2.2580    -5.8420 
  110.3750    76.6790    24.1290     6.1420     4.9910     6.6650     2.2560    -5.7980 
  110.5000    84.0550    24.1500     5.8950     4.6260     5.9820     2.2530    -5.8290 
  110.6250    87.8570    24.1780     5.2550     4.2890     5.3460     2.2540    -5.9220 
  110.7500    86.6940    24.2030     4.7580     4.1200     5.0140     2.2620    -6.0420 
  110.8750    84.6590    24.2290     4.8330     4.2300     5.1480     2.2750    -6.1940 
  111.0000    84.4700    24.2460     5.7170     4.6960     5.8680     2.2970    -6.4020 
  111.1250    83.5240    24.2020     9.9500     5.6090     7.3210     2.3200    -6.7000 
  111.2500    79.7130    24.1060    19.0170     6.7940     9.1540     2.3190    -7.0790 
  111.3750    73.8780    23.9860    22.7810     7.9340    10.7610     2.2860    -7.5110 
  111.5000    67.7110    23.8490    17.5560     8.6160    11.4300     2.2390    -7.9830 
  111.6250    62.6080    23.7030    10.9320     8.5670    10.8850     2.2120    -8.4870 
  111.7500    58.7420    23.6030    10.2740     8.1490    10.0050     2.2080    -9.0270 
  111.8750    56.0040    23.5830     9.9660     7.6740     9.3860     2.2130    -9.5870 
  112.0000    54.0220    23.6040     9.7510     7.3320     9.2200     2.2140   -10.1330 
