~V
VERS. 2.00: Ver 2.00
~W
STRT.M 125.0000:
STOP.M 265.0000:
STEP.M 0.1250:
NULL. -999.2500:
UWI. DF3008:
~C
DEPT.M :
DEN.GM/CC :
GR.API :
CALI.CM :
RXO.OHMM :
RI. :
RML.OHMM :
SP.MV :
~A
# ...
  170.0000     2.2350    58.1660    25.3040   142.2960   130.8270   136.7680   -27.3870 
  170.1250     2.2130    58.5490    25.3420   134.0980   125.6830   130.9150   -27.5060 
  170.2500     2.2040    58.3830    25.3560   117.2350   118.3250   122.5560   -27.6830 
  170.3750     2.2080    57.1540    25.3590    94.9300   111.6060   114.5770   -27.8550 
  170.5000     2.2170    55.5750    25.3590    80.0330   107.3960   109.0130   -27.9970 
  170.6250     2.2230    55.9680    25.3590    85.2190   107.1910   107.5730   -28.1280 
  170.7500     2.2250    56.4560    25.3530    99.7580   110.6740   110.1160   -28.2260 
  170.8750     2.2280    56.4560    25.3170   118.4710   118.0310   117.0540   -28.2770 
  171.0000     2.2310    56.2980    25.2280   140.7240   129.5450   128.8940   -28.2530 
  171.1250     2.2310    54.7660    25.1330   164.4260   146.3290   146.9760   -28.1400 
  171.2500     2.2250    52.0500    25.0930   187.6670   168.0320   170.3480   -27.9570 
  171.3750     2.2230    50.1320    25.0860   227.8420   194.7310   197.2910   -27.7470 
  171.5000     2.2310    49.5670    25.0860   281.4980   222.3630   225.1530   -27.5210 
  171.6250     2.2420    49.9950    25.0860   312.2300   240.6550   244.3630   -27.2860 
  171.7500     2.2440    52.5340    25.0850   300.0810   241.5270   244.7140   -27.0640 
  171.8750     2.2400    56.8020    25.0750   264.5930   220.7670   220.9140   -26.8410 
  172.0000     2.2430    60.0420    25.0500   215.8370   181.0990   177.3720   -26.6060 
  172.1250     2.2690    62.7940    25.0120   154.8110   133.3980   128.7020   -26.3960 
  172.2500     2.3120    68.1870    24.9950   101.8730    91.9580    88.6460   -26.2060 
  172.3750     2.3570    76.4460    24.9920    65.9530    62.1290    60.4440   -26.0360 
  172.5000     2.3860    80.3030    24.9920    43.2850    43.6320    42.7290   -25.8860 
  172.6250     2.3870    76.8850    24.9920    28.7710    34.7140    33.9040   -25.7670 
  172.7500     2.3710    71.4860    24.9920    21.5530    31.0840    30.4050   -25.6700 
  172.8750     2.3480    70.7820    24.9920    20.1490    31.2810    31.0300   -25.6090 
  173.0000     2.3250    74.2890    24.9920    25.2530    34.7270    35.0920   -25.5810 
  173.1250     2.3070    75.4290    24.9920    38.2330    41.5440    42.3690   -25.5610 
  173.2500     2.2960    73.3880    24.9920    51.7850    50.1220    51.1140   -25.5630 
  173.3750     2.2940    70.6650    24.9920    58.0580    58.4380    59.4010   -25.5960 
  173.5000     2.3010    67.9500    24.9920    57.1350    64.5400    65.3910   -25.6480 
  173.6250     2.3130    65.6390    24.9920    58.1660    67.5690    68.3120   -25.7050 
  173.7500     2.3170    62.9350    24.9920    62.2550    69.1320    69.9720   -25.7700 
  173.8750     2.3030    60.8990    24.9920    66.9480    70.4300    71.7480   -25.8270 
  174.0000     2.2810    66.3200    24.9920    70.5410    72.1080    74.3490   -25.8740 
  174.1250     2.2700    74.9810    24.9920    73.4980    74.2630    77.8810   -25.8850 
  174.2500     2.2710    78.3740    24.9920    76.2520    76.5380    81.7740   -25.8740 
  174.3750     2.2780    72.2370    24.9920    79.4930    78.5970    85.5090   -25.8540 
  174.5000     2.2840    64.4140    24.9920    83.9200    80.0850    88.4910   -25.8560 
  174.6250     2.2870    62.4870    24.9920    87.1590    80.5080    89.8940   -25.8740 
  174.7500     2.2890    63.8530    24.9920    85.9770    79.9200    89.7310   -25.8770 
  174.8750     2.2950    66.5530    24.9920    80.2240    78.5020    88.2770   -25.8710 
  175.0000     2.3020    67.7210    24.9920    73.6280    76.5710    86.0520   -25.8440 
  175.1250     2.3070    66.5330    24.9920    70.8500    74.4270    83.5720   -25.8100 
  175.2500     2.3050    65.8180    24.9920    70.7200    72.2690    81.1320   -25.7610 
  175.3750     2.2990    66.8220    24.9920    70.6190    70.1720    78.7800   -25.6990 
  175.5000     2.2930    67.1840    24.9920    69.0890    68.2750    76.6130   -25.6120 
  175.6250     2.2880    65.5280    24.9920    66.7710    66.9600    75.0350   -25.5100 
  175.7500     2.2850    65.5940    24.9920    64.8620    66.5460    74.4420   -25.4350 
  175.8750     2.2830    67.7470    24.9920    65.7560    67.3630    75.2270   -25.3690 
  176.0000     2.2810    67.7380    24.9920    69.7590    69.5510    77.5390   -25.2880 
  176.1250     2.2790    65.5070    24.9920    74.2280    73.0550    81.2570   -25.2050 
  176.2500     2.2780    63.0390    24.9920    78.3810    77.0290    85.3730   -25.1150 
  176.3750     2.2760    61.3570    24.9920    83.0240    80.6870    88.9660   -25.0060 
  176.5000     2.2740    61.4160    24.9920    86.3690    83.2970    91.2310   -24.8740 
  176.6250     2.2760    62.2980    24.9900    85.1700    84.0380    91.3380   -24.7150 
  176.7500     2.2850    63.1450    24.9810    82.5200    82.7830    89.2900   -24.5200 
  176.8750     2.2970    63.0950    24.9560    80.2440    79.2650    84.8370   -24.3110 
  177.0000     2.3070    62.2130    24.9280    79.2960    73.6280    78.1420   -24.1110 
  177.1250     2.3210    64.3120    24.9150    76.1550    66.6270    70.1300   -23.8880 
  177.2500     2.3410    70.4720    24.9090    67.6650    59.6650    62.3660   -23.6690 
  177.3750     2.3640    75.1160    24.9080    55.9050    53.5450    55.6880   -23.4680 
  177.5000     2.3780    71.0190    24.9090    47.1130    48.7220    50.5170   -23.2880 
  177.6250     2.3770    64.1920    24.9100    45.8880    45.5280    47.1690   -23.1380 
  177.7500     2.3660    61.6630    24.9080    46.3670    43.5750    45.1810   -23.0100 
  177.8750     2.3500    62.5060    24.9070    44.3000    42.7050    44.3610   -22.9190 
  178.0000     2.3360    63.4040    24.9020    40.6100    42.8010    44.5850   -22.8970 
  178.1250     2.3280    64.3450    24.8880    40.3830    43.8570    45.8570   -22.9700 
  178.2500     2.3240    64.5900    24.8690    40.3780    45.5820    47.8530   -23.1080 
  178.3750     2.3190    64.6910    24.8610    40.7120    47.8320    50.4080   -23.2910 
  178.5000     2.3070    64.9310    24.8600    42.4300    50.3880    53.2870   -23.5190 
  178.6250     2.2880    65.4850    24.8600    46.4270    52.9940    56.2120   -23.7650 
  178.7500     2.2750    68.9080    24.8530    50.6200    55.5780    59.1240   -24.0230 
  178.8750     2.2740    74.3140    24.8160    53.5080    58.2840    62.2140   -24.2850 
  179.0000     2.2850    73.8820    24.7240    56.0520    61.2780    65.6980   -24.5140 
  179.1250     2.2940    66.2350    24.6280    59.3880    64.7320    69.7870   -24.6880 
  179.2500     2.2950    58.7400    24.5860    62.5520    68.5950    74.4060   -24.8060 
  179.3750     2.2940    55.5400    24.5770    64.6960    72.7320    79.4030   -24.8750 
  179.5000     2.2910    55.4600    24.5770    67.4320    76.8090    84.3790   -24.8920 
  179.6250     2.2870    57.8340    24.5770    73.1530    80.0070    88.3220   -24.8580 
  179.7500     2.2830    61.4640    24.5770    78.2860    81.5690    90.2270   -24.8100 
  179.8750     2.2850    63.6190    24.5770    79.7130    80.9470    89.3430   -24.7610 
  180.0000     2.2870    63.9310    24.5770    76.9600    78.1370    85.6840   -24.7520 
  180.1250     2.2870    66.7220    24.5770    70.8730    73.6090    79.9690   -24.7870 
  180.2500     2.2880    71.9350    24.5770    64.3670    68.7380    73.9770   -24.8550 
  180.3750     2.2940    73.5160    24.5770    59.2500    64.4600    68.8430   -24.9650 
  180.5000     2.3020    71.9560    24.5770    55.0980    61.3330    65.1790   -25.1300 
  180.6250     2.3040    72.1410    24.5770    52.1210    59.5590    63.1670   -25.3840 
  180.7500     2.3010    73.9370    24.5770    50.1510    58.4880    61.9670   -25.6790 
  180.8750     2.2930    71.6190    24.5770    49.8940    57.5380    60.8580   -25.9500 
  181.0000     2.2840    65.7300    24.5770    49.9840    56.1900    59.2170   -26.1910 
  181.1250     2.2770    65.4220    24.5770    47.7990    54.1720    56.7400   -26.4140 
