~V
VERS. 2.00: Ver 2.00
~W
STRT.M 85.0000:
STOP.M 235.0000:
STEP.M 0.1250:
NULL. -999.2500:
UWI. DF305:
~C
DEPT.M :
DEN.GM/CC :
SP.MV :
AC.US/MT :
GR.API :
CALI.CM :
RXO.OHMM :
RI. :
RML.OHMM :
~A
# ...
  175.0000     2.4230   -21.8560   406.6490    93.4440    24.4840     5.6080     4.7010     6.3890 
  175.1250     2.4010   -21.9980   407.4690    90.7540    24.4780     5.7390     4.8240     6.5430 
  175.2500     2.3820   -22.1220   405.9190    90.7170    24.4780     6.1130     5.0950     6.9060 
  175.3750     2.3760   -22.2310   402.3660    90.8670    24.4780     6.9000     5.5080     7.4750 
  175.5000     2.3830   -22.3320   397.8390    89.8680    24.4780     8.1840     6.0300     8.2010 
  175.6250     2.3990   -22.4340   393.0850    86.2660    24.4780     9.6710     6.6090     8.9930 
  175.7500     2.4090   -22.5520   388.5150    84.1730    24.4780    10.4900     7.1730     9.7470 
  175.8750     2.4130   -22.6600   385.0100    83.7730    24.4760    10.6890     7.6700    10.4050 
  176.0000     2.4150   -22.7410   384.1570    82.3600    24.4740    11.0840     8.0560    10.9220 
  176.1250     2.4160   -22.7870   387.6700    81.2840    24.4760    12.1460     8.2530    11.1840 
  176.2500     2.4180   -22.8260   393.8530    84.5440    24.4780    12.7000     8.2450    11.1440 
  176.3750     2.4230   -22.8430   400.4220    89.2100    24.4780    11.9640     8.0400    10.7870 
  176.5000     2.4360   -22.8450   405.3420    90.0860    24.4780    10.3670     7.7110    10.2240 
  176.6250     2.4520   -22.8350   406.8730    87.6810    24.4780     8.9390     7.4110     9.7110 
  176.7500     2.4600   -22.8050   405.3520    86.5170    24.4780     8.0580     7.2730     9.4680 
  176.8750     2.4540   -22.7470   401.9900    88.4300    24.4780     7.8520     7.3610     9.5830 
  177.0000     2.4390   -22.6920   399.1100    91.1470    24.4780     8.4110     7.6680    10.0200 
  177.1250     2.4220   -22.6360   399.2450    91.0310    24.4780     9.4990     8.1170    10.6220 
  177.2500     2.4120   -22.5580   401.4800    87.4330    24.4780    10.3130     8.5310    11.1190 
  177.3750     2.4120   -22.4710   403.5220    83.0200    24.4780    10.4070     8.7920    11.3480 
  177.5000     2.4180   -22.3930   403.3110    82.1090    24.4780    10.0320     8.8550    11.2770 
  177.6250     2.4200   -22.3060   400.0880    84.2380    24.4780     9.6550     8.7420    10.9840 
  177.7500     2.4180   -22.2100   395.8700    87.9060    24.4780     9.5180     8.5810    10.6650 
  177.8750     2.4180   -22.1190   392.5280    92.2700    24.4780     9.4190     8.4620    10.4380 
  178.0000     2.4270   -22.0330   390.8890    94.0120    24.4780     9.3160     8.4510    10.3770 
  178.1250     2.4420   -21.9810   389.7410    89.0490    24.4780     9.2760     8.6230    10.5610 
  178.2500     2.4440   -21.9510   386.9900    80.4410    24.4780     9.3770     8.9650    10.9560 
  178.3750     2.4250   -21.9570   382.7710    72.2690    24.4780     9.6400     9.4590    11.5280 
  178.5000     2.3920   -21.9780   379.6340    67.1060    24.4780    10.2060    10.0460    12.2100 
  178.6250     2.3650   -22.0450   381.1910    65.9100    24.4780    10.9550    10.6400    12.9120 
  178.7500     2.3490   -22.1460   386.5110    71.4540    24.4780    11.3930    11.1650    13.5570 
  178.8750     2.3370   -22.2650   392.8200    79.6700    24.4780    11.4310    11.5880    14.1100 
  179.0000     2.3380   -22.3930   397.6520    84.5930    24.4780    11.5080    11.8730    14.5050 
  179.1250     2.3520   -22.5170   400.3990    86.6800    24.4690    12.0290    11.9360    14.5780 
  179.2500     2.3720   -22.6520   402.4770    86.3880    24.4420    12.7000    11.7890    14.3130 
  179.3750     2.3880   -22.7880   404.1970    83.1280    24.4130    12.8600    11.4900    13.7970 
  179.5000     2.3950   -22.8990   404.7360    79.1010    24.4240    12.1900    11.1750    13.2650 
  179.6250     2.3910   -22.9630   402.8500    78.8850    24.5240    11.2500    11.0980    13.1370 
  179.7500     2.3840   -23.0060   399.0280    79.9970    24.6570    11.5540    11.4460    13.6750 
  179.8750     2.3750   -23.0530   394.0470    77.6610    24.7560    13.3590    12.3690    15.0370 
  180.0000     2.3600   -23.1130   389.1800    74.0630    24.7980    16.1510    13.9490    17.2530 
  180.1250     2.3350   -23.1570   387.3240    70.5650    24.8130    19.6470    16.2420    20.2750 
  180.2500     2.3090   -23.1920   393.1010    66.9700    24.8210    23.2040    18.8740    23.5510 
  180.3750     2.2910   -23.2320   402.0920    65.8130    24.8370    25.4910    21.4460    26.5350 
  180.5000     2.2840   -23.2780   406.4190    69.3640    24.8520    25.7960    23.5930    28.8290 
  180.6250     2.2860   -23.3520   407.6010    74.7540    24.8590    25.2640    25.0260    30.2330 
  180.7500     2.2870   -23.4510   408.6940    77.0720    24.8590    25.7730    25.8200    30.9610 
  180.8750     2.2880   -23.5460   411.0100    75.0410    24.8590    27.0910    26.0360    31.0830 
  181.0000     2.2880   -23.6130   413.4460    70.9270    24.8590    27.9320    25.8600    30.7760 
  181.1250     2.2830   -23.6820   412.3320    70.1680    24.8590    27.1700    25.6340    30.4040 
  181.2500     2.2760   -23.7870   406.3280    71.9000    24.8590    25.7830    25.7310    30.4130 
  181.3750     2.2690   -23.8920   397.9470    73.1070    24.8590    25.6240    26.4090    31.1290 
  181.5000     2.2670   -24.0100   393.0470    73.2430    24.8590    28.7490    27.8250    32.7590 
  181.6250     2.2690   -24.1210   398.0470    72.1250    24.8590    34.4370    30.0780    35.4280 
  181.7500     2.2720   -24.2260   409.3140    69.5570    24.8590    39.0270    32.7520    38.6070 
  181.8750     2.2730   -24.3360   420.2770    65.8350    24.8590    40.6590    35.3620    41.6790 
  182.0000     2.2730   -24.4490   425.9640    63.5590    24.8590    41.3430    37.3930    43.9900 
  182.1250     2.2710   -24.5740   425.4300    66.6030    24.8590    42.4470    38.4330    45.0200 
  182.2500     2.2680   -24.6680   422.9260    73.0270    24.8590    42.1920    38.8220    45.2300 
  182.3750     2.2640   -24.7630   420.7040    77.8790    24.8590    39.3690    38.9930    45.1870 
  182.5000     2.2590   -24.8880   419.2050    78.2340    24.8590    36.4680    39.3720    45.4220 
  182.6250     2.2500   -25.0250   417.4410    78.5400    24.8590    36.6820    40.3910    46.4500 
  182.7500     2.2420   -25.1620   415.0580    80.5920    24.8590    40.5140    42.1330    48.3570 
  182.8750     2.2370   -25.3040   413.2000    81.2060    24.8590    45.2690    44.5900    51.1190 
  183.0000     2.2330   -25.4490   413.5360    78.8680    24.8590    48.5650    47.6110    54.5320 
  183.1250     2.2270   -25.6050   416.9950    75.4370    24.8590    49.2250    50.9440    58.2750 
  183.2500     2.2180   -25.7720   422.0330    72.2340    24.8590    49.9260    54.2430    61.9650 
  183.3750     2.2130   -25.9220   427.8450    69.3870    24.8590    50.5060    57.3280    65.4270 
  183.5000     2.2190   -26.0410   434.4560    66.8400    24.8670    52.0100    60.0990    68.5690 
  183.6250     2.2350   -26.1380   440.2580    63.6960    24.8930    55.4390    62.3560    71.1240 
  183.7500     2.2470   -26.2240   442.5870    62.4960    24.9280    55.7890    64.0120    72.9060 
  183.8750     2.2470   -26.2960   440.9210    65.0010    24.9370    50.7760    65.0270    73.8370 
  184.0000     2.2430   -26.3820   436.5020    69.5130    24.8580    43.4410    65.5030    74.0880 
  184.1250     2.2430   -26.4710   430.5320    72.0750    24.5680    42.2850    65.5450    73.8790 
  184.2500     2.2480   -26.5530   424.5460    70.5170    24.0170    43.5420    65.3240    73.4550 
  184.3750     2.2510   -26.6450   420.4810    67.2200    23.3270    42.4810    64.9020    72.8970 
  184.5000     2.2480   -26.7240   419.3130    68.8760    22.7520    38.3910    64.3300    72.2580 
  184.6250     2.2390   -26.8060   420.0460    75.0880    22.3470    34.6100    63.6770    71.6000 
  184.7500     2.2300   -26.8800   421.0360    76.6880    22.0220    32.0370    63.0900    71.0390 
  184.8750     2.2270   -26.9620   421.8410    73.2220    21.7480    28.9970    62.6870    70.6510 
