~V
VERS. 2.00: Ver 2.00
~W
STRT.M 105.0000:
STOP.M 279.0000:
STEP.M 0.1250:
NULL. -999.2500:
UWI. DF3027:
~C
DEPT.M :
DEN.GM/CC :
AC.US/MT :
GR.API :
CALI.CM :
RXO.OHMM :
RI. :
RML.OHMM :
SP.MV :
~A
# ...
  225.0000     2.4580   339.3670    84.0020    24.1780    10.4710     9.5620    11.0660   -11.7780 
  225.1250     2.4520   342.6110    85.9770    24.3530    10.4120     9.1700    10.6320   -11.7120 
  225.2500     2.4270   346.5880    89.8420    24.5230     9.9890     8.8730    10.3340   -11.6900 
  225.3750     2.3940   350.1400    91.1720    24.6300     9.3400     8.7540    10.2950   -11.7120 
  225.5000     2.3650   351.9730    88.9150    24.6870     9.0210     8.8840    10.6150   -11.7710 
  225.6250     2.3510   351.5090    85.9680    24.7310     9.8260     9.3150    11.3250   -11.8410 
  225.7500     2.3500   350.0800    84.2720    24.7830    11.7120     9.8800    12.1310   -11.8880 
  225.8750     2.3560   348.1850    82.6400    24.8460    13.8760    10.3500    12.6840   -11.8880 
  226.0000     2.3680   344.7500    81.9040    24.9170    14.8840    10.5080    12.7250   -11.8250 
  226.1250     2.3890   336.5610    83.5680    25.0270    13.5770    10.3000    12.2890   -11.6890 
  226.2500     2.4260   322.9180    85.3750    25.1850    11.3420    10.0230    11.8670   -11.5160 
  226.3750     2.4820   305.3630    83.7410    25.3320    10.1130     9.9080    11.7890   -11.3380 
  226.5000     2.5400   287.5980    80.7180    25.4130    11.4560    10.0680    12.1530   -11.1560 
  226.6250     2.5660   274.7040    78.9530    25.4580    15.2100    10.4610    12.7800   -10.9750 
  226.7500     2.5580   268.0110    77.4140    25.5350    17.4780    10.8010    13.1990   -10.7860 
  226.8750     2.5380   266.6440    74.7340    25.6310    16.0620    10.8480    13.1010   -10.6080 
  227.0000     2.5200   268.3100    72.4350    25.7210    12.4460    10.5300    12.4770   -10.4490 
  227.1250     2.5050   270.4850    70.2740    25.8090     9.9140     9.9820    11.6260   -10.3110 
  227.2500     2.4920   271.6790    67.5410    25.8900     9.0330     9.4800    10.9450   -10.1840 
  227.3750     2.4860   271.7940    66.8760    25.9410     9.1850     9.1570    10.5840   -10.0490 
  227.5000     2.4860   271.3780    70.0410    25.9570     9.7430     9.0300    10.5080    -9.9260 
  227.6250     2.4830   271.4500    74.7920    25.9520    10.0260     9.0340    10.5760    -9.8330 
  227.7500     2.4720   272.8300    76.3990    25.9470     9.8040     9.0510    10.6350    -9.7810 
  227.8750     2.4550   275.9340    75.3840    25.9370     9.3970     9.0390    10.6430    -9.7550 
  228.0000     2.4360   280.5670    73.3290    25.8920     9.2830     8.9960    10.6080    -9.7390 
  228.1250     2.4260   285.5540    71.6150    25.8750     9.5980     8.9440    10.5560    -9.7240 
  228.2500     2.4300   288.8000    71.8060    25.9560     9.9480     8.9080    10.5240    -9.7030 
  228.3750     2.4450   288.5530    74.4340    26.0890    10.1280     8.9030    10.5390    -9.6840 
  228.5000     2.4670   284.1640    77.6080    26.1600    10.2350     8.9380    10.6220    -9.6550 
  228.6250     2.4860   276.7340    80.0010    26.1180    10.4250     9.0160    10.7860    -9.6080 
  228.7500     2.4980   269.9670    81.9450    26.0700    10.5380     9.1160    10.9910    -9.5530 
  228.8750     2.4980   266.6990    80.6340    26.0550    10.3730     9.2120    11.1920    -9.4980 
  229.0000     2.4890   268.3010    75.4950    26.0200     9.9690     9.2790    11.3410    -9.4540 
  229.1250     2.4800   274.3730    71.6970    25.8780     9.5540     9.2910    11.4030    -9.4330 
  229.2500     2.4790   281.3570    73.0320    25.6620     9.3260     9.2650    11.4020    -9.4230 
  229.3750     2.4850   286.6070    74.2260    25.4670     9.4090     9.2200    11.3740    -9.4210 
  229.5000     2.4920   288.7850    71.7620    25.3540     9.7400     9.1820    11.3570    -9.4170 
  229.6250     2.5000   288.0420    69.5890    25.3140     9.9430     9.1700    11.3790    -9.4120 
  229.7500     2.5080   286.5110    71.6830    25.2880     9.8970     9.1800    11.4280    -9.3990 
  229.8750     2.5140   285.4710    73.9870    25.2470     9.8840     9.1990    11.4840    -9.3830 
  230.0000     2.5090   285.4070    72.4570    25.2010    10.0660     9.2090    11.5210    -9.3700 
  230.1250     2.4870   286.2340    67.4110    25.1820    10.1050     9.1960    11.5160    -9.3600 
  230.2500     2.4590   287.4260    65.8440    25.1930     9.8130     9.1670    11.4890    -9.3790 
  230.3750     2.4370   288.6220    70.8040    25.2050     9.4700     9.1400    11.4780    -9.4160 
  230.5000     2.4280   289.2490    77.4680    25.1850     9.4150     9.1470    11.5320    -9.4680 
  230.6250     2.4390   288.2060    78.8930    25.1190     9.7570     9.2190    11.6930    -9.5360 
  230.7500     2.4690   285.2540    74.1220    25.0310    10.2670     9.3470    11.9240    -9.5970 
  230.8750     2.5080   280.7720    70.1730    24.9480    10.8390     9.5050    12.1690    -9.6430 
  231.0000     2.5330   275.7060    71.6230    24.8880    11.3540     9.6600    12.3740    -9.6700 
  231.1250     2.5300   271.5600    77.1680    24.8670    11.4160     9.7770    12.4970    -9.6750 
  231.2500     2.5160   269.6220    79.3950    24.8890    10.9060     9.8530    12.5660    -9.6610 
  231.3750     2.5060   270.4430    76.6950    24.9340    10.2230     9.9030    12.6210    -9.6320 
  231.5000     2.4980   273.3480    74.9690    24.9600     9.8940     9.9530    12.7100    -9.5930 
  231.6250     2.4920   276.6630    77.0370    24.9340     9.8800    10.0260    12.8610    -9.5360 
  231.7500     2.4950   279.0900    77.9480    24.8960     9.7760    10.1200    13.0340    -9.4700 
  231.8750     2.5020   280.5360    74.7830    24.8750     9.7950    10.2150    13.1760    -9.4040 
  232.0000     2.5030   281.2890    73.2260    24.8360    10.2560    10.2790    13.2300    -9.3440 
  232.1250     2.4970   281.5020    74.2870    24.7570    10.6270    10.2740    13.1420    -9.2890 
  232.2500     2.5030   281.2170    73.0470    24.6720    10.2110    10.1980    12.9410    -9.2270 
  232.3750     2.5230   280.4390    70.6800    24.5620     9.1900    10.0630    12.6660    -9.1510 
  232.5000     2.5440   279.5830    71.3930    24.4110     8.2430     9.8930    12.3640    -9.0770 
  232.6250     2.5460   279.7580    75.7470    24.2680     8.0040     9.7190    12.0820    -9.0160 
  232.7500     2.5350   281.6330    78.6360    24.1960     8.4510     9.5610    11.8410    -8.9720 
  232.8750     2.5220   285.2330    78.2660    24.1650     9.0930     9.4200    11.6440    -8.9260 
  233.0000     2.5160   289.9730    74.4360    24.1310     9.1020     9.2780    11.4680    -8.8790 
  233.1250     2.5220   295.1170    70.3810    24.1010     8.1040     9.1020    11.2660    -8.8400 
  233.2500     2.5260   300.2250    69.4340    24.1180     7.0120     8.8690    10.9910    -8.8210 
  233.3750     2.5170   305.4690    69.6140    24.2090     6.4560     8.5730    10.6210    -8.8370 
  233.5000     2.4910   311.4260    70.2280    24.3040     6.3290     8.2230    10.1600    -8.8790 
  233.6250     2.4530   319.0310    71.2680    24.2170     6.0720     7.8450     9.6550    -8.9340 
  233.7500     2.4120   327.8350    71.8070    24.0040     5.5570     7.4880     9.1890    -8.9910 
  233.8750     2.3660   336.3090    69.4990    23.9730     5.0930     7.1860     8.8240    -9.0610 
  234.0000     2.3230   342.1430    65.8560    24.4580     4.9330     6.9680     8.5940    -9.1570 
  234.1250     2.3120   342.2530    63.3450    25.3580     5.0480     6.8620     8.5120    -9.2740 
  234.2500     2.3390   336.5980    61.3530    25.8690     5.2400     6.8480     8.5360    -9.3930 
  234.3750     2.3820   325.9540    60.4230    25.5620     5.5320     6.9210     8.6510    -9.4860 
  234.5000     2.4140   312.2170    61.0700    24.7150     5.9640     7.0720     8.8520    -9.5310 
  234.6250     2.4330   298.2310    62.5780    24.0330     6.4470     7.2920     9.1400    -9.5230 
  234.7500     2.4590   286.6860    63.7360    23.7170     6.9020     7.5470     9.4750    -9.4780 
  234.8750     2.4820   278.7860    64.4040    23.5900     7.4080     7.8130     9.8200    -9.4070 
