~V
VERS. 2.00: Ver 2.00
~W
STRT.M 125.0000:
STOP.M 247.0000:
STEP.M 0.1250:
NULL. -999.2500:
UWI. DF3017:
~C
DEPT.M :
DEN.GM/CC :
GR.API :
RML.OHMM :
RI. :
RXO.OHMM :
CALI.CM :
SP.MV :
~A
# ...
  147.5000     2.4990    55.0870    18.7800    17.2050    19.4930    24.9190   -13.6960 
  147.6250     2.4900    57.4270    18.2000    16.6400    18.5050    24.8530   -13.6860 
  147.7500     2.4850    57.1450    17.6390    16.0820    17.3330    24.8090   -13.6870 
  147.8750     2.4870    55.0040    17.1870    15.6100    16.6040    24.8010   -13.6890 
  148.0000     2.4910    54.1650    16.8920    15.2790    15.9610    24.8000   -13.7020 
  148.1250     2.4950    55.9050    16.7770    15.1310    15.4380    24.8000   -13.7600 
  148.2500     2.4950    57.9470    16.7570    15.1020    15.5590    24.8000   -13.8460 
  148.3750     2.4940    58.2160    16.7600    15.1320    16.0200    24.8000   -13.9310 
  148.5000     2.4940    57.3770    16.7190    15.1560    15.9910    24.8000   -14.0500 
  148.6250     2.4990    58.2760    16.5900    15.1120    15.4140    24.8000   -14.1370 
  148.7500     2.5050    60.0360    16.3960    14.9940    15.1430    24.8000   -14.2430 
  148.8750     2.5090    60.0410    16.1730    14.8220    15.1040    24.7970   -14.3250 
  149.0000     2.5080    59.2490    15.9630    14.6350    15.2200    24.7860   -14.4100 
  149.1250     2.5010    60.9960    15.8170    14.4850    15.3750    24.7150   -14.4610 
  149.2500     2.4930    64.3550    15.7540    14.4020    15.1100    24.6420   -14.4900 
  149.3750     2.4870    65.6120    15.7780    14.4000    15.1450    24.6060   -14.5370 
  149.5000     2.4830    62.8220    15.8780    14.4750    15.0390    24.6110   -14.5750 
  149.6250     2.4810    59.7200    16.0150    14.6040    15.1680    24.6110   -14.6550 
  149.7500     2.4820    60.3030    16.1210    14.7280    15.4100    24.6110   -14.6970 
  149.8750     2.4900    63.2520    16.1490    14.7990    15.8120    24.6110   -14.7490 
  150.0000     2.5030    66.2830    16.0800    14.7910    15.7410    24.6160   -14.8070 
  150.1250     2.5180    68.5550    15.9190    14.6960    14.9400    24.6760   -14.9030 
  150.2500     2.5290    68.6980    15.7180    14.5590    14.4820    24.8030   -14.9870 
  150.3750     2.5310    65.9080    15.5180    14.4190    14.4660    24.9210   -15.0570 
  150.5000     2.5240    63.0480    15.3560    14.3060    14.6400    24.9690   -15.1490 
  150.6250     2.5120    64.2230    15.2700    14.2520    14.7700    24.9670   -15.2400 
  150.7500     2.5020    66.2380    15.2550    14.2530    14.8810    24.9680   -15.3630 
  150.8750     2.4990    65.7030    15.2860    14.2920    15.0880    24.9700   -15.4940 
  151.0000     2.5010    63.7250    15.3060    14.3260    15.0370    24.9710   -15.6550 
  151.1250     2.5040    63.5780    15.2190    14.2730    15.0760    24.9680   -15.8650 
  151.2500     2.5030    64.7680    14.9850    14.0880    15.3720    24.9680   -16.1380 
  151.3750     2.4960    66.8140    14.6050    13.7640    15.2440    24.9750   -16.4700 
  151.5000     2.4810    70.6880    14.1340    13.3410    14.7930    25.0000   -16.8030 
  151.6250     2.4610    76.3320    13.6830    12.9160    13.7220    25.0670   -17.1710 
  151.7500     2.4390    81.6600    13.3660    12.5920    13.3990    25.1390   -17.5020 
  151.8750     2.4200    87.2660    13.2510    12.4380    14.1790    25.1840   -17.8190 
  152.0000     2.4050    93.3710    13.3630    12.4890    15.2520    25.1970   -18.0910 
  152.1250     2.3970    95.9210    13.7080    12.7780    15.1590    25.1970   -18.3120 
  152.2500     2.3930    92.8870    14.1730    13.2250    16.2270    25.1970   -18.4630 
  152.3750     2.3900    87.6400    14.6650    13.7560    16.8900    25.1970   -18.5450 
  152.5000     2.3860    84.9440    15.1090    14.2950    17.4090    25.1970   -18.5850 
  152.6250     2.3820    88.1210    15.4820    14.7930    17.7860    25.1970   -18.5700 
  152.7500     2.3800    92.4840    15.8800    15.2900    18.5000    25.1970   -18.5700 
  152.8750     2.3800    93.9560    16.4360    15.8810    18.7390    25.1970   -18.5520 
  153.0000     2.3780    91.2750    17.2940    16.6870    19.3560    25.1970   -18.4880 
  153.1250     2.3670    87.3000    18.6050    17.8640    20.9230    25.1970   -18.3700 
  153.2500     2.3480    84.8890    20.2280    19.3360    24.2510    25.1970   -18.2490 
  153.3750     2.3260    84.5280    21.9380    20.9410    28.8820    25.1970   -18.1150 
  153.5000     2.3070    84.2930    23.4540    22.4330    29.6210    25.1970   -17.9630 
  153.6250     2.3000    83.3240    24.5240    23.5540    26.3080    25.1970   -17.8120 
  153.7500     2.3030    82.0290    25.3640    24.4110    25.9970    25.1970   -17.6390 
  153.8750     2.3130    82.1250    26.2910    25.3670    26.9710    25.1970   -17.4710 
  154.0000     2.3210    83.2720    27.9240    26.9850    27.0050    25.2060   -17.3400 
  154.1250     2.3220    83.4540    31.2380    30.1170    28.1360    25.2370   -17.2560 
  154.2500     2.3140    81.0760    36.6040    34.9240    33.5860    25.2850   -17.2150 
  154.3750     2.3040    77.3560    44.2460    41.4350    42.7800    25.3230   -17.2290 
  154.5000     2.2940    75.2290    54.5230    49.4960    54.4390    25.3400   -17.2970 
  154.6250     2.2900    75.8490    67.1760    59.2810    68.1460    25.3440   -17.4150 
  154.7500     2.2890    75.4460    81.6140    71.0230    72.4470    25.3440   -17.5870 
  154.8750     2.2850    72.1200    97.9040    85.7090    75.8960    25.3440   -17.8010 
  155.0000     2.2780    67.6260   118.8400   104.2200    90.3650    25.3520   -17.9810 
  155.1250     2.2670    64.7890   144.8520   126.5240   119.7730    25.3750   -18.1410 
  155.2500     2.2540    64.1280   171.7640   149.0440   156.0620    25.4070   -18.2460 
  155.3750     2.2430    65.0390   194.1170   167.5240   178.4460    25.4200   -18.3100 
  155.5000     2.2330    67.0870   206.3550   178.0110   191.7870    25.4220   -18.2980 
  155.6250     2.2280    68.1230   204.1420   177.4640   194.7200    25.4220   -18.2450 
  155.7500     2.2280    67.3550   193.0470   169.8320   186.0360    25.4220   -18.1370 
  155.8750     2.2320    65.4430   178.2860   158.8100   169.0020    25.4220   -18.0240 
  156.0000     2.2380    63.7560   163.5120   147.3530   146.4750    25.4220   -17.9500 
  156.1250     2.2460    63.8450   150.3020   137.0880   131.9490    25.4220   -17.8770 
  156.2500     2.2530    65.6540   138.2650   127.9140   130.4580    25.4220   -17.7980 
  156.3750     2.2590    68.0770   126.9910   119.4380   128.0260    25.4220   -17.7180 
  156.5000     2.2660    69.5240   116.2970   111.3200   117.2550    25.4220   -17.6820 
  156.6250     2.2730    68.9060   106.3170   103.4010   106.2540    25.4220   -17.6480 
  156.7500     2.2760    67.5910    96.8800    95.5320    96.5900    25.4220   -17.6090 
  156.8750     2.2760    66.9400    87.7420    87.5630    83.8300    25.4220   -17.5320 
  157.0000     2.2710    67.8440    78.6590    79.3590    74.0320    25.4220   -17.4560 
  157.1250     2.2670    70.9440    69.6930    70.9660    66.4470    25.4220   -17.3830 
  157.2500     2.2700    75.7290    61.3140    62.8580    60.3990    25.4220   -17.3280 
  157.3750     2.2820    80.4510    54.1920    55.6970    50.3820    25.4220   -17.2730 
  157.5000     2.3010    83.7940    48.9870    50.2050    40.4920    25.3930   -17.2300 
  157.6250     2.3200    84.1530    46.6960    47.5110    33.9220    25.2800   -17.1080 
  157.7500     2.3340    80.8300    47.3310    47.7910    30.4700    25.1050   -17.0070 
  157.8750     2.3360    75.1930    51.1280    51.3630    31.2720    24.9950   -16.8880 
  158.0000     2.3240    69.3480    58.0350    58.1960    39.4790    24.9630   -16.7360 
  158.1250     2.3010    65.9540    67.7150    67.8950    54.3990    24.9620   -16.5860 
  158.2500     2.2770    64.3730    78.2420    78.3770    72.5090    24.9600   -16.4520 
  158.3750     2.2590    63.5710    87.8530    87.7630    89.7170    24.9600   -16.3180 
  158.5000     2.2510    62.7150    95.0130    94.4660   104.7810    24.9590   -16.1680 
  158.6250     2.2540    60.8460    98.6500    97.3650    97.8670    24.9450   -16.1510 
