~V
VERS. 2.00: Ver 2.00
~W
STRT.M 65.0000:
STOP.M 267.0000:
STEP.M 0.1250:
NULL. -999.2500:
UWI. DF3007:
~C
DEPT.M :
GR.API :
RML.OHMM :
RI. :
RXO.OHMM :
CALI.CM :
DEN.GM/CC :
SP.MV :
~A
# ...
  155.0000    88.5700    35.4170    33.8740    30.4910    24.8140     2.3580   -20.9110 
  155.1250    89.0260    35.1070    33.4280    32.7090    24.8140     2.3640   -20.8600 
  155.2500    89.4750    35.8540    33.9690    35.5380    24.8130     2.3640   -20.9350 
  155.3750    87.5960    37.5690    35.4520    37.0660    24.8110     2.3590   -20.9730 
  155.5000    85.6940    39.9880    37.6730    37.7360    24.8070     2.3510   -21.1180 
  155.6250    86.7180    42.5950    40.2060    38.9200    24.8110     2.3420   -21.2650 
  155.7500    88.2880    44.7310    42.4140    42.6660    24.8130     2.3360   -21.4420 
  155.8750    88.7260    46.0020    43.8750    49.7180    24.8140     2.3330   -21.6050 
  156.0000    88.3580    46.3710    44.4520    54.9430    24.8140     2.3340   -21.8020 
  156.1250    88.0290    46.1820    44.3280    54.3790    24.8140     2.3320   -22.0310 
  156.2500    86.6550    46.1320    44.1320    53.7580    24.8140     2.3250   -22.1590 
  156.3750    83.4140    46.6410    44.2800    58.3030    24.8140     2.3150   -22.3050 
  156.5000    79.2360    47.9550    45.0580    65.7830    24.8140     2.3050   -22.3390 
  156.6250    75.4260    50.4820    46.8850    70.0410    24.8020     2.3030   -22.3950 
  156.7500    73.4510    54.4790    50.0170    71.0950    24.7680     2.3040   -22.3690 
  156.8750    72.6620    60.6190    55.0530    63.9980    24.7360     2.3030   -22.4170 
  157.0000    72.6450    69.7040    62.7290    60.8560    24.7810     2.2940   -22.4000 
  157.1250    71.6830    82.8250    74.1070    72.6770    24.9100     2.2750   -22.3620 
  157.2500    70.2640    98.9040    88.3100    97.7230    25.0150     2.2530   -22.4030 
  157.3750    70.0760   116.3450   104.0060   127.4660    25.0450     2.2350   -22.3660 
  157.5000    72.0030   132.7010   119.1080   150.6700    25.0270     2.2250   -22.4180 
  157.6250    72.2910   144.2970   130.4980   154.6210    24.9970     2.2250   -22.3660 
  157.7500    69.7080   149.8220   136.9020   150.1330    24.9830     2.2280   -22.3270 
  157.8750    67.8900   149.0110   137.8990   146.2270    24.9800     2.2330   -22.2780 
  158.0000    68.8440   142.7470   133.9880   151.6050    24.9700     2.2370   -22.1620 
  158.1250    70.4950   132.4730   126.0310   150.5800    24.9290     2.2380   -22.1100 
  158.2500    71.0290   121.3030   116.6070   139.1270    24.8600     2.2400   -21.9940 
  158.3750    71.5070   111.0220   107.2980   117.8470    24.7950     2.2410   -21.9190 
  158.5000    69.8420   102.0440    98.7250    93.3690    24.7520     2.2420   -21.8080 
  158.6250    64.6420    92.9760    90.0260    77.2680    24.7380     2.2400   -21.7320 
  158.7500    62.0570    81.9900    79.7790    72.5200    24.7310     2.2400   -21.6700 
  158.8750    64.1440    68.7830    67.6430    75.5830    24.7200     2.2480   -21.5870 
  159.0000    67.3280    54.9280    54.8500    81.1690    24.6870     2.2680   -21.5700 
  159.1250    69.6240    43.8280    44.2840    69.9960    24.6200     2.3000   -21.5320 
  159.2500    72.8810    37.3710    37.7000    45.5870    24.5810     2.3300   -21.5060 
  159.3750    77.4320    36.2350    35.8760    29.0470    24.5900     2.3480   -21.5300 
  159.5000    79.9050    40.1930    38.9030    27.3940    24.6250     2.3500   -21.6060 
  159.6250    79.7000    48.7520    46.8360    37.1030    24.6730     2.3410   -21.6380 
  159.7500    80.2710    59.1920    57.3100    54.1500    24.7260     2.3310   -21.7220 
  159.8750    81.4810    69.0270    67.8750    71.8380    24.7810     2.3220   -21.7470 
  160.0000    83.4160    75.7540    75.7170    79.2260    24.8210     2.3140   -21.7960 
  160.1250    82.5770    77.1010    77.9870    77.4890    24.8550     2.3070   -21.8430 
  160.2500    79.3320    74.6280    75.9050    72.6010    24.8750     2.2990   -21.8440 
  160.3750    78.3590    70.5420    71.6270    70.7090    24.8880     2.2910   -21.8730 
  160.5000    81.8860    67.1040    67.4860    66.3810    24.8920     2.2830   -21.8020 
  160.6250    85.0730    66.3600    65.5720    63.4440    24.8870     2.2750   -21.8510 
  160.7500    83.6780    68.5760    66.3310    62.9590    24.8710     2.2660   -21.8020 
  160.8750    79.8980    73.5090    69.6360    66.7450    24.8410     2.2590   -21.7350 
  161.0000    76.6100    80.3100    74.7720    76.8110    24.8090     2.2550   -21.7160 
  161.1250    75.3240    87.7080    80.6250    82.5040    24.7680     2.2550   -21.6600 
  161.2500    77.3250    94.4130    85.9630    86.5710    24.7280     2.2610   -21.6400 
  161.3750    79.6700    99.9020    90.2420    93.7610    24.7140     2.2690   -21.5290 
  161.5000    79.7040   104.2070    93.4100    98.8700    24.7150     2.2770   -21.4480 
  161.6250    81.2470   107.4560    95.5500    96.1230    24.7020     2.2820   -21.3060 
  161.7500    85.3790   109.6380    96.7580    94.7370    24.6800     2.2810   -21.1330 
  161.8750    87.6560   110.1180    96.5920    94.9840    24.6700     2.2790   -21.0250 
  162.0000    85.5020   108.3820    94.6570    93.3990    24.6740     2.2790   -20.8190 
  162.1250    81.7620   104.5640    91.0080    91.0170    24.6860     2.2860   -20.6420 
  162.2500    78.7540   100.5970    87.1490    88.2300    24.6960     2.2990   -20.4070 
  162.3750    76.0310    98.4980    84.7220    80.6460    24.6930     2.3140   -20.1670 
  162.5000    73.6660   100.1290    85.3420    75.3700    24.6800     2.3260   -19.8730 
  162.6250    72.8670   107.4600    90.8180    85.9290    24.6390     2.3300   -19.6330 
  162.7500    71.8080   119.3860   100.3470   101.4580    24.5900     2.3260   -19.4670 
  162.8750    69.0750   134.2290   112.5830   116.0910    24.5240     2.3140   -19.3510 
  163.0000    64.5330   149.1920   125.1990   127.5030    24.3990     2.2980   -19.3050 
  163.1250    61.7130   159.9650   134.6090   141.4790    24.3070     2.2780   -19.3280 
  163.2500    62.0510   164.4800   138.9550   153.2580    24.2700     2.2580   -19.5430 
  163.3750    64.2060   162.6110   137.9500   149.2120    24.2570     2.2420   -19.7950 
  163.5000    68.6810   156.3330   132.9960   137.0790    24.2110     2.2340   -20.2640 
  163.6250    74.1170   148.8940   126.5420   132.8710    24.1170     2.2360   -20.7700 
  163.7500    78.1580   143.2770   121.1870   123.9510    24.0560     2.2430   -21.3500 
  163.8750    78.8380   140.6840   118.1130   113.0880    24.1570     2.2480   -21.9850 
  164.0000    76.2330   141.2280   117.6210   107.3580    24.3710     2.2470   -22.5460 
  164.1250    72.5100   144.5340   119.5840   111.9210    24.6240     2.2400   -23.0850 
  164.2500    70.6420   149.1500   122.8180   119.6470    24.7860     2.2340   -23.5200 
  164.3750    71.8840   154.3880   126.6940   129.5350    24.8680     2.2330   -23.9090 
  164.5000    74.8930   160.0180   130.9070   137.0160    24.8930     2.2390   -24.1760 
  164.6250    78.1620   166.4330   135.6440   138.8920    24.8820     2.2460   -24.2810 
  164.7500    78.8900   173.9190   141.1550   136.9490    24.8650     2.2510   -24.3620 
  164.8750    75.4830   182.4020   147.5210   138.2390    24.8630     2.2500   -24.2830 
  165.0000    72.0410   191.1150   154.3560   146.1980    24.8790     2.2460   -24.2250 
  165.1250    71.3380   198.2080   160.5560   160.4890    24.8970     2.2400   -24.1210 
  165.2500    69.2080   202.2000   165.0210   167.6320    24.9200     2.2340   -23.9320 
  165.3750    65.7980   202.3720   167.1250   170.4250    24.9520     2.2290   -23.8340 
  165.5000    64.8410   199.4000   167.1410   165.6360    24.9740     2.2260   -23.6510 
  165.6250    66.6290   195.6270   166.5610   156.5660    24.9810     2.2260   -23.5780 
  165.7500    68.0100   193.6420   167.3250   147.2580    24.9930     2.2280   -23.4040 
  165.8750    68.6260   193.5110   169.6910   141.3910    25.0200     2.2310   -23.2440 
  166.0000    67.2630   192.1570   171.4440   138.2020    25.0470     2.2320   -23.1440 
  166.1250    63.7350   181.8120   166.1520   135.2770    25.0670     2.2260   -22.9490 
