~V
VERS. 2.00: Ver 2.00
~W
STRT.M 61.0000:
STOP.M 279.0000:
STEP.M 0.1250:
NULL. -999.2500:
UWI. DF3040:
~C
DEPT.M :
GR.API :
CALI.CM :
RXO.OHMM :
RI. :
RML.OHMM :
DEN.GM/CC :
SP.MV :
~A
# ...
  207.2500    86.7940    25.2690    11.0730     9.6370    13.4190     2.4550   -19.3430 
  207.3750    87.7920    24.7230     9.1770     9.3620    13.2070     2.4610   -19.0870 
  207.5000    87.1720    24.3230     9.2840     9.6420    13.7660     2.4610   -18.8490 
  207.6250    84.8910    24.1290     9.9620    10.5550    15.0970     2.4600   -18.6710 
  207.7500    80.0390    23.7750    11.6220    11.9390    16.8830     2.4690   -18.5040 
  207.8750    74.6210    23.4050    15.3220    13.6200    18.8130     2.4940   -18.3200 
  208.0000    73.0190    23.0470    18.7610    15.2730    20.4230     2.5200   -18.0990 
  208.1250    78.7960    22.7820    19.0790    16.3350    21.1710     2.5330   -17.8000 
  208.2500    86.6620    22.7780    18.8530    16.5210    20.8710     2.5360   -17.4490 
  208.3750    88.8460    22.9990    21.8450    15.7340    19.5140     2.5420   -17.0430 
  208.5000    82.8990    23.4080    24.9840    14.1320    17.3200     2.5490   -16.5800 
  208.6250    73.3490    23.5860    22.7730    12.1230    14.7350     2.5450   -16.1010 
  208.7500    64.3990    23.7280    15.6500    10.2680    12.4270     2.5270   -15.6430 
  208.8750    58.2800    23.7620     9.2030     8.7760    10.6230     2.5030   -15.2500 
  209.0000    58.3510    23.6620     5.9510     7.7230     9.3960     2.4850   -14.9390 
  209.1250    64.7590    23.6550     5.7040     7.1680     8.8210     2.4770   -14.7320 
  209.2500    69.6300    23.6430     5.6970     6.9880     8.6930     2.4780   -14.6000 
  209.3750    69.7070    23.6340     5.8190     7.1080     8.8820     2.4880   -14.5420 
  209.5000    69.6460    23.6140     5.9640     7.4330     9.2410     2.5060   -14.5550 
  209.6250    73.2810    23.5390     6.1260     7.8260     9.5830     2.5190   -14.5820 
  209.7500    75.4420    23.3840     6.2670     8.1720     9.8230     2.5190   -14.6310 
  209.8750    75.4840    23.3440     6.4260     8.4410     9.9750     2.5080   -14.6570 
  210.0000    76.3710    23.3280     6.6040     8.6220    10.0690     2.4980   -14.6460 
  210.1250    78.0190    23.3430     6.7770     8.6760    10.0710     2.4910   -14.6320 
  210.2500    75.9610    23.4170     6.9430     8.6150     9.9920     2.4820   -14.6310 
  210.3750    73.7550    23.5110     7.0230     8.4620     9.8540     2.4710   -14.6610 
  210.5000    78.2240    23.6120     6.9310     8.2410     9.6560     2.4620   -14.7380 
  210.6250    86.0580    23.6510     6.7550     7.9870     9.4600     2.4590   -14.8870 
  210.7500    89.7650    23.6430     6.5710     7.8070     9.3790     2.4590   -15.1010 
  210.8750    88.4120    23.6280     6.3600     7.7540     9.4580     2.4590   -15.3690 
  211.0000    86.1580    23.6250     6.4740     7.8480     9.7190     2.4570   -15.6890 
  211.1250    86.2300    23.6280     6.9480     8.1500    10.2240     2.4570   -16.0320 
  211.2500    87.0540    23.6490     7.5580     8.6730    10.9980     2.4580   -16.3630 
  211.3750    85.8640    23.6860     8.5850     9.4040    12.0050     2.4560   -16.6480 
  211.5000    81.9860    23.7440    10.7560    10.2900    13.1380     2.4500   -16.8910 
  211.6250    78.1820    23.6710    13.1490    11.2590    14.3100     2.4440   -17.0780 
  211.7500    77.0820    23.7210    13.8490    12.2210    15.4200     2.4420   -17.2110 
  211.8750    77.3830    23.7270    13.9150    13.1570    16.4920     2.4420   -17.3160 
  212.0000    78.0320    23.6480    15.6190    14.1000    17.5580     2.4290   -17.4090 
  212.1250    80.2800    23.4460    18.3320    15.0710    18.6730     2.3880   -17.5020 
  212.2500    81.4080    23.5880    19.6480    16.1750    20.0720     2.3330   -17.6140 
  212.3750    78.4640    23.6490    18.8900    17.6140    21.9570     2.2950   -17.7710 
  212.5000    71.7300    23.9260    18.6330    19.5300    24.4740     2.3020   -17.9890 
  212.6250    67.4090    23.7490    23.8430    22.0950    27.6670     2.3500   -18.2660 
  212.7500    67.8460    23.4020    29.5810    25.1630    31.3060     2.3930   -18.6080 
  212.8750    69.8000    23.5360    32.0990    28.6560    35.3020     2.4070   -19.0000 
  213.0000    70.4250    23.7720    36.0020    32.4300    39.3860     2.3990   -19.4350 
  213.1250    69.2550    23.7910    46.8910    36.2550    43.2820     2.3890   -19.9010 
  213.2500    67.8610    23.7360    53.9350    39.7660    46.6750     2.3790   -20.3740 
  213.3750    67.1940    23.6480    52.9240    42.8260    49.5800     2.3620   -20.8280 
  213.5000    68.5780    23.6110    49.4150    45.7800    52.5050     2.3410   -21.2280 
  213.6250    70.2940    23.6310    47.3340    48.9210    55.6430     2.3260   -21.5890 
  213.7500    69.7640    23.6330    51.2160    52.2310    58.9920     2.3130   -21.8840 
  213.8750    66.7400    23.4180    58.8530    55.6210    62.3410     2.2900   -22.1320 
  214.0000    62.4070    23.3710    65.1940    59.1950    65.7120     2.2520   -22.3080 
  214.1250    58.7940    23.6310    71.0650    62.9310    69.2970     2.2170   -22.4250 
  214.2500    56.8500    23.7570    77.0230    66.7680    72.8000     2.2090   -22.5180 
  214.3750    57.7930    23.5940    81.8000    70.5850    76.2260     2.2320   -22.6070 
  214.5000    61.2590    22.7730    81.3100    74.4410    79.6480     2.2680   -22.7220 
  214.6250    64.1840    22.3340    79.2370    78.4390    83.1020     2.2900   -22.8660 
  214.7500    64.5860    22.0990    76.8810    82.3530    86.5300     2.2860   -23.0430 
  214.8750    62.2890    22.2100    84.8770    86.0120    89.5870     2.2620   -23.2610 
  215.0000    60.1630    22.5350   102.5360    88.9730    91.8290     2.2360   -23.5460 
  215.1250    61.4940    23.3240   115.8910    90.2000    92.1600     2.2250   -23.8510 
  215.2500    64.4430    23.6780   107.9180    89.8420    90.8070     2.2270   -24.1590 
  215.3750    68.0250    23.8030    83.3050    88.1370    88.3350     2.2330   -24.4760 
  215.5000    69.9130    23.8160    65.4050    85.4040    84.9370     2.2420   -24.7900 
  215.6250    68.9230    23.7820    77.1470    82.2790    81.5030     2.2500   -25.0760 
  215.7500    66.5340    23.9370    89.5940    79.8710    79.0760     2.2500   -25.3300 
  215.8750    64.7470    23.9670    82.9240    78.8420    78.2710     2.2410   -25.5250 
  216.0000    64.2450    23.9680    70.6160    79.6860    79.6440     2.2320   -25.6260 
  216.1250    63.9930    23.9780    70.7150    83.0520    83.5260     2.2300   -25.6750 
  216.2500    63.4040    23.9650    80.3390    88.2460    89.2690     2.2280   -25.6960 
  216.3750    62.7930    23.9590    95.8690    94.7120    96.3120     2.2220   -25.6860 
  216.5000    60.4870    23.9470   110.1100   102.0070   104.1390     2.2110   -25.6380 
  216.6250    56.4140    23.8650   110.1260   109.2660   112.0420     2.2020   -25.5770 
  216.7500    54.2870    23.7110   111.3330   115.4030   118.6600     2.2010   -25.5220 
  216.8750    57.0910    23.7370   117.9760   120.0140   123.5200     2.2100   -25.5000 
  217.0000    62.3330    24.0950   126.2790   123.2690   126.9750     2.2230   -25.5350 
  217.1250    62.6010    24.1390   129.0190   125.6200   129.5120     2.2290   -25.6280 
  217.2500    57.3830    24.0700   131.8220   127.7150   132.0850     2.2260   -25.7630 
  217.3750    53.4380    23.9750   136.1460   129.6050   134.4990     2.2200   -25.9220 
  217.5000    55.1340    24.1280   137.9340   131.0360   136.5490     2.2160   -26.1020 
  217.6250    59.4960    24.1410   138.5780   131.4860   137.4640     2.2160   -26.2830 
  217.7500    61.1790    24.0650   144.1260   130.9940   137.0470     2.2190   -26.4470 
  217.8750    60.3920    23.9700   153.7600   129.3640   135.3170     2.2280   -26.5590 
  218.0000    59.7900    23.9730   157.6330   126.4050   131.8340     2.2410   -26.6080 
  218.1250    58.8860    24.1180   145.8050   122.0600   126.7350     2.2480   -26.5730 
  218.2500    59.1090    24.0480   123.0550   116.8460   120.7850     2.2430   -26.4770 
  218.3750    60.8050    23.9830   115.0480   111.2660   114.4150     2.2330   -26.3400 
