~V
VERS. 2.00: Ver 2.00
~W
STRT.M 125.0000:
STOP.M 275.0000:
STEP.M 0.1250:
NULL. -999.2500:
UWI. DF3074:
~C
DEPT.M :
GR.API :
CALI.CM :
RXO.OHMM :
RI. :
RML.OHMM :
DEN.GM/CC :
SP.MV :
~A
# ...
  215.0000    67.5630    25.6260   102.8450   108.4950   132.8500     2.2240   -23.3800 
  215.1250    69.2920    25.6870   103.0920   108.1630   130.4870     2.2190   -23.6330 
  215.2500    71.1030    25.7120    97.2910   104.4510   123.6990     2.2170   -23.8780 
  215.3750    69.8990    25.7200    87.9190    97.7950   113.6230     2.2160   -24.1400 
  215.5000    66.3850    25.7220    74.5560    89.5840   102.4610     2.2100   -24.4120 
  215.6250    65.3350    25.7180    61.9250    81.9550    92.9760     2.2030   -24.6540 
  215.7500    68.7220    25.7050    55.7440    76.5010    86.5430     2.2060   -24.8840 
  215.8750    72.2800    25.6820    52.7060    74.0770    83.8270     2.2190   -25.0930 
  216.0000    71.6840    25.6750    51.6960    75.2430    85.2630     2.2300   -25.2690 
  216.1250    69.4410    25.7190    57.2140    81.1860    92.1060     2.2310   -25.5190 
  216.2500    70.0620    25.7790    68.8220    91.4970   104.0010     2.2240   -25.7700 
  216.3750    71.6540    25.8460    85.8930   106.1000   121.1160     2.2160   -26.0480 
  216.5000    69.5980    25.9010   111.8610   124.4870   143.1770     2.2130   -26.2350 
  216.6250    64.6500    25.9680   152.4550   145.5620   169.2230     2.2120   -26.5190 
  216.7500    61.5320    25.9940   188.9830   166.4390   195.4840     2.2050   -26.7550 
  216.8750    60.9060    25.9830   216.0850   184.4320   218.1700     2.1930   -26.9740 
  217.0000    61.6300    25.9200   226.7860   197.1080   233.7230     2.1880   -27.1860 
  217.1250    62.0960    25.8200   212.5970   202.0750   238.7820     2.1950   -27.3290 
  217.2500    63.1730    25.7250   192.1270   201.5540   236.6240     2.2020   -27.4390 
  217.3750    64.7470    25.7570   179.9030   198.0260   230.7650     2.2020   -27.4770 
  217.5000    65.0570    25.9220   171.0350   193.5960   223.8050     2.1930   -27.5820 
  217.6250    63.6220    26.0010   167.8820   188.8220   215.9920     2.1830   -27.5420 
  217.7500    63.1330    25.9580   173.9920   182.8130   206.0010     2.1750   -27.5600 
  217.8750    62.8750    25.8460   185.1870   174.3950   192.6250     2.1720   -27.5670 
  218.0000    62.1310    25.7470   180.9800   163.2580   176.2150     2.1650   -27.5670 
  218.1250    63.0460    25.8080   153.9540   150.5130   159.1370     2.1440   -27.5540 
  218.2500    65.5570    25.8730   127.4540   138.5920   144.2940     2.1240   -27.5380 
  218.3750    66.8490    25.8470   116.7920   129.0570   133.1060     2.1300   -27.5540 
  218.5000    64.7910    25.7200   112.7340   122.6450   125.8770     2.1660   -27.5160 
  218.6250    60.9250    25.5370   112.9710   119.8530   122.7470     2.2010   -27.4850 
  218.7500    59.6760    25.4370   111.5510   119.8370   122.6490     2.2180   -27.3590 
  218.8750    62.0680    25.3940   111.3190   122.4950   125.5470     2.2300   -27.2100 
  219.0000    64.0460    25.4060   112.9560   128.0390   131.7960     2.2440   -27.0400 
  219.1250    59.6940    25.4200   121.3360   137.5060   142.7000     2.2500   -26.8570 
  219.2500    55.1690    25.5540   147.7650   150.6880   158.0660     2.2400   -26.6740 
  219.3750    55.6320    25.6640   194.1730   167.3120   177.6440     2.2230   -26.4580 
  219.5000    59.0160    25.7220   238.2160   186.1820   200.1470     2.2080   -26.1980 
  219.6250    60.8480    25.8400   247.8000   204.8300   222.8270     2.1990   -26.0760 
  219.7500    62.1690    25.8880   244.6190   220.6410   242.4360     2.1920   -25.9200 
  219.8750    63.7500    25.8510   247.8530   232.0070   256.8790     2.1910   -25.7590 
  220.0000    64.0260    25.8120   254.9340   238.4040   265.4200     2.1960   -25.6790 
  220.1250    62.1660    25.8150   249.5970   239.6130   267.7320     2.2010   -25.5300 
  220.2500    59.6940    25.8300   237.6690   237.1530   265.5300     2.1990   -25.4110 
  220.3750    58.1930    25.8700   245.2920   231.5360   259.3680     2.1950   -25.2700 
  220.5000    58.3620    25.9030   280.4130   223.4280   250.0930     2.1940   -25.1220 
  220.6250    61.7610    25.8990   310.3730   213.7800   238.9200     2.1990   -24.8790 
  220.7500    66.4610    25.8950   324.0770   204.1270   227.7260     2.2080   -24.6680 
  220.8750    68.7500    25.8900   318.3870   195.5420   217.7890     2.2150   -24.4580 
  221.0000    66.1950    25.8510   287.4010   188.8800   210.0700     2.2170   -24.1340 
  221.1250    60.7130    25.8150   235.1450   184.7850   205.2270     2.2050   -23.8490 
  221.2500    56.5260    25.8600   200.8310   182.2710   202.0780     2.1890   -23.5160 
  221.3750    54.6940    25.9470   203.2650   180.2930   199.3730     2.1750   -23.2100 
  221.5000    55.5560    25.9800   222.0640   177.7290   195.7700     2.1670   -22.9630 
  221.6250    59.2960    26.0240   218.0740   173.4220   189.9100     2.1640   -22.7080 
  221.7500    63.5330    26.0370   191.2910   167.5090   182.1450     2.1580   -22.4830 
  221.8750    66.3380    26.0330   171.8900   160.4400   173.1550     2.1390   -22.2910 
  222.0000    66.3440    26.0080   173.4350   152.4760   163.2590     2.1140   -22.0620 
  222.1250    64.3600    25.9150   174.2670   143.2200   151.9650     2.1160   -21.9290 
  222.2500    62.9750    25.7800   152.2030   132.7370   139.4230     2.1580   -21.7400 
  222.3750    63.5540    25.7360   112.8010   121.4440   126.2570     2.2210   -21.5460 
  222.5000    64.1690    25.8050    76.7740   110.1260   113.4430     2.2340   -21.3160 
  222.6250    63.6160    25.8670    63.4580    99.9680   102.3250     2.2820   -21.1370 
  222.7500    64.6090    25.8570    60.8660    91.5610    93.3570     2.2580   -20.9170 
  222.8750    67.4620    25.8040    61.9200    85.1300    86.6520     2.2290   -20.7030 
  223.0000    70.2310    25.7670    59.8470    80.6470    82.0760     2.2080   -20.5770 
  223.1250    70.7030    25.7530    55.7610    78.3980    79.7990     2.1980   -20.3680 
  223.2500    70.5280    25.7320    54.3860    78.0270    79.3710     2.1970   -20.3020 
  223.3750    70.4850    25.7200    56.0470    79.3410    80.5890     2.1970   -20.2580 
  223.5000    69.4700    25.7120    60.5460    81.8660    83.0200     2.1960   -20.2910 
  223.6250    66.9380    25.6910    69.1500    84.6180    85.7310     2.1900   -20.3110 
  223.7500    64.3370    25.6460    81.1560    86.1990    87.3070     2.1820   -20.3240 
  223.8750    63.5090    25.5770    90.8180    85.6200    86.7350     2.1830   -20.3260 
  224.0000    65.5050    25.4800    96.7590    82.6710    83.8080     2.1970   -20.2540 
  224.1250    67.9120    25.3390    95.1610    78.0140    79.2380     2.2170   -20.2140 
  224.2500    67.1530    25.2140    87.9200    73.3170    74.7330     2.2280   -20.0860 
  224.3750    64.0480    25.1030    77.5740    69.5820    71.3270     2.2270   -19.9420 
  224.5000    61.2440    25.0240    70.5110    67.3050    69.5370     2.2250   -19.7790 
  224.6250    61.3740    24.9940    68.8250    66.6660    69.5740     2.2290   -19.5740 
  224.7500    64.0840    24.9940    67.1210    66.9410    70.6350     2.2300   -19.3910 
  224.8750    67.4680    24.9710    63.3110    67.5320    72.0290     2.2280   -19.1580 
  225.0000    69.2540    24.8650    59.5510    67.9330    73.1540     2.2290   -18.9880 
  225.1250    67.9760    24.7770    59.4360    67.8800    73.6760     2.2400   -18.7720 
  225.2500    64.9950    24.7740    59.4540    67.6670    73.9400     2.2480   -18.5850 
  225.3750    62.1480    24.8110    58.2010    67.7410    74.4810     2.2480   -18.3880 
  225.5000    62.6000    24.8810    57.3860    68.5760    75.8810     2.2420   -18.2050 
  225.6250    65.7130    24.9830    59.9020    70.7030    78.8050     2.2370   -18.0040 
  225.7500    65.5960    25.0550    66.6530    73.9810    83.1160     2.2300   -17.7660 
  225.8750    62.8210    25.0350    75.7950    78.1310    88.5150     2.2200   -17.5990 
  226.0000    61.3570    24.9300    84.8190    82.5500    94.3320     2.2090   -17.4070 
  226.1250    60.9690    24.8360    93.4310    86.1020    99.2100     2.2000   -17.2000 
