~V
VERS. 2.00: Ver 2.00
~W
STRT.M 115.0000:
STOP.M 241.0000:
STEP.M 0.1250:
NULL. -999.2500:
UWI. DF3064:
~C
DEPT.M :
GR.API :
CALI.CM :
RXO.OHMM :
RI. :
RML.OHMM :
DEN.GM/CC :
SP.MV :
~A
  115.0000    71.0760    22.0630     9.1300     8.1170     9.3630     2.2170   -21.6310 
  115.1250    72.1440    21.9630     8.9700     7.5230     8.4170     2.2260   -21.4800 
  115.2500    76.2070    22.0540     8.6460     6.9280     7.5960     2.2480   -21.3500 
  115.3750    82.0680    22.5210     8.6840     6.4230     6.9940     2.2680   -21.2620 
  115.5000    85.8920    23.1910     9.0480     6.0500     6.6160     2.2680   -21.1980 
  115.6250    83.6150    23.5220     8.8750     5.8270     6.4330     2.2540   -21.1810 
  115.7500    79.3170    23.5630     8.7260     5.7190     6.3560     2.2480   -21.1940 
  115.8750    76.4030    23.3300     8.2320     5.7110     6.3590     2.2530   -21.2310 
  116.0000    75.7300    23.1440     7.0020     5.7700     6.4310     2.2580   -21.2890 
  116.1250    76.0700    23.0180     6.1430     5.8590     6.5300     2.2610   -21.3190 
  116.2500    77.6770    23.0400     5.7460     5.9650     6.6530     2.2690   -21.3560 
  116.3750    78.8420    23.3360     5.7030     6.0870     6.8040     2.2810   -21.3970 
  116.5000    79.2030    23.3930     5.6680     6.2180     6.9740     2.2860   -21.4290 
  116.6250    77.8720    22.9750     6.0790     6.3450     7.1270     2.2730   -21.4340 
  116.7500    77.4470    22.5520     6.8870     6.4060     7.2070     2.2550   -21.4200 
  116.8750    78.8040    22.5980     7.6880     6.3750     7.1980     2.2480   -21.3790 
  117.0000    80.3250    22.7930     7.9430     6.2510     7.0810     2.2630   -21.3010 
  117.1250    78.7170    23.3020     7.8960     6.0530     6.8810     2.2960   -21.2450 
  117.2500    75.7310    23.7100     8.1330     5.8360     6.6730     2.3240   -21.2130 
  117.3750    77.4190    23.8220     8.0640     5.6470     6.4930     2.3380   -21.1940 
  117.5000    84.5510    23.6340     7.2840     5.5260     6.3980     2.3400   -21.1910 
  117.6250    88.4850    23.5550     7.4460     5.5070     6.4220     2.3340   -21.2050 
  117.7500    85.5050    23.5740     7.7440     5.5670     6.5170     2.3240   -21.2190 
  117.8750    79.4630    23.5430     8.2830     5.6910     6.6670     2.3070   -21.2650 
  118.0000    76.5570    23.6490     8.9560     5.8420     6.8760     2.2850   -21.3560 
  118.1250    76.1970    23.7460     9.3530     6.0080     7.1850     2.2620   -21.4460 
  118.2500    75.6560    23.9830     9.4400     6.1700     7.5170     2.2460   -21.5390 
  118.3750    75.6460    23.9480     9.1500     6.3010     7.8200     2.2440   -21.6600 
  118.5000    75.8060    23.3650     8.4990     6.3740     8.0250     2.2500   -21.7830 
  118.6250    73.8120    22.3790     7.5870     6.3590     8.0740     2.2490   -21.9070 
  118.7500    71.8010    22.0360     7.0340     6.2880     8.0210     2.2310   -22.0300 
  118.8750    71.9440    22.0310     7.1960     6.1940     7.9050     2.2070   -22.1260 
  119.0000    73.0500    22.0520     7.6450     6.1610     7.8750     2.1920   -22.1860 
  119.1250    72.8760    22.0570     8.1510     6.3700     8.2410     2.2010   -22.2150 
  119.2500    72.3120    22.3400     8.1220     6.9120     9.1030     2.2230   -22.2280 
  119.3750    72.1620    22.7380     9.4370     7.8170    10.4200     2.2480   -22.2150 
  119.5000    70.9290    23.1560    14.7890     9.0590    12.0230     2.2760   -22.1920 
  119.6250    66.7410    23.2530    24.4260    10.4920    13.5260     2.3230   -22.1800 
  119.7500    62.0120    23.3150    35.8040    11.6920    14.4680     2.3920   -22.1890 
  119.8750    58.9790    23.6090    43.6920    12.2570    14.5520     2.4550   -22.2440 
  120.0000    60.2700    23.7680    42.7080    12.0710    13.8090     2.4690   -22.3570 
  120.1250    64.9610    23.3620    32.2010    11.2850    12.5600     2.4110   -22.4890 
  120.2500    69.4520    22.8250    19.6360    10.3420    11.3200     2.3280   -22.6010 
  120.3750    70.9020    22.5870    11.3300     9.5110    10.3840     2.2650   -22.6940 
  120.5000    69.8200    22.5110     8.8960     8.8630     9.7570     2.2420   -22.7530 
  120.6250    70.8550    22.2750     8.5830     8.3570     9.3200     2.2640   -22.7740 
  120.7500    73.9220    21.8300     8.4950     7.8800     8.8850     2.3100   -22.7380 
  120.8750    77.7980    21.7430     8.5720     7.3780     8.3460     2.3650   -22.6330 
  121.0000    80.8130    21.9470     8.7730     6.8310     7.6920     2.4040   -22.4660 
  121.1250    82.8800    22.7670     8.6310     6.3080     7.0570     2.3970   -22.2500 
  121.2500    84.8000    23.6460     8.0310     5.9390     6.6420     2.3560   -22.0730 
  121.3750    85.1280    23.9870     7.6470     5.8270     6.5880     2.3040   -21.9550 
  121.5000    83.8560    23.8650     7.6850     5.9830     6.8670     2.2580   -21.8930 
  121.6250    80.0200    23.2300     8.0680     6.4340     7.4360     2.2210   -21.8650 
  121.7500    76.2870    22.7040     8.3770     7.0460     8.1120     2.1920   -21.8530 
  121.8750    73.0270    22.6700     8.8820     7.6680     8.6910     2.1810   -21.8410 
  122.0000    70.2880    22.8190     9.4380     8.0780     8.9640     2.2030   -21.8010 
  122.1250    70.1460    23.1710    10.3710     8.0500     8.7760     2.2640   -21.7390 
  122.2500    72.9170    23.4950    11.1650     7.6810     8.2630     2.3380   -21.6060 
  122.3750    77.7120    23.6990    10.6210     7.0710     7.5420     2.4040   -21.3960 
  122.5000    81.0810    23.9720     9.0670     6.3780     6.7970     2.4480   -21.1490 
  122.6250    82.6140    24.1940     8.4450     5.7590     6.1940     2.4550   -20.8760 
  122.7500    85.8470    24.2390     7.5520     5.2490     5.7460     2.4290   -20.6210 
  122.8750    92.0150    24.1820     7.2980     4.8740     5.4680     2.3860   -20.4170 
  123.0000    98.9050    24.0210     7.2430     4.6070     5.3180     2.3530   -20.2820 
  123.1250   101.3970    24.0160     7.1940     4.4420     5.2540     2.3470   -20.2110 
  123.2500    97.5130    24.1320     6.9760     4.3580     5.3200     2.3440   -20.2150 
  123.3750    90.2840    24.2220     6.7310     4.3720     5.5540     2.3280   -20.2890 
  123.5000    86.9360    24.1730     6.6850     4.4480     5.8020     2.3100   -20.3980 
  123.6250    85.0050    24.0710     6.3320     4.5760     6.1250     2.3120   -20.5420 
  123.7500    84.6210    24.1690     5.7750     4.9480     6.8800     2.3260   -20.7250 
  123.8750    81.4200    24.4350     5.6930     5.4940     7.8580     2.3350   -20.9310 
  124.0000    73.3350    23.9910     6.2830     6.1520     8.9400     2.3290   -21.1300 
  124.1250    66.5020    23.3510     7.4400     6.8000     9.9350     2.3050   -21.3270 
  124.2500    63.9440    22.6560     7.8140     7.2980    10.6430     2.2640   -21.4630 
  124.3750    65.4170    22.2140     7.4940     7.5250    10.8710     2.2160   -21.5390 
  124.5000    67.0240    22.3020     7.2620     7.4540    10.6260     2.1790   -21.5450 
  124.6250    68.8730    22.3480     6.9880     7.0970    10.0390     2.1770   -21.4510 
  124.7500    72.2320    22.4690     6.4370     6.6320     9.3930     2.2040   -21.2890 
  124.8750    76.9740    22.7220     5.8110     6.1760     8.8200     2.2450   -21.0680 
  125.0000    82.7340    23.0560     6.0880     5.8050     8.4130     2.2780   -20.8250 
  125.1250    86.5450    23.2040     6.5320     5.5640     8.2230     2.2860   -20.5880 
  125.2500    85.9730    23.4370     6.6330     5.4230     8.1730     2.2770   -20.3950 
  125.3750    81.6550    23.7240     6.4870     5.3940     8.2550     2.2600   -20.2440 
  125.5000    77.7390    23.9100     6.6250     5.4670     8.4530     2.2380   -20.1240 
  125.6250    79.8140    23.9430     7.0920     5.6200     8.7070     2.2140   -20.0770 
  125.7500    85.5060    23.8510     7.7440     5.7800     8.9310     2.2010   -20.0630 
  125.8750    89.4490    23.6070     7.8880     5.8960     9.0760     2.2000   -20.0810 
  126.0000    88.9560    23.3200     8.0320     5.9420     9.0970     2.2030   -20.1000 
  126.1250    86.3600    23.0290     8.7660     5.8760     8.9390     2.2060   -20.1070 
