~V
VERS. 2.00: Ver 2.00
~W
STRT.M 57.0000:
STOP.M 272.0000:
STEP.M 0.1250:
NULL. -999.2500:
UWI. DF3055:
~C
DEPT.M :
SP.MV :
GR.API :
RML.OHMM :
RI. :
RXO.OHMM :
CALI.CM :
DEN.GM/CC :
~A
   57.0000  -999.2500    26.5580 689999.6880     4.5210    -0.0310    19.2370  -999.2500 
   57.1250  -999.2500    37.4020 919999.6880     6.0900    -0.0630    25.6460  -999.2500 
   57.2500  -999.2500    39.6580 919999.6880     6.0660    -0.0560    25.6500  -999.2500 
   57.3750  -999.2500    41.6220 919999.6880     5.9700    -0.0200    25.6590  -999.2500 
   57.5000  -999.2500    42.3120 919999.6880     5.8270     0.0190    25.6660  -999.2500 
   57.6250  -999.2500    40.0900 919999.6880     5.6060     0.0500    25.6680  -999.2500 
   57.7500  -999.2500    35.5870 919999.6880     5.1980     0.0890    25.6650  -999.2500 
   57.8750  -999.2500    32.2810 919999.6880     4.5930     0.1320    25.6550  -999.2500 
   58.0000  -999.2500    30.7480 919999.6880     3.9450     0.1740    25.6310  -999.2500 
   58.1250  -999.2500    29.8650 919999.6880     3.4820     0.2140    25.5920  -999.2500 
   58.2500  -999.2500    30.1040 919999.6880     3.4090     0.2420    25.5300  -999.2500 
   58.3750  -999.2500    31.4940 919999.6880     3.7430     0.2500    25.4960  -999.2500 
   58.5000  -999.2500    32.8430 919999.6880     4.4890     0.2550    25.5180  -999.2500 
   58.6250  -999.2500    32.8160 919999.6880     5.4920     0.2780    25.6060  -999.2500 
   58.7500  -999.2500    31.2670 919999.6880     6.3860     0.3160    25.6540  -999.2500 
   58.8750  -999.2500    29.6650 919999.6880     6.7010     0.3210    25.6690  -999.2500 
   59.0000  -999.2500    29.3150 919999.6880     6.0910     0.2970    25.6690  -999.2500 
   59.1250  -999.2500    30.0360 919999.6880     4.8810     0.2940    25.6690  -999.2500 
   59.2500  -999.2500    29.5770 919999.6880     3.9930     0.3290    25.6690  -999.2500 
   59.3750  -999.2500    27.7310 919999.6880     3.7290     0.3820    25.6690  -999.2500 
   59.5000  -999.2500    27.3070 919999.6880     4.1150     0.4240    25.6690  -999.2500 
   59.6250  -999.2500    28.9220 919999.6880     5.0390     0.4870    25.6690  -999.2500 
   59.7500  -999.2500    30.2850 919999.6880     6.1050     0.5630    25.6690  -999.2500 
   59.8750  -999.2500    31.5160 919999.6880     6.7960     0.6370    25.6690  -999.2500 
   60.0000  -999.2500    32.4590 919999.6880     6.4350     0.6500    25.6690  -999.2500 
   60.1250  -999.2500    31.4750 919999.6880     4.8100     0.5240    25.6690  -999.2500 
   60.2500  -999.2500    28.6370 919999.6880     3.3860     0.4530    25.6690  -999.2500 
   60.3750  -999.2500    27.2870 919999.6880     2.7020     0.4370    25.6690  -999.2500 
   60.5000  -999.2500    28.2750 919999.6880     2.5080     0.4600    25.6690  -999.2500 
   60.6250  -999.2500    28.7870 919999.6880     2.6280     0.4800    25.6690  -999.2500 
   60.7500  -999.2500    27.2930 919999.6880     2.9840     0.4840    25.6690  -999.2500 
   60.8750  -999.2500    26.0130 919999.6880     3.4340     0.4460    25.6690  -999.2500 
   61.0000  -999.2500    26.1170 919999.6880     3.8620     0.3910    25.6690  -999.2500 
   61.1250  -999.2500    27.2550 919999.6880     4.1410     0.3250    25.6690  -999.2500 
   61.2500  -999.2500    28.4300 919999.6880     4.1980     0.2750    25.6690  -999.2500 
   61.3750  -999.2500    27.7680 919999.6880     4.1730     0.2390    25.6690  -999.2500 
   61.5000  -999.2500    25.1710 919999.6880     4.1840     0.2210    25.6690  -999.2500 
   61.6250  -999.2500    23.4230 919999.6880     4.3280     0.2330    25.6690  -999.2500 
   61.7500  -999.2500    25.7570 919999.6880     4.7410     0.2570    25.6660  -999.2500 
   61.8750  -999.2500    30.0440 919999.6880     5.4290     0.3060    25.6600  -999.2500 
   62.0000  -999.2500    33.6490 919999.6880     6.3040     0.4060    25.6450  -999.2500 
   62.1250  -999.2500    34.7800 919999.6880     7.1520     0.5490    25.6130  -999.2500 
   62.2500  -999.2500    34.5920 919999.6880     7.5610     0.6420    25.5620  -999.2500 
   62.3750  -999.2500    34.2730 919999.6880     7.3740     0.6030    25.5040  -999.2500 
   62.5000  -999.2500    33.5370 919999.6880     6.9350     0.5030    25.4550  -999.2500 
   62.6250  -999.2500    30.9740 919999.6880     6.7900     0.4230    25.4150  -999.2500 
   62.7500  -999.2500    28.1680 919999.6880     7.1420     0.3780    25.3950  -999.2500 
   62.8750  -999.2500    29.3290 919999.6880     7.6930     0.3820    25.3830  -999.2500 
   63.0000  -999.2500    33.8160 919999.6880     8.1440     0.3960    25.3690  -999.2500 
   63.1250  -999.2500    37.0980 919999.6880     8.1610     0.3740    25.3430  -999.2500 
   63.2500  -999.2500    36.7840 919999.6880     7.4920     0.2470    25.2830  -999.2500 
   63.3750  -999.2500    36.6960 919999.6880     6.6200     0.1180    25.1700  -999.2500 
   63.5000  -999.2500    38.1980 919999.6880     5.9990    -0.0100    25.0240  -999.2500 
   63.6250  -999.2500    38.9740 919999.6880     5.8060    -0.0790    24.9050  -999.2500 
   63.7500  -999.2500    38.6500 919999.6880     6.0570    -0.0800    24.8440  -999.2500 
   63.8750  -999.2500    39.6020 919999.6880     6.5330    -0.0650    24.8010  -999.2500 
   64.0000  -999.2500    42.0990 919999.6880     7.0120    -0.0300    24.7600  -999.2500 
   64.1250  -999.2500    45.9960 919999.6880     7.2250     0.0160    24.7060  -999.2500 
   64.2500  -999.2500    50.8170 919999.6880     6.9060     0.0730    24.6650  -999.2500 
   64.3750  -999.2500    55.4110 919999.6880     6.1910     0.1480    24.6380  -999.2500 
   64.5000  -999.2500    57.4210 919999.6880     5.3400     0.2290    24.6250  -999.2500 
   64.6250  -999.2500    56.7870 919999.6880     4.6030     0.2720    24.6210  -999.2500 
   64.7500  -999.2500    57.4090 919999.6880     4.1340     0.2740    24.6210  -999.2500 
   64.8750  -999.2500    61.7660 919999.6880     3.9140     0.2670    24.6220  -999.2500 
   65.0000  -999.2500    66.9410 917518.6250     3.9470     0.2530    24.6290  -999.2500 
   65.1250  -999.2500    68.3420 913380.1250     4.2330     0.2230    24.6470  -999.2500 
   65.2500  -999.2500    64.7010 932906.8750     4.7800     0.1580    24.6930  -999.2500 
   65.3750  -999.2500    59.8770 947997.5630     5.4380     0.0450    24.7870  -999.2500 
   65.5000  -999.2500    54.1850 956398.3750     5.9940    -0.0520    24.9270  -999.2500 
   65.6250  -999.2500    49.0790 864266.1250     6.1850    -0.1320    25.0400  -999.2500 
   65.7500  -999.2500    48.6440 711973.5000     5.6310    -0.1710    25.0860  -999.2500 
   65.8750  -999.2500    52.3040 420013.7190     4.3630    -0.2910    25.0930  -999.2500 
   66.0000  -999.2500    57.5450 76104.3360     2.8070    -0.5310    25.0790  -999.2500 
   66.1250  -999.2500    60.6660    62.3780     1.4780    -0.5800    25.0360  -999.2500 
   66.2500  -999.2500    60.0410    13.6160     0.4960    -0.4670    24.9560  -999.2500 
   66.3750  -999.2500    58.5190     3.2600     0.3510    -0.1720    24.8700  -999.2500 
   66.5000  -999.2500    56.9100     0.8110     0.3440     0.2570    24.8770  -999.2500 
   66.6250  -999.2500    55.4150     0.5870     0.4380     0.5080    25.1870  -999.2500 
   66.7500  -999.2500    53.6920     0.8290     0.6240     0.6570    25.9030  -999.2500 
   66.8750  -999.2500    53.9240     1.1820     0.9000     0.9260    26.4810  -999.2500 
   67.0000  -999.2500    55.8410     1.5450     1.2130     1.7190    26.4200  -999.2500 
   67.1250  -999.2500    58.1980     1.9830     1.6910     3.3460    26.1210  -999.2500 
   67.2500  -999.2500    61.9610     2.4300     2.3650     5.8680    25.3910  -999.2500 
   67.3750  -999.2500    66.1900     2.8050     3.1590     8.4500    24.6190  -999.2500 
   67.5000  -999.2500    69.2230     3.1020     3.9820     9.8540    24.2890  -999.2500 
   67.6250  -999.2500    72.5710     3.4370     4.7280     9.8430    24.3530  -999.2500 
   67.7500  -999.2500    80.8490     4.0490     5.3170     9.3220    24.4700  -999.2500 
   67.8750  -999.2500    90.8170     4.9570     5.8200     9.1260    24.4880  -999.2500 
   68.0000  -999.2500    96.8020     6.0490     6.3260     9.4800    24.4330  -999.2500 
   68.1250  -999.2500    94.3960     7.1370     6.8850    10.9480    24.3300  -999.2500 
