~V
VERS. 2.00: Ver 2.00
~W
STRT.M 60.0000:
STOP.M 277.0000:
STEP.M 0.1250:
NULL. -999.2500:
UWI. DF3044:
~C
DEPT.M :
GR.API :
CALI.CM :
RXO.OHMM :
RI. :
RML.OHMM :
DEN.GM/CC :
SP.MV :
~A
# ...
  217.5000    57.0820    23.7270   149.7490   198.8380   217.9510     2.1790   -27.4130 
  217.6250    55.9740    23.7270   136.9840   198.0970   217.2930     2.1840   -27.4440 
  217.7500    55.4210    23.7270   131.2770   196.8820   215.9640     2.1920   -27.4740 
  217.8750    54.3200    23.7270   140.0410   194.9510   213.6200     2.1970   -27.5050 
  218.0000    53.4000    23.7270   158.6360   192.1260   210.0660     2.1950   -27.5050 
  218.1250    54.4150    23.7270   168.2630   188.1770   205.1300     2.1860   -27.4730 
  218.2500    57.4490    23.7270   168.7000   183.2870   199.1580     2.1830   -27.4620 
  218.3750    60.6070    23.7270   164.8090   177.6710   192.5120     2.1880   -27.4200 
  218.5000    61.3810    23.7270   163.2110   171.8560   185.8710     2.1950   -27.3340 
  218.6250    59.9210    23.7230   163.1050   166.7820   180.3650     2.2000   -27.2500 
  218.7500    59.2130    23.7160   156.6290   163.0570   176.5910     2.1970   -27.2000 
  218.8750    59.0370    23.7040   147.8240   161.0280   174.8100     2.1890   -27.1310 
  219.0000    57.4940    23.6930   145.9360   160.7000   174.8960     2.1800   -27.0410 
  219.1250    56.5490    23.6730   153.3000   161.7330   176.3720     2.1830   -26.9730 
  219.2500    57.9130    23.6380   161.7650   162.9020   177.9050     2.1950   -26.9010 
  219.3750    58.6500    23.6030   163.6240   163.0010   178.2550     2.2030   -26.8160 
  219.5000    56.4980    23.5810   160.7930   160.6360   175.9970     2.2000   -26.7240 
  219.6250    53.8920    23.5770   157.6170   153.6040   168.8680     2.1990   -26.6460 
  219.7500    54.5250    23.5750   155.5350   142.0160   156.9510     2.2170   -26.5110 
  219.8750    57.0330    23.5740   151.7260   127.1430   141.3990     2.2500   -26.3660 
  220.0000    58.7430    23.5700   141.3540   111.5130   124.7020     2.2810   -26.2670 
  220.1250    58.6460    23.5590   122.1460    98.3380   110.2890     2.2870   -26.1570 
  220.2500    56.3020    23.5440   100.1780    88.9290    99.8870     2.2740   -26.0380 
  220.3750    53.1160    23.5330    85.8300    83.5830    93.9960     2.2530   -25.9510 
  220.5000    54.4910    23.5260    83.5880    81.8960    92.1810     2.2330   -25.9190 
  220.6250    61.3490    23.5200    88.4220    83.3100    93.7550     2.2180   -25.9010 
  220.7500    64.2470    23.5150    92.2210    86.0780    96.7780     2.2070   -25.9250 
  220.8750    61.4290    23.5070    93.5990    89.0100    99.9580     2.2010   -25.9860 
  221.0000    59.3160    23.5000    93.9250    91.1650   102.2540     2.2000   -26.0350 
  221.1250    61.8890    23.4950    94.1140    91.9250   102.8610     2.2000   -26.1350 
  221.2500    63.0490    23.4890    94.5550    91.5480   101.9450     2.1970   -26.2390 
  221.3750    61.7190    23.4770    94.3670    90.1310    99.5890     2.1940   -26.3470 
  221.5000    60.4820    23.4510    92.2990    87.7520    96.0150     2.1940   -26.4500 
  221.6250    58.2210    23.4230    87.5050    84.7050    91.8050     2.1990   -26.5640 
  221.7500    55.5650    23.4040    80.5080    81.9170    88.0630     2.2070   -26.6720 
  221.8750    54.0710    23.3910    72.6340    80.1810    85.5740     2.2110   -26.7710 
  222.0000    53.8290    23.3860    67.2520    79.8450    84.5790     2.2130   -26.8700 
  222.1250    53.9080    23.3840    67.8130    80.3890    84.3960     2.2180   -26.9250 
  222.2500    55.7590    23.3830    74.1700    80.1440    83.3740     2.2290   -26.9470 
  222.3750    59.3770    23.3790    81.6810    77.9090    80.4860     2.2400   -26.9310 
  222.5000    61.6140    23.3760    83.1780    73.6840    75.8360     2.2450   -26.8830 
  222.6250    60.8770    23.3740    72.3840    68.9320    70.8590     2.2440   -26.7940 
  222.7500    59.6010    23.3780    57.9310    65.5880    67.3800     2.2440   -26.6690 
  222.8750    58.8290    23.4110    50.6260    64.6980    66.4080     2.2440   -26.4980 
  223.0000    58.3800    23.5010    55.0570    66.6610    68.2350     2.2370   -26.2970 
  223.1250    58.1160    23.6080    68.4200    71.9060    72.3840     2.2250   -26.0700 
  223.2500    57.8050    23.6690    79.5120    77.1940    78.8240     2.2170   -25.8520 
  223.3750    57.2180    23.6880    83.0520    81.8740    84.9320     2.2200   -25.6430 
  223.5000    57.0430    23.6890    82.7120    84.7450    89.0230     2.2290   -25.4490 
  223.6250    57.3360    23.6890    83.7770    85.2010    90.1330     2.2350   -25.2720 
  223.7500    57.0480    23.6890    84.8990    84.2820    89.6020     2.2330   -25.1320 
  223.8750    56.6870    23.6890    83.8360    82.7730    88.4490     2.2270   -25.0280 
  224.0000    56.7500    23.6890    82.3260    81.1770    87.2220     2.2230   -24.9430 
  224.1250    57.5270    23.6890    80.5910    79.7510    86.1480     2.2270   -24.8760 
  224.2500    58.4580    23.6870    79.1960    78.5690    85.2940     2.2320   -24.8090 
  224.3750    58.1170    23.6840    78.7910    77.6790    84.7420     2.2320   -24.7320 
  224.5000    56.3450    23.6810    79.1470    77.1530    84.5900     2.2240   -24.6560 
  224.6250    54.3400    23.6800    79.1400    77.3090    85.1870     2.2170   -24.5710 
  224.7500    53.8260    23.6800    78.6100    78.2430    86.6660     2.2290   -24.4730 
  224.8750    55.2040    23.6800    78.4110    79.7720    88.8260     2.2760   -24.3530 
  225.0000    57.0760    23.6770    79.9840    81.2720    90.9180     2.3540   -24.2290 
  225.1250    57.9400    23.6340    87.6520    81.4140    91.1470     2.4380   -24.0980 
  225.2500    58.3300    23.5430    96.5280    79.1780    87.9660     2.5000   -23.9640 
  225.3750    59.7570    23.4580    98.5290    74.2120    80.9760     2.5270   -23.8300 
  225.5000    61.0440    23.4230    86.4610    67.3830    71.8130     2.5190   -23.6740 
  225.6250    59.1940    23.4230    66.8260    60.6400    63.4230     2.4940   -23.4830 
  225.7500    57.7920    23.4190    49.2400    55.6550    57.5320     2.4830   -23.2560 
  225.8750    61.1440    23.4060    39.2960    53.2170    54.6670     2.5070   -23.0020 
  226.0000    67.2270    23.3760    40.5750    53.3900    54.6960     2.5630   -22.7160 
  226.1250    69.8000    23.3400    52.0780    55.2750    56.7260     2.6190   -22.4070 
  226.2500    68.9610    23.3230    65.7300    55.8450    57.4670     2.6420   -22.0700 
  226.3750    67.3450    23.3180    73.9740    51.7770    53.0400     2.6310   -21.7050 
  226.5000    64.8820    23.3150    69.4450    41.8030    42.1220     2.6050   -21.3380 
  226.6250    59.6330    23.2570    49.9440    29.2950    28.9870     2.5780   -20.9750 
  226.7500    53.4330    23.1120    29.2890    19.1040    18.6350     2.5410   -20.6330 
  226.8750    49.6970    22.9460    15.9050    12.2880    11.8230     2.4900   -20.3330 
  227.0000    51.3170    22.8720     9.0530     8.2190     7.8180     2.4330   -20.0930 
  227.1250    60.1630    22.9140     6.0530     6.1880     5.9550     2.3960   -19.9360 
  227.2500    70.6940    23.0100     5.1950     5.2370     5.2640     2.3870   -19.8370 
  227.3750    78.4350    23.1650     5.4430     5.0540     5.3900     2.4010   -19.7840 
  227.5000    84.4040    23.2940     6.6660     5.4240     6.0640     2.4230   -19.7520 
  227.6250    91.2280    23.3620     8.0590     6.1280     6.9730     2.4330   -19.7440 
  227.7500    96.7950    23.3860     8.6340     6.7840     7.6800     2.4290   -19.7370 
  227.8750    99.1440    23.3940     8.4450     7.1510     7.9380     2.4120   -19.7290 
  228.0000    98.1860    23.3940     8.1000     7.1730     7.7550     2.3900   -19.7090 
  228.1250    95.5530    23.3940     7.9220     6.9650     7.3580     2.3770   -19.6690 
  228.2500    93.1780    23.3940     7.8340     6.7420     7.0320     2.3770   -19.6330 
  228.3750    93.0550    23.3920     7.7690     6.5870     6.8670     2.3840   -19.6190 
  228.5000    95.4390    23.3880     7.7190     6.5100     6.8490     2.3920   -19.6360 
  228.6250    97.5120    23.3850     7.7640     6.4940     6.9400     2.4000   -19.6880 
