~V
VERS. 2.00: Ver 2.00
~W
STRT.M 120.0000:
STOP.M 271.0000:
STEP.M 0.1250:
NULL. -999.2500:
UWI. DF3037:
~C
DEPT.M :
GR.API :
RML.OHMM :
RI. :
RXO.OHMM :
CALI.CM :
SP.MV :
DEN.GM/CC :
AC.US/MT :
~A
  120.0000    93.0200     7.4750     6.1690     5.8350    25.4810   -28.7520     2.2670   426.5510 
  120.1250    94.4390     7.7440     6.4190     5.9690    25.2570   -28.7780     2.2670   423.3790 
  120.2500    98.3850     7.8420     6.5540     6.2340    25.1120   -28.7620     2.2740   421.2690 
  120.3750    99.8770     7.6940     6.5020     6.5250    25.1360   -28.6810     2.2890   421.2140 
  120.5000    99.0800     7.3070     6.2550     6.5090    25.2380   -28.5570     2.3060   423.7540 
  120.6250    99.8400     6.7760     5.8670     6.1710    25.4510   -28.3720     2.3200   428.9390 
  120.7500   102.9450     6.2900     5.4900     5.8370    25.7560   -28.2460     2.3250   435.1380 
  120.8750   106.8090     5.9760     5.2300     5.4640    26.0570   -28.1010     2.3220   440.7180 
  121.0000   107.7190     5.8980     5.1490     5.1220    26.2650   -28.0870     2.3140   443.9750 
  121.1250   104.0040     6.0650     5.2720     5.1090    26.2650   -27.9890     2.3060   443.2230 
  121.2500   101.0480     6.3530     5.5080     5.3800    26.0250   -27.9590     2.3010   439.5500 
  121.3750    99.4560     6.6610     5.7800     5.9120    25.6410   -27.9880     2.2980   434.7020 
  121.5000    96.5920     6.9090     6.0210     6.3690    25.4330   -27.9960     2.2980   430.5750 
  121.6250    95.5350     7.0370     6.1750     6.5420    25.5460   -28.0500     2.3030   428.1930 
  121.7500    99.2730     7.0640     6.2440     6.2930    25.8030   -28.0050     2.3160   426.5300 
  121.8750   102.2960     7.0140     6.2350     6.0630    25.9950   -27.9540     2.3360   424.7360 
  122.0000    99.6380     6.9020     6.1540     6.1560    26.0210   -27.8310     2.3590   423.0440 
  122.1250    96.0970     6.7230     5.9860     6.4590    25.9670   -27.7280     2.3800   423.3760 
  122.2500    96.6390     6.4870     5.7470     6.4940    25.9320   -27.7000     2.3970   426.8120 
  122.3750    99.3460     6.2160     5.4610     5.9240    26.0030   -27.6160     2.4090   433.0280 
  122.5000   100.6500     5.9490     5.1710     5.4130    26.2110   -27.6480     2.4180   440.2270 
  122.6250   100.5800     5.7480     4.9400     5.1530    26.4510   -27.6090     2.4200   444.9620 
  122.7500   101.7350     5.6440     4.8050     5.0990    26.4020   -27.6450     2.4120   444.7150 
  122.8750   103.0440     5.6570     4.7890     5.0520    26.0630   -27.6750     2.3950   438.2550 
  123.0000   101.9290     5.8030     4.9100     5.0660    25.5970   -27.7330     2.3720   426.1590 
  123.1250    97.7700     6.1460     5.2230     5.3450    25.1290   -27.8380     2.3510   410.5030 
  123.2500    92.2680     6.7150     5.7490     5.7890    24.7560   -27.8310     2.3390   394.8750 
  123.3750    86.6190     7.5540     6.5270     6.3410    24.4930   -27.8370     2.3350   381.2190 
  123.5000    81.8080     8.6650     7.5670     7.0330    24.3550   -27.7570     2.3320   370.1400 
  123.6250    80.3230     9.9670     8.8210     8.2210    24.3220   -27.7210     2.3200   361.4720 
  123.7500    78.3460    11.2110    10.0710     9.8280    24.3370   -27.6230     2.2940   354.5770 
  123.8750    72.0930    12.1570    11.0960    11.3580    24.3990   -27.5390     2.2600   350.0740 
  124.0000    64.6240    12.6180    11.6980    12.7280    24.4800   -27.3490     2.2280   349.1170 
  124.1250    63.8080    12.4740    11.7130    12.2000    24.4620   -27.2070     2.2080   354.0710 
  124.2500    67.8830    11.9740    11.3290    10.5960    24.3790   -27.1350     2.2020   364.5710 
  124.3750    72.1880    11.3370    10.7330     9.6330    24.3090   -27.0400     2.2040   379.1780 
  124.5000    74.6900    10.7420    10.0990     9.2960    24.2570   -27.0560     2.2100   394.9030 
  124.6250    74.9550    10.3060     9.5660     9.0880    24.2380   -27.0450     2.2150   407.6990 
  124.7500    73.9130    10.0180     9.1740     8.8880    24.2450   -27.0770     2.2200   415.9680 
  124.8750    72.4810     9.8670     8.9410     8.6930    24.2730   -27.1410     2.2250   419.7570 
  125.0000    72.1790     9.8520     8.8730     8.4990    24.2890   -27.2200     2.2320   420.1760 
  125.1250    72.1190    10.0010     8.9940     8.3050    24.2840   -27.2480     2.2400   418.3930 
  125.2500    72.6320    10.2780     9.2540     8.3250    24.3020   -27.1680     2.2500   415.6800 
  125.3750    74.8260    10.6330     9.6030     8.6700    24.3130   -27.0750     2.2600   412.7660 
  125.5000    76.4800    10.9860     9.9700     9.2350    24.3060   -26.8180     2.2680   410.4080 
  125.6250    75.3050    11.2350    10.2580     9.6240    24.2750   -26.5600     2.2710   409.3800 
  125.7500    72.7350    11.3530    10.4270     9.7280    24.2060   -26.2740     2.2680   409.6440 
  125.8750    69.4000    11.3610    10.4780     9.6510    24.1060   -25.9250     2.2580   410.9700 
  126.0000    66.3340    11.3190    10.4540     9.4830    23.9940   -25.6090     2.2420   412.8980 
  126.1250    64.9950    11.2990    10.4180     9.2420    23.9630   -25.2030     2.2250   414.7980 
  126.2500    66.5530    11.3360    10.4220     9.1850    23.9950   -24.8710     2.2100   416.2090 
  126.3750    68.1020    11.4320    10.4800     9.4510    24.0420   -24.4650     2.2000   417.0520 
  126.5000    67.0670    11.5690    10.5860     9.8180    24.0510   -24.1630     2.1960   417.5150 
  126.6250    65.1600    11.7180    10.7180    10.0100    24.0450   -23.8300     2.1960   417.9420 
  126.7500    64.4030    11.8480    10.8410    10.0960    24.0410   -23.5340     2.1980   418.5850 
  126.8750    64.8760    11.9350    10.9250    10.2360    24.0330   -23.2560     2.2000   419.5180 
  127.0000    65.9850    11.9540    10.9420    10.4150    23.9980   -22.9780     2.2020   420.7560 
  127.1250    66.8490    11.8670    10.8600    10.4400    23.9090   -22.8040     2.2040   422.4020 
  127.2500    66.8660    11.6910    10.6950    10.3730    23.8120   -22.5910     2.2070   424.4420 
  127.3750    65.7300    11.4520    10.4730    10.1590    23.7320   -22.5050     2.2110   426.7960 
  127.5000    65.7680    11.2030    10.2420     9.8550    23.6820   -22.3310     2.2160   429.1920 
  127.6250    68.2090    11.0230    10.0680     9.5940    23.6290   -22.2410     2.2210   431.1050 
  127.7500    70.0440    10.9410     9.9820     9.3590    23.5560   -22.1760     2.2240   432.2180 
  127.8750    70.0280    10.9430     9.9820     9.1260    23.4980   -22.0920     2.2220   432.3750 
  128.0000    67.5980    10.9750    10.0330     8.9940    23.4640   -22.0870     2.2170   431.5380 
  128.1250    64.6100    10.9640    10.0760     8.9030    23.4320   -21.9940     2.2110   429.5590 
  128.2500    63.3310    10.8940    10.0790     8.7300    23.4090   -21.9160     2.2090   426.6930 
  128.3750    64.2930    10.8150    10.0600     8.5890    23.3760   -21.8710     2.2120   423.0750 
  128.5000    67.8170    10.8060    10.0690     8.3910    23.3260   -21.8980     2.2190   418.7850 
  128.6250    71.5360    10.9160    10.1460     8.2930    23.3010   -21.9770     2.2300   413.8670 
  128.7500    73.1600    11.0330    10.2220     8.3550    23.2920   -22.0570     2.2400   409.0250 
  128.8750    72.4660    10.9740    10.1660     8.6360    23.2900   -22.2410     2.2490   405.4640 
  129.0000    70.7790    10.5780     9.8420     9.0760    23.2810   -22.3860     2.2550   404.6260 
  129.1250    70.5680     9.7620     9.1610     9.1780    23.2750   -22.6530     2.2600   407.6440 
  129.2500    72.1040     8.7770     8.3020     8.6850    23.3880   -22.9170     2.2660   412.6140 
  129.3750    77.1840     7.8830     7.4710     7.5870    23.7520   -23.1680     2.2740   417.1290 
  129.5000    84.6100     7.2910     6.8550     6.3190    24.1940   -23.4300     2.2860   419.1080 
  129.6250    88.5240     7.1520     6.6140     5.7710    24.3030   -23.7060     2.2960   417.6850 
  129.7500    88.5780     7.3410     6.6850     6.0930    24.2070   -23.9730     2.3010   414.8850 
  129.8750    86.6110     7.7280     6.9880     6.7350    24.0990   -24.1850     2.3000   412.5050 
