~V
VERS. 2.00: Ver 2.00
~W
STRT.M 60.0000:
STOP.M 251.0000:
STEP.M 0.1250:
NULL. -999.2500:
UWI. DF3020:
~C
DEPT.M :
GR.API :
RML.OHMM :
RI. :
RXO.OHMM :
CALI.CM :
DEN.GM/CC :
SP.MV :
~A
# ...
  105.0000    77.4080     9.7600     7.9890     8.9020    23.0000  -999.2500   -36.3380 
  105.1250    74.8370    10.0180     8.1700     9.7270    23.0020  -999.2500   -36.3290 
  105.2500    75.8020    10.2360     8.3490    10.1510    23.0140  -999.2500   -36.3260 
  105.3750    76.2310    10.3770     8.4930    10.2970    23.0890  -999.2500   -36.3320 
  105.5000    75.8430    10.4320     8.5900    10.3490    23.1300  -999.2500   -36.3190 
  105.6250    77.6900    10.4040     8.6280    10.2620    23.1550  -999.2500   -36.3040 
  105.7500    78.6710    10.3280     8.6170    10.1220    23.1930  -999.2500   -36.2310 
  105.8750    76.4740    10.2270     8.5580     9.9860    23.2020  -999.2500   -36.0980 
  106.0000    74.8820    10.1220     8.4610     9.7070    23.2110  -999.2500   -35.8800 
  106.1250    77.9860    10.0330     8.3440     9.2680    23.2840  -999.2500   -35.6040 
  106.2500    81.7450     9.9650     8.2340     8.9210    23.3550  -999.2500   -35.2300 
  106.3750    82.3630     9.8970     8.1330     8.6140    23.3550  -999.2500   -34.7600 
  106.5000    80.4640     9.7830     8.0160     8.3890    23.3740  -999.2500   -34.1650 
  106.6250    80.3510     9.5380     7.8190     8.1590    23.4560  -999.2500   -33.4710 
  106.7500    82.0360     9.1420     7.5090     7.9670    23.6160  -999.2500   -32.6450 
  106.8750    84.4400     8.6050     7.0820     7.5990    23.8340  -999.2500   -31.7600 
  107.0000    87.7600     7.9880     6.5770     6.9920    24.2100  -999.2500   -30.8080 
  107.1250    94.6360     7.3990     6.0750     6.1220    24.6270  -999.2500   -29.9050 
  107.2500   104.7030     6.9380     5.6610     5.6770    24.9470  -999.2500   -29.0780 
  107.3750   113.6470     6.6520     5.3830     5.4920    25.0600  -999.2500   -28.3700 
  107.5000   117.6470     6.5460     5.2580     5.3430    25.0740  -999.2500   -27.8050 
  107.6250   116.2780     6.5990     5.2830     5.3590    25.0740     0.0000   -27.3890 
  107.7500   113.0230     6.7100     5.3830     5.5480    25.0740     0.0000   -27.1580 
  107.8750   110.2080     6.8100     5.4990     5.7740    25.0740     0.0000   -27.0600 
  108.0000   107.4780     6.8510     5.5850     5.9300    25.0740     2.3060   -27.1460 
  108.1250   104.3090     6.8170     5.6180     6.0140    25.0610     2.3120   -27.3320 
  108.2500   101.8630     6.7570     5.6270     5.9800    25.0270     2.3150   -27.6520 
  108.3750   101.4850     6.7310     5.6620     5.8090    24.9720     2.3100   -28.0870 
  108.5000   102.2850     6.7980     5.7690     5.8010    24.8910     2.2970   -28.6470 
  108.6250   103.1710     7.0030     5.9910     6.0150    24.7390     2.2800   -29.3020 
  108.7500   105.4740     7.2860     6.2870     6.4620    24.5400     2.2670   -30.0540 
  108.8750   108.0300     7.5600     6.5950     6.8820    24.3500     2.2610   -30.8200 
  109.0000   107.2020     7.7210     6.8330     7.3630    24.2150     2.2600   -31.5400 
  109.1250   104.1230     7.6560     6.9010     7.9210    24.1900     2.2610   -32.1690 
  109.2500   103.3530     7.4170     6.8130     7.9690    24.2100     2.2610   -32.6600 
  109.3750   104.5720     7.1090     6.6300     7.6190    24.2400     2.2620   -33.0140 
  109.5000   105.4030     6.8760     6.4520     7.3950    24.2420     2.2630   -33.1940 
  109.6250   105.2110     6.8820     6.4030     6.9990    24.1550     2.2640   -33.2650 
  109.7500   102.9290     7.1260     6.5060     6.7400    23.9320     2.2630   -33.1880 
  109.8750    96.5070     7.5190     6.7100     6.9030    23.6260     2.2590   -33.0530 
  110.0000    88.5870     7.8830     6.8880     7.2680    23.4190     2.2510   -32.8830 
  110.1250    86.2110     7.9370     6.8440     7.6400    23.3600     2.2430   -32.6800 
  110.2500    88.9520     7.5950     6.5210     7.9800    23.3550     2.2370   -32.4280 
  110.3750    93.2320     6.9540     5.9870     7.8980    23.3570     2.2350   -32.1030 
  110.5000   100.0470     6.3280     5.4600     7.2960    23.4960     2.2370   -31.7910 
  110.6250   111.4060     6.2860     5.3470     6.5980    23.9490     2.2500   -31.5130 
  110.7500   118.4510     7.1080     5.8920     6.6700    24.5690     2.2830   -31.3330 
  110.8750   111.8150     8.8360     7.1960     8.6680    24.8200     2.3420   -31.2760 
  111.0000    93.0390    11.1850     9.1200    13.0590    24.7010     2.4220   -31.3630 
  111.1250    76.4880    13.4030    11.1600    20.8110    24.4940     2.4920   -31.6990 
  111.2500    70.9340    14.6200    12.5560    31.9690    24.3570     2.5160   -32.2580 
  111.3750    72.3110    14.3710    12.8060    36.8890    24.1610     2.4790   -33.0310 
  111.5000    72.5990    12.9080    11.9320    26.3440    23.8290     2.3990   -33.9390 
  111.6250    71.5940    11.1550    10.5220    16.1460    23.5120     2.3130   -34.8810 
  111.7500    73.8200     9.9040     9.3220    11.4370    23.2950     2.2460   -35.8280 
  111.8750    78.1300     9.2850     8.5640     9.6950    23.1660     2.2050   -36.6980 
  112.0000    81.8800     9.1660     8.2360     9.1010    23.1150     2.1860   -37.5160 
  112.1250    83.5220     9.3600     8.2430     8.8510    23.1160     2.1820   -38.1510 
  112.2500    83.0400     9.6290     8.3820     8.6440    23.1520     2.1810   -38.6910 
  112.3750    79.4520     9.8630     8.5450     8.4550    23.2360     2.1790   -39.1440 
  112.5000    75.2100    10.0010     8.6570     8.3600    23.3020     2.1760   -39.4990 
  112.6250    72.4870     9.9720     8.6490     8.3800    23.3250     2.1750   -39.7820 
  112.7500    70.1020     9.7670     8.5070     8.4650    23.3260     2.1770   -39.9820 
  112.8750    69.6860     9.3870     8.2290     8.5910    23.3260     2.1810   -40.1170 
  113.0000    71.5370     8.8920     7.8530     8.7200    23.3280     2.1820   -40.1590 
  113.1250    73.4110     8.4990     7.5230     8.7920    23.3380     2.1760   -40.1280 
  113.2500    73.3160     8.5240     7.4810     8.8340    23.3620     2.1670   -40.0090 
  113.3750    73.4220     9.2530     7.9610     8.9810    23.4110     2.1710   -39.7800 
  113.5000    74.9270    10.7990     9.0920     9.4970    23.5040     2.2040   -39.5360 
  113.6250    76.3340    12.9790    10.8140    11.0410    23.6680     2.2810   -39.1740 
  113.7500    77.7470    15.0150    12.5610    13.3730    23.8640     2.3780   -38.8010 
  113.8750    78.1340    16.1410    13.7260    16.9900    24.0530     2.4590   -38.3850 
  114.0000    75.8080    15.8190    13.8150    23.6540    24.0690     2.4870   -37.9550 
  114.1250    71.5670    14.0620    12.6490    22.3670    23.8990     2.4420   -37.4760 
  114.2500    69.3990    12.0030    11.0070    14.9090    23.7110     2.3610   -36.9660 
  114.3750    71.3000    10.3440     9.4730    10.5190    23.6380     2.2780   -36.4020 
  114.5000    76.0630     9.2910     8.3320     9.1300    23.6280     2.2150   -35.7150 
  114.6250    80.6330     8.7590     7.6390     8.7210    23.6280     2.1840   -34.9780 
  114.7500    82.7980     8.4130     7.1780     8.3620    23.6520     2.1780   -34.1010 
  114.8750    82.4720     8.0850     6.8120     7.8620    23.7760     2.1940   -33.1550 
  115.0000    83.0260     7.7090     6.4640     7.2030    24.1050     2.2220   -32.1140 
  115.1250    86.6110     7.3100     6.1240     6.5180    24.5030     2.2550   -31.1160 
  115.2500    91.1900     6.9530     5.8250     6.2950    24.8160     2.2810   -30.1400 
  115.3750    94.5360     6.6730     5.5960     6.1270    24.9870     2.2970   -29.2680 
  115.5000    95.3910     6.4860     5.4490     5.9810    25.0490     2.3000   -28.4890 
  115.6250    96.8560     6.4060     5.3900     6.0030    25.0360     2.2960   -27.8980 
  115.7500   101.3350     6.4030     5.3870     6.0200    25.0040     2.2890   -27.4690 
  115.8750   106.5090     6.4560     5.4240     5.9740    24.9890     2.2810   -27.2100 
  116.0000   107.5330     6.5430     5.4870     5.9050    24.9860     2.2710   -27.0790 
  116.1250   101.3570     6.6460     5.5710     5.8910    24.9840     2.2620   -27.0620 
