~V
VERS. 2.00: Ver 2.00
~W
STRT.M 115.0000:
STOP.M 288.0000:
STEP.M 0.1250:
NULL. -999.2500:
UWI. DF3049:
~C
DEPT.M :
GR.API :
CALI.CM :
RXO.OHMM :
RI. :
RML.OHMM :
SP.MV :
DEN.GM/CC :
AC.US/MT :
~A
# ...
  185.0000    58.0080    25.5020    97.3810   169.7500   185.5550   -33.9160     2.2310   393.0500 
  185.1250    60.2260    25.5020    95.4750   200.1450   220.7200   -34.0780     2.2400   395.5990 
  185.2500    61.6110    25.5020    91.5750   232.2130   258.8390   -34.1970     2.2410   397.4440 
  185.3750    61.9140    25.5060    90.7910   261.1060   293.4590   -34.2840     2.2360   399.6840 
  185.5000    59.6850    25.5170    90.9110   283.9500   320.2470   -34.3490     2.2310   402.2920 
  185.6250    56.3190    25.5350    91.4250   300.7870   338.8840   -34.3630     2.2250   404.5510 
  185.7500    55.6020    25.5410    95.8740   313.9480   352.2550   -34.3640     2.2210   405.6980 
  185.8750    56.1190    25.5040   101.9860   326.7930   364.6700   -34.3610     2.2190   406.1170 
  186.0000    55.1520    25.3560   102.5740   340.3660   377.3690   -34.3670     2.2170   406.4880 
  186.1250    53.7250    25.0600    97.5330   354.0950   389.7620   -34.3950     2.2110   407.3990 
  186.2500    54.3470    24.8570    97.4040   362.6190   395.5690   -34.4410     2.2040   409.0220 
  186.3750    55.6050    24.7830   105.0310   356.2470   382.7680   -34.4730     2.2060   410.3360 
  186.5000    56.7830    24.7740   113.2150   325.7930   340.7170   -34.5020     2.2210   409.8870 
  186.6250    58.3470    24.7740   116.3200   273.0900   275.6540   -34.5320     2.2450   406.8450 
  186.7500    59.7780    24.7740   111.9530   214.4880   211.6260   -34.5690     2.2680   402.1340 
  186.8750    60.1470    24.7740    98.7030   167.4530   164.5230   -34.5960     2.2830   398.3470 
  187.0000    60.8660    24.7740    79.7810   137.5640   136.2110   -34.6110     2.2900   396.6050 
  187.1250    63.2140    24.7740    66.0630   124.8000   124.3860   -34.6220     2.2870   396.5360 
  187.2500    66.1100    24.7740    72.9780   129.4350   128.6360   -34.6140     2.2730   397.1700 
  187.3750    67.2370    24.7740    94.5290   146.5160   144.8820   -34.6020     2.2580   397.9900 
  187.5000    67.2260    24.7730   118.8460   172.9530   171.2550   -34.5870     2.2500   399.2180 
  187.6250    66.9470    24.7720   136.5330   202.8860   203.1240   -34.5950     2.2520   401.0260 
  187.7500    65.7710    24.7700   145.8680   225.1670   228.9980   -34.6050     2.2560   403.0460 
  187.8750    63.2970    24.7730   151.9180   233.8990   240.2500   -34.6250     2.2550   404.3860 
  188.0000    61.8090    24.7740   152.2680   230.9100   237.9820   -34.6360     2.2560   404.5220 
  188.1250    62.5430    24.7740   146.2390   222.4450   229.4300   -34.6360     2.2580   403.6380 
  188.2500    63.0920    24.7720   136.1130   214.0310   220.8970   -34.6360     2.2530   402.5220 
  188.3750    61.8230    24.7570   132.3160   207.3520   214.1420   -34.6450     2.2390   401.8640 
  188.5000    59.0200    24.7220   137.6990   201.4060   208.0300   -34.6480     2.2310   401.7670 
  188.6250    57.1220    24.6860   145.3090   194.2700   200.4170   -34.6430     2.2360   401.9690 
  188.7500    59.6550    24.6480   142.8240   184.3600   189.5320   -34.6390     2.2450   401.9280 
  188.8750    63.6730    24.6090   130.4340   172.9670   176.9490   -34.6110     2.2470   401.5230 
  189.0000    65.1290    24.5920   114.1220   161.9680   164.8250   -34.5810     2.2480   401.2120 
  189.1250    63.7790    24.5890   101.6200   152.7710   154.7060   -34.5410     2.2600   401.5730 
  189.2500    63.9670    24.5860    97.6480   145.5050   146.7560   -34.4920     2.2770   402.6960 
  189.3750    64.6780    24.5560    99.6790   138.3280   139.0280   -34.4390     2.2860   403.6820 
  189.5000    62.7900    24.4590    99.5040   129.8640   130.0660   -34.3800     2.2820   403.9420 
  189.6250    60.7590    24.3000    89.7440   119.7670   119.4870   -34.3160     2.2740   403.6100 
  189.7500    62.6500    24.1670    76.0040   109.0930   108.4380   -34.2420     2.2770   403.3440 
  189.8750    66.2790    24.1020    66.8730    99.8910    99.0580   -34.1740     2.2840   403.2870 
  190.0000    67.8560    24.0570    62.9260    93.7600    92.9710   -34.0990     2.2890   402.8810 
  190.1250    66.8000    24.0270    60.9350    91.6870    91.1210   -34.0230     2.2880   401.6180 
  190.2500    65.1750    24.0010    61.1600    94.6760    94.4700   -33.9500     2.2840   399.7050 
  190.3750    66.2350    23.9710    65.3860   101.4660   101.7400   -33.8760     2.2810   398.3210 
  190.5000    70.2740    23.9950    76.1630   110.6750   111.6330   -33.8180     2.2750   398.2500 
  190.6250    71.5020    24.1400    90.6900   120.1000   121.9830   -33.7710     2.2630   399.3640 
  190.7500    64.9040    24.3930   100.5220   126.5480   129.4170   -33.7180     2.2530   400.4660 
  190.8750    57.1030    24.5960   102.6170   128.8230   132.4240   -33.6740     2.2520   400.3200 
  191.0000    54.7390    24.7260    97.2220   127.3790   131.4280   -33.6540     2.2630   398.7110 
  191.1250    57.5690    24.7370    88.5280   124.1070   128.5420   -33.6580     2.2770   396.4590 
  191.2500    59.6780    24.9050    83.0460   121.6330   126.6870   -33.6900     2.2830   395.3590 
  191.3750    60.4960    25.0710    83.3260   121.3790   127.3380   -33.7500     2.2780   396.2800 
  191.5000    61.1520    24.8180    87.0490   123.6230   130.7110   -33.8180     2.2660   398.6990 
  191.6250    62.3520    24.2570    91.3360   128.0680   136.4140   -33.8930     2.2550   401.0730 
  191.7500    61.8180    23.9860    96.1520   134.3040   143.9230   -33.9590     2.2540   401.7470 
  191.8750    61.7100    23.9270   101.1890   141.3330   152.1310   -34.0200     2.2640   401.0850 
  192.0000    64.6300    23.9340   105.1510   148.4290   160.2660   -34.0750     2.2770   400.1520 
  192.1250    66.9550    23.9350   107.7740   154.6130   167.2970   -34.1200     2.2830   399.7940 
  192.2500    62.7060    23.9040   109.6170   158.0920   171.2140   -34.1600     2.2780   400.0560 
  192.3750    56.4100    23.7960   113.4260   158.0880   171.0890   -34.1910     2.2690   400.1440 
  192.5000    57.8150    23.6130   118.9110   154.3730   166.6540   -34.2090     2.2610   399.4350 
  192.6250    66.7880    23.4580   119.6720   147.6290   158.7860   -34.2070     2.2560   397.7620 
  192.7500    70.4090    23.3310   116.0360   139.1400   149.1080   -34.2300     2.2550   395.4700 
  192.8750    66.0100    23.1920   112.5600   130.5960   139.5660   -34.2480     2.2550   393.3550 
  193.0000    63.8610    23.1140   111.6450   122.6680   130.8470   -34.2580     2.2530   391.8280 
  193.1250    69.5940    23.1770   110.6110   115.5650   123.0470   -34.2530     2.2530   390.8570 
  193.2500    72.4650    23.2810   108.3330   109.4780   116.2300   -34.2240     2.2630   390.1270 
  193.3750    67.1410    23.3270   103.7950   104.3980   110.3700   -34.1680     2.2770   389.5630 
  193.5000    60.8760    23.3180    94.7000   100.6140   105.8010   -34.0930     2.2860   389.5900 
  193.6250    58.4970    23.2670    84.3650    98.5200   102.9680   -34.0010     2.2860   390.5110 
  193.7500    58.0090    23.2090    82.0280    98.7160   102.5200   -33.8760     2.2810   391.8780 
  193.8750    56.8320    23.1430    86.7720   100.6790   103.9450   -33.7330     2.2740   392.6210 
  194.0000    60.0760    23.0950    93.0320   103.6590   106.4880   -33.5680     2.2660   392.2420 
  194.1250    67.0590    23.0850    96.2250   106.2460   108.6790   -33.3550     2.2630   390.9690 
  194.2500    70.1570    23.1550    98.4080   105.8350   107.6720   -33.0990     2.2690   389.6250 
  194.3750    67.5790    23.2940    97.9510   101.2030   102.0920   -32.8010     2.2810   388.9740 
  194.5000    62.6540    23.4250    92.5020    92.4990    92.2550   -32.4520     2.2940   389.0290 
  194.6250    61.1510    23.5750    80.5500    81.4290    80.2340   -32.0690     2.3090   389.1620 
  194.7500    63.4260    23.8930    63.7300    70.6210    68.9460   -31.6770     2.3240   388.4080 
  194.8750    66.0670    24.3000    48.9740    61.8170    60.0040   -31.2950     2.3350   387.0210 
