~V
VERS. 2.00: Ver 2.00
~W
STRT.M 64.0000:
STOP.M 257.0000:
STEP.M 0.1250:
NULL. -999.2500:
UWI. DF3069:
~C
DEPT.M :
GR.API :
CALI.CM :
RXO.OHMM :
RI. :
RML.OHMM :
DEN.GM/CC :
SP.MV :
~A
# ...
  221.5000    61.3460    23.8190   100.2840   130.1680   144.0840     2.2800   -38.6310 
  221.6250    61.6580    23.6870   109.4180   126.7320   138.8900     2.2830   -38.5640 
  221.7500    60.0670    23.7870   117.3560   122.7980   133.4090     2.2820   -38.5030 
  221.8750    58.2360    23.6850   113.3390   119.3450   128.8470     2.2810   -38.5290 
  222.0000    57.2980    23.6280    97.3500   117.3630   126.2730     2.2790   -38.6370 
  222.1250    57.8520    23.7150    84.9460   118.0390   126.7990     2.2750   -38.7720 
  222.2500    60.3720    23.6590    84.4740   121.0710   129.7030     2.2660   -38.8390 
  222.3750    63.4230    23.6200    93.0090   125.9670   134.4060     2.2600   -38.8230 
  222.5000    63.7320    23.7310   104.4600   131.7530   140.0150     2.2590   -38.7590 
  222.6250    60.6280    23.6700   114.6800   136.8330   144.5810     2.2580   -38.7980 
  222.7500    60.7050    23.6200   125.3540   139.0920   145.9860     2.2560   -38.9450 
  222.8750    64.9460    23.6650   128.0270   137.3710   143.1940     2.2580   -39.1120 
  223.0000    67.3980    23.6780   117.4130   132.0800   136.9240     2.2680   -39.1680 
  223.1250    63.6760    23.6000   104.4910   124.6110   128.9900     2.2760   -39.0580 
  223.2500    58.4520    23.6170   100.1140   117.2070   121.5040     2.2770   -38.9610 
  223.3750    57.6400    23.6270   100.2540   111.7230   116.4610     2.2720   -38.9640 
  223.5000    61.7020    23.5480    92.7460   109.4770   114.7490     2.2660   -39.0890 
  223.6250    65.5700    23.3340    80.2380   111.0990   117.0530     2.2600   -39.1990 
  223.7500    65.2440    23.3830    76.1490   115.6320   122.2010     2.2630   -39.1860 
  223.8750    60.4920    23.5080    73.3130   121.9070   128.7760     2.2900   -39.0920 
  224.0000    56.4590    23.8700    70.5550   127.7500   134.5190     2.3520   -39.0770 
  224.1250    58.5850    24.0980   112.1760   130.5680   136.6540     2.4180   -39.2380 
  224.2500    62.4900    23.9830   150.5100   129.4650   134.4510     2.4410   -39.4670 
  224.3750    63.7210    23.9390   141.7170   124.2910   127.7820     2.4020   -39.6410 
  224.5000    61.5480    24.1520   107.4000   115.8470   117.8820     2.3320   -39.6740 
  224.6250    59.7100    24.0940    90.8240   106.1800   107.4700     2.2870   -39.6440 
  224.7500    60.3350    24.0220    84.9110    97.5350    98.6260     2.2750   -39.7140 
  224.8750    61.9740    23.9320    80.0750    90.4270    91.6060     2.2740   -39.8850 
  225.0000    63.4700    24.0020    75.5440    84.6220    85.9580     2.2690   -40.0830 
  225.1250    62.4730    24.0420    72.6770    80.0410    81.3390     2.2670   -40.1650 
  225.2500    62.5410    23.9730    68.6370    76.3520    77.4590     2.2730   -40.1170 
  225.3750    66.5890    23.9420    64.8880    73.3070    74.1810     2.2850   -40.0220 
  225.5000    71.8340    24.0300    68.3620    70.8640    71.5650     2.3020   -39.9980 
  225.6250    74.3000    23.9760    71.8570    69.6700    70.3040     2.3210   -40.0980 
  225.7500    74.7930    23.9140    62.7960    69.8110    70.3610     2.3400   -40.1750 
  225.8750    75.0020    23.9230    50.5410    71.0200    71.5150     2.3590   -40.1590 
  226.0000    74.6550    23.9390    51.5850    72.8860    73.4140     2.3750   -40.0220 
  226.1250    73.4540    23.9110    59.4870    74.6340    74.9660     2.3870   -39.8330 
  226.2500    74.9220    23.9510    63.8170    75.0210    75.1350     2.3930   -39.7540 
  226.3750    77.2990    23.9770    65.3540    73.7730    73.7430     2.3860   -39.7660 
  226.5000    76.7990    23.9150    62.1140    71.3060    71.2910     2.3620   -39.7540 
  226.6250    72.7810    23.9260    55.2080    68.1070    68.3670     2.3340   -39.5400 
  226.7500    69.2890    24.0030    51.0610    65.3060    66.1590     2.3110   -39.2470 
  226.8750    68.2430    23.9890    49.4320    64.1410    65.9100     2.2950   -39.0230 
  227.0000    68.8760    24.1550    48.9300    65.4040    68.2150     2.2790   -38.9480 
  227.1250    69.7720    24.1190    50.9470    69.5540    73.4260     2.2630   -38.9740 
  227.2500    68.8010    23.9600    56.3420    76.1440    81.1190     2.2500   -38.9120 
  227.3750    66.6740    23.8700    61.4850    84.8020    90.7890     2.2380   -38.7530 
  227.5000    64.5740    23.6270    62.2470    94.4920   101.3860     2.2260   -38.6010 
  227.6250    62.6530    23.5430    63.3690   103.6240   111.3110     2.2210   -38.6130 
  227.7500    61.4980    23.5180    64.5440   110.7190   119.0810     2.2280   -38.7040 
  227.8750    61.3260    23.3660    62.5160   114.7300   123.4810     2.2370   -38.7590 
  228.0000    60.7800    23.2310    58.2160   115.3320   124.3180     2.2390   -38.6860 
  228.1250    60.1720    23.1140    53.8690   113.3080   122.5580     2.2350   -38.4850 
  228.2500    60.0700    22.8390    48.9870   110.4930   120.1360     2.2330   -38.2870 
  228.3750    59.2830    22.6850    44.7690   108.0360   118.4110     2.2400   -38.1570 
  228.5000    56.9690    22.8000    45.2600   107.2420   118.7770     2.2530   -38.0820 
  228.6250    54.9780    23.1890    56.8510   109.6820   122.8310     2.2600   -37.9630 
  228.7500    54.9880    23.8430    76.2690   114.9890   129.7840     2.2570   -37.7320 
  228.8750    56.2870    24.1700    98.8440   122.5110   139.0370     2.2490   -37.4220 
  229.0000    57.3010    24.2130   115.7810   131.4300   149.3380     2.2410   -37.1060 
  229.1250    58.3990    24.2280   127.0040   140.1290   158.6620     2.2320   -36.9050 
  229.2500    60.3270    24.2510   142.0750   147.1900   165.4810     2.2250   -36.7980 
  229.3750    62.9150    24.2200   156.7860   152.2460   169.2280     2.2270   -36.6590 
  229.5000    63.0140    24.2010   158.5310   155.2970   170.0730     2.2410   -36.3930 
  229.6250    60.8650    24.0970   138.2000   155.8640   167.7290     2.2550   -35.9950 
  229.7500    60.5990    23.6170   106.5500   153.7210   162.5430     2.2540   -35.6300 
  229.8750    63.8720    22.9240    75.5980   148.0570   153.6770     2.2450   -35.3800 
  230.0000    68.4180    22.6940    58.3210   137.0420   139.4810     2.2500   -35.1910 
  230.1250    68.6080    22.6830    59.5860   119.6810   119.9310     2.2780   -34.9380 
  230.2500    64.7660    22.7010    61.6340    99.3010    98.4040     2.3140   -34.5320 
  230.3750    62.4180    22.6860    60.1430    78.8330    77.6990     2.3420   -34.0300 
  230.5000    65.9700    22.8150    52.1590    60.8790    60.0120     2.3550   -33.6050 
  230.6250    72.2580    23.0240    41.8610    47.9120    47.2900     2.3600   -33.3490 
  230.7500    75.8870    23.5580    34.0310    39.4280    38.9640     2.3550   -33.1080 
  230.8750    77.7390    23.8660    28.4640    34.7970    34.6040     2.3410   -32.7520 
  231.0000    78.2460    23.9950    25.9880    33.4470    33.8180     2.3250   -32.2810 
  231.1250    76.8870    24.0020    26.9100    35.2860    36.4440     2.3160   -31.7860 
  231.2500    74.9560    23.9240    29.4900    39.5040    41.5300     2.3150   -31.3970 
  231.3750    72.8400    23.9740    37.1810    45.6920    48.5120     2.3140   -31.1270 
  231.5000    70.7930    23.9380    48.0570    53.1020    56.4980     2.3050   -30.8660 
  231.6250    69.8500    23.9040    57.6980    60.1500    63.9660     2.2880   -30.4680 
  231.7500    70.9220    23.8630    63.6930    65.1030    69.2590     2.2770   -29.9880 
  231.8750    72.7150    23.7810    66.7490    67.0420    71.3930     2.2870   -29.5030 
  232.0000    74.8350    23.6740    65.4640    65.9290    70.2890     2.3240   -29.0970 
  232.1250    78.6550    23.8980    59.3110    62.6670    67.0380     2.3710   -28.7830 
  232.2500    82.1720    23.9450    53.8100    59.0290    63.5590     2.4160   -28.4350 
  232.3750    82.6660    23.9480    50.0430    56.0020    60.7890     2.4490   -28.0010 
  232.5000    82.4270    24.1270    46.5000    53.9620    59.0810     2.4630   -27.4740 
  232.6250    84.6680    23.9470    46.4080    52.8150    58.2860     2.4690   -26.9540 
