~V
VERS. 2.00: Ver 2.00
~W
STRT.M 64.0000:
STOP.M 259.0000:
STEP.M 0.1250:
NULL. -999.2500:
UWI. DF3067:
~C
DEPT.M :
DEN.GM/CC :
GR.API :
CALI.CM :
RXO.OHMM :
RI. :
RML.OHMM :
SP.MV :
~A
# ...
  210.2500     2.2050    72.4230    24.1100    79.6740    84.6640    85.7620   -37.6240 
  210.3750     2.2110    67.3060    23.7810    75.4540    82.4970    83.8660   -37.3310 
  210.5000     2.2070    67.1950    23.6010    82.5690    80.6620    82.2330   -36.9630 
  210.6250     2.2010    69.2520    23.6330    88.3730    79.3830    80.8920   -36.5620 
  210.7500     2.1990    70.2840    23.6730    87.2270    78.6710    79.9010   -36.1640 
  210.8750     2.1980    70.9830    23.6850    82.5680    78.9710    79.8780   -35.8000 
  211.0000     2.1970    71.0510    23.6880    80.7660    81.3830    82.0720   -35.4850 
  211.1250     2.2180    69.8080    23.6890    79.5060    88.7060    89.1090   -35.1980 
  211.2500     2.2760    69.8140    23.6810    83.3250   101.6040   101.5450   -34.9110 
  211.3750     2.3730    69.5520    23.6650   106.3020   116.9040   115.8280   -34.6080 
  211.5000     2.4860    66.6200    23.6520   165.9760   123.6640   117.6860   -34.2730 
  211.6250     2.5850    63.6180    23.6250   242.1880   104.3340    89.5240   -33.9030 
  211.7500     2.6450    63.8120    23.5780   255.1870    70.2330    54.5720   -33.5030 
  211.8750     2.6530    65.1650    23.5080   172.1530    39.8650    29.9780   -33.0880 
  212.0000     2.6090    64.7000    23.4110    62.9230    20.8620    16.3460   -32.6840 
  212.1250     2.5360    63.4000    23.3050    18.0190    12.0670    10.0810   -32.3260 
  212.2500     2.4770    63.7770    23.2380     6.6300     7.7970     6.9500   -32.0310 
  212.3750     2.4500    66.8830    23.2230     5.6720     5.7700     5.5470   -31.7980 
  212.5000     2.4540    71.9380    23.2350     5.5560     4.9000     5.1330   -31.6030 
  212.6250     2.4710    76.7330    23.2890     5.1890     4.8230     5.3790   -31.4260 
  212.7500     2.4800    82.1780    23.4180     5.0750     5.1890     5.9590   -31.2790 
  212.8750     2.4770    88.3670    23.5980     5.9210     5.8520     6.7300   -31.1910 
  213.0000     2.4660    92.8840    23.7580     7.2600     6.6800     7.5500   -31.1860 
  213.1250     2.4600    93.0830    23.8260     8.2780     7.4910     8.2030   -31.2280 
  213.2500     2.4640    91.5680    23.8340     8.9900     8.0750     8.5420   -31.2900 
  213.3750     2.4710    90.3320    23.8290     9.0270     8.2990     8.5110   -31.3520 
  213.5000     2.4710    91.1890    23.8350     8.3210     8.1760     8.1920   -31.3950 
  213.6250     2.4600    99.1200    23.8500     8.0000     7.8290     7.7810   -31.4270 
  213.7500     2.4440   111.1800    23.8600     7.8930     7.4520     7.4640   -31.4500 
  213.8750     2.4270   120.6740    23.8620     7.8010     7.1360     7.3090   -31.4760 
  214.0000     2.4120   124.9570    23.8590     7.6800     6.9260     7.3140   -31.5110 
  214.1250     2.4070   127.3870    23.8470     7.7260     6.8320     7.4340   -31.5550 
  214.2500     2.4080   132.2330    23.8350     7.8990     6.7970     7.5640   -31.5990 
  214.3750     2.4070   138.6620    23.8400     8.0030     6.7760     7.6450   -31.6180 
  214.5000     2.4010   144.0160    23.8610     7.9290     6.7390     7.6560   -31.6170 
  214.6250     2.3960   144.5040    23.8810     7.8730     6.6830     7.6300   -31.6160 
  214.7500     2.3940   139.5200    23.8870     7.8180     6.6580     7.6490   -31.6160 
  214.8750     2.3930   131.8420    23.8610     7.7280     6.7150     7.7750   -31.6150 
  215.0000     2.3910   125.6750    23.7940     7.7480     6.8780     8.0380   -31.5950 
  215.1250     2.3940   122.7830    23.7170     8.7870     7.1550     8.4230   -31.5570 
  215.2500     2.4020   121.2620    23.6760    10.3820     7.4800     8.8170   -31.5070 
  215.3750     2.4090   119.0140    23.6710    11.2520     7.7840     9.1220   -31.4690 
  215.5000     2.4100   117.5680    23.6740    11.2520     8.0140     9.2890   -31.4620 
  215.6250     2.3970   118.2570    23.6730    10.5440     8.1770     9.3670   -31.4650 
  215.7500     2.3720   120.6410    23.6590    10.6850     8.3800     9.5230   -31.4630 
  215.8750     2.3460   121.8370    23.6340    10.7260     8.7230     9.8840   -31.4590 
  216.0000     2.3340   118.7520    23.6090    11.1380     9.2560    10.4710   -31.4770 
  216.1250     2.3410   112.9650    23.5970    12.4230     9.9070    11.1140   -31.5270 
  216.2500     2.3530   111.1310    23.5930    13.6320    10.4130    11.4930   -31.6180 
  216.3750     2.3650   113.8390    23.5930    15.7960    10.5330    11.3880   -31.7450 
  216.5000     2.3800   116.7610    23.5860    15.1180    10.1660    10.7740   -31.8900 
  216.6250     2.3990   117.0810    23.5560    11.7170     9.4060     9.8570   -32.0530 
  216.7500     2.4120   116.8230    23.5200     8.1420     8.5910     9.0120   -32.2410 
  216.8750     2.4120   116.4270    23.4990     8.1400     7.9070     8.4080   -32.4710 
  217.0000     2.4070   116.0780    23.4970     9.2200     7.4300     8.0630   -32.7430 
  217.1250     2.4070   115.4480    23.4990    10.0620     7.1770     7.9330   -33.0360 
  217.2500     2.4100   113.6820    23.4980     9.8310     7.0750     7.9390   -33.3430 
  217.3750     2.4060   111.0270    23.4990     9.2180     7.1380     8.1480   -33.6580 
  217.5000     2.3930   108.5940    23.5010     8.9230     7.4630     8.7510   -34.0180 
  217.6250     2.3920   107.1860    23.5060     9.3980     8.3820    10.2200   -34.4330 
  217.7500     2.4080   104.6600    23.4960    11.6150    10.2470    12.8890   -34.8980 
  217.8750     2.4280    99.4680    23.4400    20.3780    13.6950    17.2720   -35.3980 
  218.0000     2.4310    93.9510    23.3400    35.2550    19.6350    24.0340   -35.9260 
  218.1250     2.4040    91.9760    23.2390    46.0660    29.7270    34.5510   -36.5000 
  218.2500     2.3600    92.0510    23.1490    58.0790    43.4920    48.5750   -37.1210 
  218.3750     2.3140    88.5230    23.0520    76.7340    59.2120    64.7690   -37.7750 
  218.5000     2.2800    81.1920    22.9620    97.3800    73.8320    79.9810   -38.4200 
  218.6250     2.2620    74.8070    22.8590    98.1090    83.9940    90.2200   -39.0170 
  218.7500     2.2520    71.3860    22.6830    85.0150    90.0420    96.0640   -39.5630 
  218.8750     2.2420    71.2850    22.4600    71.5030    93.3400    99.4730   -40.0630 
  219.0000     2.2330    73.4480    22.3050    74.2520    95.6790   102.5330   -40.5250 
  219.1250     2.2330    76.7800    22.3660    91.1590    98.7240   106.8730   -40.9560 
  219.2500     2.2450    77.3390    22.6410   111.7520   102.9580   112.5640   -41.3490 
  219.3750     2.2680    74.5310    23.0850   128.9390   107.9360   118.7730   -41.7170 
  219.5000     2.2920    70.8540    23.5430   142.1220   112.5940   124.0240   -42.0540 
  219.6250     2.3020    68.1130    23.8000   142.5510   115.5410   126.5350   -42.3700 
  219.7500     2.2990    66.5300    23.8770   138.0810   116.8190   126.7410   -42.6500 
  219.8750     2.2900    65.6440    23.8770   132.5660   117.2170   125.9080   -42.8760 
  220.0000     2.2800    66.2430    23.8750   131.4560   117.8530   125.5000   -43.0420 
  220.1250     2.2690    67.8570    23.8800   128.2840   119.8580   126.7500   -43.1620 
  220.2500     2.2600    67.9880    23.8890   130.7870   123.1230   129.3330   -43.2590 
  220.3750     2.2570    68.7510    23.8750   137.1750   126.7550   132.1050   -43.3340 
  220.5000     2.2590    71.6030    23.8120   147.6620   129.2950   133.3440   -43.3660 
  220.6250     2.2600    73.6610    23.7290   152.0890   131.1080   128.9290   -43.3610 
  220.7500     2.2590    72.0570    23.6770   144.5860   126.1140   125.8980   -43.3200 
  220.8750     2.2610    67.6610    23.6080   123.3120   119.7910   121.1870   -43.2560 
  221.0000     2.2640    64.1780    23.4190   103.0260   113.4130   115.9550   -43.1760 
  221.1250     2.2650    62.9850    23.0810    98.2060   107.4590   110.8180   -43.0750 
  221.2500     2.2670    63.6090    22.7800    99.0780   101.7700   105.8010   -42.9290 
  221.3750     2.2720    65.4390    22.6890   101.6330    96.4530   100.9840   -42.7300 
