~V
VERS. 2.00: Ver 2.00
~W
STRT.M 63.0000:
STOP.M 257.0000:
STEP.M 0.1250:
NULL. -999.2500:
UWI. DF3070:
~C
DEPT.M :
DEN.GM/CC :
GR.API :
RML.OHMM :
RI. :
RXO.OHMM :
CALI.CM :
SP.MV :
~A
   63.0000  -999.2500    69.0120     0.5290     0.1560     4.0650    24.6520    25.6160 
   63.1250  -999.2500    74.8090     0.7790     0.3380     4.8400    24.5410    19.5460 
   63.2500  -999.2500    80.3360     1.2350     0.6970     6.3340    24.4530    13.0550 
   63.3750  -999.2500    83.8870     1.8810     1.2980     8.1260    23.9500     6.4680 
   63.5000  -999.2500    83.5080     2.6760     2.2180     9.7300    22.5010    -0.0120 
   63.6250  -999.2500    81.5080     3.6270     3.6310    11.1310    22.1490    -5.9620 
   63.7500  -999.2500    79.3830     4.7910     5.5580    13.9870    22.2720   -11.0780 
   63.8750  -999.2500    76.8020     6.2540     7.9770    19.0210    22.6800   -15.0820 
   64.0000  -999.2500    72.7500     7.9720    10.6870    25.6450    23.5250   -17.9020 
   64.1250  -999.2500    67.9350     9.6190    13.1390    31.6520    24.2410   -19.7370 
   64.2500  -999.2500    65.3190    10.7400    14.7310    33.6820    24.1150   -21.0910 
   64.3750  -999.2500    66.7910    11.0470    15.1070    28.6860    23.3130   -22.2520 
   64.5000  -999.2500    72.0540    10.6100    14.3850    18.9640    22.5940   -23.3580 
   64.6250  -999.2500    76.2750     9.8510    13.1300    13.3580    22.4100   -24.4310 
   64.7500  -999.2500    77.3470     9.2260    12.0300    12.2520    22.2980   -25.5340 
   64.8750  -999.2500    77.1830     8.8580    11.2810    13.7820    22.1940   -26.5780 
   65.0000  -999.2500    77.2570     8.7410    10.8410    15.7980    22.2090   -27.6120 
   65.1250  -999.2500    77.5150     8.8110    10.5770    14.9090    22.2790   -28.5400 
   65.2500  -999.2500    76.8180     8.9030    10.3290    12.6900    22.2650   -29.3490 
   65.3750  -999.2500    75.2790     8.9170    10.0540    11.5330    22.1800   -30.0840 
   65.5000  -999.2500    73.4830     8.8360     9.7730    11.2550    22.1770   -30.5910 
   65.6250  -999.2500    73.6290     8.7250     9.5510    10.7700    22.2050   -30.9680 
   65.7500  -999.2500    75.4810     8.6330     9.4020    10.0820    22.1720   -31.1950 
   65.8750  -999.2500    78.0180     8.5310     9.2960     9.6250    22.0720   -31.2990 
   66.0000  -999.2500    81.6560     8.3820     9.1940     9.5120    21.9010   -31.2990 
   66.1250  -999.2500    85.0360     8.2080     9.0830     9.6420    21.7610   -31.2150 
   66.2500  -999.2500    86.7350     8.0980     8.9930     9.7320    21.7530   -31.0580 
   66.3750  -999.2500    87.5090     8.1180     8.9580     9.7360    21.8700   -30.9230 
   66.5000  -999.2500    87.5670     8.2780     8.9990     9.9390    22.0110   -30.8590 
   66.6250  -999.2500    84.5730     8.5340     9.1250    10.5760    22.1100   -30.9330 
   66.7500  -999.2500    78.5790     8.7920     9.3000    11.1950    22.1680   -31.0420 
   66.8750  -999.2500    74.1650     8.9980     9.4890    11.4360    22.1390   -31.2440 
   67.0000  -999.2500    74.5320     9.1170     9.6570    11.4880    22.0710   -31.4760 
   67.1250  -999.2500    78.1930     9.1270     9.7520    11.6270    22.2170   -31.7310 
   67.2500  -999.2500    79.9880     9.0630     9.7570    11.6200    22.5850   -31.9760 
   67.3750  -999.2500    79.0370     8.9660     9.6600    11.3210    22.8890   -32.1170 
   67.5000  -999.2500    78.2800     8.8670     9.4660    10.9510    22.9140   -32.1590 
   67.6250  -999.2500    81.4210     8.7680     9.1880    10.7280    22.7870   -32.0740 
   67.7500  -999.2500    84.4130     8.6550     8.8810    10.4400    22.7490   -31.9640 
   67.8750  -999.2500    85.9250     8.5250     8.5960     9.9980    22.7720   -31.8220 
   68.0000  -999.2500    87.1290     8.4030     8.3810     9.5450    22.8130   -31.7080 
   68.1250  -999.2500    87.0870     8.3470     8.2920     9.2030    22.9700   -31.6360 
   68.2500  -999.2500    83.7750     8.3750     8.3110     9.0100    22.9790   -31.6280 
   68.3750  -999.2500    79.3370     8.4760     8.4080     9.0840    22.6170   -31.7260 
   68.5000  -999.2500    78.8500     8.6070     8.5310     9.4350    22.0580   -31.8910 
   68.6250  -999.2500    82.2410     8.7070     8.6180     9.7670    21.7860   -32.1520 
   68.7500  -999.2500    82.6100     8.7770     8.6550     9.8210    21.8130   -32.4250 
   68.8750  -999.2500    78.0150     8.8650     8.6800     9.7520    21.7870   -32.6710 
   69.0000  -999.2500    71.4660     9.0430     8.7620     9.7790    21.6000   -32.8800 
   69.1250  -999.2500    70.4160     9.3710     8.9840     9.9130    21.6000   -33.0350 
   69.2500  -999.2500    74.5060     9.7760     9.3190    10.0400    22.0030   -33.1450 
   69.3750  -999.2500    78.6430    10.1560     9.6920    10.2180    22.5460   -33.2410 
   69.5000  -999.2500    79.9620    10.3930     9.9990    10.5410    22.7680   -33.3310 
   69.6250  -999.2500    78.7060    10.3820    10.1130    10.9180    22.6390   -33.3310 
   69.7500  -999.2500    76.5390    10.1980    10.0410    11.0590    22.5770   -33.3070 
   69.8750  -999.2500    75.1290     9.9470     9.8380    10.9160    22.6150   -33.2690 
   70.0000  -999.2500    75.4260     9.7440     9.5950    10.7280    22.5630   -33.1910 
   70.1250  -999.2500    79.0930     9.6730     9.4050    10.6660    22.3920   -33.1070 
   70.2500  -999.2500    81.9080     9.6950     9.2870    10.6760    22.2730   -32.9470 
   70.3750  -999.2500    80.0040     9.7380     9.2150    10.7620    22.2390   -32.7180 
   70.5000  -999.2500    73.6530     9.7250     9.1400    10.9040    22.2280   -32.3910 
   70.6250  -999.2500    69.6920     9.6470     9.0520    10.9350    22.2300   -32.0240 
   70.7500  -999.2500    71.7580     9.6670     9.0430    10.7500    22.2170   -31.6560 
   70.8750  -999.2500    76.6180    10.0110     9.2630    10.5470    22.2130   -31.2060 
   71.0000  -999.2500    79.8850    10.8440     9.8320    10.8190    22.2750   -30.7130 
   71.1250  -999.2500    79.2950    12.1180    10.7400    12.2340    22.5060   -30.0730 
   71.2500  -999.2500    75.4740    13.3100    11.6210    14.7150    22.8020   -29.4010 
   71.3750  -999.2500    72.7660    13.8620    12.0660    18.9550    23.0160   -28.6270 
   71.5000  -999.2500    76.9430    13.3560    11.7360    24.9240    23.0990   -27.8440 
   71.6250  -999.2500    86.6560    11.7080    10.4930    23.0720    23.1000   -27.0750 
   71.7500  -999.2500    94.6260     9.7380     8.9020    13.5170    23.1040   -26.3550 
   71.8750  -999.2500    99.0130     8.0860     7.4540     7.5320    23.1170   -25.7720 
   72.0000  -999.2500   100.8340     7.0820     6.4470     5.8890    23.1550   -25.3480 
   72.1250  -999.2500   102.2440     6.8470     6.0540     6.1330    23.1550   -25.1800 
   72.2500  -999.2500   103.2900     7.1210     6.1360     6.5030    23.0690   -25.1890 
   72.3750  -999.2500   103.2070     7.7330     6.5950     6.9400    22.9760   -25.4090 
   72.5000  -999.2500    98.8090     8.4990     7.2970     7.5490    22.9280   -25.7320 
   72.6250  -999.2500    90.1440     9.1930     8.0530     8.2680    22.8750   -26.1060 
   72.7500  -999.2500    83.9650     9.6220     8.6430     8.8880    22.7980   -26.3790 
   72.8750  -999.2500    83.9740     9.6610     8.9140     9.1410    22.8850   -26.5110 
   73.0000  -999.2500    89.8030     9.2960     8.7930     8.7570    23.3080   -26.4160 
   73.1250  -999.2500    99.2090     8.6210     8.2890     7.6990    23.8670   -26.0470 
   73.2500  -999.2500   109.3090     7.9080     7.6150     6.5280    24.2040   -25.5280 
   73.3750  -999.2500   116.0950     7.3240     6.9240     5.6910    24.2720   -24.8440 
   73.5000  -999.2500   115.9440     6.9490     6.3260     5.3260    24.2460   -24.1330 
   73.6250  -999.2500   110.3640     6.7990     5.9000     5.2970    24.2650   -23.4120 
   73.7500  -999.2500   107.8770     6.7470     5.6090     5.3200    24.2540   -22.8520 
   73.8750  -999.2500   111.9010     6.6890     5.4040     5.2990    24.2020   -22.3880 
   74.0000  -999.2500   117.7350     6.5460     5.2230     5.2620    24.1570   -22.1860 
   74.1250  -999.2500   118.3310     6.2930     5.0300     5.2320    24.1450   -22.1720 
