~V
VERS. 2.00: Ver 2.00
~W
STRT.M 60.0000:
STOP.M 270.0000:
STEP.M 0.1250:
NULL. -999.2500:
UWI. DF3075:
~C
DEPT.M :
GR.API :
RML.OHMM :
RI. :
RXO.OHMM :
CALI.CM :
DEN.GM/CC :
SP.MV :
~A
# ...
  183.7500    70.1190   125.5150   102.4370   113.9690    25.7680     2.2770   -30.5010 
  183.8750    72.1890   132.1690   107.3870   120.6230    25.8660     2.2730   -30.7180 
  184.0000    73.2620   139.8190   113.0580   127.5700    25.7590     2.2700   -30.8340 
  184.1250    70.4310   149.3700   120.2610   133.6020    25.6090     2.2690   -30.7150 
  184.2500    66.8630   160.5710   128.9840   139.2160    25.3950     2.2670   -30.3910 
  184.3750    66.4400   172.8900   139.0160   149.5170    25.3540     2.2640   -29.8570 
  184.5000    69.4030   185.5490   149.8630   167.9950    25.4670     2.2620   -29.1800 
  184.6250    70.8940   197.3480   160.7170   181.3340    25.5810     2.2630   -28.5740 
  184.7500    69.4130   207.2200   170.5990   189.6240    25.4710     2.2650   -28.0840 
  184.8750    66.2610   214.0680   178.6370   199.2420    25.2040     2.2640   -27.6310 
  185.0000    63.6560   216.8010   183.9430   208.4590    25.0100     2.2590   -27.2330 
  185.1250    64.2590   213.2130   184.6350   209.4620    25.0320     2.2500   -26.8450 
  185.2500    65.5840   203.3910   180.3000   200.8290    25.1530     2.2410   -26.5090 
  185.3750    65.4350   187.6640   170.6100   182.2730    25.2510     2.2350   -26.2150 
  185.5000    65.3030   167.3470   156.0880   162.6580    25.2540     2.2320   -25.9810 
  185.6250    68.0740   144.5760   137.9040   148.7310    25.1000     2.2300   -25.7480 
  185.7500    71.9930   122.5500   118.8890   135.1580    24.8920     2.2330   -25.4960 
  185.8750    75.2250   103.3790   101.0820   115.4950    24.7440     2.2430   -25.3270 
  186.0000    77.0680    88.3620    86.0700    85.0040    24.6630     2.2600   -25.1700 
  186.1250    77.9670    78.8410    75.6790    63.7850    24.5560     2.2810   -25.1310 
  186.2500    79.4760    74.1070    69.9450    56.1020    24.5010     2.2990   -25.1480 
  186.3750    82.8950    74.1390    69.1670    55.8950    24.6360     2.3090   -25.2890 
  186.5000    85.5560    79.0790    73.5160    59.2940    24.7920     2.3120   -25.5480 
  186.6250    83.3550    90.1510    83.9610    67.0820    24.8270     2.3070   -25.9130 
  186.7500    78.1690   106.4640    99.1720    81.9090    24.8080     2.2960   -26.3600 
  186.8750    73.7990   127.1460   117.9290   107.7440    24.7400     2.2790   -26.7790 
  187.0000    72.1290   150.1990   138.1270   151.0130    24.6850     2.2580   -27.1650 
  187.1250    70.7980   171.9460   156.4280   187.8050    24.6570     2.2380   -27.4580 
  187.2500    68.4760   188.8670   170.1930   198.9330    24.6570     2.2240   -27.6930 
  187.3750    67.5420   198.9920   178.0560   194.8880    24.6670     2.2160   -27.8370 
  187.5000    69.5910   202.4480   180.2310   192.8820    24.6830     2.2130   -27.8490 
  187.6250    71.2400   200.9510   178.0680   181.9220    24.6940     2.2160   -27.7010 
  187.7500    69.1340   198.4830   174.9050   172.4350    24.6940     2.2210   -27.4070 
  187.8750    64.9130   197.2520   172.7650   165.7010    24.6890     2.2280   -27.0480 
  188.0000    62.1350   198.1100   172.6670   162.3740    24.7060     2.2360   -26.6770 
  188.1250    62.2330   200.8540   174.7630   163.6090    24.7770     2.2490   -26.2760 
  188.2500    62.3480   204.1630   178.0090   172.7920    24.8940     2.2640   -25.9140 
  188.3750    61.0620   207.0610   181.5570   183.3730    25.0320     2.2770   -25.5750 
  188.5000    61.3860   208.5810   184.3700   188.1810    25.1600     2.2820   -25.2980 
  188.6250    65.6540   207.1650   184.7660   190.1890    25.2200     2.2730   -25.1390 
  188.7500    70.0380   201.9550   181.7210   189.8680    25.1380     2.2550   -25.1180 
  188.8750    70.9320   192.0030   174.3280   186.6530    24.9760     2.2350   -25.1700 
  189.0000    69.9150   177.3040   162.5570   175.8620    24.7590     2.2200   -25.2670 
  189.1250    70.4000   158.7640   147.0130   165.4550    24.6250     2.2180   -25.4730 
  189.2500    72.6470   139.3690   130.1240   152.9630    24.5900     2.2250   -25.6700 
  189.3750    75.4920   121.3870   113.7800   135.6850    24.6470     2.2390   -25.8530 
  189.5000    77.8280   106.6000    99.6700   111.7980    24.6460     2.2540   -25.9870 
  189.6250    77.8470    96.7070    89.7280    87.4450    24.4980     2.2680   -26.0260 
  189.7500    76.4370    91.2540    83.9620    74.8140    24.4540     2.2780   -25.9330 
  189.8750    74.5570    90.0780    82.4090    70.8410    24.4760     2.2860   -25.7480 
  190.0000    73.3070    92.7860    84.6530    74.5500    24.5010     2.2900   -25.5110 
  190.1250    74.0670    99.3390    90.4860    82.0680    24.4750     2.2900   -25.1090 
  190.2500    74.6160   108.3570    98.6110    92.6890    24.4300     2.2880   -24.6170 
  190.3750    73.8100   118.7270   108.0680   105.9000    24.3860     2.2840   -24.0760 
  190.5000    72.0230   128.9950   117.6040   119.9230    24.3630     2.2800   -23.4970 
  190.6250    70.2520   137.0990   125.4520   132.1850    24.4090     2.2770   -22.9250 
  190.7500    68.2060   141.8960   130.5780   134.5890    24.5010     2.2760   -22.3960 
  190.8750    66.0530   142.5480   132.2580   131.7540    24.6340     2.2780   -21.9260 
  191.0000    65.1790   138.7720   130.1630   139.2510    24.7830     2.2800   -21.5080 
  191.1250    64.7340   130.2750   123.8800   145.9710    24.8820     2.2790   -21.1990 
  191.2500    63.9700   118.8480   114.6730   115.0660    24.9370     2.2740   -21.0190 
  191.3750    64.6970   106.0900   103.6220    83.7560    25.0440     2.2640   -20.9260 
  191.5000    66.8080    93.5860    92.0180    81.2940    25.2890     2.2530   -20.9640 
  191.6250    68.2810    82.5220    81.0330    87.5270    25.6870     2.2420   -21.0910 
  191.7500    67.4720    73.1570    71.3070    97.5830    25.9220     2.2330   -21.3030 
  191.8750    66.4440    65.8390    63.3210   113.0510    26.1160     2.2250   -21.5700 
  192.0000    67.6740    60.9620    57.5720   117.9880    26.0880     2.2190   -21.8370 
  192.1250    67.9650    59.3190    55.1100    92.8330    25.6090     2.2240   -22.1040 
  192.2500    66.8070    60.7680    56.1910    58.9210    25.2860     2.2420   -22.2800 
  192.3750    66.5120    65.8660    61.8800    44.2500    25.1550     2.2710   -22.3910 
  192.5000    66.3010    75.7430    73.6150    46.2500    25.2020     2.3010   -22.3990 
  192.6250    61.7280    94.0470    94.5120    61.7620    25.2020     2.3130   -22.3250 
  192.7500    54.5840   122.7680   124.5240    97.8510    24.9890     2.3010   -22.1360 
  192.8750    51.3930   163.6590   163.3780   160.6500    24.8190     2.2700   -21.8510 
  193.0000    54.4130   215.0430   208.4280   251.1290    24.7580     2.2310   -21.4830 
  193.1250    58.6780   267.9850   252.6380   334.9280    24.8160     2.1980   -21.0440 
  193.2500    60.3640   308.1430   286.0420   370.5400    24.8690     2.1770   -20.5710 
  193.3750    59.6370   321.5690   299.8090   371.8870    24.8770     2.1710   -20.0700 
  193.5000    58.2110   303.4610   289.0200   377.3360    24.9050     2.1880   -19.5300 
  193.6250    55.3190   254.7030   252.4740   415.1970    24.8560     2.2430   -18.9460 
  193.7500    51.9090   197.2240   202.4220   481.5940    24.7320     2.3320   -18.3340 
  193.8750    51.9230   142.1050   148.0260   492.4520    24.6190     2.4420   -17.7400 
  194.0000    56.7960    92.0290    98.3560   295.1000    24.6580     2.5480   -17.1560 
  194.1250    62.5990    58.7250    62.0700   125.8570    24.6600     2.6180   -16.6410 
  194.2500    65.6300    37.4940    37.8270    66.1400    24.5010     2.6490   -16.1430 
  194.3750    64.7110    24.0530    22.9010    38.5770    24.1750     2.6520   -15.6760 
  194.5000    61.6320    15.3640    14.2300    19.9580    23.7950     2.6430   -15.2580 
  194.6250    59.5900     9.9260     9.8200     9.4020    23.5260     2.6280   -14.9750 
  194.7500    57.4030     6.6990     7.4900     5.7340    23.3130     2.6100   -14.7630 
  194.8750    53.5860     5.8110     6.4310     4.8760    23.1950     2.5880   -14.6380 
