~V
VERS. 2.00: Ver 2.00
~W
STRT.M 130.0000:
STOP.M 279.0000:
STEP.M 0.1250:
NULL. -999.2500:
UWI. DF307:
~C
DEPT.M :
DEN.GM/CC :
AC.US/MT :
GR.API :
CALI.CM :
RXO.OHMM :
RI. :
RML.OHMM :
SP.MV :
~A
# ...
  190.0000     2.3000   365.2590    83.0500    25.7400    18.1320    34.2090    37.2470   -23.9070 
  190.1250     2.2980   366.2080    86.1890    25.6120    18.0930    32.5270    35.5260   -23.7700 
  190.2500     2.2920   370.9450    85.4680    25.5110    18.6040    31.8400    34.9860   -23.6570 
  190.3750     2.2900   377.7840    82.2880    25.4670    18.6040    32.1160    35.5320   -23.5760 
  190.5000     2.2990   383.8010    80.7090    25.4600    18.1420    33.2500    37.0060   -23.5140 
  190.6250     2.3130   385.2790    82.1850    25.4790    18.7000    35.1060    39.1980   -23.4790 
  190.7500     2.3180   381.8070    83.2930    25.5120    20.6780    37.1560    41.5010   -23.4650 
  190.8750     2.3130   374.6300    83.3770    25.5430    22.9150    38.9490    43.4020   -23.4930 
  191.0000     2.3070   366.2950    83.2430    25.5640    23.9820    40.1440    44.5430   -23.5440 
  191.1250     2.3110   360.0540    81.0050    25.5720    23.2770    40.5700    44.8130   -23.5990 
  191.2500     2.3180   357.1220    77.6290    25.5760    21.9380    40.6270    44.7950   -23.6630 
  191.3750     2.3160   357.1490    75.7450    25.5670    20.8650    40.7680    45.0630   -23.7310 
  191.5000     2.3040   358.6540    75.9980    25.5270    20.7740    41.3270    45.9460   -23.8130 
  191.6250     2.2940   359.4430    77.1880    25.4450    22.0470    42.2000    47.1680   -23.8990 
  191.7500     2.2950   358.4190    79.0840    25.3610    23.5710    42.7310    47.8540   -23.9920 
  191.8750     2.3050   356.0020    81.1770    25.3130    24.0080    42.4580    47.4740   -24.0820 
  192.0000     2.3140   353.5710    81.3330    25.3020    22.7620    41.3950    46.1640   -24.1590 
  192.1250     2.3180   353.0720    79.8170    25.3040    20.8320    40.1210    44.7960   -24.2320 
  192.2500     2.3150   355.3210    77.8870    25.3050    20.0380    39.5040    44.4250   -24.3000 
  192.3750     2.2980   360.4660    75.9570    25.3050    20.8080    40.1200    45.6430   -24.3570 
  192.5000     2.2730   367.6000    75.0400    25.3060    22.3110    42.1600    48.5110   -24.3980 
  192.6250     2.2590   374.4580    77.2550    25.2970    23.4470    45.4140    52.5480   -24.4340 
  192.7500     2.2610   378.8540    81.9470    25.2830    24.2810    48.8000    56.3610   -24.4550 
  192.8750     2.2650   380.2580    85.2850    25.2710    25.0400    51.3100    58.7390   -24.4580 
  193.0000     2.2620   379.9870    85.3420    25.2570    25.5090    52.1830    58.9520   -24.4620 
  193.1250     2.2590   380.5420    82.4180    25.2390    25.3020    51.0640    56.9230   -24.4600 
  193.2500     2.2680   382.4460    79.5590    25.2190    24.7120    48.8240    53.8770   -24.4530 
  193.3750     2.2840   383.9950    78.5700    25.1890    24.1050    46.0870    50.5520   -24.4600 
  193.5000     2.2990   383.2630    78.1340    25.1340    23.7520    43.3400    47.4580   -24.4620 
  193.6250     2.3100   380.2300    76.2410    25.0610    23.4720    41.0020    45.0060   -24.4630 
  193.7500     2.3210   377.9280    74.9180    25.0050    22.9150    39.1480    43.1570   -24.4730 
  193.8750     2.3240   378.5290    77.4090    24.9700    22.3120    37.7450    41.8190   -24.4980 
  194.0000     2.3140   382.2900    82.5490    24.9270    22.1110    36.7400    40.9080   -24.5470 
  194.1250     2.3030   387.6320    84.8010    24.8510    22.2470    36.2160    40.5090   -24.6220 
  194.2500     2.3070   392.2280    83.6520    24.7660    22.2060    36.2050    40.6780   -24.7220 
  194.3750     2.3210   395.0020    82.4990    24.7270    22.1110    36.8340    41.5680   -24.8320 
  194.5000     2.3230   395.4770    83.2630    24.7910    22.5020    38.1840    43.2690   -24.9660 
  194.6250     2.3030   393.3950    84.0480    24.9630    23.8370    40.3110    45.8180   -25.1010 
  194.7500     2.2770   390.4210    82.5810    25.1470    25.6350    42.8720    48.8040   -25.2200 
  194.8750     2.2650   388.7080    79.2560    25.2730    27.2560    45.5490    51.8440   -25.3220 
  195.0000     2.2700   390.0630    76.6100    25.3420    28.2670    48.0230    54.5880   -25.3970 
  195.1250     2.2760   394.7350    76.1840    25.4960    28.8160    50.0720    56.8410   -25.4260 
  195.2500     2.2720   399.7880    75.9260    25.8300    29.3600    51.8460    58.8310   -25.4100 
  195.3750     2.2630   402.8120    75.6110    26.2770    29.7430    53.4200    60.6160   -25.3710 
  195.5000     2.2550   402.7600    75.0510    26.6770    29.6300    54.5640    61.8310   -25.3070 
  195.6250     2.2360   400.2570    73.6220    26.9090    29.2700    54.4470    61.4190   -25.2330 
  195.7500     2.2080   397.6990    74.1670    27.0340    29.0400    52.8160    59.2110   -25.1940 
  195.8750     2.1900   396.3080    78.8670    27.0750    28.3270    50.0440    55.8510   -25.1850 
  196.0000     2.1970   395.9960    83.6370    27.0290    26.5490    47.1170    52.6490   -25.1830 
  196.1250     2.2240   395.4860    82.8750    26.9280    25.3180    45.4560    51.3140   -25.2350 
  196.2500     2.2440   393.7040    79.0990    26.8450    27.4510    45.6480    52.3220   -25.3200 
  196.3750     2.2450   390.6300    76.4920    26.8100    33.5440    47.7110    55.4990   -25.4060 
  196.5000     2.2330   387.0470    74.0210    26.8070    39.7640    51.0320    59.9500   -25.5080 
  196.6250     2.2170   384.1310    70.6630    26.8090    38.7430    54.3360    63.9490   -25.6040 
  196.7500     2.2070   382.2200    68.9600    26.8090    31.7890    56.3310    65.9900   -25.6750 
  196.8750     2.2080   381.0550    69.4420    26.7960    24.8240    56.4760    65.6120   -25.7350 
  197.0000     2.2210   380.3800    70.8390    26.7640    22.4670    55.0520    63.4480   -25.7810 
  197.1250     2.2460   380.5780    72.1530    26.7420    26.6240    52.9270    60.7330   -25.8080 
  197.2500     2.2710   382.0890    74.1670    26.7600    32.8060    51.0590    58.4780   -25.8390 
  197.3750     2.2850   385.1610    75.6570    26.8000    35.3350    49.8500    57.0500   -25.8790 
  197.5000     2.2840   389.5630    75.3410    26.8150    32.9200    49.5530    56.7250   -25.9220 
  197.6250     2.2710   394.6300    72.7830    26.7780    30.4830    50.6770    58.1370   -25.9640 
  197.7500     2.2540   399.2610    70.3980    26.7430    30.7780    53.2840    61.3510   -25.9950 
  197.8750     2.2350   402.6060    68.4960    26.7470    32.2140    57.4340    66.3790   -26.0130 
  198.0000     2.2170   404.0950    68.3560    26.7810    33.2020    62.8340    72.7640   -26.0330 
  198.1250     2.2070   403.3700    69.2630    26.8030    33.7500    68.3810    79.0120   -26.0200 
  198.2500     2.2070   401.4040    69.2680    26.7940    34.3760    72.1980    82.8700   -25.9780 
  198.3750     2.2110   399.1550    69.7550    26.7630    34.3570    72.8440    82.7730   -25.9380 
  198.5000     2.2080   397.4750    71.9340    26.7220    32.6220    70.0970    78.8400   -25.8920 
  198.6250     2.1970   396.8890    76.9950    26.6790    29.0530    65.1120    72.8950   -25.8680 
  198.7500     2.1880   397.0100    80.5320    26.6410    25.6670    60.1880    67.5450   -25.8770 
  198.8750     2.1860   397.4380    79.8240    26.6180    24.2650    56.4920    63.9130   -25.8870 
  199.0000     2.1940   397.7450    77.1010    26.6160    25.6060    54.4070    62.1900   -25.8970 
  199.1250     2.2130   397.1310    76.0130    26.6250    28.3120    53.7980    61.9640   -25.9420 
  199.2500     2.2430   395.0660    77.5250    26.6320    29.4610    53.7030    62.0250   -25.9950 
  199.3750     2.2750   391.6130    78.3500    26.6270    28.7000    53.4830    61.6330   -26.0340 
  199.5000     2.3030   387.8370    78.7530    26.6010    27.8400    52.7840    60.5040   -26.0760 
  199.6250     2.3120   385.8200    79.7180    26.5500    28.3990    51.5630    58.8170   -26.0990 
  199.7500     2.3030   386.3430    78.6740    26.5020    29.3720    50.2110    57.1460   -26.1060 
  199.8750     2.2830   388.9430    75.8960    26.4760    29.7140    48.9860    55.7570   -26.1060 
