~V
VERS. 2.00: Ver 2.00
~W
STRT.M 56.0000:
STOP.M 296.0000:
STEP.M 0.1250:
NULL. -999.2500:
UWI. DF301:
~C
DEPT.M :
DEN.GM/CC :
SP.MV :
AC.US/MT :
GR.API :
CALI.CM :
RXO.OHMM :
RI. :
RML.OHMM :
~A
# ...
   76.0000  -999.2500   -13.9190  -999.2500    75.9400    23.7260     9.3170     6.8980     8.3470 
   76.1250  -999.2500   -13.8290  -999.2500    74.4280    23.5260     8.6410     6.7540     8.0780 
   76.2500  -999.2500   -13.9310  -999.2500    82.0090    23.3620     7.7620     6.5940     7.8620 
   76.3750  -999.2500   -14.2100  -999.2500    90.3250    23.2610     7.3610     6.6050     7.9320 
   76.5000  -999.2500   -14.5090  -999.2500    93.0460    23.1900     7.5950     6.8990     8.3990 
   76.6250  -999.2500   -14.7660  -999.2500    86.9060    23.2280     8.3610     7.5000     9.2330 
   76.7500  -999.2500   -15.0770  -999.2500    73.7460    23.4040     9.1940     8.3230    10.2200 
   76.8750  -999.2500   -15.4870  -999.2500    62.5700    23.6690     9.6030     9.0690    10.9890 
   77.0000  -999.2500   -15.9460  -999.2500    58.6580    23.8580     9.4600     9.4840    11.2950 
   77.1250  -999.2500   -16.4670  -999.2500    60.1860    23.9270     9.0450     9.4530    11.0850 
   77.2500  -999.2500   -16.9990  -999.2500    62.2280    23.8660     8.7520     9.0350    10.4870 
   77.3750  -999.2500   -17.4370  -999.2500    64.0050    23.7710     8.4810     8.5030     9.8280 
   77.5000  -999.2500   -17.7970  -999.2500    66.2370    23.6950     8.1450     8.0100     9.2780 
   77.6250  -999.2500   -18.0700  -999.2500    67.2730    23.6350     7.7810     7.6310     8.9070 
   77.7500  -999.2500   -18.3000  -999.2500    64.8320    23.5560     7.6130     7.4060     8.7350 
   77.8750  -999.2500   -18.4390  -999.2500    62.0080    23.4360     7.6690     7.3010     8.6890 
   78.0000  -999.2500   -18.4860  -999.2500    61.0970    23.3240     7.7850     7.2950     8.7300 
   78.1250  -999.2500   -18.4970  -999.2500    62.8630    23.2560     7.8480     7.3620     8.8310 
   78.2500  -999.2500   -18.4620  -999.2500    66.8100    23.2630     7.9970     7.4840     8.9850 
   78.3750  -999.2500   -18.3650  -999.2500    71.0200    23.3310     8.4070     7.6220     9.1650 
   78.5000  -999.2500   -18.2730  -999.2500    72.1600    23.4490     8.9080     7.7480     9.3420 
   78.6250  -999.2500   -18.2320  -999.2500    69.9530    23.5770     9.2040     7.8390     9.4800 
   78.7500  -999.2500   -18.1870  -999.2500    67.3640    23.6430     9.2040     7.8760     9.5430 
   78.8750  -999.2500   -18.1610  -999.2500    65.6150    23.6490     9.0630     7.8690     9.5360 
   79.0000  -999.2500   -18.1500  -999.2500    64.1790    23.5960     8.9350     7.8250     9.4780 
   79.1250  -999.2500   -18.1480  -999.2500    64.0000    23.5430     8.9380     7.7590     9.3870 
   79.2500  -999.2500   -18.1870  -999.2500    67.6600    23.5240     9.0140     7.6820     9.2880 
   79.3750  -999.2500   -18.2970  -999.2500    72.3600    23.5620     8.9030     7.6060     9.2030 
   79.5000  -999.2500   -18.3730  -999.2500    76.2230    23.6180     8.5620     7.5460     9.1540 
   79.6250  -999.2500   -18.3810  -999.2500    76.6510    23.6640     8.1500     7.5180     9.1570 
   79.7500  -999.2500   -18.3780  -999.2500    73.2180    23.6660     7.9850     7.5430     9.2180 
   79.8750  -999.2500   -18.3780  -999.2500    70.3620    23.5770     7.9840     7.6080     9.3060 
   80.0000  -999.2500   -18.3920  -999.2500    67.9700    23.4430     8.0570     7.6910     9.3870 
   80.1250  -999.2500   -18.3610  -999.2500    63.1580    23.2980     8.1390     7.7600     9.4270 
   80.2500  -999.2500   -18.3080  -999.2500    57.4190    23.2200     8.1470     7.7730     9.3980 
   80.3750  -999.2500   -18.2220  -999.2500    56.3010    23.1910     8.0700     7.7320     9.3170 
   80.5000  -999.2500   -18.1370  -999.2500    59.5310    23.2120     7.9090     7.6520     9.2070 
   80.6250  -999.2500   -18.1030  -999.2500    62.1200    23.2530     7.6860     7.5560     9.0920 
   80.7500  -999.2500   -18.1080  -999.2500    62.1510    23.2110     7.4060     7.4590     8.9860 
   80.8750  -999.2500   -18.0900  -999.2500    61.7480    23.2040     7.2460     7.3670     8.8900 
   81.0000  -999.2500   -18.0870  -999.2500    61.0250    23.2760     7.2420     7.2860     8.8120 
   81.1250  -999.2500   -18.0960  -999.2500    60.3800    23.3220     7.3330     7.2380     8.7750 
   81.2500  -999.2500   -17.9650  -999.2500    60.5200    23.3030     7.4460     7.2640     8.8290 
   81.3750  -999.2500   -17.7730  -999.2500    60.5550    23.2300     7.5780     7.3610     8.9710 
   81.5000  -999.2500   -17.6050  -999.2500    61.5130    23.2010     7.7830     7.5090     9.1730 
   81.6250  -999.2500   -17.3920  -999.2500    63.5430    23.2290     8.1340     7.6670     9.3700 
   81.7500  -999.2500   -17.1350  -999.2500    65.8980    23.2630     8.4390     7.7660     9.4710 
   81.8750  -999.2500   -16.9100  -999.2500    66.2350    23.3190     8.5600     7.7800     9.4550 
   82.0000  -999.2500   -16.6410  -999.2500    65.6790    23.3540     8.4280     7.7190     9.3500 
   82.1250  -999.2500   -16.4090  -999.2500    66.4390    23.2920     8.1790     7.6240     9.2160 
   82.2500  -999.2500   -16.3070  -999.2500    67.4360    23.1850     8.0460     7.5420     9.1180 
   82.3750  -999.2500   -16.2020  -999.2500    67.5820    23.1200     8.1000     7.4970     9.0730 
   82.5000  -999.2500   -16.0820  -999.2500    66.9600    23.0950     8.1970     7.4810     9.0640 
   82.6250  -999.2500   -15.9880  -999.2500    66.1430    23.0540     8.1590     7.4710     9.0620 
   82.7500  -999.2500   -15.8830  -999.2500    64.7530    22.9920     8.0050     7.4510     9.0570 
   82.8750  -999.2500   -15.7810  -999.2500    63.9460    22.9800     7.8880     7.4380     9.0730 
   83.0000  -999.2500   -15.6890  -999.2500    66.1900    23.0650     7.8610     7.4580     9.1440 
   83.1250  -999.2500   -15.5680  -999.2500    70.1180    23.2050     7.9320     7.5330     9.2910 
   83.2500  -999.2500   -15.3560  -999.2500    72.4700    23.3910     8.1130     7.6770     9.5110 
   83.3750  -999.2500   -15.1510  -999.2500    72.3910    23.5600     8.3030     7.8580     9.7510 
   83.5000  -999.2500   -14.9510  -999.2500    71.2500    23.6260     8.4540     8.0360     9.9600 
   83.6250  -999.2500   -14.7530  -999.2500    70.1810    23.6240     8.5860     8.1640    10.0910 
   83.7500  -999.2500   -14.6000  -999.2500    69.3630    23.5990     8.7620     8.1910    10.0920 
   83.8750  -999.2500   -14.4300  -999.2500    70.2000    23.6020     8.9140     8.1280     9.9820 
   84.0000  -999.2500   -14.3330  -999.2500    71.5660    23.6150     8.9200     8.0040     9.7920 
   84.1250  -999.2500   -14.2750  -999.2500    73.0660    23.6360     8.8610     7.8560     9.5750 
   84.2500  -999.2500   -14.2780  -999.2500    76.1340    23.6890     8.8430     7.7310     9.3990 
   84.3750  -999.2500   -14.3330  -999.2500    78.9020    23.7470     8.8610     7.6520     9.3000 
   84.5000  -999.2500   -14.3980  -999.2500    78.0030    23.7320     8.8330     7.6270     9.2890 
   84.6250  -999.2500   -14.4040  -999.2500    72.8350    23.6540     8.8180     7.6550     9.3520 
   84.7500  -999.2500   -14.3690  -999.2500    68.1810    23.5580     8.8510     7.7250     9.4750 
   84.8750  -999.2500   -14.3620  -999.2500    67.3180    23.4310     8.9170     7.8090     9.6180 
   85.0000  -999.2500   -14.2680  -999.2500    69.1630    23.3240     8.9750     7.8860     9.7500 
   85.1250  -999.2500   -14.1710  -999.2500    71.0290    23.2870     8.9670     7.9370     9.8360 
   85.2500  -999.2500   -14.1040  -999.2500    71.9670    23.3680     8.9480     7.9330     9.8350 
   85.3750  -999.2500   -13.9740  -999.2500    72.9900    23.4890     9.0210     7.8770     9.7610 
   85.5000  -999.2500   -13.8500  -999.2500    73.0920    23.5740     9.1250     7.7830     9.6530 
   85.6250  -999.2500   -13.8090  -999.2500    71.9610    23.5970     9.0760     7.6930     9.5730 
   85.7500  -999.2500   -13.7710  -999.2500    69.8150    23.5660     8.8970     7.6730     9.6010 
   85.8750  -999.2500   -13.7290  -999.2500    67.6900    23.5140     8.7940     7.7340     9.7340 
