~V
VERS. 2.00: Ver 2.00
~W
STRT.M 61.0000:
STOP.M 276.0000:
STEP.M 0.1250:
NULL. -999.2500:
UWI. DF3051:
~C
DEPT.M :
SP.MV :
GR.API :
CALI.CM :
RXO.OHMM :
RI. :
RML.OHMM :
DEN.GM/CC :
~A
# ...
  173.5000   -39.8870    57.0970    26.8250   158.1550   150.7360   167.6660     2.2540 
  173.6250   -40.3950    58.7380    26.8400   168.1030   161.3030   178.7870     2.2410 
  173.7500   -40.9170    61.8280    26.8710   173.2170   170.1400   187.9840     2.2410 
  173.8750   -41.5060    64.0310    26.8780   174.2640   175.3730   193.1350     2.2450 
  174.0000   -42.1530    64.2700    26.8100   171.7230   176.2160   193.7550     2.2450 
  174.1250   -42.7790    62.3770    26.6730   167.4730   174.1940   192.1270     2.2420 
  174.2500   -43.4040    59.2640    26.5650   162.8340   172.8900   192.0190     2.2450 
  174.3750   -44.0220    58.0890    26.5420   161.4040   174.5020   195.5190     2.2510 
  174.5000   -44.5900    59.6160    26.6000   169.6770   180.1120   203.4500     2.2560 
  174.6250   -45.0330    60.9580    26.6930   187.0790   189.5170   215.2320     2.2510 
  174.7500   -45.3020    61.3210    26.7580   198.3040   199.8490   227.6310     2.2380 
  174.8750   -45.4230    61.3860    26.7610   195.1840   209.0190   238.4140     2.2300 
  175.0000   -45.4940    59.9770    26.7280   181.4810   215.9250   246.6160     2.2360 
  175.1250   -45.6530    57.5430    26.7970   165.5310   220.6880   252.7700     2.2480 
  175.2500   -45.8680    56.9230    27.0360   150.9910   225.3660   259.2330     2.2540 
  175.3750   -46.1210    56.7020    27.2980   139.4000   231.2700   267.1970     2.2520 
  175.5000   -46.4570    55.8030    27.3340   133.3340   238.1260   275.8800     2.2480 
  175.6250   -46.8850    55.9770    27.0540   135.6500   243.5730   282.2020     2.2430 
  175.7500   -47.4100    58.3550    26.7380   141.3610   245.8910   284.5200     2.2370 
  175.8750   -47.9740    59.9870    26.5660   144.0670   245.0110   283.2140     2.2360 
  176.0000   -48.4730    58.6050    26.5500   140.8920   242.2200   280.1020     2.2380 
  176.1250   -48.8120    58.4370    26.6260   134.4870   239.3460   277.3160     2.2370 
  176.2500   -49.0060    61.4740    26.7110   129.8340   237.2880   275.5270     2.2320 
  176.3750   -49.1450    64.5140    26.7600   129.5220   235.7820   274.2170     2.2320 
  176.5000   -49.2160    64.5510    26.7650   134.7140   234.2990   272.7710     2.2380 
  176.6250   -49.1060    61.8130    26.7580   143.8510   232.5630   271.0330     2.2400 
  176.7500   -48.8230    61.1010    26.7720   153.0860   230.7430   269.3600     2.2320 
  176.8750   -48.3810    61.6050    26.8040   162.0150   229.0530   268.0580     2.2210 
  177.0000   -47.8260    61.0310    26.8330   171.3650   227.5960   267.1930     2.2110 
  177.1250   -47.2120    59.7580    26.8450   179.2550   226.1760   266.3740     2.2060 
  177.2500   -46.6220    59.5160    26.8480   183.2620   224.2840   264.7840     2.2070 
  177.3750   -46.0400    60.2240    26.8600   182.6640   221.4580   261.7390     2.2170 
  177.5000   -45.5050    62.6050    26.9020   178.7860   217.5630   257.0500     2.2350 
  177.6250   -45.1480    64.8480    26.9940   174.8450   212.9000   251.0590     2.2490 
  177.7500   -44.9230    63.2690    27.1150   172.9360   208.3090   244.8580     2.2490 
  177.8750   -44.8000    58.7520    27.2340   171.8780   204.3860   239.1820     2.2370 
  178.0000   -44.6960    56.8320    27.3200   170.2730   201.5650   234.5860     2.2240 
  178.1250   -44.5200    58.6100    27.3270   168.9070   200.3570   231.7170     2.2220 
  178.2500   -44.3410    59.5910    27.2590   168.5470   200.3340   230.1020     2.2280 
  178.3750   -44.2340    58.9780    27.1620   168.3410   200.4460   228.4320     2.2360 
  178.5000   -44.1330    59.1430    27.0990   167.6750   198.7490   224.3560     2.2430 
  178.6250   -43.9340    60.3240    27.1020   167.6390   191.9390   213.9840     2.2470 
  178.7500   -43.5980    61.2730    27.1270   166.5300   179.0020   196.4930     2.2450 
  178.8750   -43.1280    63.0330    27.1440   160.5680   160.1060   172.6750     2.2390 
  179.0000   -42.6320    65.4270    27.1500   147.8210   137.4160   145.7270     2.2380 
  179.1250   -42.1990    67.5880    27.1500   128.3480   115.1000   120.9630     2.2540 
  179.2500   -41.8070    69.4450    27.1500   105.3730    96.8240   101.8260     2.2820 
  179.3750   -41.4060    71.1460    27.1500    84.1000    84.4050    89.7070     2.3050 
  179.5000   -41.0070    71.9460    27.1520    71.2290    78.5830    84.9370     2.3110 
  179.6250   -40.5650    69.6370    27.1590    74.1920    80.7400    88.6790     2.2940 
  179.7500   -40.0540    65.3820    27.1680    91.7030    89.6450    99.4910     2.2670 
  179.8750   -39.4870    60.6120    27.1710   117.6290   104.5170   116.5800     2.2500 
  180.0000   -38.9390    57.1740    27.1640   137.0070   123.0570   137.5330     2.2550 
  180.1250   -38.5420    57.2820    27.1390   134.6000   139.2930   155.3310     2.2850 
  180.2500   -38.2290    60.6200    27.0940   118.4470   146.3790   161.6010     2.3170 
  180.3750   -37.8890    64.1600    27.0350   100.7420   141.1560   152.9950     2.3350 
  180.5000   -37.4680    66.7070    26.9800    88.5090   126.1520   133.9030     2.3400 
  180.6250   -37.0190    68.0870    26.9640    81.8030   107.7470   112.9310     2.3450 
  180.7500   -36.6350    68.3530    26.9950    75.5080    92.0190    96.1870     2.3500 
  180.8750   -36.3510    66.9140    27.0570    70.3020    81.1270    85.2520     2.3480 
  181.0000   -36.1500    63.3820    27.1150    70.5070    75.3950    79.9000     2.3360 
  181.1250   -36.0070    62.0110    27.1430    79.1950    74.6160    79.5140     2.3210 
  181.2500   -35.8790    63.9700    27.1520    90.3500    76.3990    81.4010     2.3100 
  181.3750   -35.7800    66.4370    27.1530    96.7200    78.7080    83.3080     2.3050 
  181.5000   -35.6850    67.0230    27.1420    94.4450    79.3420    82.9790     2.3050 
  181.6250   -35.5490    65.6950    27.1080    84.9260    76.4720    78.8710     2.3130 
  181.7500   -35.3710    64.3720    27.0720    73.6690    71.5340    73.0750     2.3250 
  181.8750   -35.1790    63.7350    27.0580    63.2430    66.7580    68.2520     2.3360 
  182.0000   -34.9900    66.0670    27.0710    56.4200    64.3180    66.6670     2.3390 
  182.1250   -34.8180    70.4420    27.0950    57.8950    66.0100    70.0050     2.3320 
  182.2500   -34.7280    70.9380    27.1150    69.8200    70.8650    76.8630     2.3160 
  182.3750   -34.7480    66.4670    27.1330    94.5910    77.4270    85.4310     2.2890 
  182.5000   -34.8660    61.2980    27.1470   125.8970    83.7780    93.3760     2.2570 
  182.6250   -35.0720    60.4850    27.1510   135.8020    88.1940    98.7770     2.2380 
  182.7500   -35.3470    63.3010    27.1430   124.7800    91.6600   103.3130     2.2410 
  182.8750   -35.6960    66.0480    27.1130   120.8000    96.9090   110.3400     2.2570 
  183.0000   -36.0950    65.6630    27.0590   149.9190   107.2740   123.3840     2.2690 
  183.1250   -36.5100    64.4620    27.0160   195.0070   126.4270   146.3800     2.2690 
  183.2500   -36.8910    65.4820    27.0280   209.4590   152.7130   177.8890     2.2670 
  183.3750   -37.1520    66.5570    27.0920   196.5280   182.1520   213.8550     2.2690 
  183.5000   -37.2850    63.5870    27.1640   192.5690   207.2380   245.0290     2.2710 
  183.6250   -37.3710    58.5220    27.2010   212.0030   217.1720   256.7880     2.2680 
  183.7500   -37.4390    56.6700    27.2150   231.5050   212.2830   249.5500     2.2610 
  183.8750   -37.4710    56.8100    27.2210   233.5620   197.3320   230.2570     2.2540 
  184.0000   -37.4640    57.2830    27.2230   209.2160   178.3490   206.9680     2.2530 
  184.1250   -37.4260    59.0710    27.2230   169.2720   160.9320   186.5700     2.2610 
  184.2500   -37.3290    60.4840    27.2240   141.3230   148.0490   171.8740     2.2670 
  184.3750   -37.2590    59.9780    27.2300   136.5700   140.2990   163.0060     2.2630 
  184.5000   -37.2450    58.5830    27.2480   149.7350   136.7100   158.4920     2.2540 
  184.6250   -37.2470    59.1540    27.2820   164.0660   135.6830   156.2560     2.2530 
