~V
VERS. 2.00: Ver 2.00
~W
STRT.M 130.0000:
STOP.M 271.0000:
STEP.M 0.1250:
NULL. -999.2500:
UWI. DF3076:
~C
DEPT.M :
DEN.GM/CC :
GR.API :
CALI.CM :
RXO.OHMM :
RI. :
RML.OHMM :
SP.MV :
~A
# ...
  220.0000     2.2400    74.3690    22.8110    34.7510    46.7050    52.3560   -21.8560 
  220.1250     2.2250    77.4980    22.6250    34.0390    46.3950    52.1440   -21.6180 
  220.2500     2.2160    76.6630    22.6210    35.9480    46.1280    52.0510   -21.4140 
  220.3750     2.2130    74.5930    22.8440    40.2900    45.7640    51.8850   -21.2280 
  220.5000     2.2130    73.2540    23.2580    44.5950    45.1870    51.4740   -21.0630 
  220.6250     2.2150    70.5760    23.6530    46.1210    44.3420    50.6900   -20.9410 
  220.7500     2.2170    67.0830    23.9470    45.6260    43.3930    49.6860   -20.8320 
  220.8750     2.2150    65.5330    24.1330    44.2290    42.5160    48.6520   -20.7630 
  221.0000     2.2090    67.5100    24.2220    43.4690    41.8450    47.7730   -20.7340 
  221.1250     2.2020    70.7140    24.2000    43.7740    41.4320    47.1580   -20.7830 
  221.2500     2.2010    70.4950    24.1310    44.4750    41.1370    46.6980   -20.8560 
  221.3750     2.2060    67.0570    24.0500    44.2510    40.8400    46.2650   -20.9840 
  221.5000     2.2150    63.5820    23.9790    43.3400    40.4590    45.7340   -21.1430 
  221.6250     2.2230    64.2600    23.9250    42.1340    39.9820    45.0090   -21.3420 
  221.7500     2.2260    67.7590    23.8700    40.4450    39.5120    44.1720   -21.5880 
  221.8750     2.2290    70.9970    23.8060    38.2850    39.1420    43.3320   -21.8610 
  222.0000     2.2350    72.1060    23.6980    36.6600    38.9300    42.5830   -22.1550 
  222.1250     2.2440    70.9590    23.5960    36.9110    38.9330    42.0230   -22.4660 
  222.2500     2.2490    70.2990    23.4950    38.0340    39.1370    41.6720   -22.8140 
  222.3750     2.2460    71.1570    23.4620    38.7290    39.5860    41.5690   -23.1800 
  222.5000     2.2350    72.1720    23.5100    38.7260    40.3860    41.7990   -23.5460 
  222.6250     2.2210    72.1300    23.6240    39.2510    41.8110    42.6160   -23.8890 
  222.7500     2.2140    71.9300    23.7650    40.5040    43.6750    44.3790   -24.1830 
  222.8750     2.2150    72.4560    23.8220    42.1430    45.9080    47.2790   -24.4370 
  223.0000     2.2180    72.7970    23.7400    44.8690    48.8320    50.8130   -24.6320 
  223.1250     2.2180    72.4680    23.5520    49.3300    52.1290    54.5850   -24.7540 
  223.2500     2.2200    71.1950    23.3900    54.0960    55.0840    57.8780   -24.8060 
  223.3750     2.2280    68.3590    23.2800    56.9420    57.1270    60.1580   -24.7610 
  223.5000     2.2410    64.2120    23.2240    56.9880    58.0350    61.2950   -24.6560 
  223.6250     2.2520    62.6190    23.1900    54.1770    58.0340    61.7000   -24.4490 
  223.7500     2.2500    64.8240    23.1900    51.5080    58.0230    62.3660   -24.1870 
  223.8750     2.2350    69.7740    23.2460    50.8710    58.6640    63.9690   -23.8560 
  224.0000     2.2150    74.6410    23.3600    54.0130    60.3470    66.8360   -23.4790 
  224.1250     2.2040    74.9100    23.5150    60.8540    63.2010    70.9930   -23.0260 
  224.2500     2.2100    73.2230    23.6360    67.4050    66.6390    75.7090   -22.5240 
  224.3750     2.2210    72.6710    23.7530    71.1190    70.2090    80.4680   -21.9910 
  224.5000     2.2300    73.5070    23.8310    72.0320    73.6820    85.0640   -21.4230 
  224.6250     2.2330    73.4110    23.8770    72.0850    77.3850    89.9860   -20.8470 
  224.7500     2.2320    72.9970    23.9140    72.9820    82.0110    96.0890   -20.2890 
  224.8750     2.2310    73.9900    23.9270    77.4350    88.1640   104.0550   -19.7440 
  225.0000     2.2280    74.3880    23.9280    86.5020    95.9960   113.9980   -19.2270 
  225.1250     2.2200    71.7280    23.9330    99.3550   104.7750   124.8470   -18.7500 
  225.2500     2.2150    68.0760    23.9280   111.8160   112.4000   133.7500   -18.3000 
  225.3750     2.2160    66.2070    23.8990   121.6010   116.8040   137.7840   -17.8820 
  225.5000     2.2210    66.8870    23.8580   125.8320   116.6550   135.3250   -17.4770 
  225.6250     2.2240    68.0420    23.8030   120.4470   111.6700   126.8310   -17.0970 
  225.7500     2.2180    70.5670    23.6870   108.7700   104.5310   116.4480   -16.6870 
  225.8750     2.2120    72.4510    23.4930    96.4320    97.2810   106.7360   -16.2760 
  226.0000     2.2210    71.0790    23.2580    87.0170    91.4110    99.1390   -15.8300 
  226.1250     2.2640    69.4460    23.0860    77.9700    88.1720    94.7880   -15.3510 
  226.2500     2.3500    70.9600    22.9580    70.7320    87.6470    93.5340   -14.8630 
  226.3750     2.4560    73.3270    22.9130    68.9210    90.2270    95.5180   -14.3610 
  226.5000     2.5600    72.2070    23.0310    72.4790    96.1570   100.3950   -13.8780 
  226.6250     2.6520    69.4420    23.3180    82.3050   104.0090   105.3090   -13.3620 
  226.7500     2.7190    69.4620    23.4890    98.0460   107.2940   102.8020   -12.8620 
  226.8750     2.7550    72.6630    23.5390   115.9530    97.9270    86.4410   -12.3570 
  227.0000     2.7550    76.7120    23.5350   125.5230    74.1910    60.0000   -11.8710 
  227.1250     2.7210    76.1520    23.5170    99.4800    46.8430    36.4210   -11.4160 
  227.2500     2.6620    72.7300    23.4800    57.4400    26.8390    20.8920   -10.9920 
  227.3750     2.5900    71.5510    23.3660    23.6740    15.1050    12.0500   -10.6230 
  227.5000     2.5180    75.0630    23.2700     9.6800     9.0940     7.5090   -10.3090 
  227.6250     2.4610    81.8910    23.2360     6.3750     6.5410     5.7130   -10.0650 
  227.7500     2.4340    88.3220    23.2490     5.5110     5.4330     5.1740    -9.8670 
  227.8750     2.4300    93.5540    23.3180     5.7620     5.2060     5.3760    -9.7140 
  228.0000     2.4390    98.4860    23.4690     6.5590     5.5560     5.9670    -9.6140 
  228.1250     2.4470   104.2210    23.6710     7.2030     6.2320     6.6180    -9.5590 
  228.2500     2.4380   110.1600    23.8350     7.3210     6.8990     7.0640    -9.5430 
  228.3750     2.4210   115.8450    23.9000     7.2320     7.3680     7.2180    -9.5510 
  228.5000     2.4070   120.5130    23.9070     7.1800     7.5670     7.1220    -9.5650 
  228.6250     2.4050   123.7930    23.9000     7.1310     7.5260     6.8960    -9.6090 
  228.7500     2.4120   126.2060    23.9000     7.0380     7.4080     6.6940    -9.6930 
  228.8750     2.4190   130.4300    23.9000     6.9870     7.2970     6.5800    -9.8180 
  229.0000     2.4190   136.9510    23.9000     7.0830     7.2270     6.5670    -9.9550 
  229.1250     2.4160   140.0700    23.9000     7.2990     7.2010     6.6530   -10.1170 
  229.2500     2.4140   136.0380    23.9000     7.4920     7.2020     6.7970   -10.2780 
  229.3750     2.4100   127.7720    23.9000     7.5910     7.2290     6.9890   -10.4310 
  229.5000     2.4020   119.9790    23.9000     7.6400     7.2990     7.2410   -10.5770 
  229.6250     2.3970   116.3230    23.9000     7.7650     7.4580     7.5940   -10.7310 
  229.7500     2.4080   116.0690    23.9000     8.0400     7.7130     8.0400   -10.8520 
  229.8750     2.4310   117.3790    23.9000     8.5790     8.0450     8.5370   -10.9540 
  230.0000     2.4490   115.6670    23.9000     9.4450     8.3810     9.0010   -11.0530 
  230.1250     2.4520   108.9940    23.8990    10.1270     8.5730     9.2850   -11.1660 
  230.2500     2.4420   104.1900    23.8920    10.3330     8.5470     9.3310   -11.2760 
  230.3750     2.4240   104.8810    23.8750     9.9990     8.3070     9.1540   -11.4090 
  230.5000     2.3990   109.2350    23.8520     9.2810     7.9370     8.8610   -11.5530 
  230.6250     2.3720   112.2750    23.8390     8.8820     7.6290     8.7130   -11.7120 
  230.7500     2.3540   111.2620    23.8310     8.7700     7.5890     8.9960   -11.9410 
  230.8750     2.3480   106.0820    23.8300     9.1010     8.0050     9.9760   -12.2060 
  231.0000     2.3510    98.6390    23.8340    10.0470     9.0720    11.8920   -12.5230 
  231.1250     2.3480    92.8680    23.8290    14.2970    11.2260    15.1380   -12.8880 
