~V
VERS. 2.00: Ver 2.00
~W
STRT.M 65.0000:
STOP.M 273.0000:
STEP.M 0.1250:
NULL. -999.2500:
UWI. DF3011:
~C
DEPT.M :
DEN.GM/CC :
GR.API :
RML.OHMM :
RI. :
RXO.OHMM :
CALI.CM :
AC.US/MT :
SP.MV :
~A
   65.0000  -999.2500    36.7390    11.3860     0.1510    -2.1340    24.8950  -999.2500    65.5030 
   65.1250  -999.2500    38.8020    10.0740     0.1410    -2.0980    24.8320  -999.2500    70.6210 
   65.2500  -999.2500    41.9150     9.3110     0.1580    -2.0480    24.7500  -999.2500    75.7320 
   65.3750  -999.2500    46.0610     9.4780     0.1890    -1.9770    24.5970  -999.2500    80.5230 
   65.5000  -999.2500    47.9750    10.2490     0.2190    -1.8900    24.3720  -999.2500    84.4720 
   65.6250  -999.2500    44.2210    10.4760     0.2280    -1.8130    24.1310  -999.2500    87.0400 
   65.7500  -999.2500    40.5570     9.2780     0.2090    -1.7570    23.9570  -999.2500    88.1710 
   65.8750  -999.2500    40.7920     6.6760     0.1640    -1.7100    23.7940  -999.2500    87.7320 
   66.0000  -999.2500    43.3390     3.6530     0.1080    -1.6500    23.6290  -999.2500    85.5710 
   66.1250  -999.2500    44.1980     1.5760     0.0600    -1.4180    23.4900  -999.2500    81.1580 
   66.2500  -999.2500    44.4930     0.5630     0.0280    -0.6050    23.3730  -999.2500    74.7250 
   66.3750  -999.2500    45.6220     0.2250     0.0080     0.8420    23.7460  -999.2500    66.4200 
   66.5000  -999.2500    45.5580     0.1820    -0.0080     2.9160    25.2470  -999.2500    56.6340 
   66.6250  -999.2500    45.1480     0.2370    -0.0060     5.9310    28.6840  -999.2500    45.8770 
   66.7500  -999.2500    48.1970     0.3350     0.0690     7.4090    31.9300  -999.2500    35.0040 
   66.8750  -999.2500    54.2500     0.5520     0.3120     8.3010    35.0970  -999.2500    24.5190 
   67.0000  -999.2500    59.6250     1.0300     0.8370     8.7080    37.6050  -999.2500    14.8380 
   67.1250  -999.2500    60.5890     2.0310     1.7850     9.3000    39.2390  -999.2500     6.5380 
   67.2500  -999.2500    58.8530     3.5700     3.0400     9.9590    40.0070  -999.2500    -0.3330 
   67.3750  -999.2500    56.3960     5.5200     4.4000    10.4330    40.2700  -999.2500    -5.6560 
   67.5000  -999.2500    54.4790     7.4940     5.5930    10.6250    40.0170  -999.2500    -9.4600 
   67.6250  -999.2500    54.6230     8.9310     6.3610    10.5160    38.9460  -999.2500   -11.8180 
   67.7500  -999.2500    55.0440     9.7780     6.8000    10.0330    37.2370  -999.2500   -13.2930 
   67.8750  -999.2500    56.7590    10.1440     7.0500     9.3070    35.7170  -999.2500   -14.1510 
   68.0000  -999.2500    60.6430    10.1520     7.2130     8.6210    34.2800  -999.2500   -14.6060 
   68.1250  -999.2500    66.3360     9.9310     7.3150     8.3510    32.3850  -999.2500   -14.8250 
   68.2500  -999.2500    72.0510     9.6720     7.3620     8.5760    29.6790  -999.2500   -14.9720 
   68.3750  -999.2500    76.4060     9.4500     7.3410     8.8170    29.0860  -999.2500   -15.1230 
   68.5000  -999.2500    77.7140     9.2890     7.2560     8.6800    28.5620  -999.2500   -15.3080 
   68.6250  -999.2500    75.6090     9.2050     7.1160     8.3760    27.9210  -999.2500   -15.5520 
   68.7500  -999.2500    72.3960     9.1740     6.9520     8.2770    27.8350  -999.2500   -15.8870 
   68.8750  -999.2500    69.2340     9.1660     6.7820     8.3940    28.5380  -999.2500   -16.2780 
   69.0000  -999.2500    66.6370     9.1450     6.6240     8.5370    29.6950  -999.2500   -16.6560 
   69.1250  -999.2500    67.4600     9.1020     6.5100     8.6720    30.4510  -999.2500   -16.9860 
   69.2500  -999.2500    71.7140     9.0920     6.4640     8.6900    30.9320  -999.2500   -17.2760 
   69.3750  -999.2500    76.0580     9.1960     6.5190     8.6460    31.3530  -999.2500   -17.5200 
   69.5000  -999.2500    77.5830     9.4810     6.7150     8.5600    31.7230  -999.2500   -17.7000 
   69.6250  -999.2500    75.5630    10.0180     7.1430     8.4920    31.9790  -999.2500   -17.7050 
   69.7500  -999.2500    71.4580    10.7690     7.8090     8.2720    31.8730  -999.2500   -17.5170 
   69.8750  -999.2500    68.3810    11.6730     8.6720     8.0720    31.1740  -999.2500   -17.1970 
   70.0000  -999.2500    69.9720    12.5330     9.5780     8.4600    29.5540  -999.2500   -16.7910 
   70.1250  -999.2500    73.4020    12.8580    10.1850     9.9830    27.8790  -999.2500   -16.2520 
   70.2500  -999.2500    74.5400    12.3200    10.2400    11.9200    26.7720  -999.2500   -15.6070 
   70.3750  -999.2500    77.2420    10.8520     9.6560    13.5770    26.3930  -999.2500   -14.9150 
   70.5000  -999.2500    86.3370     8.8200     8.5740    13.0180    26.5560  -999.2500   -14.2640 
   70.6250  -999.2500    98.5800     6.9780     7.3330     8.6030    26.7130  -999.2500   -13.7600 
   70.7500  -999.2500   107.5700     5.7680     6.2850     5.7930    26.2500  -999.2500   -13.4060 
   70.8750  -999.2500   110.7410     5.2030     5.5700     5.3500    25.7060  -999.2500   -13.2260 
   71.0000  -999.2500   109.1800     5.1210     5.2060     5.6320    25.5030  -999.2500   -13.2320 
   71.1250  -999.2500   104.2620     5.3460     5.1720     5.9840    25.2090  -999.2500   -13.5130 
   71.2500  -999.2500    99.5780     5.6600     5.3240     6.1810    24.5450  -999.2500   -13.9890 
   71.3750  -999.2500    97.2040     5.9710     5.5860     6.4620    23.8640  -999.2500   -14.5660 
   71.5000  -999.2500    95.3800     6.2600     5.9130     6.9530    23.4840  -999.2500   -15.1730 
   71.6250  -999.2500    92.1390     6.5860     6.3010     7.6830    23.4360  -999.2500   -15.7740 
   71.7500  -999.2500    85.1460     6.9960     6.7370     8.2500    23.4600  -999.2500   -16.3570 
   71.8750  -999.2500    76.2250     7.4920     7.2030     8.7520    23.5300  -999.2500   -16.8810 
   72.0000  -999.2500    68.2130     8.0180     7.6600     9.2250    23.8620  -999.2500   -17.2790 
   72.1250  -999.2500    63.9470     8.4350     8.0160     9.7850    24.5870  -999.2500   -17.3580 
   72.2500  -999.2500    63.4190     8.6130     8.1850    10.2070    25.3600  -999.2500   -17.1230 
   72.3750  -999.2500    66.4930     8.4630     8.0840    10.1920    25.4920  -999.2500   -16.6820 
   72.5000  -999.2500    73.9940     7.9760     7.6740     9.6510    25.2160  -999.2500   -16.0400 
   72.6250  -999.2500    83.8750     7.2260     6.9690     8.5550    25.0180  -999.2500   -15.1730 
   72.7500  -999.2500    94.8000     6.4340     6.1580     7.1740    24.9920  -999.2500   -14.1970 
   72.8750  -999.2500   108.6040     5.7520     5.3910     5.8060    25.1340  -999.2500   -13.1650 
   73.0000  -999.2500   123.8370     5.2760     4.7750     4.8020    25.4030  -999.2500   -12.1700 
   73.1250  -999.2500   130.9290     5.0680     4.3900     4.4940    25.5620  -999.2500   -11.3910 
   73.2500  -999.2500   128.3210     5.0430     4.1840     4.4160    25.5550  -999.2500   -10.8550 
   73.3750  -999.2500   121.4530     5.1180     4.1040     4.3850    25.2410  -999.2500   -10.4980 
   73.5000  -999.2500   116.7980     5.1980     4.0820     4.3280    24.6180  -999.2500   -10.3390 
   73.6250  -999.2500   116.5030     5.1810     4.0430     4.3160    24.1020  -999.2500   -10.4280 
   73.7500  -999.2500   121.1340     5.0540     3.9570     4.3390    23.7800  -999.2500   -10.6750 
   73.8750  -999.2500   124.9220     4.8770     3.8510     4.3640    23.6610  -999.2500   -11.0370 
   74.0000  -999.2500   121.8600     4.7890     3.8080     4.4110    23.6720  -999.2500   -11.4870 
   74.1250  -999.2500   114.7450     5.0200     3.9900     4.6730    23.7100  -999.2500   -12.0530 
   74.2500  -999.2500   111.5980     5.6450     4.4690     5.4420    23.7220  -999.2500   -12.7350 
   74.3750  -999.2500   109.0740     6.6460     5.2550     6.8470    23.7190  -999.2500   -13.5680 
   74.5000  -999.2500    99.2290     7.8710     6.2630     8.7350    23.8180  -999.2500   -14.5200 
   74.6250  -999.2500    83.7430     8.9830     7.2740    10.4350    24.1780  -999.2500   -15.5410 
   74.7500  -999.2500    72.2010     9.6720     8.0200    10.8420    25.0740  -999.2500   -16.5830 
   74.8750  -999.2500    66.3010     9.8220     8.3580     9.7030    26.4390  -999.2500   -17.6020 
