~V
VERS. 2.00: Ver 2.00
~W
STRT.M 110.0000:
STOP.M 277.0000:
STEP.M 0.1250:
NULL. -999.2500:
UWI. DF3015:
~C
DEPT.M :
DEN.GM/CC :
SP.MV :
AC.US/MT :
GR.API :
CALI.CM :
RXO.OHMM :
RI. :
RML.OHMM :
~A
# ...
  140.0000     2.6410    -7.8890   245.7610    51.5400    25.1770    19.2780    20.1970    23.5140 
  140.1250     2.6160    -7.8200   245.6900    51.3950    25.2130    18.9280    20.0150    23.0160 
  140.2500     2.6020    -7.7080   245.3670    50.3170    25.2130    18.9350    19.9040    22.8200 
  140.3750     2.6020    -7.6200   245.9060    48.8180    25.2130    19.3690    19.9120    22.8820 
  140.5000     2.6110    -7.5940   247.9490    48.3600    25.2130    20.4990    20.0170    23.0950 
  140.6250     2.6110    -7.6390   251.3110    48.9130    25.2130    21.2930    20.1930    23.3770 
  140.7500     2.6000    -7.7480   254.5840    48.5560    25.2130    20.9380    20.4080    23.6800 
  140.8750     2.5900    -7.8920   256.7380    47.5480    25.2130    19.7080    20.6720    24.0240 
  141.0000     2.5970    -8.0430   257.4400    47.7050    25.2130    18.8760    20.9940    24.4220 
  141.1250     2.6240    -8.1990   257.3030    48.5550    25.2130    18.9850    21.3090    24.7680 
  141.2500     2.6460    -8.3790   257.6930    49.5720    25.2130    19.2710    21.4530    24.8500 
  141.3750     2.6490    -8.5430   259.2310    51.4100    25.2130    19.3650    21.2530    24.4520 
  141.5000     2.6320    -8.6540   262.2450    54.5260    25.2130    19.3040    20.5980    23.4670 
  141.6250     2.6060    -8.6820   266.7880    57.7360    25.2130    18.9740    19.5050    21.9790 
  141.7500     2.5860    -8.6400   271.5150    60.1180    25.2130    18.4600    18.3170    20.4560 
  141.8750     2.5790    -8.5680   274.9440    62.2790    25.2130    18.2210    17.3160    19.2460 
  142.0000     2.5780    -8.4990   276.0080    63.2830    25.2130    17.7180    16.6860    18.5440 
  142.1250     2.5720    -8.4710   274.3890    62.2090    25.2130    17.0220    16.5660    18.4820 
  142.2500     2.5670    -8.4660   271.5150    59.7810    25.2130    16.3020    16.8680    18.9060 
  142.3750     2.5750    -8.4610   268.3250    58.8090    25.2130    16.3950    17.5300    19.7100 
  142.5000     2.5950    -8.4460   265.2760    59.3750    25.2130    16.7280    18.4370    20.7440 
  142.6250     2.6110    -8.4000   262.7670    59.8270    25.2130    17.3150    19.4100    21.8030 
  142.7500     2.6200    -8.2780   261.2920    59.8960    25.2120    18.4630    20.2100    22.6330 
  142.8750     2.6260    -8.0800   261.3820    60.1460    25.2100    19.4590    20.6320    22.9990 
  143.0000     2.6310    -7.8150   263.1820    59.8520    25.2110    19.3310    20.5310    22.7320 
  143.1250     2.6240    -7.4730   266.3390    58.4530    25.2120    17.8940    19.8340    21.7910 
  143.2500     2.6120    -7.0970   269.7700    56.6340    25.2130    16.6080    18.8330    20.5670 
  143.3750     2.6000    -6.7260   272.8760    55.1780    25.2130    15.5140    17.7660    19.3620 
  143.5000     2.5850    -6.3990   275.5000    55.4870    25.2120    14.4740    16.8170    18.3670 
  143.6250     2.5550    -6.1560   277.7090    57.1550    25.2090    13.7540    16.1230    17.7000 
  143.7500     2.5280    -6.0030   279.6230    57.1890    25.2070    13.5200    15.6680    17.2950 
  143.8750     2.5220    -5.9110   281.1610    55.1510    25.2090    13.5270    15.4360    17.1080 
  144.0000     2.5360    -5.8760   282.2860    54.6350    25.2110    13.3620    15.4010    17.1020 
  144.1250     2.5570    -5.8910   282.9690    57.1600    25.2090    13.7150    15.5710    17.2840 
  144.2500     2.5700    -5.9460   283.3600    59.7200    25.2060    14.8650    15.8900    17.6110 
  144.3750     2.5690    -6.0170   283.5860    60.2330    25.2040    15.7420    16.3210    18.0490 
  144.5000     2.5490    -6.0840   283.8610    60.7710    25.2040    15.8690    16.8180    18.5560 
  144.6250     2.5170    -6.1460   284.4430    60.8200    25.2040    15.9740    17.3060    19.0520 
  144.7500     2.4920    -6.1850   285.3720    59.6840    25.2040    16.4110    17.6690    19.4060 
  144.8750     2.4860    -6.2080   286.4290    57.5900    25.2040    16.7190    17.8030    19.4930 
  145.0000     2.4990    -6.1910   287.1290    56.4970    25.2040    16.6250    17.6500    19.2520 
  145.1250     2.5130    -6.1640   287.0200    56.7190    25.2040    15.8170    17.1670    18.6390 
  145.2500     2.5130    -6.1310   286.7300    56.9650    25.2040    14.5310    16.4480    17.7810 
  145.3750     2.5030    -6.1330   287.2370    57.0550    25.2040    13.5870    15.5890    16.8090 
  145.5000     2.4980    -6.1980   289.2270    58.3230    25.2040    13.1930    14.7240    15.8830 
  145.6250     2.5070    -6.3140   292.4460    62.0850    25.2040    12.8330    14.0370    15.2080 
  145.7500     2.5170    -6.4600   295.4930    66.2250    25.2040    12.2730    13.6210    14.8660 
  145.8750     2.5190    -6.6060   297.5770    65.8020    25.2040    12.1390    13.5310    14.9070 
  146.0000     2.5110    -6.7480   298.7180    63.3130    25.2040    12.8700    13.7770    15.3330 
  146.1250     2.4970    -6.8860   299.5510    62.8390    25.2160    14.3340    14.3670    16.1380 
  146.2500     2.4840    -7.0370   300.5670    65.4900    25.2450    15.5990    15.1560    17.1350 
  146.3750     2.4790    -7.1730   301.6060    66.9890    25.2730    16.2110    16.0170    18.1640 
  146.5000     2.4840    -7.2850   302.3090    65.2870    25.2850    16.2670    16.8180    19.0730 
  146.6250     2.4820    -7.3840   302.5870    63.3020    25.2850    16.4830    17.4300    19.7360 
  146.7500     2.4700    -7.4760   302.8280    62.8510    25.2850    16.8800    17.8420    20.1700 
  146.8750     2.4600    -7.5730   303.1970    63.0420    25.2850    17.1420    18.0470    20.3770 
  147.0000     2.4640    -7.6880   303.3910    63.2830    25.2850    17.3100    18.0430    20.3580 
  147.1250     2.4730    -7.7920   302.5370    64.8270    25.2850    17.3930    17.8130    20.0950 
  147.2500     2.4790    -7.8720   300.3140    67.4500    25.2850    16.9740    17.4400    19.6820 
  147.3750     2.4850    -7.9480   296.8990    68.0860    25.2850    15.9670    17.0050    19.2190 
  147.5000     2.4910    -8.0160   292.9000    66.9640    25.2850    15.0450    16.5980    18.8150 
  147.6250     2.4940    -8.0680   289.1950    66.3350    25.2850    14.9470    16.3090    18.5710 
  147.7500     2.5010    -8.1400   286.3350    67.3910    25.2850    15.1010    16.1340    18.4620 
  147.8750     2.5190    -8.2630   284.6600    68.2370    25.2850    15.2220    16.0490    18.4460 
  148.0000     2.5370    -8.4460   284.3100    67.7020    25.2850    15.3210    16.0230    18.4780 
  148.1250     2.5390    -8.6740   285.2540    66.1400    25.2850    15.1970    16.0380    18.5280 
  148.2500     2.5380    -8.9090   286.8130    64.5640    25.2850    14.7180    16.0730    18.5890 
  148.3750     2.5440    -9.1290   288.5790    65.0170    25.2850    14.1160    16.1140    18.6560 
  148.5000     2.5550    -9.2910   290.4260    66.3650    25.2840    14.1330    16.1250    18.6830 
  148.6250     2.5560    -9.3720   292.4640    67.0880    25.2820    14.8540    16.0140    18.5420 
  148.7500     2.5450    -9.3720   294.6000    66.2370    25.2840    15.0720    15.7470    18.1850 
  148.8750     2.5280    -9.2610   296.3910    65.3230    25.2850    14.6460    15.3540    17.6660 
  149.0000     2.5150    -9.0300   297.1860    66.1120    25.2850    14.0300    14.9260    17.1360 
  149.1250     2.5130    -8.7280   296.4520    67.6590    25.2850    13.5790    14.5920    16.7930 
  149.2500     2.5110    -8.4460   294.9450    68.4840    25.2850    13.2940    14.3970    16.6710 
  149.3750     2.5060    -8.3000   293.5200    68.3300    25.2850    13.3080    14.3250    16.7040 
  149.5000     2.5010    -8.4260   292.7940    68.0320    25.2850    13.5590    14.3080    16.7600 
  149.6250     2.5080    -8.8770   292.9390    67.6690    25.2850    13.7180    14.2580    16.7050 
  149.7500     2.5260    -9.4660   293.5970    67.0960    25.2850    13.6380    14.1260    16.5100 
  149.8750     2.5410   -10.0140   294.5700    67.7190    25.2850    13.3980    13.8900    16.1750 
