~V
VERS. 2.00: Ver 2.00
~W
STRT.M 56.0000:
STOP.M 270.0000:
STEP.M 0.1250:
NULL. -999.2500:
UWI. DF3053:
~C
DEPT.M :
GR.API :
CALI.CM :
RXO.OHMM :
RI. :
RML.OHMM :
DEN.GM/CC :
SP.MV :
~A
# ...
  112.1250    52.5480    23.5630     9.6950     7.2040     9.3660     2.2020   -10.6100 
  112.2500    52.9000    23.4520     9.5790     7.2120     9.5190     2.1830   -11.0060 
  112.3750    56.5140    23.3400     9.2810     7.3070     9.6070     2.1650   -11.3180 
  112.5000    60.8720    23.3040     9.0850     7.4620     9.6750     2.1610   -11.5570 
  112.6250    63.6410    23.3720     9.2940     7.6610     9.7990     2.1710   -11.7010 
  112.7500    65.8320    23.4780     9.6460     7.8620     9.9740     2.1830   -11.7640 
  112.8750    67.8400    23.5620     9.9350     8.0200    10.1320     2.1910   -11.7510 
  113.0000    68.0110    23.5950    10.1340     8.0910    10.1950     2.1950   -11.6900 
  113.1250    65.1180    23.5970    10.2480     8.0200    10.0670     2.2010   -11.6080 
  113.2500    62.0330    23.6040    10.1420     7.8290     9.7620     2.2100   -11.5310 
  113.3750    59.9820    23.6130     9.7340     7.5610     9.3450     2.2180   -11.4710 
  113.5000    59.0260    23.6220     9.1250     7.2850     8.9500     2.2200   -11.4250 
  113.6250    58.8780    23.6320     8.6280     7.0890     8.7610     2.2150   -11.3730 
  113.7500    58.8030    23.6440     8.4720     7.0060     8.7940     2.2040   -11.3010 
  113.8750    59.1410    23.6510     8.6160     7.0330     8.9660     2.1940   -11.2000 
  114.0000    60.7670    23.6500     8.8210     7.1300     9.1460     2.1910   -11.0790 
  114.1250    62.7550    23.6440     9.2030     7.2160     9.1830     2.1990   -10.9630 
  114.2500    63.4160    23.6390     9.5630     7.2300     9.0190     2.2120   -10.8700 
  114.3750    62.7320    23.6460     9.3650     7.1590     8.6690     2.2210   -10.8050 
  114.5000    62.0660    23.6720     8.6040     7.0330     8.2530     2.2220   -10.7480 
  114.6250    62.3280    23.7000     8.0340     6.9100     7.9660     2.2180   -10.6940 
  114.7500    62.0160    23.7000     8.2300     6.8270     7.9000     2.2170   -10.6330 
  114.8750    60.9680    23.6750     8.5900     6.7910     8.0470     2.2170   -10.5610 
  115.0000    60.4200    23.6520     8.7620     6.7910     8.3210     2.2110   -10.4820 
  115.1250    60.5870    23.6450     8.6210     6.8180     8.6110     2.1990   -10.4220 
  115.2500    59.6330    23.6450     8.2370     6.8610     8.8560     2.1930   -10.3960 
  115.3750    57.8430    23.6570     8.2980     6.9240     9.0500     2.1970   -10.4040 
  115.5000    57.3900    23.6870     8.7800     7.0070     9.1840     2.2100   -10.4200 
  115.6250    59.6060    23.7030     9.0060     7.1070     9.2030     2.2220   -10.3940 
  115.7500    61.9370    23.6560     8.8840     7.2060     9.1270     2.2290   -10.2990 
  115.8750    60.7830    23.4960     8.8000     7.2940     9.0130     2.2310   -10.1520 
  116.0000    57.0370    23.2450     8.8210     7.3660     8.9110     2.2280    -9.9770 
  116.1250    56.2770    23.0170     8.8240     7.4070     8.8560     2.2190    -9.7940 
  116.2500    58.0910    22.8950     8.5900     7.4010     8.8220     2.2120    -9.6030 
  116.3750    60.3640    22.8660     8.3660     7.3150     8.7460     2.2110    -9.3910 
  116.5000    62.9010    22.8720     8.0790     7.1240     8.5530     2.2180    -9.1420 
  116.6250    66.9550    22.8820     7.9400     6.8270     8.2050     2.2310    -8.8350 
  116.7500    70.8920    22.9170     7.5280     6.4960     7.8060     2.2430    -8.4760 
  116.8750    74.6260    23.0120     6.8260     6.1910     7.4560     2.2500    -8.0660 
  117.0000    80.4260    23.1610     6.2220     5.9610     7.2610     2.2500    -7.6140 
  117.1250    85.8110    23.2370     6.6650     5.8420     7.2990     2.2480    -7.1530 
  117.2500    88.1480    23.1680     7.1990     5.8010     7.4150     2.2470    -6.7170 
  117.3750    87.0240    23.0240     7.1200     5.7920     7.4030     2.2410    -6.3310 
  117.5000    84.3310    22.9210     6.6970     5.7820     7.1290     2.2270    -6.0120 
  117.6250    81.9440    22.9050     6.6140     5.7800     6.6690     2.2100    -5.7730 
  117.7500    80.3680    22.9180     6.7500     5.8220     6.3420     2.2030    -5.5990 
  117.8750    79.7720    22.9370     6.9280     5.9310     6.3680     2.2140    -5.4850 
  118.0000    80.1200    22.9640     8.0270     6.0910     6.7510     2.2360    -5.4280 
  118.1250    81.2180    23.0300    10.6180     6.2130     7.2200     2.2520    -5.4240 
  118.2500    83.2340    23.1260    10.3330     6.2160     7.4570     2.2530    -5.4530 
  118.3750    84.8070    23.2170     8.0100     6.0860     7.4160     2.2450    -5.5030 
  118.5000    85.8880    23.2800     6.6960     5.8710     7.2330     2.2420    -5.5790 
  118.6250    87.6220    23.3140     6.3450     5.6470     7.0770     2.2450    -5.7010 
  118.7500    88.0480    23.3110     6.1990     5.4990     7.0110     2.2480    -5.8750 
  118.8750    83.6960    23.2600     6.4570     5.4910     7.0580     2.2490    -6.0840 
  119.0000    75.8780    23.2000     6.7760     5.6540     7.2520     2.2520    -6.3040 
  119.1250    73.6980    23.1940     6.8130     5.9920     7.6730     2.2610    -6.5210 
  119.2500    78.2950    23.2240     7.3830     6.4000     8.2520     2.2710    -6.7300 
  119.3750    83.3010    23.2520     9.4700     6.7680     8.8190     2.2740    -6.9260 
  119.5000    84.0430    23.2680    10.9440     6.9740     9.1220     2.2660    -7.0990 
  119.6250    81.6630    23.2820    10.2210     6.9180     8.9510     2.2480    -7.2160 
  119.7500    81.1720    23.2780     8.1940     6.6980     8.5080     2.2310    -7.2920 
  119.8750    81.1080    23.2530     7.2070     6.4200     8.0290     2.2200    -7.3520 
  120.0000    79.0950    23.1990     6.8260     6.1860     7.6900     2.2190    -7.4230 
  120.1250    76.8160    23.0980     6.9770     6.0790     7.5620     2.2300    -7.5200 
  120.2500    76.1270    22.9710     7.4460     6.0690     7.5210     2.2480    -7.6200 
  120.3750    77.3930    22.8750     7.3990     6.0930     7.4620     2.2620    -7.6990 
  120.5000    80.3800    22.8630     7.0570     6.0930     7.3440     2.2630    -7.7440 
  120.6250    84.1610    22.9080     7.1000     6.0520     7.2040     2.2500    -7.7480 
  120.7500    85.0630    22.9430     7.1960     6.0180     7.1010     2.2360    -7.7110 
  120.8750    82.6000    22.9780     6.9160     6.0390     7.0710     2.2270    -7.6320 
  121.0000    81.9840    23.0290     6.5040     6.1430     7.1540     2.2240    -7.5120 
  121.1250    83.2280    23.0540     6.8840     6.3010     7.3730     2.2200    -7.3780 
  121.2500    81.0750    23.0170     7.3980     6.4200     7.6280     2.2150    -7.2640 
  121.3750    75.6370    22.9460     7.5910     6.4210     7.7850     2.2120    -7.2040 
  121.5000    72.7570    22.9020     7.6170     6.2780     7.7170     2.2110    -7.1870 
  121.6250    75.6700    22.9570     6.9350     6.0200     7.4170     2.2130    -7.1650 
  121.7500    78.6600    23.0790     6.1530     5.7570     7.0910     2.2200    -7.0950 
  121.8750    80.4180    23.2060     5.8140     5.5540     6.8900     2.2330    -6.9600 
  122.0000    83.3810    23.2760     6.3340     5.4340     6.8560     2.2460    -6.7710 
  122.1250    87.9090    23.2310     6.6430     5.3890     6.9070     2.2510    -6.5700 
  122.2500    89.0350    23.1070     6.5160     5.3610     6.9000     2.2570    -6.4060 
  122.3750    85.9100    22.9830     6.1020     5.3100     6.7590     2.2690    -6.3090 
  122.5000    84.5180    22.9770     5.7420     5.2240     6.5040     2.2870    -6.2980 
  122.6250    87.7990    23.1570     5.6190     5.1400     6.2740     2.2950    -6.3880 
  122.7500    90.2260    23.3560     5.8290     5.1230     6.2030     2.2870    -6.5420 
  122.8750    87.9210    23.4310     6.0240     5.2290     6.3610     2.2720    -6.7200 
  123.0000    82.5010    23.3320     6.0540     5.4900     6.7580     2.2590    -6.9070 
  123.1250    78.5030    23.1190     6.4170     5.9070     7.3250     2.2500    -7.1150 
  123.2500    76.0780    22.8890     6.9700     6.3830     7.8450     2.2390    -7.3570 
