~V
VERS. 2.00: Ver 2.00
~W
STRT.M 60.0000:
STOP.M 250.0000:
STEP.M 0.1250:
NULL. -999.2500:
UWI. DF3018:
~C
DEPT.M :
DEN.GM/CC :
GR.API :
RML.OHMM :
RI. :
RXO.OHMM :
CALI.CM :
SP.MV :
~A
# ...
  206.2500     2.1960    66.3070   181.4950   168.1030   149.0240    24.6720   -24.2550 
  206.3750     2.1990    68.5460   174.7800   162.2590   137.4580    24.5950   -23.7990 
  206.5000     2.1990    68.9050   166.7360   155.7360   124.3950    24.4740   -23.3340 
  206.6250     2.1990    67.0010   154.1970   145.6830   109.4100    24.2070   -22.9640 
  206.7500     2.2060    65.1620   137.4290   131.7160    92.3800    23.8160   -22.5890 
  206.8750     2.2200    66.2050   118.5000   115.1260    77.1440    23.4220   -22.2460 
  207.0000     2.2350    69.7400   100.4490    98.4090    64.8390    23.1410   -21.8990 
  207.1250     2.2450    70.8560    86.3970    84.6070    52.2890    23.0210   -21.6250 
  207.2500     2.2450    70.3260    76.5380    74.5400    43.3460    22.9170   -21.4050 
  207.3750     2.2380    70.3460    70.3740    68.0530    40.1670    22.8600   -21.2400 
  207.5000     2.2300    72.6650    66.9900    64.3850    38.9910    22.8450   -21.1180 
  207.6250     2.2230    76.8430    65.5940    62.8050    37.8060    22.8450   -21.0570 
  207.7500     2.2200    80.4810    65.0470    62.1490    36.6200    22.8430   -21.0050 
  207.8750     2.2240    80.2370    64.8790    61.9140    35.7290    22.8410   -20.9810 
  208.0000     2.2350    74.1340    64.8590    61.8330    35.2910    22.8420   -20.9840 
  208.1250     2.2540    67.9110    64.9440    61.8370    36.2600    22.8420   -20.9780 
  208.2500     2.2730    67.4220    65.1340    61.9270    38.9610    22.8490   -20.9620 
  208.3750     2.2840    69.4320    65.4410    62.1180    42.7090    22.8900   -20.9560 
  208.5000     2.2850    69.8130    65.8830    62.4230    45.8350    22.9880   -20.9960 
  208.6250     2.2780    69.3460    66.5220    62.8830    47.7140    23.0980   -21.0040 
  208.7500     2.2720    71.0460    67.3480    63.4900    48.9640    23.1460   -21.0660 
  208.8750     2.2710    73.9580    68.3270    64.2270    50.3440    23.1230   -21.1330 
  209.0000     2.2730    76.2700    69.3580    65.0180    50.6220    23.0510   -21.2580 
  209.1250     2.2740    76.0680    70.2000    65.6660    48.4870    22.9950   -21.3360 
  209.2500     2.2720    73.6070    70.5920    65.9330    47.0080    22.9690   -21.4660 
  209.3750     2.2670    69.7750    70.2830    65.5830    47.3190    23.0070   -21.5730 
  209.5000     2.2650    66.3980    69.1060    64.4410    49.7430    23.1700   -21.6920 
  209.6250     2.2660    65.5490    66.9970    62.4120    53.5400    23.5320   -21.7860 
  209.7500     2.2700    68.1600    64.5160    59.9670    56.8570    23.9480   -21.8990 
  209.8750     2.2750    72.8230    62.2600    57.6260    58.6730    24.2520   -22.0030 
  210.0000     2.2800    75.0070    60.8170    55.9260    58.6980    24.3830   -22.1190 
  210.1250     2.2800    71.6050    60.7690    55.4290    56.5140    24.4370   -22.2550 
  210.2500     2.2760    67.2560    61.8500    55.9900    55.3610    24.5190   -22.3850 
  210.3750     2.2690    65.8290    63.6340    57.3100    57.9940    24.6110   -22.5280 
  210.5000     2.2610    67.5280    65.5760    58.9480    63.0560    24.6610   -22.6440 
  210.6250     2.2580    69.4160    67.2530    60.5520    65.1490    24.6660   -22.7710 
  210.7500     2.2580    70.2820    68.8230    62.1650    65.7780    24.6410   -22.9190 
  210.8750     2.2620    72.0340    70.7840    64.1550    66.5130    24.5950   -23.0710 
  211.0000     2.2660    74.6060    73.7040    66.9780    65.9160    24.5640   -23.2120 
  211.1250     2.2680    74.1750    78.0610    71.0770    65.7520    24.5550   -23.3520 
  211.2500     2.2680    70.1400    83.2450    75.9740    72.2030    24.5540   -23.4770 
  211.3750     2.2650    66.7510    88.3390    80.9100    85.6000    24.5500   -23.6020 
  211.5000     2.2590    66.2640    92.2030    84.8920    98.9130    24.5470   -23.7240 
  211.6250     2.2520    67.2110    93.3740    86.6080    99.5960    24.5460   -23.8780 
  211.7500     2.2440    68.8980    91.8230    85.9020    92.2290    24.5460   -23.9960 
  211.8750     2.2360    71.6030    87.8900    82.9380    82.9450    24.5460   -24.1130 
  212.0000     2.2310    72.8590    82.3420    78.2950    76.6390    24.5300   -24.2250 
  212.1250     2.2290    70.4390    76.0810    72.7030    73.3130    24.4950   -24.3650 
  212.2500     2.2310    68.2300    70.0530    67.0890    70.6220    24.4600   -24.5060 
  212.3750     2.2380    69.3350    64.7510    61.9540    65.9490    24.4600   -24.6550 
  212.5000     2.2470    71.5920    60.4180    57.5880    59.7220    24.4600   -24.8230 
  212.6250     2.2540    70.4860    57.2560    54.2310    53.5990    24.4380   -24.9450 
  212.7500     2.2600    69.3670    55.0790    51.7480    52.1580    24.4220   -25.1310 
  212.8750     2.2640    71.7220    53.9810    50.2360    51.9930    24.4450   -25.3400 
  213.0000     2.2700    76.3760    54.2190    49.9480    50.9370    24.4820   -25.5980 
  213.1250     2.2760    77.1810    56.5530    51.6020    49.3090    24.5030   -25.8700 
  213.2500     2.2820    74.0460    61.2180    55.3880    49.9100    24.5100   -26.1780 
  213.3750     2.2860    72.4560    68.6070    61.5830    54.3720    24.5390   -26.4860 
  213.5000     2.2840    73.6660    78.8980    70.2140    63.7760    24.6020   -26.8190 
  213.6250     2.2750    73.2220    92.2210    81.2300    76.7990    24.6430   -27.1830 
  213.7500     2.2590    68.5210   107.1320    93.4700    89.9610    24.6860   -27.5270 
  213.8750     2.2380    63.6560   122.1020   105.8660    99.9400    24.7320   -27.8520 
  214.0000     2.2150    61.9520   135.2710   117.0620   108.1370    24.7090   -28.1370 
  214.1250     2.1970    63.8670   143.8800   124.7290   120.4830    24.6720   -28.3430 
  214.2500     2.1880    68.4860   146.7800   127.6120   133.6330    24.6600   -28.5030 
  214.3750     2.1910    73.3420   143.1190   124.8760   142.2180    24.6550   -28.6220 
  214.5000     2.2030    75.0010   133.4290   116.9500   146.1230    24.6460   -28.6680 
  214.6250     2.2200    73.2220   119.8990   105.5030   138.8070    24.6230   -28.7090 
  214.7500     2.2350    70.6650   106.6970    93.9090   120.5480    24.5860   -28.7110 
  214.8750     2.2430    68.1070    96.1240    84.1870    95.4050    24.5400   -28.7170 
  215.0000     2.2440    66.7080    89.1800    77.4190    75.0360    24.4510   -28.6990 
  215.1250     2.2430    68.3020    86.4290    74.3530    69.0440    24.2590   -28.7580 
  215.2500     2.2420    69.7580    86.6880    74.0870    66.3720    23.9960   -28.8090 
  215.3750     2.2390    69.3240    89.3100    76.0890    66.2900    23.9330   -28.8680 
  215.5000     2.2330    68.4300    93.6760    79.7940    69.9950    24.1510   -28.9240 
  215.6250     2.2270    68.1500    99.3540    84.7750    79.6600    24.4220   -28.8730 
  215.7500     2.2260    68.9350   105.5880    90.2870    90.8970    24.5290   -28.7050 
  215.8750     2.2380    70.2700   111.8060    95.8110   100.8930    24.5470   -28.3580 
  216.0000     2.2620    71.0390   117.2800   100.7340   110.1170    24.5220   -27.8750 
  216.1250     2.2910    69.8850   120.7530   104.0410   111.9760    24.4390   -27.1990 
  216.2500     2.3130    69.5390   121.6820   105.3050   113.2130    24.3320   -26.4160 
  216.3750     2.3180    71.6270   119.7550   104.2720   117.0120    24.3180   -25.5550 
  216.5000     2.3080    75.3150   115.1970   101.0950   123.2960    24.3750   -24.6580 
  216.6250     2.2890    76.8400   108.6480    96.2190   109.6520    24.3940   -23.7380 
  216.7500     2.2700    73.7320   101.6330    90.8520   100.8250    24.3630   -22.8880 
  216.8750     2.2580    67.4610    95.1030    85.7940    94.1660    24.2970   -22.1340 
  217.0000     2.2500    62.6780    89.8730    81.7670    87.5150    24.2440   -21.4600 
  217.1250     2.2430    62.9360    87.7050    80.2180    86.2340    24.2280   -20.8650 
  217.2500     2.2360    65.7800    89.9190    82.2870    85.4970    24.1920   -20.3400 
  217.3750     2.2290    67.3710    97.2540    88.8320    88.9370    24.1550   -19.8520 
