~V
VERS. 2.00: Ver 2.00
~W
STRT.M 59.0000:
STOP.M 281.0000:
STEP.M 0.1250:
NULL. -999.2500:
UWI. DF3005:
~C
DEPT.M :
DEN.GM/CC :
SP.MV :
AC.US/MT :
GR.API :
CALI.CM :
RXO.OHMM :
RI. :
RML.OHMM :
~A
# ...
   89.0000     2.2120   -31.3570  -999.2500    62.6130    26.0550    18.9720     9.8950    14.2630 
   89.1250     2.2040   -30.6330  -999.2500    62.9400    26.2990    18.4970     9.7730    13.9880 
   89.2500     2.1980   -29.8970  -999.2500    65.3650    26.5330    20.7130     9.5380    13.3850 
   89.3750     2.1960   -29.1350  -999.2500    70.0450    26.6460    22.8440     9.2380    12.6880 
   89.5000     2.1910   -28.3440  -999.2500    75.4950    26.5830    23.5340     8.9150    12.1040 
   89.6250     2.1780   -27.5250  -999.2500    78.6740    26.3650    21.2530     8.6120    11.7410 
   89.7500     2.1670   -26.6810  -999.2500    78.4310    26.1430    20.3930     8.3740    11.5230 
   89.8750     2.1760   -25.8170  -999.2500    74.4200    26.0380    18.5690     8.2370    11.3990 
   90.0000     2.2170   -24.9080  -999.2500    69.4790    26.1020    20.0630     8.2180    11.3680 
   90.1250     2.2720   -23.9040  -999.2500    69.3900    26.2730    20.7950     8.3210    11.4580 
   90.2500     2.3000   -22.8160  -999.2500    73.6850    26.4100    23.1030     8.4780    11.5860 
   90.3750     2.2820   -21.6570  -999.2500    76.1330    26.4580    25.3190     8.5910    11.6020 
   90.5000     2.2380   -20.4700  -999.2500    73.0740    26.4390    22.9640     8.5470    11.3430 
   90.6250     2.2080   -19.2930  -999.2500    70.1180    26.4360    16.5340     8.2290    10.6820 
   90.7500     2.2040   -18.1310  -999.2500    72.1780    26.4920    12.2840     7.6990     9.7770 
   90.8750     2.2120   -17.0010  -999.2500    78.0060    26.5810    10.3890     7.0520     8.7940 
   91.0000     2.2190   -15.9040  -999.2500    85.0070    26.6510     9.2280     6.3970     7.8810 
   91.1250     2.2320   -14.8550  -999.2500    89.4480    26.6520     8.9410     5.8270     7.1470 
   91.2500     2.2560   -13.8780  -999.2500    91.4150    26.6140     9.3200     5.3530     6.5770 
   91.3750     2.2820   -13.0000  -999.2500    93.9140    26.5910     9.0360     4.9660     6.1460 
   91.5000     2.2960   -12.2680  -999.2500    98.5890    26.6130     7.9950     4.6600     5.8140 
   91.6250     2.2930   -11.7340  -999.2500   101.4700    26.6610     5.9690     4.4470     5.5640 
   91.7500     2.2920   -11.3360  -999.2500   100.6210    26.6890     5.5910     4.3140     5.3710 
   91.8750     2.3010   -11.0440  -999.2500    99.1750    26.7000     5.5820     4.2470     5.2250 
   92.0000     2.3150   -10.8220  -999.2500    99.0760    26.7180     5.6770     4.2260     5.1310 
   92.1250     2.3180   -10.6810  -999.2500   100.5290    26.7410     5.7440     4.2240     5.1290 
   92.2500     2.3170   -10.6030  -999.2500   103.3720    26.7430     6.6940     4.2090     5.1980 
   92.3750     2.3230   -10.5650  -999.2500   105.4340    26.7240     8.1480     4.1570     5.2770 
   92.5000     2.3420   -10.5620  -999.2500   104.4960    26.6890     8.6740     4.0570     5.2710 
   92.6250     2.3640   -10.5850  -999.2500   102.2940    26.6330     7.5120     3.9120     5.1020 
   92.7500     2.3790   -10.6370  -999.2500   100.7070    26.5570     7.5490     3.7630     4.8680 
   92.8750     2.3800   -10.7180  -999.2500   100.8570    26.4840     8.2330     3.6470     4.6930 
   93.0000     2.3710   -10.8220  -999.2500   102.2170    26.4380     8.4740     3.5800     4.6430 
   93.1250     2.3520   -10.9710  -999.2500   101.6090    26.4170     8.0130     3.5450     4.6760 
   93.2500     2.3350   -11.1510  -999.2500    99.8180    26.3830     8.1720     3.5400     4.7090 
   93.3750     2.3300   -11.3620  -999.2500   102.4080    26.3170     8.1950     3.6260     4.8280 
   93.5000     2.3450   -11.5970  -999.2500   111.1030    26.2440     7.8450     3.8990     5.2310 
   93.6250     2.3650   -11.8410  -999.2500   117.2820    26.2090     8.3530     4.5010     6.1990 
   93.7500     2.3630   -12.0920  -999.2500   114.5360    26.1810    12.5340     5.3970     7.6400 
   93.8750     2.3310   -12.3310  -999.2500   105.3760    26.1080    21.9240     6.4300     9.2090 
   94.0000     2.2930   -12.5540  -999.2500    93.1700    25.9800    26.2760     7.2470    10.2420 
   94.1250     2.2830   -12.7680  -999.2500    83.7340    25.8630    18.9980     7.3420     9.9410 
   94.2500     2.2910   -12.9660  -999.2500    80.3630    25.8450    11.7990     6.8370     8.7550 
   94.3750     2.2910   -13.1060  -999.2500    82.7920    25.9810     8.4480     6.0890     7.4240 
   94.5000     2.2730   -13.0930  -999.2500    88.9820    26.2340     7.9600     5.4370     6.4870 
   94.6250     2.2540   -12.8460  -999.2500    93.2520    26.4550     8.8640     5.0990     6.1750 
   94.7500     2.2550   -12.4610  -999.2500    92.4130    26.5510     8.7150     5.0160     6.2370 
   94.8750     2.2740   -12.0510  -999.2500    88.5750    26.5580     7.4500     5.0710     6.4050 
   95.0000     2.3010   -11.7260  -999.2500    86.0770    26.5720     7.0750     5.1090     6.4300 
   95.1250     2.3210   -11.5330  -999.2500    87.9670    26.6420     7.9400     4.9850     6.1730 
   95.2500     2.3270   -11.4300  -999.2500    91.8300    26.7300     7.4160     4.7260     5.7890 
   95.3750     2.3200   -11.4020  -999.2500    94.4880    26.8080     5.6390     4.4330     5.4650 
   95.5000     2.3040   -11.4320  -999.2500    93.4310    26.8640     4.5580     4.2160     5.3440 
   95.6250     2.2870   -11.5090  -999.2500    92.2330    26.8850     4.2960     4.1770     5.5040 
   95.7500     2.2720   -11.5910  -999.2500    92.6730    26.8500     4.7680     4.2990     5.8390 
   95.8750     2.2590   -11.6640  -999.2500    92.0790    26.7650     5.5490     4.5490     6.2520 
   96.0000     2.2550   -11.7600  -999.2500    87.3070    26.6680     6.5140     4.8770     6.6800 
   96.1250     2.2780   -11.9140  -999.2500    81.1480    26.6050     7.8010     5.2300     7.0840 
   96.2500     2.3290   -12.1030  -999.2500    78.6990    26.5740     8.4640     5.5530     7.4470 
   96.3750     2.3930   -12.2780  -999.2500    80.4550    26.5640     8.6500     5.8070     7.7490 
   96.5000     2.4310   -12.3800  -999.2500    83.4640    26.5700    12.6950     5.9710     7.9540 
   96.6250     2.4070   -12.3890  -999.2500    82.0320    26.5920    14.7780     6.0000     7.9790 
   96.7500     2.3480   -12.3370  -999.2500    77.2370    26.6150    12.0160     5.8920     7.8170 
   96.8750     2.2950   -12.2530  -999.2500    74.8430    26.6280     7.2970     5.6600     7.4920 
   97.0000     2.2730   -12.1660  -999.2500    77.0740    26.6290     6.6770     5.3410     7.0540 
   97.1250     2.2870   -12.0920   442.8490    82.4630    26.6270     6.9640     4.9950     6.5850 
   97.2500     2.3110   -12.0480   442.8490    86.2570    26.6280     6.4560     4.7200     6.2470 
   97.3750     2.3340   -12.0270   442.8490    87.7190    26.6300     5.6850     4.6110     6.1880 
   97.5000     2.3590   -12.0160   436.9300    88.8920    26.6310     5.4700     4.7390     6.4920 
   97.6250     2.4020   -12.0310   406.4280    89.7150    26.6190     6.2540     5.1540     7.1770 
   97.7500     2.4530   -12.0810   358.0090    88.4370    26.5930     8.3970     5.7360     8.0040 
   97.8750     2.4850   -12.1880   318.4470    84.9180    26.5670    11.8890     6.3010     8.6520 
   98.0000     2.4720   -12.3520   317.0890    80.5490    26.5540    13.5150     6.5960     8.7870 
   98.1250     2.4180   -12.5690   362.4910    80.4120    26.5570    10.3430     6.4450     8.2920 
   98.2500     2.3650   -12.8170   409.5070    83.1270    26.5600     7.1420     6.0860     7.6270 
   98.3750     2.3470   -13.0890   422.0260    85.6500    26.5620     6.6280     5.7450     7.1250 
   98.5000     2.3620   -13.4070   397.5160    86.9000    26.5610     7.1520     5.5480     6.9130 
   98.6250     2.3830   -13.7840   368.0690    86.2980    26.5590     9.7910     5.5340     6.9620 
   98.7500     2.3820   -14.1950   366.8090    83.8350    26.5580    12.1600     5.5940     7.0650 
   98.8750     2.3590   -14.6280   391.4760    81.2680    26.5560    10.8920     5.6250     7.0950 
