~V
VERS. 2.00: Ver 2.00
~W
STRT.M 110.0000:
STOP.M 242.0000:
STEP.M 0.1250:
NULL. -999.2500:
UWI. DF306:
~C
DEPT.M :
DEN.GM/CC :
AC.US/MT :
GR.API :
CALI.CM :
RXO.OHMM :
RI. :
RML.OHMM :
SP.MV :
~A
# ...
  200.0000     2.3380   399.3620    61.2120    25.1390     7.6320     6.9710     8.6040   -18.2300 
  200.1250     2.3330   398.7820    67.0270    25.0680     6.6760     6.6850     7.9440   -18.0700 
  200.2500     2.3370   398.8210    71.1330    25.0340     6.1030     6.3430     7.3260   -17.8500 
  200.3750     2.3580   397.4480    77.9920    25.0720     5.9600     6.0850     6.9770   -17.5720 
  200.5000     2.3870   393.4760    87.6600    25.1480     6.1570     5.9940     6.9700   -17.2640 
  200.6250     2.4120   386.6000    94.9300    25.1920     6.5690     6.1050     7.2850   -16.9630 
  200.7500     2.4300   377.3940    96.9450    25.1960     7.0420     6.3360     7.7320   -16.6840 
  200.8750     2.4480   367.9460    95.0190    25.1910     7.5440     6.6160     8.1660   -16.4110 
  201.0000     2.4620   359.9680    92.1300    25.1840     8.0220     6.8670     8.4690   -16.1550 
  201.1250     2.4680   354.7660    90.2310    25.1330     8.3300     7.0160     8.5610   -15.9130 
  201.2500     2.4660   353.3170    91.2270    25.0300     8.4870     7.0720     8.5170   -15.6960 
  201.3750     2.4620   354.4430    94.3690    24.9260     8.5750     7.0730     8.4220   -15.4980 
  201.5000     2.4590   356.9340    95.8960    24.8700     8.5670     7.0620     8.3510   -15.3170 
  201.6250     2.4560   359.3630    93.5130    24.8780     8.4260     7.0590     8.3280   -15.1260 
  201.7500     2.4570   360.3520    91.4550    24.9180     8.2820     7.0390     8.2690   -14.9200 
  201.8750     2.4630   360.1300    94.0150    24.9620     8.0980     6.9420     8.0600   -14.7060 
  202.0000     2.4700   359.7660    98.4020    24.9660     7.6550     6.7160     7.6230   -14.4860 
  202.1250     2.4680   360.5310   100.0470    24.9010     6.8070     6.3360     6.9550   -14.2740 
  202.2500     2.4480   363.4650    99.5950    24.8290     5.8770     5.8870     6.2310   -14.0620 
  202.3750     2.4170   368.1490    98.5980    24.7800     5.1480     5.4520     5.5880   -13.8800 
  202.5000     2.3860   374.1930    97.4210    24.7420     4.7290     5.0890     5.1010   -13.7360 
  202.6250     2.3630   381.2480    95.3800    24.7070     4.5890     4.8480     4.8070   -13.6610 
  202.7500     2.3560   388.7190    94.7360    24.6910     4.5540     4.7160     4.6600   -13.6480 
  202.8750     2.3670   395.0980    95.6420    24.7010     4.5490     4.6830     4.6520   -13.6820 
  203.0000     2.3940   398.4740    93.9660    24.7360     4.5840     4.7420     4.7870   -13.7510 
  203.1250     2.4270   397.1870    87.1510    24.7840     4.8070     4.9060     5.1070   -13.8070 
  203.2500     2.4510   389.8010    80.4700    24.8140     5.2920     5.1710     5.5890   -13.8460 
  203.3750     2.4650   377.9880    77.7130    24.8160     6.0460     5.5330     6.2010   -13.8510 
  203.5000     2.4790   362.3400    77.7450    24.8050     7.0440     5.9520     6.8520   -13.8130 
  203.6250     2.4940   344.7900    77.3110    24.7990     8.2720     6.3240     7.3590   -13.7090 
  203.7500     2.4910   330.9120    77.9610    24.8030     9.2860     6.5730     7.6280   -13.5530 
  203.8750     2.4680   323.7260    82.2940    24.8020     9.4350     6.7040     7.7000   -13.3830 
  204.0000     2.4390   320.8510    88.6260    24.7910     8.7740     6.7940     7.7440   -13.2050 
  204.1250     2.4260   316.6990    90.5490    24.7870     8.8860     6.9920     8.0380   -13.0520 
  204.2500     2.4400   306.4920    88.2380    24.7990    10.7630     7.3760     8.6950   -12.9160 
  204.3750     2.4640   291.8070    87.1800    24.8070    13.2560     7.9540     9.6870   -12.7940 
  204.5000     2.4820   275.8500    89.2200    24.7930    14.4390     8.6540    10.8260   -12.6750 
  204.6250     2.4820   262.5870    88.8070    24.7730    13.9900     9.3160    11.7700   -12.5890 
  204.7500     2.4700   255.6830    86.9820    24.7610    13.5570     9.7990    12.3260   -12.5250 
  204.8750     2.4650   254.0080    86.9810    24.7620    13.5310    10.0650    12.5200   -12.4510 
  205.0000     2.4710   255.3850    88.1300    24.7790    13.7870    10.1830    12.5390   -12.3820 
  205.1250     2.4820   257.2600    87.5190    24.7970    14.2910    10.2550    12.5850   -12.3080 
  205.2500     2.4880   257.5400    84.9460    24.8100    14.3760    10.3340    12.6810   -12.2500 
  205.3750     2.4890   256.3440    82.1020    24.8510    13.5860    10.3990    12.7660   -12.1980 
  205.5000     2.4890   254.7590    81.9490    24.9170    12.3500    10.4330    12.8120   -12.1700 
  205.6250     2.4930   253.8630    86.7000    24.9270    11.5500    10.4480    12.8540   -12.1490 
  205.7500     2.5020   253.8160    91.0930    24.8540    11.2990    10.4780    12.9300   -12.1310 
  205.8750     2.5090   253.6030    90.4430    24.7540    11.3920    10.5390    13.0450   -12.1260 
  206.0000     2.5130   252.7740    86.8090    24.7000    11.6120    10.6240    13.1700   -12.1110 
  206.1250     2.5100   251.7460    84.6470    24.7100    11.7120    10.6880    13.2330   -12.0970 
  206.2500     2.5010   251.5160    83.3300    24.7330    11.5630    10.6770    13.1840   -12.0560 
  206.3750     2.4940   252.3020    82.0370    24.7610    11.0970    10.5590    12.9910   -11.9960 
  206.5000     2.5000   253.7400    81.0270    24.8010    10.3430    10.3440    12.6640   -11.9130 
  206.6250     2.5140   255.4180    80.5490    24.8430     9.7920    10.0810    12.2720   -11.8220 
  206.7500     2.5210   257.6560    81.5500    24.8520     9.9440     9.8490    11.9340   -11.7250 
  206.8750     2.5120   261.1750    83.7610    24.8320    10.5680     9.6950    11.7240   -11.6200 
  207.0000     2.4890   266.1980    84.6900    24.8150    10.8530     9.6320    11.6580   -11.5180 
  207.1250     2.4660   271.7220    81.7110    24.8090    10.2590     9.6510    11.7010   -11.4200 
  207.2500     2.4630   275.1850    78.9420    24.8120     9.4930     9.7010    11.7590   -11.3350 
  207.3750     2.4790   275.1800    78.8860    24.8160     9.1920     9.7530    11.7840   -11.2580 
  207.5000     2.5030   272.0420    80.9670    24.8120     9.4020     9.7880    11.7630   -11.2000 
  207.6250     2.5170   267.8060    83.7330    24.7900     9.5590     9.7900    11.7020   -11.1310 
  207.7500     2.5180   265.5710    85.7540    24.7440     9.1730     9.7640    11.6270   -11.0680 
  207.8750     2.5140   266.1120    85.5630    24.6530     8.2460     9.7280    11.5670   -11.0100 
  208.0000     2.5060   267.9050    84.1000    24.5420     7.0900     9.7150    11.5670   -10.9580 
  208.1250     2.4930   268.1860    82.2530    24.5280     6.2460     9.7820    11.7130   -10.9220 
  208.2500     2.4770   264.1720    79.9690    24.6180     6.0550     9.9570    12.0330   -10.8960 
  208.3750     2.4620   256.8960    79.6340    24.7170     6.4430    10.2480    12.5280   -10.8830 
  208.5000     2.4500   248.5370    82.1090    24.7510     6.9600    10.6350    13.1420   -10.8740 
  208.6250     2.4440   241.3470    82.7140    24.7470     7.1620    11.0640    13.7510   -10.8820 
  208.7500     2.4530   236.7660    80.5650    24.7460     7.2000    11.4500    14.2280   -10.9050 
  208.8750     2.4790   233.9240    81.0470    24.7410     7.2760    11.7450    14.5280   -10.9330 
  209.0000     2.5120   231.9860    86.5040    24.7250     7.5100    11.9440    14.7010   -10.9650 
  209.1250     2.5360   230.5210    90.2280    24.6870     8.5230    12.1000    14.8820   -10.9730 
  209.2500     2.5420   229.5150    88.9800    24.6410    11.0540    12.3020    15.1860   -10.9760 
  209.3750     2.5440   228.6300    87.5950    24.6200    15.2620    12.5980    15.6450   -10.9830 
  209.5000     2.5470   227.3030    89.6320    24.6280    20.4720    12.9960    16.2220   -10.9870 
  209.6250     2.5480   225.0770    92.2810    24.6380    25.4480    13.4410    16.8000   -10.9820 
  209.7500     2.5390   222.1430    90.0030    24.6390    28.8880    13.8160    17.2220   -10.9510 
  209.8750     2.5320   219.8330    84.2050    24.6470    29.1160    14.0230    17.3680   -10.9030 
