~V
VERS. 2.00: Ver 2.00
~W
STRT.M 110.0000:
STOP.M 277.0000:
STEP.M 0.1250:
NULL. -999.2500:
UWI. DF3015:
~C
DEPT.M :
DEN.GM/CC :
SP.MV :
AC.US/MT :
GR.API :
CALI.CM :
RXO.OHMM :
RI. :
RML.OHMM :
~A
# ...
  210.0000     2.2050   -19.1010   407.0990    61.9720    25.1490    84.1210    89.5170    89.6660 
  210.1250     2.2070   -19.1480   407.6430    63.7050    25.1490    82.8920    85.0800    84.6450 
  210.2500     2.2170   -19.2150   407.2670    66.0540    25.1490    85.0660    79.2060    78.3930 
  210.3750     2.2260   -19.2720   406.2360    67.3190    25.1470    81.2970    72.9050    71.9840 
  210.5000     2.2280   -19.3090   405.0210    66.3370    25.1430    69.8990    67.2270    66.4340 
  210.6250     2.2200   -19.3710   404.1820    64.7810    25.1410    57.1460    63.3700    62.9250 
  210.7500     2.2030   -19.4640   403.8120    64.4500    25.1410    51.4070    61.7010    61.7640 
  210.8750     2.1780   -19.6210   403.7210    65.3200    25.1410    52.2590    62.4750    63.1620 
  211.0000     2.1520   -19.8190   403.6950    64.9230    25.1300    56.5710    65.5610    66.9280 
  211.1250     2.1430   -20.0120   403.7610    62.8750    25.0360    59.6370    70.3430    72.3430 
  211.2500     2.1590   -20.1980   404.0480    61.2560    24.7920    59.8390    74.9980    77.4280 
  211.3750     2.1900   -20.3740   404.4990    62.4870    24.4250    56.9610    77.8590    80.3230 
  211.5000     2.2170   -20.5510   404.8920    67.0150    24.1010    52.1830    77.7210    79.7480 
  211.6250     2.2220   -20.6610   404.4070    73.0110    23.9860    47.9870    74.2090    75.5380 
  211.7500     2.2130   -20.7150   401.7340    76.2450    23.9620    43.3990    69.2720    70.0520 
  211.8750     2.2090   -20.6730   396.0600    74.6890    23.9620    38.8130    64.4110    64.9380 
  212.0000     2.2200   -20.5370   388.0130    71.5690    23.9690    36.2640    60.5870    61.1190 
  212.1250     2.2450   -20.3090   380.3950    68.7940    24.0180    38.8430    58.3150    59.0150 
  212.2500     2.2650   -20.0310   376.2300    67.4150    24.1290    44.8800    57.1980    58.0910 
  212.3750     2.2650   -19.7270   376.5490    66.7190    24.3220    48.4980    56.9750    58.0160 
  212.5000     2.2430   -19.4100   380.3920    64.2600    24.6240    47.1630    57.3980    58.4960 
  212.6250     2.2160   -19.1150   385.6110    60.6360    25.0200    45.2170    58.0870    59.1090 
  212.7500     2.2040   -18.8160   390.5390    59.3140    25.2350    48.5030    58.3600    59.1960 
  212.8750     2.2070   -18.5230   395.2380    64.1830    25.2990    54.5250    57.6210    58.1790 
  213.0000     2.2180   -18.2630   399.8520    70.4590    25.3030    57.3870    55.5490    55.7740 
  213.1250     2.2310   -18.0850   403.7980    74.1630    25.3030    51.2860    52.2640    52.2010 
  213.2500     2.2420   -17.9510   406.3380    74.5480    25.3030    42.2800    48.8410    48.6650 
  213.3750     2.2440   -17.8770   407.1940    71.9530    25.3010    37.1210    46.2230    46.2020 
  213.5000     2.2380   -17.8600   406.7680    67.8350    25.2980    36.6960    45.1460    45.5580 
  213.6250     2.2300   -17.8750   405.7960    63.9010    25.2990    38.7200    46.3300    47.4140 
  213.7500     2.2270   -17.9300   405.0650    62.4350    25.3000    42.4160    49.4220    51.2640 
  213.8750     2.2250   -18.0260   404.8420    65.2900    25.2980    48.1420    54.0070    56.5910 
  214.0000     2.2170   -18.1620   405.1220    68.7130    25.2950    55.0060    59.3810    62.6320 
  214.1250     2.2070   -18.3210   405.6450    69.6280    25.2840    61.8690    64.6250    68.4330 
  214.2500     2.2020   -18.5170   405.9170    66.7230    25.2580    67.3230    69.0400    73.3200 
  214.3750     2.2030   -18.7090   405.4880    63.9840    25.2330    71.3570    72.3470    77.0390 
  214.5000     2.2040   -18.8870   403.4270    65.6050    25.2220    75.0550    74.7480    79.8480 
  214.6250     2.1960   -19.0510   396.4480    68.8490    25.2220    77.8500    77.0880    82.7170 
  214.7500     2.1860   -19.2390   383.0240    68.0550    25.2220    79.1450    80.5000    86.8750 
  214.8750     2.1950   -19.4220   364.2450    62.4990    25.2220    80.5900    85.8400    93.2440 
  215.0000     2.2390   -19.5840   345.3740    58.3100    25.2220    88.3050    93.5900   102.3300 
  215.1250     2.3060   -19.7290   336.3610    56.6440    25.2220   109.6600   103.7770   114.0760 
  215.2500     2.3510   -19.8490   340.6750    57.2130    25.2220   138.2470   114.3790   126.0340 
  215.3750     2.3470   -19.9750   355.9500    61.0650    25.2220   153.5050   122.5600   134.7230 
  215.5000     2.2990   -20.1010   375.0390    65.0470    25.2220   148.2790   124.9820   136.1980 
  215.6250     2.2420   -20.2690   388.9480    64.7670    25.2220   133.5960   118.3850   127.1500 
  215.7500     2.2110   -20.3860   395.0880    61.1970    25.2220   118.4270   105.6200   111.7360 
  215.8750     2.2120   -20.4680   394.7140    61.3850    25.2220    98.2010    90.1170    94.2240 
  216.0000     2.2330   -20.5100   390.6970    66.2640    25.2220    74.9900    75.0150    77.9510 
  216.1250     2.2560   -20.5150   385.8730    69.7820    25.2210    56.3070    62.7880    65.2910 
  216.2500     2.2760   -20.4940   382.4320    68.9580    25.2190    43.5340    53.7460    56.2110 
  216.3750     2.2910   -20.4260   381.6460    68.2920    25.2200    35.1360    47.8420    50.5300 
  216.5000     2.2880   -20.3020   383.8560    69.8090    25.2210    31.1230    44.7930    47.8830 
  216.6250     2.2560   -20.1530   388.4690    69.3630    25.2210    32.0940    44.5650    48.1870 
  216.7500     2.2230   -20.0140   393.3960    64.9870    25.2170    37.3900    46.1830    50.3770 
  216.8750     2.2170   -19.9000   397.2580    61.2210    25.2140    44.6740    48.9690    53.7070 
  217.0000     2.2390   -19.8530   399.3990    61.9410    25.2130    49.0440    52.1400    57.3270 
  217.1250     2.2580   -19.8850   399.8090    64.3240    25.2130    49.8740    54.8180    60.2840 
  217.2500     2.2590   -19.9500   399.4950    65.7830    25.2130    49.7730    56.5990    62.2190 
  217.3750     2.2450   -20.0360   399.0890    65.7390    25.2110    50.0760    57.5360    63.3000 
  217.5000     2.2300   -20.1480   398.9150    65.6020    25.1810    50.7980    58.0040    64.0430 
  217.6250     2.2200   -20.2440   398.8720    66.5230    25.0910    52.3960    58.4200    64.9690 
  217.7500     2.2160   -20.3730   398.5540    67.5070    24.9760    54.2180    58.9170    66.1210 
  217.8750     2.2160   -20.5370   397.6760    67.2900    24.9170    55.5310    59.3680    67.2770 
  218.0000     2.2190   -20.6850   396.0620    66.3120    24.9040    56.1270    59.6120    68.1850 
  218.1250     2.2280   -20.8110   393.6480    65.8840    24.9010    56.4240    59.5600    68.6760 
  218.2500     2.2450   -20.9400   391.0330    67.4990    24.8970    55.8470    59.4260    68.9960 
  218.3750     2.2650   -21.0740   389.0670    69.2290    24.8970    54.5220    59.5200    69.5270 
  218.5000     2.2760   -21.2010   388.5860    68.6820    24.8970    53.8000    60.1920    70.7050 
  218.6250     2.2710   -21.3440   390.0760    65.7600    24.8990    58.1320    61.8580    73.0280 
  218.7500     2.2600   -21.4700   392.4820    63.8270    24.8970    64.1320    64.3600    76.3110 
  218.8750     2.2510   -21.5500   394.7190    65.5990    24.8960    68.6310    67.3840    80.1710 
  219.0000     2.2460   -21.6110   396.0900    67.0250    24.8960    70.5750    70.4160    83.9660 
  219.1250     2.2410   -21.6680   396.4060    65.4230    24.8960    71.0040    72.6670    86.6390 
  219.2500     2.2360   -21.7150   395.9890    63.8730    24.8910    71.6820    73.6980    87.5930 
  219.3750     2.2380   -21.7670   394.6100    65.8090    24.8610    70.7150    73.3420    86.6220 
  219.5000     2.2460   -21.8260   391.7930    67.7540    24.7710    66.4580    71.7780    84.0400 
  219.6250     2.2540   -21.8440   387.2760    66.9140    24.6150    59.5060    69.4320    80.5230 
  219.7500     2.2560   -21.8290   382.0620    64.7080    24.4660    53.0230    67.0860    77.0930 
  219.8750     2.2600   -21.7990   376.9910    64.8680    24.3790    47.4440    65.3080    74.4230 
