~V
VERS. 2.00: Ver 2.00
~W
STRT.M 125.0000:
STOP.M 245.0000:
STEP.M 0.1250:
NULL. -999.2500:
UWI. DF3026:
~C
DEPT.M :
SP.MV :
GR.API :
CALI.CM :
RXO.OHMM :
RI. :
RML.OHMM :
DEN.GM/CC :
~A
# ...
  170.0000   -31.4150    66.5330    29.1370    62.0320    69.5850    73.3450     2.2870 
  170.1250   -31.4350    60.8520    29.1260    53.7640    59.3070    62.9970     2.2930 
  170.2500   -31.4520    63.2500    29.1490    42.4570    51.4860    54.8900     2.3060 
  170.3750   -31.4780    66.9840    29.2340    34.3480    47.6860    50.7320     2.3190 
  170.5000   -31.5190    65.3550    29.3920    33.3480    48.4330    51.1980     2.3220 
  170.6250   -31.5750    59.3050    29.5050    44.0900    54.6530    57.4150     2.3110 
  170.7500   -31.6500    55.7880    29.5610    60.2680    65.3670    68.3820     2.2910 
  170.8750   -31.7290    54.7130    29.5730    74.7840    79.4780    82.7620     2.2710 
  171.0000   -31.8240    56.2660    29.5670    81.6980    94.1610    97.4560     2.2550 
  171.1250   -31.9320    59.0970    29.5600    81.2980   103.3830   106.6500     2.2480 
  171.2500   -32.0460    60.0650    29.5550    78.8110   104.0590   107.7350     2.2470 
  171.3750   -32.1610    58.6890    29.5500    76.2210    97.4050   101.6440     2.2510 
  171.5000   -32.2750    57.0220    29.5470    74.5710    87.5730    91.9410     2.2620 
  171.6250   -32.3820    57.2320    29.5460    71.8860    78.9490    82.8560     2.2780 
  171.7500   -32.4860    57.8300    29.5620    67.8850    73.7390    77.0040     2.2890 
  171.8750   -32.5980    58.8110    29.6330    65.5640    72.9390    75.6540     2.2890 
  172.0000   -32.7200    59.3250    29.8090    69.9800    76.9750    79.3210     2.2780 
  172.1250   -32.8530    57.4770    30.0000    80.7020    86.5770    88.4550     2.2660 
  172.2500   -32.9830    54.8160    30.1770    89.3630    99.8450   101.5410     2.2580 
  172.3750   -33.0940    52.4870    30.3160    92.3290   114.5120   117.6370     2.2550 
  172.5000   -33.2020    51.1590    30.4030    89.8290   129.1710   133.8210     2.2520 
  172.6250   -33.3170    50.6620    30.4710    91.2910   141.8090   147.5250     2.2490 
  172.7500   -33.4250    50.8530    30.5190   103.0570   151.6920   158.0970     2.2470 
  172.8750   -33.5100    51.4280    30.5530   118.8340   157.5080   164.4420     2.2430 
  173.0000   -33.5620    51.0640    30.5660   126.9520   157.4280   164.4960     2.2330 
  173.1250   -33.6030    50.1060    30.5660   119.7390   150.1790   156.7030     2.2240 
  173.2500   -33.6380    49.5180    30.5660   104.5250   139.8130   145.7810     2.2250 
  173.3750   -33.6960    49.5930    30.5660    87.4080   130.2080   136.0730     2.2360 
  173.5000   -33.7570    51.8160    30.5660    76.7220   124.2850   130.5070     2.2500 
  173.6250   -33.8210    55.6600    30.5660    79.8750   123.9860   130.9340     2.2560 
  173.7500   -33.8700    55.8990    30.5610    90.4800   127.8890   135.8660     2.2550 
  173.8750   -33.9280    52.4310    30.5420   101.6860   134.6220   143.8550     2.2500 
  174.0000   -33.9950    49.8470    30.4990   108.2600   142.3790   152.8080     2.2470 
  174.1250   -34.0560    51.1620    30.4770   111.5690   148.4330   159.3730     2.2440 
  174.2500   -34.1140    52.4570    30.4660   117.3480   150.6720   161.0490     2.2370 
  174.3750   -34.1630    52.8280    30.4500   123.8440   148.1760   156.9190     2.2220 
  174.5000   -34.2090    52.3200    30.4040   120.3300   141.7240   148.2760     2.2080 
  174.6250   -34.2380    50.7010    30.2700    99.4800   135.7960   135.8390     2.2020 
  174.7500   -34.2880    50.8110    29.9890    75.7180   127.3970   128.6160     2.2000 
  174.8750   -34.3290    54.0850    29.6330    61.0880   121.5640   123.5360     2.1950 
  175.0000   -34.3740    57.6030    29.3360    57.1000   117.6830   120.1250     2.1880 
  175.1250   -34.4120    57.3000    29.1340    59.8370   113.5730   116.3970     2.1910 
  175.2500   -34.4410    55.6110    28.9640    62.3030   107.2370   110.5320     2.2040 
  175.3750   -34.4420    55.7610    28.7890    60.3370    98.4480   102.2730     2.2230 
  175.5000   -34.4160    57.7230    28.5790    53.3660    88.5650    92.7870     2.2380 
  175.6250   -34.3960    59.7030    28.2820    46.2880    79.8930    84.1660     2.2450 
  175.7500   -34.3550    60.5700    28.0480    43.0540    73.5630    77.6470     2.2440 
  175.8750   -34.3140    61.4040    27.8840    42.8630    69.7670    73.5900     2.2390 
  176.0000   -34.2640    62.1780    27.7860    42.7730    68.2710    71.8930     2.2340 
  176.1250   -34.2180    63.1890    27.7580    41.1350    69.0800    72.6700     2.2330 
  176.2500   -34.1810    63.8080    27.7530    39.4580    71.6370    75.3710     2.2320 
  176.3750   -34.1770    62.4250    27.7720    39.5580    75.7580    79.7980     2.2270 
  176.5000   -34.1910    59.4150    27.8430    43.7350    81.0540    85.4800     2.2220 
  176.6250   -34.2150    57.3830    27.9940    52.0580    86.4190    91.2000     2.2200 
  176.7500   -34.2480    57.4400    28.1460    58.3050    90.1310    95.2360     2.2240 
  176.8750   -34.2910    59.1340    28.1920    57.9170    91.0080    96.4170     2.2300 
  177.0000   -34.3550    61.0590    28.1040    52.7140    89.0400    94.6530     2.2330 
  177.1250   -34.4250    60.1290    27.9480    51.0120    85.5160    91.0800     2.2290 
  177.2500   -34.5080    56.9770    27.9380    53.8420    82.5220    87.8440     2.2230 
  177.3750   -34.5900    54.9880    28.0260    57.3330    81.0090    86.0290     2.2240 
  177.5000   -34.6790    54.8160    28.0940    58.4850    81.1740    85.9530     2.2360 
  177.6250   -34.7470    54.3050    28.1120    55.9920    82.9500    87.6230     2.2520 
  177.7500   -34.8220    53.5260    28.1200    52.4380    85.5760    90.2380     2.2550 
  177.8750   -34.9010    53.6030    28.2350    49.8510    88.4720    93.1640     2.2330 
  178.0000   -34.9590    53.2810    28.5990    51.2010    91.1370    95.8470     2.1930 
  178.1250   -34.9910    51.7720    29.1200    58.9410    93.2870    97.9370     2.1580 
  178.2500   -35.0170    52.0260    29.0230    66.0740    95.1730    99.7030     2.1450 
  178.3750   -35.0340    54.7100    28.3120    66.9270    97.2570   101.6840     2.1590 
  178.5000   -35.0630    57.3020    27.5980    64.6590   100.1430   104.5900     2.1880 
  178.6250   -35.0960    56.4180    27.2520    67.5430   104.6070   109.2930     2.2160 
  178.7500   -35.1330    55.1470    27.0490    73.8040   110.6660   115.7520     2.2340 
  178.8750   -35.1560    57.5140    26.7580    81.6420   118.2810   123.8350     2.2450 
  179.0000   -35.1850    61.0870    26.5010    93.1930   127.1040   133.0400     2.2520 
  179.1250   -35.2140    60.7950    26.3710   112.2160   136.2620   142.3040     2.2440 
  179.2500   -35.2340    61.5740    26.3370   128.5590   144.4620   150.3490     2.2130 
  179.3750   -35.2350    65.6160    26.3290   139.8130   150.5780   156.1040     2.1760 
  179.5000   -35.2030    68.1140    26.3290   141.3610   153.5310   158.5730     2.1610 
  179.6250   -35.1600    63.0670    26.2080   128.4220   151.8040   156.3370     2.1760 
  179.7500   -35.0990    57.9750    25.8270   107.9330   146.3350   150.4890     2.1990 
  179.8750   -35.0290    57.3820    25.2500    90.8950   138.6630   142.6650     2.2160 
  180.0000   -34.9470    58.8120    24.8050    81.9620   131.0290   135.0360     2.2280 
  180.1250   -34.8680    58.3490    24.5970    82.7970   125.9520   129.9450     2.2370 
  180.2500   -34.7850    56.6970    24.4710    88.6850   123.9480   127.7230     2.2400 
  180.3750   -34.7070    54.6970    24.3530    97.6290   124.5090   127.6960     2.2370 
  180.5000   -34.6300    54.2540    24.2210   104.8880   126.2000   128.4270     2.2290 
  180.6250   -34.5440    54.8560    24.1150   102.7900   126.6960   128.5830     2.2200 
  180.7500   -34.4500    55.1400    24.0200    93.1230   124.8610   128.1400     2.2180 
  180.8750   -34.3460    56.6720    23.9150    79.8280   122.8610   125.6990     2.2190 
  181.0000   -34.2450    59.9620    23.8110    68.3020   120.4370   122.3970     2.2150 
  181.1250   -34.1330    60.7140    23.7580    64.0510   116.6060   117.7930     2.2100 
