~V
VERS. 2.00: Ver 2.00
~W
STRT.M 54.0000:
STOP.M 250.0000:
STEP.M 0.1250:
NULL. -999.2500:
UWI. DF3016:
~C
DEPT.M :
GR.API :
RML.OHMM :
RI. :
RXO.OHMM :
CALI.CM :
DEN.GM/CC :
SP.MV :
~A
# ...
  234.0000    79.3590    23.4010    20.8430    25.6690    23.9610     2.4220   -13.7330 
  234.1250    74.5710    20.3630    18.7910    24.1660    23.9180     2.4300   -13.3450 
  234.2500    68.2750    18.3010    16.7680    27.5730    23.8750     2.4510   -13.0370 
  234.3750    63.6140    16.3650    14.8810    31.5890    23.8790     2.4710   -12.7610 
  234.5000    61.7680    14.7590    13.3070    23.1460    23.8900     2.4780   -12.5550 
  234.6250    61.4650    13.7820    12.3040    13.8020    23.8640     2.4740   -12.3790 
  234.7500    60.9950    13.3920    11.8360     9.7500    23.8130     2.4670   -12.2710 
  234.8750    60.8550    13.4510    11.8060     8.7990    23.7800     2.4630   -12.1900 
  235.0000    61.5180    13.7010    12.0110     8.6760    23.8100     2.4560   -12.1280 
  235.1250    61.7120    13.7790    12.1540     8.7600    23.8570     2.4440   -12.0960 
  235.2500    61.5390    13.5000    12.0220     8.7990    23.9230     2.4290   -12.0730 
  235.3750    62.8590    12.9020    11.5930     8.6840    23.9970     2.4180   -12.0770 
  235.5000    66.0510    12.1960    11.0150     8.5490    24.0590     2.4170   -12.0730 
  235.6250    67.8080    11.7040    10.5480     8.5740    24.0560     2.4240   -12.0790 
  235.7500    65.9260    11.5520    10.3320     9.0570    24.0260     2.4340   -12.0760 
  235.8750    62.6390    11.7040    10.3690    10.6050    24.0110     2.4380   -12.0770 
  236.0000    61.0810    12.0080    10.5600    13.6910    24.0180     2.4370   -12.0970 
  236.1250    61.9260    12.2440    10.7350    18.2850    24.0450     2.4330   -12.1370 
  236.2500    63.1320    12.2890    10.7670    19.5460    24.0740     2.4280   -12.1980 
  236.3750    64.0420    12.1430    10.6310    16.9830    24.0730     2.4250   -12.2270 
  236.5000    65.0220    11.8950    10.3830    13.1230    24.0610     2.4250   -12.2860 
  236.6250    66.1010    11.6720    10.1280    10.8290    24.0110     2.4260   -12.3380 
  236.7500    66.6860    11.5400     9.9390    10.3820    23.9570     2.4290   -12.4360 
  236.8750    66.5480    11.4910     9.8270    10.4410    23.9000     2.4340   -12.5240 
  237.0000    66.4720    11.4810     9.7630    10.1630    23.8470     2.4400   -12.6590 
  237.1250    66.4720    11.4550     9.7020     9.0810    23.7790     2.4440   -12.7730 
  237.2500    66.4720    11.3910     9.6160     8.2850    23.7270     2.4440   -12.9210 
  237.3750    66.4720    11.3010     9.5050     7.5870    23.6550     2.4330   -13.0510 
  237.5000    66.4720    11.2190     9.3960     7.0890    23.6030     2.4160   -13.1840 
  237.6250    66.4720    11.2050     9.3420     6.9500    23.6240     2.3980   -13.3380 
  237.7500    66.4720    11.2930     9.3780     7.0040    23.6630     2.3880   -13.3730 
  237.8750    66.4720    11.5050     9.5280     7.0790    23.6480     2.3940   -13.4350 
  238.0000    66.4720    11.8430     9.7930     7.0890    23.6120     2.4130   -13.4890 
  238.1250    66.4720    12.3000    10.1690     7.2190    23.6060     2.4360   -13.4550 
  238.2500    66.4720    12.8210    10.6050     7.4730    23.5850     2.4570   -13.3420 
  238.3750    66.4720    13.3710    11.0690     7.8430    23.5470     2.4710   -13.3120 
  238.5000    66.4720    13.9120    11.5290     8.1980    23.5120     2.4810   -13.2020 
  238.6250    66.4720    14.4010    11.9480     8.4110    23.5470     2.4900   -13.0420 
  238.7500    66.4720    14.8150    12.3100     8.6500    23.5980     2.4980   -13.0250 
  238.8750    66.4720    15.1410    12.6040     9.2280    23.5110     2.5040   -12.9530 
  239.0000    66.4720    15.3800    12.8350    10.0270    23.3000     2.5070   -12.8050 
  239.1250    66.4720    15.5520    13.0160    10.9630    23.2220     2.5120   -12.8200 
  239.2500    66.4720    15.7170    13.1910    12.1720    23.4990     2.5200   -12.8270 
  239.3750    66.4720    15.9250    13.3930    13.0890    23.7710     2.5310   -12.8010 
  239.5000    66.4720    16.2120    13.6490    13.3350    23.9040     2.5400   -12.8480 
  239.6250    66.4720    16.5940    13.9820    12.9410    23.9530     2.5440   -12.9010 
  239.7500    66.4720    17.0250    14.3670    13.0600    23.9740     2.5450   -12.9360 
  239.8750    66.4720    17.2030    14.5280    13.3210    23.9730     2.5470   -12.9390 
  240.0000    66.4720    17.8440    15.1690    16.7430    23.8890     2.5520   -12.9820 
  240.1250    66.4720    18.1410    15.5100    17.8470    23.8380     2.5590   -12.9960 
  240.2500    66.4720    18.3650    15.7900    18.2220    23.8050     2.5640   -12.9970 
  240.3750    66.4720    18.5440    16.0160    18.3590    23.7500     2.5590   -13.0310 
  240.5000    66.4720    18.7080    16.2040    18.5960    23.6850     2.5460   -13.0130 
  240.6250    66.4720    18.8750    16.3670    19.1810    23.5610     2.5290   -12.9170 
  240.7500    66.4720    19.0370    16.5080    19.8240    23.4170     2.5130   -12.7470 
  240.8750    66.4720    19.1760    16.6170    21.6270    23.3220     2.5060   -12.6420 
  241.0000    66.4720    19.2770    16.6860    24.1030    23.2510     2.5100   -12.5790 
  241.1250    66.4720    19.3340    16.7130    26.2200    23.2370     2.5230   -12.4770 
  241.2500    66.4720    19.3660    16.7180    26.5970    23.1500     2.5410   -12.4360 
  241.3750    66.4720    19.3840    16.7150    25.8790    22.9780     2.5580   -12.3580 
  241.5000    66.4720    19.3940    16.7120    24.4600    22.7520     2.5710   -12.2740 
  241.6250    66.4720    19.3970    16.7110    23.3220    22.4590     2.5810   -12.2410 
  241.7500    66.4720    19.3960    16.7110    22.5610    21.9820     2.5870   -12.2740 
  241.8750    66.4720    19.3940    16.7110    21.0860    21.4250     2.5910   -12.2990 
  242.0000    66.4720    19.3910    16.7110    19.2680    20.8840     2.5910   -12.2620 
  242.1250    66.4720    19.3910    16.7110    17.6070    20.2050     2.5850   -12.2090 
  242.2500    66.4720    19.3930    16.7130    16.2580    19.5430     2.5720   -12.1700 
  242.3750    66.4720    19.3970    16.7170    14.4970    19.0080     2.5540   -12.1050 
  242.5000    66.4720    19.4020    16.7250    13.4400    18.5550     2.5340   -12.0970 
  242.6250    66.4720    19.4070    16.7360    12.9680    18.1320     2.5140   -12.1720 
  242.7500    66.4720    19.4100    16.7450    12.8420    17.7470     2.4930   -12.1730 
  242.8750    66.4720    19.4110    16.7520    12.6600    17.4490     2.4720   -12.2120 
  243.0000    66.4720    19.4110    16.7530    12.4150    17.2420     2.4530   -12.2130 
  243.1250    66.4720    19.4110    16.7530    12.4740    17.2260     2.4360   -12.2630 
  243.2500    66.4720    19.4110    16.7530    12.5480    17.3490     2.4230   -12.2680 
  243.3750    66.4720    19.4110    16.7530    12.0500    17.5130     2.4120   -12.2410 
  243.5000    66.4720    19.4110    16.7530    11.6240    17.6810     2.4060   -12.2310 
  243.6250    66.4720    19.4110    16.7530    11.8170    17.8060     2.4020   -12.2560 
  243.7500    66.4720    19.4110    16.7530    12.1580    17.8050     2.4020   -12.3440 
  243.8750    66.4720    19.4110    16.7530    12.2010    17.6280     2.4060   -12.3780 
  244.0000    66.4720    19.4110    16.7530    12.1780    17.2430     2.4140   -12.4210 
  244.1250    66.4720    19.4110    16.7530    12.0240    16.8180     2.4230   -12.4730 
  244.2500    66.4720    19.4110    16.7530    12.2590    16.5050     2.4230   -12.4970 
  244.3750    66.4720    19.4110    16.7530    12.4450    16.3420     2.4020   -12.5400 
  244.5000    66.4720    19.4110    16.7530    12.4100    16.3110     2.3560   -12.5490 
  244.6250    66.4720    19.4110    16.7530    12.0430    16.2470     2.2930   -12.5400 
  244.7500    66.4720    19.4110    16.7530    11.6670    16.0470     2.2240   -12.5090 
  244.8750    66.4720    19.4110    16.7530    11.2670    15.7840     2.1630   -12.4790 
  245.0000    66.4720    19.4110    16.7530    10.5750    15.6630     2.1130   -12.4570 
  245.1250    66.4720    19.4110    16.7530    10.0330    15.6750     2.0760   -12.3960 
