~V
VERS. 2.00: Ver 2.00
~W
STRT.M 110.0000:
STOP.M 266.0000:
STEP.M 0.1250:
NULL. -999.2500:
UWI. DF309:
~C
DEPT.M :
DEN.GM/CC :
SP.MV :
AC.US/MT :
GR.API :
CALI.CM :
RXO.OHMM :
RI. :
RML.OHMM :
~A
# ...
  240.0000     2.4210   -22.3940   317.3570    75.0100    24.4160    29.6820    23.5990    25.1510 
  240.1250     2.3660   -22.6190   344.7210    72.4650    24.1820    23.2550    21.2470    22.5430 
  240.2500     2.3040   -22.8300   369.4810    70.4570    23.9240    17.8600    18.9490    19.9380 
  240.3750     2.2550   -23.0170   382.7500    71.9730    23.6420    15.1950    17.1670    17.9700 
  240.5000     2.2320   -23.1680   385.1320    74.5990    23.3230    14.2890    16.0510    16.8550 
  240.6250     2.2330   -23.2810   382.7390    71.5520    23.1460    14.1450    15.6510    16.6280 
  240.7500     2.2460   -23.3600   380.9360    65.3430    23.1710    14.3340    15.7530    16.9670 
  240.8750     2.2510   -23.3950   380.0820    62.9940    23.4040    15.0330    16.2990    17.7630 
  241.0000     2.2450   -23.4150   379.3290    66.4150    23.9060    16.3030    17.2800    18.9980 
  241.1250     2.2400   -23.4370   377.0040    69.9600    24.3670    17.5090    18.7530    20.7330 
  241.2500     2.2570   -23.4650   371.0930    68.9440    24.5360    18.3980    20.5570    22.7940 
  241.3750     2.2950   -23.4800   361.5270    64.5660    24.4830    20.3080    22.5110    24.9710 
  241.5000     2.3300   -23.4920   352.3400    60.8690    24.2600    24.6310    24.3470    26.9580 
  241.6250     2.3410   -23.5170   351.4770    60.3300    24.1230    28.2940    25.6760    28.3090 
  241.7500     2.3180   -23.5280   359.0710    62.4040    24.2340    28.2600    26.4100    28.9600 
  241.8750     2.2930   -23.5220   368.7330    65.2090    24.4600    26.3330    26.5530    28.9760 
  242.0000     2.2890   -23.4810   372.2240    66.5460    24.5770    25.0170    26.1240    28.4320 
  242.1250     2.3100   -23.4290   365.6350    66.9030    24.5680    24.3970    25.0160    27.2340 
  242.2500     2.3350   -23.3520   356.8300    68.0990    24.5320    23.4130    23.3550    25.4540 
  242.3750     2.3350   -23.2750   352.7440    71.1000    24.4920    21.5690    21.2710    23.1710 
  242.5000     2.3140   -23.2120   354.9860    74.4330    24.4750    18.6050    19.0390    20.6500 
  242.6250     2.2910   -23.1570   359.4490    74.7250    24.4790    15.1290    17.1180    18.4350 
  242.7500     2.2850   -23.1380   361.3420    72.9110    24.4780    13.2360    15.8160    16.9430 
  242.8750     2.2900   -23.1560   361.3920    71.6210    24.4790    12.5560    15.3070    16.4070 
  243.0000     2.3010   -23.2280   357.7460    72.7230    24.4860    12.7700    15.6620    16.9100 
  243.1250     2.3270   -23.3190   348.2450    74.6200    24.4960    14.2290    16.9730    18.5390 
  243.2500     2.3670   -23.4510   332.6420    74.2040    24.5050    17.2490    18.8820    20.8400 
  243.3750     2.3900   -23.5910   316.7160    73.0700    24.5170    21.4170    20.9890    23.3250 
  243.5000     2.3750   -23.7340   309.6910    73.3180    24.5040    24.7870    22.7760    25.3670 
  243.6250     2.3440   -23.8650   309.4190    71.9630    24.3530    23.6900    23.7050    26.3270 
  243.7500     2.3420   -23.9670   309.4870    67.9320    24.0440    20.1890    23.9360    26.4620 
  243.8750     2.3650   -24.0310   308.2380    64.1890    23.7180    17.8160    23.7500    26.2030 
  244.0000     2.3780   -24.0350   313.9130    62.5550    23.5450    18.1250    23.3350    25.8240 
  244.1250     2.3640   -24.0010   329.6430    60.8500    23.7390    19.9570    22.6390    25.1970 
  244.2500     2.3380   -23.9310   348.2880    61.2650    24.2100    21.8880    21.6630    24.1540 
  244.3750     2.3190   -23.8360   360.2680    64.8990    24.6410    22.8800    20.5880    22.8190 
  244.5000     2.2990   -23.7060   362.3470    66.7930    24.8310    22.1180    19.8450    21.7560 
  244.6250     2.2820   -23.5210   360.4390    63.2730    24.8570    19.9630    20.2350    22.0470 
  244.7500     2.2960   -23.2970   354.0610    60.2660    24.8510    19.8660    22.1180    24.1860 
  244.8750     2.3560   -23.0490   337.1220    60.1070    24.8180    23.2870    25.5110    28.2660 
  245.0000     2.4470   -22.7890   304.6770    59.3710    24.7040    31.4320    29.4390    33.2710 
  245.1250     2.5320   -22.5240   268.7640    54.7490    24.5050    47.8400    30.5550    35.1060 
  245.2500     2.5580   -22.2700   245.9190    50.7130    24.3140    56.3710    26.9730    30.8650 
  245.3750     2.5290   -22.0170   248.8690    51.2900    24.1890    45.3350    20.5200    22.7740 
  245.5000     2.4740   -21.7900   279.2970    56.5620    24.1030    23.4040    14.3940    15.2180 
  245.6250     2.4200   -21.6120   315.7850    61.1830    24.0490    10.5780    10.3960    10.5500 
  245.7500     2.3680   -21.4800   342.4390    62.8760    24.0330     6.2070     8.0240     7.9870 
  245.8750     2.3220   -21.3930   353.7400    63.3760    24.0840     5.2930     6.7960     6.8590 
  246.0000     2.2910   -21.3400   354.0720    63.2040    24.2200     5.2030     6.3340     6.6340 
  246.1250     2.2770   -21.3320   353.4220    62.7310    24.4440     5.1840     6.3870     6.9170 
  246.2500     2.2720   -21.3210   355.0770    64.6440    24.4850     5.2240     6.6070     7.2730 
  246.3750     2.2700   -21.3260   358.5760    67.4140    24.4120     5.3040     6.8260     7.5180 
  246.5000     2.2740   -21.3180   361.4040    67.3280    24.4960     5.3140     6.9700     7.6180 
  246.6250     2.2870   -21.3110   362.0080    63.1990    24.9660     5.2800     7.0290     7.6260 
  246.7500     2.3110   -21.2900   360.8110    60.0690    25.4560     5.3700     7.0570     7.6320 
  246.8750     2.3410   -21.2490   358.9710    61.3790    25.6780     5.7000     7.0870     7.6730 
  247.0000     2.3660   -21.2080   356.8370    66.0100    25.5300     6.3950     7.1340     7.7680 
  247.1250     2.3760   -21.1270   354.1030    68.4820    25.2610     7.6580     7.1940     7.9180 
  247.2500     2.3700   -21.0540   351.2840    67.3520    25.0190     9.2770     7.2420     8.0870 
  247.3750     2.3570   -20.9820   349.6160    65.1860    24.9130    10.7390     7.2590     8.2410 
  247.5000     2.3390   -20.9280   349.8650    65.0190    24.9280    11.7160     7.2350     8.3490 
  247.6250     2.3230   -20.8730   350.5260    67.4210    24.9780    11.8700     7.1720     8.3880 
  247.7500     2.3210   -20.8240   350.5990    69.7820    24.9480    11.5340     7.1020     8.3950 
  247.8750     2.3350   -20.7910   350.0810    70.6750    24.8940    10.8480     7.0540     8.4130 
  248.0000     2.3620   -20.7850   348.3030    68.9020    24.8520     9.9970     7.0500     8.4790 
  248.1250     2.3980   -20.8090   344.2840    66.1870    24.7550     9.5590     7.1010     8.6130 
  248.2500     2.4290   -20.8510   338.7320    64.7090    24.7010     9.5720     7.1810     8.7780 
  248.3750     2.4380   -20.9020   334.5690    63.5650    24.6830     9.8330     7.2590     8.9300 
  248.5000     2.4220   -20.9450   335.0100    63.6440    24.6830    10.1850     7.3070     9.0290 
  248.6250     2.3910   -21.0130   338.1730    64.7820    24.6570    10.3480     7.2980     9.0360 
  248.7500     2.3600   -21.0900   341.4800    64.7500    24.5540    10.1470     7.2440     8.9730 
  248.8750     2.3320   -21.1880   343.5830    63.6920    24.3690     9.4840     7.1720     8.8770 
  249.0000     2.3150   -21.2690   344.3340    63.6550    24.2490     8.7220     7.1160     8.8000 
  249.1250     2.3180   -21.3740   343.5940    63.6340    24.2800     8.3730     7.1160     8.7980 
  249.2500     2.3310   -21.4850   340.6480    61.5620    24.3770     8.3460     7.1650     8.8660 
  249.3750     2.3350   -21.6050   336.1160    59.4940    24.3190     8.3750     7.2420     8.9720 
  249.5000     2.3350   -21.7350   332.5700    59.8620    23.9560     8.3910     7.3150     9.0690 
  249.6250     2.3500   -21.8380   331.6720    62.1470    23.6600     8.5530     7.3460     9.0990 
  249.7500     2.3790   -21.9360   333.2030    63.9250    23.5780     8.8870     7.3270     9.0590 
  249.8750     2.3970   -22.0170   336.1010    64.4980    23.5650     9.1150     7.2710     8.9720 
