~V
VERS. 2.00: Ver 2.00
~W
STRT.M 62.0000:
STOP.M 282.0000:
STEP.M 0.1250:
NULL. -999.2500:
UWI. DF3054:
~C
DEPT.M :
DEN.GM/CC :
GR.API :
CALI.CM :
RXO.OHMM :
RI. :
RML.OHMM :
SP.MV :
~A
# ...
  174.5000     2.2080    70.0090    24.7870    92.7230   147.6520   155.3930   -26.5040 
  174.6250     2.2150    68.8810    24.8270    95.9020   153.5710   161.1610   -26.7120 
  174.7500     2.2320    68.8630    24.9220    99.0010   158.0200   164.9270   -26.9030 
  174.8750     2.2560    70.1400    25.1350   101.5910   160.2540   166.0840   -27.0840 
  175.0000     2.2760    69.1780    25.3560   102.5500   159.1400   163.8520   -27.2290 
  175.1250     2.2800    66.1470    25.4020   101.6970   153.6140   157.5160   -27.3930 
  175.2500     2.2700    63.4030    25.4430   100.6580   145.5330   148.9310   -27.5510 
  175.3750     2.2560    61.2070    25.5560    98.5980   137.0920   140.2010   -27.6730 
  175.5000     2.2520    60.0500    25.6230    94.6880   130.6680   133.5910   -27.7180 
  175.6250     2.2650    62.1020    25.6150    93.1300   128.7970   131.6040   -27.7200 
  175.7500     2.2810    65.9670    25.5800    95.3880   131.3750   133.9920   -27.7320 
  175.8750     2.2880    69.0800    25.5700   100.7000   137.5080   139.4560   -27.7640 
  176.0000     2.2850    71.0190    25.5860   107.4660   144.7330   145.1410   -27.8320 
  176.1250     2.2800    70.5290    25.6310   112.2630   148.1740   146.3600   -27.9530 
  176.2500     2.2800    67.0370    25.6740   112.5640   145.0300   141.3090   -28.0140 
  176.3750     2.2810    63.1210    25.6870   106.8020   135.5930   130.8010   -28.0590 
  176.5000     2.2790    62.3220    25.6710    94.9320   122.7810   117.7850   -28.1010 
  176.6250     2.2720    64.8790    25.6680    80.3150   110.6180   106.2470   -28.1580 
  176.7500     2.2650    66.9580    25.6560    70.7440   101.7430    98.5400   -28.2250 
  176.8750     2.2530    68.2230    25.6080    68.5160    97.3220    95.7630   -28.3020 
  177.0000     2.2320    70.5510    25.5240    69.6160    98.0210    98.5790   -28.3890 
  177.1250     2.2110    74.0440    25.4940    70.5110   105.8300   108.9860   -28.4160 
  177.2500     2.2060    74.9780    25.4680    75.5360   121.2810   127.3460   -28.5400 
  177.3750     2.2120    71.7980    25.4350    90.2410   146.0710   155.2240   -28.7750 
  177.5000     2.2140    67.4910    25.3910   112.8750   181.3240   193.4990   -29.1480 
  177.6250     2.2010    63.0200    25.3360   129.9220   226.6110   240.7580   -29.6010 
  177.7500     2.1860    57.2810    25.3610   136.1990   272.7340   286.9250   -30.0170 
  177.8750     2.1770    52.8220    25.5310   135.0220   308.2560   320.9120   -30.3620 
  178.0000     2.1730    53.6720    25.7170   131.4650   323.5840   334.6190   -30.6370 
  178.1250     2.1710    57.7860    25.8090   127.8270   315.0080   325.2920   -30.9380 
  178.2500     2.1740    60.2780    25.8060   122.4960   294.5260   304.6490   -31.1910 
  178.3750     2.1800    61.2600    25.7390   116.5480   270.4880   281.2380   -31.3480 
  178.5000     2.1860    61.7410    25.5900   110.6190   248.8620   261.2590   -31.3620 
  178.6250     2.1920    61.1230    25.3990   105.5220   235.1070   249.9530   -31.2010 
  178.7500     2.1970    58.5420    25.2440   103.6510   230.6420   248.1400   -31.0230 
  178.8750     2.1940    56.1820    25.1570   104.3570   236.5900   256.7190   -30.8700 
  179.0000     2.1860    56.5060    25.1460   106.5580   253.4660   275.6430   -30.7310 
  179.1250     2.1770    58.1220    25.0900   111.9770   281.0520   301.7640   -30.5950 
  179.2500     2.1680    57.5900    24.9780   118.2860   308.9460   322.6950   -30.4390 
  179.3750     2.1540    54.9440    24.8950   124.5330   322.0440   325.3500   -30.2780 
  179.5000     2.1400    54.0350    24.8400   128.6850   307.9670   302.6480   -30.1270 
  179.6250     2.1390    56.1100    24.8070   123.5590   266.8580   257.9740   -29.9480 
  179.7500     2.1510    59.0270    24.7730   106.8960   219.1960   209.5460   -29.7080 
  179.8750     2.1770    62.4690    24.7150    88.0660   176.9310   167.8390   -29.4080 
  180.0000     2.2150    64.8720    24.6630    81.3550   144.9230   136.8070   -29.1340 
  180.1250     2.2580    64.6700    24.8570    81.8080   124.3260   117.2680   -28.8360 
  180.2500     2.2890    64.4030    25.0950    71.6620   111.4190   105.3690   -28.5400 
  180.3750     2.3030    68.0630    25.2970    54.7910   104.8660    99.5350   -28.2150 
  180.5000     2.3010    72.9280    25.4070    51.8270   103.5680    98.6780   -27.9600 
  180.6250     2.2890    73.1290    25.3890    72.6900   107.0340   102.7920   -27.8610 
  180.7500     2.2770    72.0600    25.4260    98.2430   114.1150   110.9360   -27.8790 
  180.8750     2.2680    72.0230    25.5810   110.4760   124.9890   123.2070   -27.9680 
  181.0000     2.2600    71.4370    25.7370   107.3590   139.8620   139.7980   -27.9930 
  181.1250     2.2550    67.5280    25.8240   107.4310   159.7190   161.7440   -28.0170 
  181.2500     2.2510    62.5390    25.8550   119.5240   183.9740   188.2830   -28.0910 
  181.3750     2.2430    57.9190    25.8660   140.1390   211.4520   218.3800   -28.2500 
  181.5000     2.2330    53.4910    25.8520   153.6760   238.9530   249.3490   -28.3890 
  181.6250     2.2230    53.2990    25.8440   146.9010   260.5430   276.0340   -28.4460 
  181.7500     2.2160    55.4310    25.8210   133.7190   273.8100   295.3830   -28.4630 
  181.8750     2.2100    56.8920    25.7610   131.6790   279.2980   306.7760   -28.4850 
  182.0000     2.2050    57.5420    25.6780   142.6000   279.7050   311.5770   -28.6180 
  182.1250     2.2040    57.8050    25.7370   150.2050   277.0200   310.5560   -28.7890 
  182.2500     2.2050    57.0260    25.7750   152.4330   271.6290   304.7150   -28.9190 
  182.3750     2.2070    55.0520    25.7520   149.3170   262.5270   293.7540   -28.9950 
  182.5000     2.2180    54.0920    25.6680   142.3240   249.6290   278.3980   -28.9730 
  182.6250     2.2360    57.2640    25.5880   138.6980   234.4180   260.9420   -28.9610 
  182.7500     2.2520    62.3870    25.5220   143.4200   220.2410   245.0510   -28.9460 
  182.8750     2.2580    66.0730    25.4690   150.6500   209.5850   233.1690   -28.9460 
  183.0000     2.2570    65.4980    25.4400   150.1650   204.0600   226.4250   -28.8660 
  183.1250     2.2520    62.4870    25.4150   143.7190   204.3300   224.0160   -28.7480 
  183.2500     2.2450    61.1060    25.3770   142.2600   206.2510   220.9050   -28.5770 
  183.3750     2.2420    61.1460    25.2880   149.6580   204.3420   212.2290   -28.4110 
  183.5000     2.2400    60.7950    25.1780   159.4360   193.5120   195.2340   -28.3560 
  183.6250     2.2340    59.8290    25.2690   153.4800   171.9930   170.8040   -28.3020 
  183.7500     2.2280    59.1810    25.3160   142.0780   146.9370   145.3400   -28.2020 
  183.8750     2.2300    60.9420    25.2860   114.4060   123.8900   122.9820   -27.9900 
  184.0000     2.2430    64.1360    25.2040    86.8280   105.6610   105.4570   -27.7180 
  184.1250     2.2560    67.3170    25.1110    75.5330    92.9140    92.9780   -27.4010 
  184.2500     2.2620    70.5830    25.0250    79.2380    83.3100    83.4790   -27.1480 
  184.3750     2.2660    74.0920    24.9140    84.4940    75.6760    76.0380   -26.8950 
  184.5000     2.2700    77.7750    24.7040    80.9210    69.5420    70.2580   -26.5710 
  184.6250     2.2690    82.9860    24.3860    68.2320    65.3680    66.5660   -26.1850 
  184.7500     2.2620    88.8770    24.1440    56.1420    63.3160    65.0940   -25.8160 
  184.8750     2.2580    90.9170    23.9890    49.5900    63.7800    66.2120   -25.5480 
  185.0000     2.2650    87.1790    23.8780    49.3380    67.0040    70.1060   -25.4240 
  185.1250     2.2820    84.3430    23.7620    55.8630    73.3240    77.0630   -25.4020 
  185.2500     2.2950    84.4090    23.6160    63.6390    81.7420    86.0420   -25.3730 
  185.3750     2.2980    83.3620    23.5090    71.3920    91.3590    95.9230   -25.2990 
  185.5000     2.2830    79.6500    23.5320    81.2100   100.6250   104.9020   -25.2560 
  185.6250     2.2470    74.6920    23.6300    95.1310   106.4230   109.8870   -25.3730 
