~V
VERS. 2.00: Ver 2.00
~W
STRT.M 60.0000:
STOP.M 270.0000:
STEP.M 0.1250:
NULL. -999.2500:
UWI. DF3075:
~C
DEPT.M :
GR.API :
RML.OHMM :
RI. :
RXO.OHMM :
CALI.CM :
DEN.GM/CC :
SP.MV :
~A
# ...
  172.5000    62.2130   153.8010   144.5980   138.3730    23.8860     2.2460   -28.8870 
  172.6250    63.2120   141.8770   134.7300   143.8610    23.8880     2.2440   -28.7570 
  172.7500    67.5020   130.1090   124.8240   165.1720    23.8890     2.2470   -28.7250 
  172.8750    71.9370   118.6740   114.9340   149.3570    23.8900     2.2560   -28.7290 
  173.0000    72.2710   108.0810   105.3260   105.2430    23.8910     2.2700   -28.7400 
  173.1250    70.9140    99.0710    96.5880    81.9460    23.8920     2.2830   -28.8120 
  173.2500    72.3760    91.6290    89.0140    81.3060    23.8950     2.2920   -28.8620 
  173.3750    74.7770    85.7830    82.7850    85.5350    23.9010     2.2970   -28.9350 
  173.5000    74.6060    81.7080    78.1430    80.4500    23.9100     2.3000   -29.0450 
  173.6250    73.4460    80.4610    75.9730    69.8010    23.9230     2.3030   -29.1720 
  173.7500    75.4130    82.5860    76.5890    67.3850    23.9410     2.3070   -29.2990 
  173.8750    78.4750    88.1570    80.5500    68.9310    23.9760     2.3090   -29.4250 
  174.0000    78.4960    97.6210    88.2910    69.2180    24.0770     2.3050   -29.5340 
  174.1250    75.2670   109.5240   100.4270    80.0390    24.2560     2.2950   -29.5950 
  174.2500    72.4060   123.5300   115.5450   108.7920    24.5510     2.2820   -29.6680 
  174.3750    70.6320   137.6550   132.3110   149.1080    24.9030     2.2710   -29.7910 
  174.5000    68.2350   150.3330   148.8160   176.3310    25.1530     2.2640   -29.9180 
  174.6250    65.2280   166.1280   162.2670   177.4630    25.3990     2.2640   -30.1060 
  174.7500    63.2640   177.3200   171.3310   173.3960    25.5250     2.2650   -30.2750 
  174.8750    63.1180   182.9860   175.4130   170.2370    25.5680     2.2640   -30.4860 
  175.0000    64.8920   183.5380   174.9140   169.9580    25.5070     2.2560   -30.7300 
  175.1250    67.9510   180.3980   170.9500   176.3880    25.3080     2.2450   -31.0640 
  175.2500    69.5140   176.2150   165.8820   187.3320    25.0230     2.2360   -31.3680 
  175.3750    67.0860   171.9250   160.7130   186.5670    24.7980     2.2350   -31.6260 
  175.5000    63.5550   168.1230   156.0560   174.4420    24.7320     2.2440   -31.8220 
  175.6250    66.7460   165.6300   152.6600   153.5070    24.7960     2.2570   -31.9290 
  175.7500    73.0300   164.4800   150.5120   146.1120    24.9140     2.2670   -31.9690 
  175.8750    73.8850   164.2420   149.2670   151.3610    25.0640     2.2680   -31.8710 
  176.0000    67.3980   164.2210   148.3650   160.6290    25.1800     2.2620   -31.6820 
  176.1250    62.2520   163.7980   147.2880   163.4370    25.2550     2.2560   -31.3970 
  176.2500    62.3360   163.1820   146.0580   156.5520    25.2060     2.2540   -31.1480 
  176.3750    65.2350   163.0910   145.1800   144.8710    25.0260     2.2590   -30.9130 
  176.5000    68.4700   164.3650   145.3560   132.6160    24.8560     2.2660   -30.7050 
  176.6250    70.8140   167.6850   147.2630   124.7670    24.5790     2.2720   -30.5090 
  176.7500    70.3770   172.0680   150.1670   120.9430    24.2850     2.2720   -30.3700 
  176.8750    65.8890   175.9700   152.7940   121.3470    24.0660     2.2660   -30.2900 
  177.0000    61.0610   177.4500   153.5540   132.2980    24.0400     2.2540   -30.2480 
  177.1250    59.1050   174.0260   150.5070   170.6750    24.2260     2.2390   -30.2340 
  177.2500    59.4270   166.0050   143.8410   211.8160    24.4400     2.2270   -30.1840 
  177.3750    61.3360   154.6370   134.3240   207.5400    24.5280     2.2260   -30.0650 
  177.5000    65.0650   142.3460   123.6340   156.5090    24.4850     2.2390   -29.8690 
  177.6250    69.6580   131.9520   114.0010   115.1900    24.4190     2.2650   -29.5320 
  177.7500    74.1130   124.4080   106.6500   100.6280    24.4120     2.2910   -29.0670 
  177.8750    76.9310   119.6810   101.9010    99.9490    24.4210     2.3100   -28.4780 
  178.0000    76.0730   117.1920    99.4330   101.8910    24.4210     2.3170   -27.8370 
  178.1250    72.6300   116.3180    98.6970   101.1770    24.3740     2.3120   -27.1500 
  178.2500    72.0920   115.9750    98.5790   100.5810    24.2890     2.3040   -26.5800 
  178.3750    74.3440   115.4510    98.4210   100.7310    24.2240     2.2990   -26.1420 
  178.5000    75.7810   114.0460    97.6150    99.7550    24.2300     2.2960   -25.8840 
  178.6250    74.0790   110.9090    95.4240    95.9550    24.2850     2.2950   -25.7100 
  178.7500    71.2710   106.0070    91.7350    92.8160    24.3180     2.2930   -25.6610 
  178.8750    71.3840    99.3500    86.4730    90.5760    24.2940     2.2900   -25.7040 
  179.0000    75.8790    91.1950    79.8010    87.1150    24.1870     2.2860   -25.8290 
  179.1250    81.4590    82.0390    72.0890    81.1540    23.9630     2.2830   -25.9910 
  179.2500    82.6390    72.9370    64.2530    71.9390    23.8370     2.2850   -26.0330 
  179.3750    81.3080    64.7200    57.0070    58.2300    23.7490     2.2920   -25.9620 
  179.5000    82.0230    57.9640    50.8840    43.7310    23.6490     2.3050   -25.7370 
  179.6250    83.5910    53.1630    46.3840    39.1280    23.5430     2.3180   -25.5790 
  179.7500    84.5630    49.8750    43.2390    37.1790    23.4470     2.3290   -25.4200 
  179.8750    84.9160    47.8060    41.2630    36.3890    23.4000     2.3330   -25.3120 
  180.0000    83.4270    46.6540    40.1960    35.6360    23.3910     2.3310   -25.1940 
  180.1250    81.8540    46.2300    39.8680    35.6590    23.3980     2.3260   -25.1040 
  180.2500    83.0530    46.1520    39.8950    36.0770    23.4010     2.3210   -25.0410 
  180.3750    87.0740    46.1890    40.0680    36.6160    23.3970     2.3180   -25.0110 
  180.5000    90.8260    46.1560    40.2290    36.7150    23.3830     2.3200   -25.0600 
  180.6250    91.5640    45.9140    40.2540    36.3870    23.3540     2.3250   -25.0950 
  180.7500    87.7580    45.4640    40.0910    35.9680    23.3150     2.3310   -25.1670 
  180.8750    82.3180    44.8280    39.7050    35.5970    23.2820     2.3370   -25.2150 
  181.0000    80.6550    44.0350    39.1020    34.8870    23.2680     2.3400   -25.2670 
  181.1250    82.6700    43.0940    38.3140    33.7070    23.2680     2.3420   -25.2920 
  181.2500    82.7640    42.1010    37.4620    32.7550    23.2710     2.3440   -25.3310 
  181.3750    82.1090    41.1750    36.6280    31.8310    23.2690     2.3470   -25.3710 
  181.5000    83.7940    40.3920    35.8410    30.9960    23.2590     2.3510   -25.3950 
  181.6250    85.7680    39.7080    35.0720    29.6350    23.2370     2.3540   -25.4460 
  181.7500    86.0920    38.9580    34.2600    28.3450    23.2050     2.3540   -25.5050 
  181.8750    86.1690    38.0690    33.3800    27.3530    23.1810     2.3510   -25.5970 
  182.0000    87.1640    37.1240    32.4800    26.6070    23.2100     2.3460   -25.7250 
  182.1250    88.4370    36.4310    31.7340    26.2630    23.3640     2.3440   -25.8910 
  182.2500    87.5370    36.3330    31.3750    26.4850    23.6440     2.3450   -26.1060 
  182.3750    84.8390    37.1730    31.7220    27.5420    24.0170     2.3480   -26.3720 
  182.5000    81.6420    39.3280    33.1590    29.4080    24.3430     2.3500   -26.6530 
  182.6250    79.1780    43.5750    36.3750    33.8030    24.4590     2.3470   -26.9560 
  182.7500    76.7690    49.9630    41.4290    41.2520    24.2840     2.3400   -27.2170 
  182.8750    75.2880    58.5110    48.3420    53.0180    24.1380     2.3290   -27.4970 
  183.0000    75.8080    68.8960    56.8580    68.6860    24.0980     2.3170   -27.7760 
  183.1250    75.6950    80.4820    66.4270    87.3620    24.2190     2.3070   -28.1790 
  183.2500    75.0230    92.0350    75.9540   102.4170    24.5160     2.3000   -28.6460 
  183.3750    73.3110   102.6550    84.6270   108.8920    24.8750     2.2940   -29.1770 
  183.5000    71.1790   111.7310    91.8820   112.1630    25.1100     2.2890   -29.7350 
  183.6250    69.7740   119.0250    97.5260   111.3510    25.4560     2.2830   -30.1650 
