~V
VERS. 2.00: Ver 2.00
~W
STRT.M 54.0000:
STOP.M 250.0000:
STEP.M 0.1250:
NULL. -999.2500:
UWI. DF3016:
~C
DEPT.M :
GR.API :
RML.OHMM :
RI. :
RXO.OHMM :
CALI.CM :
DEN.GM/CC :
SP.MV :
~A
# ...
   87.7500    76.1430    11.2810     9.9850    12.7040    22.6160  -999.2500   -27.8840 
   87.8750    76.0050    11.2560     9.9660    12.5710    22.7920  -999.2500   -27.9680 
   88.0000    73.2010    11.1360     9.9380    12.3960    23.0010  -999.2500   -28.0030 
   88.1250    72.4250    11.0000     9.9150    12.0110    23.1090  -999.2500   -27.8980 
   88.2500    75.0510    10.9730     9.9650    11.5740    23.0870  -999.2500   -27.7680 
   88.3750    78.5300    11.1260    10.1390    11.2590    22.9870  -999.2500   -27.5700 
   88.5000    80.4240    11.4470    10.4330    11.2430    22.8360  -999.2500   -27.3930 
   88.6250    79.8030    11.8150    10.7570    11.2370    22.6290  -999.2500   -27.1590 
   88.7500    77.4260    12.0210    10.9430    11.2660    22.5160  -999.2500   -26.9010 
   88.8750    72.9650    11.8970    10.8410    11.4100    22.4990  -999.2500   -26.6250 
   89.0000    69.8260    11.3670    10.3750    11.7440    22.5270  -999.2500   -26.3000 
   89.1250    71.6650    10.4830     9.5710    11.7540    22.5530  -999.2500   -25.9460 
   89.2500    77.1830     9.5510     8.6860    11.0570    22.6500  -999.2500   -25.5520 
   89.3750    83.4990     8.8180     7.9300     9.9380    22.8460  -999.2500   -25.1860 
   89.5000    85.9740     8.4550     7.4520     8.6300    23.1030  -999.2500   -24.8960 
   89.6250    82.1940     8.5640     7.3660     7.7740    23.3380  -999.2500   -24.7370 
   89.7500    78.5650     8.9560     7.5610     8.1190    23.4570  -999.2500   -24.6700 
   89.8750    77.7090     9.4410     7.9130     8.9150    23.4000  -999.2500   -24.6900 
   90.0000    77.2720     9.8290     8.2740     9.7480    23.2580  -999.2500   -24.7920 
   90.1250    75.0320     9.9550     8.4860    10.3690    23.1960  -999.2500   -24.9770 
   90.2500    74.0310     9.8660     8.5210    10.2580    23.2340  -999.2500   -25.1950 
   90.3750    74.2350     9.6710     8.4290     9.4270    23.2860  -999.2500   -25.4180 
   90.5000    73.1680     9.4980     8.3020     8.8460    23.3150  -999.2500   -25.6040 
   90.6250    71.1280     9.4500     8.2340     8.7630    23.3410  -999.2500   -25.7160 
   90.7500    70.1940     9.5060     8.2470     8.9660    23.3730  -999.2500   -25.7990 
   90.8750    70.8110     9.6250     8.3260     9.3420    23.3890  -999.2500   -25.8610 
   91.0000    73.3070     9.7650     8.4420     9.5740    23.3930  -999.2500   -25.9580 
   91.1250    77.8440     9.9050     8.5690     9.6360    23.3810  -999.2500   -26.0480 
   91.2500    80.6910    10.0480     8.6970     9.6050    23.3570  -999.2500   -26.1380 
   91.3750    79.8520    10.2030     8.8270     9.5390    23.3460  -999.2500   -26.2690 
   91.5000    77.3870    10.3640     8.9570     9.5230    23.3780  -999.2500   -26.3610 
   91.6250    75.6230    10.4970     9.0670     9.6480    23.4220  -999.2500   -26.5590 
   91.7500    75.0310    10.5690     9.1330     9.7680    23.4580  -999.2500   -26.7120 
   91.8750    73.7650    10.5510     9.1320     9.9000    23.4620  -999.2500   -26.9010 
   92.0000    71.8870    10.4370     9.0570    10.0350    23.4430  -999.2500   -27.0320 
   92.1250    71.2850    10.2390     8.9120    10.0370    23.4460  -999.2500   -27.2460 
   92.2500    73.7860    10.0200     8.7460     9.9660    23.4190  -999.2500   -27.4140 
   92.3750    77.2870     9.8340     8.5990     9.8890    23.3680  -999.2500   -27.5730 
   92.5000    77.7870     9.7240     8.5090     9.8380    23.3100  -999.2500   -27.7040 
   92.6250    75.8810     9.7290     8.5170     9.7830    23.1340  -999.2500   -27.7620 
   92.7500    75.0970     9.8270     8.6120     9.7470    22.9220  -999.2500   -27.8040 
   92.8750    74.1890     9.9890     8.7790     9.7330    22.7310  -999.2500   -27.8060 
   93.0000    73.2030    10.1740     8.9850     9.7780    22.6300  -999.2500   -27.7710 
   93.1250    73.2610    10.3180     9.1780     9.8840    22.6640  -999.2500   -27.6810 
   93.2500    72.9660    10.3840     9.3090    10.1040    22.7850  -999.2500   -27.5570 
   93.3750    70.8900    10.3630     9.3540    10.3330    22.8860  -999.2500   -27.3790 
   93.5000    70.0060    10.2740     9.3100    10.1890    22.9240  -999.2500   -27.1540 
   93.6250    73.5870    10.1440     9.1800     9.8450    22.9260  -999.2500   -26.8330 
   93.7500    77.2600     9.9800     8.9820     9.4330    22.9460  -999.2500   -26.4590 
   93.8750    78.9710     9.7400     8.7000     9.0410    23.0070  -999.2500   -26.0300 
   94.0000    80.4870     9.3700     8.3110     8.7470    23.0970  -999.2500   -25.5610 
   94.1250    83.0860     8.8480     7.8090     8.5960    23.1940  -999.2500   -25.0300 
   94.2500    86.9500     8.3040     7.2960     8.4740    23.2870  -999.2500   -24.5450 
   94.3750    91.4900     7.9160     6.9030     8.0900    23.4030  -999.2500   -24.1790 
   94.5000    93.4450     7.8550     6.7620     7.4770    23.5320  -999.2500   -23.9260 
   94.6250    88.1690     8.2590     7.0020     7.2760    23.5440  -999.2500   -23.8980 
   94.7500    78.8870     8.9560     7.5250     7.8820    23.3940  -999.2500   -23.9590 
   94.8750    71.2920     9.7270     8.1880     9.5960    23.1460  -999.2500   -24.1260 
   95.0000    66.7400    10.3210     8.7940    12.4460    23.0030  -999.2500   -24.3100 
   95.1250    64.1830    10.4970     9.1080    14.1880    22.9650  -999.2500   -24.5710 
   95.2500    66.2720    10.3350     9.1200    12.1130    22.9090  -999.2500   -24.8020 
   95.3750    71.6360    10.0060     8.9270    10.1760    22.8140  -999.2500   -24.9130 
   95.5000    76.4990     9.7050     8.6830     9.3470    22.7370  -999.2500   -24.9390 
   95.6250    78.3830     9.5770     8.5270     9.1360    22.6710  -999.2500   -24.8370 
   95.7500    79.1560     9.5880     8.4750     8.9540    22.6190  -999.2500   -24.7040 
   95.8750    80.1940     9.6640     8.4870     8.8290    22.5540  -999.2500   -24.5480 
   96.0000    81.8730     9.7400     8.5140     8.8040    22.4960  -999.2500   -24.4200 
   96.1250    84.8180     9.7770     8.5180     8.7540    22.4710  -999.2500   -24.3240 
   96.2500    85.9370     9.7920     8.5020     8.5790    22.4650  -999.2500   -24.2680 
   96.3750    84.8930     9.8080     8.4820     8.4650    22.4650  -999.2500   -24.2660 
   96.5000    84.0970     9.8460     8.4770     8.6570    22.4650  -999.2500   -24.2860 
   96.6250    83.7020     9.9120     8.4970     8.8830    22.4890  -999.2500   -24.3210 
   96.7500    83.5380     9.9910     8.5300     9.0790    22.5820  -999.2500   -24.3620 
   96.8750    83.7160    10.0710     8.5680     9.3170    22.7770  -999.2500   -24.4350 
   97.0000    83.4500    10.1460     8.6050     9.5440    23.0590  -999.2500   -24.5480 
   97.1250    82.1390    10.2270     8.6480     9.6210    23.3020  -999.2500   -24.6960 
   97.2500    80.6970    10.3300     8.7140     9.7520    23.4370  -999.2500   -24.8260 
   97.3750    79.0410    10.4760     8.8220     9.9380    23.4770  -999.2500   -24.9740 
   97.5000    77.1580    10.6750     8.9810    10.1650    23.4720  -999.2500   -25.1340 
   97.6250    76.7960    10.9280     9.1960    10.3400    23.4450  -999.2500   -25.2960 
   97.7500    76.9600    11.1950     9.4300    10.5870    23.4060  -999.2500   -25.4520 
   97.8750    76.4450    11.4320     9.6490    10.9030    23.3790  -999.2500   -25.5390 
   98.0000    76.6710    11.5990     9.8140    11.2360    23.3370  -999.2500   -25.6350 
   98.1250    79.3720    11.6580     9.8890    11.4200    23.2760  -999.2500   -25.6090 
   98.2500    80.5260    11.6390     9.8900    11.3430    23.1630  -999.2500   -25.6070 
   98.3750    77.6100    11.5790     9.8430    11.1520    23.0650  -999.2500   -25.5230 
   98.5000    73.9250    11.5220     9.7840    11.0850    23.0420  -999.2500   -25.4640 
   98.6250    73.1010    11.5110     9.7520    11.0040    23.0990  -999.2500   -25.3170 
   98.7500    74.3350    11.5460     9.7610    11.0560    23.1550  -999.2500   -25.1770 
   98.8750    74.5220    11.6050     9.8010    11.1280    23.1450  -999.2500   -25.0320 
