~V
VERS. 2.00: Ver 2.00
~W
STRT.M 110.0000:
STOP.M 266.0000:
STEP.M 0.1250:
NULL. -999.2500:
UWI. DF309:
~C
DEPT.M :
DEN.GM/CC :
SP.MV :
AC.US/MT :
GR.API :
CALI.CM :
RXO.OHMM :
RI. :
RML.OHMM :
~A
# ...
  200.0000     2.4450   -24.8590   409.5120    94.4530    25.0440     7.9400     6.8120     9.4860 
  200.1250     2.4630   -24.6830   401.2350    94.0280    25.0430     7.4110     6.5390     9.2370 
  200.2500     2.4820   -24.5190   389.4670    89.3770    24.9670     7.6160     6.5550     9.4190 
  200.3750     2.4970   -24.3580   381.3410    85.8090    24.8010     8.1380     6.7820     9.8350 
  200.5000     2.5120   -24.1890   378.1000    86.9290    24.5230     8.3970     7.1770    10.3850 
  200.6250     2.5420   -23.9740   372.5470    89.8770    24.1640     8.3730     7.8120    11.2180 
  200.7500     2.5880   -23.7340   358.8650    90.7560    24.0050     8.6310     8.7150    12.4740 
  200.8750     2.6350   -23.4190   339.2810    87.9570    24.0850     9.4140     9.8250    14.1120 
  201.0000     2.6600   -23.0030   321.9570    84.7210    24.1580    10.5700    10.8320    15.6720 
  201.1250     2.6450   -22.4870   318.9850    89.8400    24.1090    11.6000    10.9210    15.8740 
  201.2500     2.6060   -21.8830   333.4330   101.9180    23.9990    11.9670     9.7950    14.1360 
  201.3750     2.5610   -21.1850   361.9860   110.2170    23.8610    10.9110     7.8780    11.0760 
  201.5000     2.5210   -20.4230   381.3100   105.6090    23.7970     8.4800     5.9420     8.0040 
  201.6250     2.4830   -19.6810   398.8130    90.6400    23.9480     6.1990     4.5720     5.9710 
  201.7500     2.4480   -18.9790   416.4340    76.5820    24.1900     5.1090     3.7720     4.9500 
  201.8750     2.4240   -18.3520   418.7690    69.4020    24.3760     5.0000     3.4640     4.7570 
  202.0000     2.4180   -17.8260   412.0560    72.8350    24.4590     5.2500     3.5510     5.1590 
  202.1250     2.4250   -17.4090   405.7490    81.9510    24.4550     5.3110     3.9510     5.9130 
  202.2500     2.4320   -17.0930   403.2940    88.9800    24.4010     5.2250     4.4580     6.6520 
  202.3750     2.4340   -16.9050   402.4640    92.0730    24.3450     5.2040     4.9290     7.1560 
  202.5000     2.4310   -16.8220   400.4930    92.1520    24.3510     5.3210     5.2670     7.3510 
  202.6250     2.4280   -16.7970   396.8730    91.2520    24.4360     5.4340     5.4350     7.2980 
  202.7500     2.4280   -16.7910   393.5830    90.8780    24.5430     5.5080     5.4930     7.1610 
  202.8750     2.4310   -16.8070   391.7290    94.3370    24.5940     5.6160     5.4680     6.9940 
  203.0000     2.4330   -16.8110   391.4550    99.6510    24.6170     5.7850     5.3780     6.8120 
  203.1250     2.4240   -16.8310   392.8450   100.1100    24.6530     5.8840     5.2390     6.6270 
  203.2500     2.4090   -16.8820   395.4100    96.6660    24.6750     5.8440     5.0880     6.4690 
  203.3750     2.3990   -16.9490   398.2690    92.6990    24.6820     5.7000     4.9630     6.3810 
  203.5000     2.4000   -17.0360   399.9750    90.5570    24.6830     5.6020     4.8960     6.4040 
  203.6250     2.4080   -17.1430   398.7240    89.3410    24.6830     5.6890     4.9220     6.5760 
  203.7500     2.4140   -17.2530   394.9240    90.1740    24.6830     5.9770     5.0340     6.8670 
  203.8750     2.4200   -17.3290   390.0660    92.8480    24.6830     6.4560     5.2160     7.2420 
  204.0000     2.4260   -17.4150   386.2600    92.5260    24.6830     6.8480     5.4370     7.6420 
  204.1250     2.4290   -17.4870   385.1570    89.5160    24.6830     7.0010     5.6590     8.0080 
  204.2500     2.4240   -17.5550   385.5810    87.5570    24.6830     7.1000     5.8730     8.3400 
  204.3750     2.4110   -17.6380   386.1450    87.1220    24.6830     7.4130     6.1030     8.6900 
  204.5000     2.3930   -17.7440   386.2330    85.3420    24.6830     7.8400     6.3940     9.1390 
  204.6250     2.3780   -17.8890   386.1880    81.2930    24.6830     8.3460     6.8140     9.7950 
  204.7500     2.3700   -18.0930   386.3260    77.1580    24.6830     9.2290     7.3640    10.6520 
  204.8750     2.3620   -18.3700   386.5120    74.9450    24.6830    10.7660     8.0390    11.6800 
  205.0000     2.3530   -18.7050   386.8670    76.5980    24.6830    12.9000     8.8430    12.8520 
  205.1250     2.3400   -19.1080   388.0750    78.3650    24.6830    15.1660     9.8810    14.2940 
  205.2500     2.3250   -19.5750   390.2080    77.0700    24.6800    16.7240    11.2900    16.2190 
  205.3750     2.3100   -20.0660   392.5800    76.0320    24.6670    17.8780    13.3020    18.9740 
  205.5000     2.3060   -20.5820   393.7300    77.8550    24.6340    20.0870    16.2420    22.9960 
  205.6250     2.3210   -21.1190   390.1740    78.5300    24.6040    25.3200    20.7660    29.1330 
  205.7500     2.3370   -21.6280   380.1330    76.0690    24.5890    32.8770    26.9460    37.4610 
  205.8750     2.3360   -22.1210   364.9920    73.2090    24.5850    42.4180    34.6210    47.7890 
  206.0000     2.3110   -22.5860   351.1690    71.5090    24.5680    53.3600    43.0400    59.0880 
  206.1250     2.2760   -23.0070   349.2220    71.4500    24.4790    61.4210    50.8230    69.2800 
  206.2500     2.2570   -23.3630   359.4790    71.8670    24.2750    61.0270    57.1120    77.0890 
  206.3750     2.2350   -23.6610   375.5430    71.6890    24.0390    56.6110    61.8110    82.5080 
  206.5000     2.2250   -23.8980   389.0260    71.0360    23.9680    56.5970    65.2830    86.2790 
  206.6250     2.2310   -24.0630   394.7870    71.4940    24.2560    62.1340    67.8050    88.8920 
  206.7500     2.2380   -24.1810   396.1820    70.9320    24.6580    66.3250    69.7980    90.8030 
  206.8750     2.2300   -24.2330   396.5520    68.6410    24.9430    67.7510    71.4300    92.1720 
  207.0000     2.2120   -24.2220   397.5710    67.4980    25.1050    67.2870    72.7810    93.0830 
  207.1250     2.2080   -24.1750   399.2150    68.2270    25.2150    66.3070    73.7840    93.4330 
  207.2500     2.2250   -24.1010   400.6030    67.1050    25.2650    66.5530    74.4070    93.2220 
  207.3750     2.2440   -24.0150   401.1680    66.0190    25.2830    66.7480    74.5380    92.3690 
  207.5000     2.2450   -23.9150   400.7190    67.6250    25.2820    64.7060    74.0100    90.7520 
  207.6250     2.2310   -23.8250   399.7300    69.7750    25.2780    60.3580    72.3550    87.9200 
  207.7500     2.2210   -23.7360   399.2170    70.0690    25.2730    56.1830    69.1510    83.3270 
  207.8750     2.2230   -23.6680   399.3960    69.7800    25.2720    52.7060    63.9030    76.2640 
  208.0000     2.2330   -23.6620   399.5690    70.3470    25.2470    49.2360    56.8930    67.1120 
  208.1250     2.2480   -23.7230   398.3760    72.3260    25.1800    43.3790    49.5830    57.8720 
  208.2500     2.2620   -23.8520   395.7870    74.3950    25.0820    35.6850    43.7700    50.7090 
  208.3750     2.2740   -24.0420   392.8100    75.0590    24.9950    29.0880    40.5120    46.7610 
  208.5000     2.2830   -24.3150   390.9440    73.1810    24.9290    27.9230    40.4120    46.5850 
  208.6250     2.2810   -24.6260   391.4070    70.9280    24.9370    34.6510    44.4900    51.2700 
  208.7500     2.2660   -24.9910   393.3610    68.6770    25.0030    46.6450    52.3780    60.4990 
  208.8750     2.2460   -25.3890   395.8350    66.3530    25.0800    59.2720    63.6840    74.1880 
  209.0000     2.2300   -25.7590   398.2930    65.4860    25.1510    67.4020    76.8570    90.8640 
  209.1250     2.2230   -26.0710   400.5180    66.3060    25.1740    69.2020    88.5280   105.9940 
  209.2500     2.2170   -26.3250   402.1160    66.1690    25.1590    69.5420    96.3680   115.5880 
  209.3750     2.2080   -26.5330   402.5510    65.2890    25.0940    70.7180   100.3020   119.5270 
  209.5000     2.2020   -26.6870   401.7230    65.9080    25.0160    72.1510   101.6170   120.0780 
  209.6250     2.2040   -26.7960   400.2970    67.0010    24.9830    72.9890   101.6650   119.3620 
  209.7500     2.2090   -26.8520   399.3530    65.4980    24.9760    72.5750   101.5730   118.6720 
  209.8750     2.2130   -26.8670   399.3090    62.3370    24.9760    71.2960   101.6870   118.2650 
