~V
VERS. 2.00: Ver 2.00
~W
STRT.M 125.0000:
STOP.M 247.0000:
STEP.M 0.1250:
NULL. -999.2500:
UWI. DF3017:
~C
DEPT.M :
DEN.GM/CC :
GR.API :
RML.OHMM :
RI. :
RXO.OHMM :
CALI.CM :
SP.MV :
~A
# ...
  192.5000     2.4870   106.6140    10.3340     8.7900    13.2450    25.1450   -19.8490 
  192.6250     2.4530   101.3310     9.8910     8.3480    12.3980    25.3510   -19.3020 
  192.7500     2.3990    95.3050     9.5620     7.9920    10.8610    25.5070   -18.7410 
  192.8750     2.3440    89.7790     9.4550     7.8100     9.2000    25.3630   -18.1980 
  193.0000     2.3120    87.7840     9.5960     7.8380     8.2000    25.1370   -17.6700 
  193.1250     2.3190    89.7290     9.9020     8.0450     7.7860    25.0810   -17.1710 
  193.2500     2.3680    90.5930    10.1480     8.2710     8.1310    25.1610   -16.7050 
  193.3750     2.4320    87.5960    10.1680     8.3790     8.7220    25.2650   -16.2810 
  193.5000     2.4850    82.0470     9.8890     8.2750     9.0180    25.3960   -15.9120 
  193.6250     2.5080    75.8310     9.3580     7.9380     8.5190    25.6200   -15.6400 
  193.7500     2.4930    68.0640     8.7980     7.5150     7.2970    25.9060   -15.4390 
  193.8750     2.4540    59.8290     8.3580     7.1320     6.1500    26.2010   -15.2690 
  194.0000     2.4070    53.1840     8.1100     6.8740     5.6660    26.8830   -15.1240 
  194.1250     2.3690    51.0460     8.0690     6.7910     5.6430    28.3200   -15.0220 
  194.2500     2.3590    52.6310     8.1350     6.8210     5.7590    29.3640   -14.9470 
  194.3750     2.3710    54.0960     8.2360     6.9100     6.0240    29.4250   -14.9090 
  194.5000     2.3900    54.3790     8.3220     7.0090     6.2150    28.5250   -14.8930 
  194.6250     2.4040    58.1260     8.3710     7.0820     6.3050    27.7350   -14.9140 
  194.7500     2.4070    66.0650     8.4020     7.1330     6.3400    27.3230   -14.9140 
  194.8750     2.4100    72.1840     8.4210     7.1700     6.5450    26.8800   -14.9090 
  195.0000     2.4210    73.4900     8.4220     7.2000     6.8470    26.0970   -14.8930 
  195.1250     2.4350    76.4910     8.3790     7.2150     7.1690    25.3260   -14.8740 
  195.2500     2.4350    84.2090     8.2930     7.2100     7.6020    24.7330   -14.8590 
  195.3750     2.4180    89.5490     8.1910     7.1880     8.0160    24.5210   -14.8670 
  195.5000     2.3910    90.2330     8.1160     7.1680     8.3110    24.4940   -14.8680 
  195.6250     2.3690    93.4570     8.1170     7.1760     8.1980    24.4740   -14.8730 
  195.7500     2.3670   101.3770     8.1880     7.2240     7.9310    24.4240   -14.9050 
  195.8750     2.3800   106.8960     8.3120     7.3170     8.1690    24.3680   -14.9640 
  196.0000     2.3990   105.8220     8.4670     7.4490     9.0900    24.3400   -15.0390 
  196.1250     2.4130   100.8610     8.6330     7.6130     9.7230    24.3370   -15.1180 
  196.2500     2.4150    95.2640     8.7880     7.7840     9.7310    24.3370   -15.1950 
  196.3750     2.4100    89.6020     8.9290     7.9580     9.3780    24.3370   -15.2760 
  196.5000     2.4010    86.8790     9.0690     8.1460     9.5940    24.3370   -15.3560 
  196.6250     2.3930    87.9180     9.2530     8.3990    10.7050    24.3370   -15.4510 
  196.7500     2.3880    87.9000     9.5250     8.7600    11.5520    24.3370   -15.5580 
  196.8750     2.3870    85.3930     9.9190     9.2670    11.8080    24.3370   -15.6830 
  197.0000     2.3880    84.3540    10.4310     9.9280    12.4870    24.3370   -15.7960 
  197.1250     2.3860    86.9730    11.0210    10.7150    14.5290    24.3370   -15.9300 
  197.2500     2.3780    88.2690    11.6050    11.5270    15.6470    24.3370   -16.0670 
  197.3750     2.3660    86.6880    12.1410    12.2840    16.2480    24.2930   -16.2190 
  197.5000     2.3520    84.1920    12.5500    12.9410    16.5750    24.2700   -16.4000 
  197.6250     2.3370    83.8620    12.8700    13.5660    16.6620    24.2670   -16.5510 
  197.7500     2.3270    85.2690    13.5010    14.4140    16.9910    24.2670   -16.6960 
  197.8750     2.3230    84.8950    15.0050    15.8470    17.9590    24.2670   -16.8180 
  198.0000     2.3300    81.7610    18.1140    18.2680    20.0750    24.2670   -16.9620 
  198.1250     2.3450    79.2130    23.5730    22.1880    23.6430    24.2670   -17.0790 
  198.2500     2.3620    78.3730    30.9270    27.2290    30.0030    24.2740   -17.1910 
  198.3750     2.3680    75.8450    38.4430    32.6700    41.5670    24.3160   -17.2650 
  198.5000     2.3560    71.4470    43.5620    37.4050    53.7800    24.3510   -17.3160 
  198.6250     2.3270    71.6940    45.8620    40.0360    58.5060    24.4500   -17.3390 
  198.7500     2.2930    75.6780    46.0430    40.7010    56.1700    24.4700   -17.3550 
  198.8750     2.2660    78.5660    45.3330    40.3160    50.3420    24.5120   -17.3630 
  199.0000     2.2520    79.0750    45.4590    40.3770    42.6690    24.5360   -17.3580 
  199.1250     2.2500    78.9360    48.5980    42.9260    38.1400    24.5730   -17.3600 
  199.2500     2.2550    76.6990    55.4550    48.7670    45.4490    24.6350   -17.3610 
  199.3750     2.2590    72.1170    66.3290    58.2200    55.5760    24.7080   -17.3490 
  199.5000     2.2610    68.3910    80.6070    70.7680    69.0550    24.7440   -17.3520 
  199.6250     2.2580    67.5420    96.3380    84.7980    89.8030    24.8130   -17.3800 
  199.7500     2.2500    67.4670   110.1210    97.4360   107.8580    24.8600   -17.3950 
  199.8750     2.2390    68.2730   119.4770   106.5780   115.4360    24.8750   -17.4010 
  200.0000     2.2260    69.7150   123.5020   111.2450   109.1680    24.9230   -17.4320 
  200.1250     2.2160    68.0450   122.7160   111.4020   100.0920    24.9310   -17.4680 
  200.2500     2.2090    63.9340   119.9090   109.2870    94.0980    24.9330   -17.5260 
  200.3750     2.2050    62.3600   116.4890   106.2510    93.3910    24.9330   -17.5980 
  200.5000     2.2020    65.3760   113.1670   103.1470    92.8660    24.9130   -17.6570 
  200.6250     2.2010    69.6870   110.3910   100.5630    90.5860    24.7960   -17.7000 
  200.7500     2.2020    72.0680   108.5190    98.8910    89.5870    24.5350   -17.7280 
  200.8750     2.2050    71.6330   108.0870    98.6460    92.0440    24.4300   -17.7510 
  201.0000     2.2080    68.8440   109.5480   100.2750    93.1540    24.3830   -17.7310 
  201.1250     2.2110    66.4560   113.2150   104.1250    94.2780    24.2760   -17.6650 
  201.2500     2.2110    64.5500   118.0180   109.1600    98.2260    24.1560   -17.5570 
  201.3750     2.2090    63.6150   122.7560   114.1950   103.8100    24.1310   -17.4120 
  201.5000     2.2050    64.3960   126.1630   117.9360   106.4580    24.1120   -17.2180 
  201.6250     2.2010    65.3900   127.0910   119.1450   104.0170    24.0180   -16.9910 
  201.7500     2.1980    64.0890   126.3090   118.4740   100.3040    24.0030   -16.7630 
  201.8750     2.1950    60.4700   125.1810   117.2160    98.0820    24.0000   -16.5270 
  202.0000     2.1940    58.6430   125.3680   117.0410    95.2710    24.0000   -16.2720 
  202.1250     2.1930    61.6260   128.5900   119.7190    92.7320    24.0000   -16.0130 
  202.2500     2.1940    66.1250   134.4860   125.0050    95.1410    24.0000   -15.7380 
  202.3750     2.1930    69.8070   142.0270   131.9340   107.0580    24.0000   -15.5140 
  202.5000     2.1910    70.6470   149.5940   138.9350   124.4500    24.0000   -15.3380 
  202.6250     2.1860    69.1000   155.1560   144.0690   131.1220    24.0000   -15.2420 
  202.7500     2.1810    67.6780   158.2070   146.8700   129.4920    24.0000   -15.2250 
  202.8750     2.1760    67.0710   159.0810   147.6930   122.9600    24.0030   -15.2720 
  203.0000     2.1760    66.1360   158.5090   147.2870   115.9170    24.0140   -15.3990 
  203.1250     2.1780    65.7290   156.7550   146.0480   113.2590    24.0860   -15.6220 
  203.2500     2.1820    67.2650   153.7940   143.9660   117.0370    24.1680   -15.9790 
  203.3750     2.1860    68.2640   149.4210   140.7140   122.3400    24.2560   -16.3770 
  203.5000     2.1880    66.5150   143.9970   136.3530   126.7990    24.3960   -16.7850 
  203.6250     2.1900    64.8870   138.8880   131.7980   120.9520    24.5320   -17.1520 
