~V
VERS. 2.00: Ver 2.00
~W
STRT.M 115.0000:
STOP.M 241.0000:
STEP.M 0.1250:
NULL. -999.2500:
UWI. DF3064:
~C
DEPT.M :
GR.API :
CALI.CM :
RXO.OHMM :
RI. :
RML.OHMM :
DEN.GM/CC :
SP.MV :
~A
# ...
  205.0000    59.2800    24.0810     6.5620     9.8700    10.3660     2.4220   -30.4630 
  205.1250    66.6050    24.6850     7.2920    10.1880    10.8200     2.4080   -30.7680 
  205.2500    74.0700    24.7830     8.0640    10.4310    11.2440     2.3990   -31.1130 
  205.3750    79.4210    24.9330     8.6530    10.5430    11.5630     2.4040   -31.4810 
  205.5000    81.3000    25.1620     8.7470    10.4840    11.7250     2.4150   -31.8720 
  205.6250    81.5450    25.1760     8.6070    10.2140    11.6660     2.4170   -32.2870 
  205.7500    84.7020    25.0920     8.8120     9.8680    11.5230     2.4020   -32.6720 
  205.8750    91.3450    25.0760     8.9000     9.5730    11.4370     2.3820   -33.0280 
  206.0000    98.2220    25.0700     8.7370     9.4360    11.5740     2.3700   -33.3730 
  206.1250   100.9150    25.0170     8.7050     9.6280    12.1910     2.3710   -33.7060 
  206.2500   101.8750    24.9040     8.7970    10.2220    13.3910     2.3750   -34.0260 
  206.3750   101.7810    24.7930     9.3760    11.2630    15.2200     2.3740   -34.3460 
  206.5000    97.1880    24.6920    11.3110    12.7540    17.5970     2.3670   -34.6420 
  206.6250    88.8200    24.7440    14.9440    14.7160    20.4100     2.3470   -34.8810 
  206.7500    83.5380    24.7050    18.7660    16.9480    23.3260     2.3100   -35.0900 
  206.8750    81.2150    24.6800    22.0590    19.2080    26.1010     2.2790   -35.2490 
  207.0000    77.5370    24.6120    25.4010    21.2700    28.5240     2.2760   -35.3370 
  207.1250    71.2680    24.4460    28.2720    22.9770    30.4740     2.3000   -35.3570 
  207.2500    67.0390    24.3250    29.4570    24.3410    32.0490     2.3260   -35.3010 
  207.3750    65.8590    24.4340    29.5400    25.4760    33.3670     2.3340   -35.1570 
  207.5000    65.5100    24.6530    30.9020    26.5410    34.5960     2.3250   -34.9650 
  207.6250    63.7860    24.6710    34.3860    27.5440    35.7280     2.3090   -34.7330 
  207.7500    62.0020    24.5400    35.7990    28.4550    36.7230     2.3050   -34.4890 
  207.8750    62.0350    24.2590    35.6690    29.3010    37.5280     2.3190   -34.2500 
  208.0000    63.5010    24.1420    35.6110    30.0980    38.1730     2.3430   -34.0380 
  208.1250    65.7680    23.9960    36.6760    30.8700    38.7480     2.3720   -33.8660 
  208.2500    68.9170    23.6100    38.5530    31.7470    39.4650     2.3950   -33.7120 
  208.3750    72.0950    23.4080    39.9570    32.8820    40.5370     2.3940   -33.5710 
  208.5000    72.1310    23.8260    40.6420    34.3300    42.0080     2.3600   -33.4400 
  208.6250    68.8130    24.0900    42.3360    35.9930    43.6750     2.3060   -33.3110 
  208.7500    65.5690    24.1120    44.5650    37.5560    45.1550     2.2680   -33.1720 
  208.8750    62.6760    23.9890    46.0350    38.7560    46.1630     2.2540   -32.9870 
  209.0000    61.4140    23.8560    47.5180    39.4090    46.5360     2.2550   -32.7450 
  209.1250    63.5930    23.8520    51.7500    39.3800    46.1530     2.2700   -32.4410 
  209.2500    68.9870    24.0380    54.0510    38.9700    45.4330     2.2970   -32.1010 
  209.3750    74.8020    24.5030    49.5460    38.5890    44.9110     2.3090   -31.7150 
  209.5000    76.1890    24.6810    41.4070    38.7710    45.2200     2.2910   -31.2750 
  209.6250    72.8080    24.6620    37.8860    40.2300    47.1440     2.2590   -30.7640 
  209.7500    69.1550    24.6640    41.5590    43.1550    50.6990     2.2460   -30.2130 
  209.8750    66.5500    24.7300    49.6380    47.5680    55.7900     2.2570   -29.6260 
  210.0000    63.6760    24.7620    58.2980    53.2590    62.0430     2.2840   -28.9990 
  210.1250    63.5040    24.7590    67.3740    59.3920    68.1990     2.3230   -28.3390 
  210.2500    67.6980    24.7500    80.0150    64.0530    72.1660     2.3690   -27.6640 
  210.3750    70.7110    24.6500    95.4640    65.0960    71.8700     2.4120   -27.0060 
  210.5000    69.2660    24.5050   105.4660    61.6000    66.8350     2.4510   -26.3760 
  210.6250    66.7010    24.4610    98.4960    54.0060    57.9290     2.4900   -25.8110 
  210.7500    65.2790    24.4650    82.6990    45.0270    47.9710     2.5240   -25.2850 
  210.8750    66.0380    24.4910    66.1300    36.3130    38.5750     2.5330   -24.8320 
  211.0000    68.9270    24.4520    48.3850    28.9760    30.7750     2.5140   -24.4490 
  211.1250    68.8050    24.3800    32.3030    23.6440    25.1910     2.4820   -24.1610 
  211.2500    64.8900    24.3740    22.6700    19.8030    21.2630     2.4540   -23.9580 
  211.3750    64.3050    24.4320    20.8570    17.1450    18.6230     2.4310   -23.8050 
  211.5000    72.4500    24.4600    20.2440    15.3460    16.8990     2.4050   -23.6860 
  211.6250    80.3980    24.4320    17.3530    14.2680    15.9510     2.3700   -23.5720 
  211.7500    80.2230    24.3320    14.6620    13.7020    15.5610     2.3330   -23.4580 
  211.8750    74.1980    24.2210    12.9010    13.5910    15.6580     2.3110   -23.3340 
  212.0000    67.5340    24.0610    11.9410    13.8660    16.1530     2.3180   -23.2040 
  212.1250    65.2130    23.7590    12.9630    14.5170    17.0520     2.3500   -23.0520 
  212.2500    66.3460    23.2840    15.5790    15.4780    18.2770     2.3780   -22.9120 
  212.3750    68.1550    23.2250    16.7010    16.6320    19.6830     2.3770   -22.7850 
  212.5000    68.9690    23.2510    15.8850    17.7970    21.0720     2.3490   -22.6550 
  212.6250    67.0910    23.4250    15.8360    18.7390    22.1430     2.3060   -22.5090 
  212.7500    65.2600    23.7100    16.6040    19.2230    22.6640     2.2650   -22.3530 
  212.8750    65.0140    24.0550    18.2580    19.0170    22.4200     2.2370   -22.1840 
  213.0000    66.3060    24.1390    19.8860    18.0950    21.4040     2.2310   -22.0150 
  213.1250    67.9550    23.9370    19.1090    16.5920    19.7550     2.2470   -21.8410 
  213.2500    68.5940    23.4430    16.4560    14.8780    17.8450     2.2700   -21.6310 
  213.3750    68.8630    23.2000    13.3220    13.2070    15.9790     2.2830   -21.4200 
  213.5000    67.4440    23.4780    10.2420    11.7980    14.4150     2.2850   -21.2400 
  213.6250    64.0360    24.2760     8.4310    10.8220    13.4120     2.2910   -21.1180 
  213.7500    62.0680    24.7150     7.9690    10.2280    12.9110     2.3160   -21.0420 
  213.8750    62.3460    24.7650     8.6070     9.9660    12.8090     2.3550   -21.0340 
  214.0000    63.3100    24.7580     9.3790     9.9470    12.9280     2.3930   -21.0880 
  214.1250    64.8320    24.8020    10.2600    10.0560    13.1290     2.4140   -21.1610 
  214.2500    67.4440    24.8130    11.2970    10.1840    13.2900     2.4130   -21.2130 
  214.3750    70.1130    24.7710    11.7850    10.2590    13.3470     2.4020   -21.2280 
  214.5000    70.9360    24.8280    11.4570    10.2530    13.2940     2.3900   -21.2160 
  214.6250    68.9340    24.7840    10.9650    10.1540    13.1730     2.3840   -21.1780 
  214.7500    65.8130    24.7720    11.0860    10.0390    13.0470     2.3840   -21.0940 
  214.8750    61.8970    24.7400    11.8430     9.9330    12.9510     2.3920   -20.9640 
  215.0000    58.8320    24.7660    13.0780     9.8380    12.9070     2.4100   -20.8070 
  215.1250    58.9860    24.7440    13.9490     9.7620    12.8830     2.4350   -20.7120 
  215.2500    60.1790    24.7160    13.4100     9.7050    12.8540     2.4500   -20.5810 
  215.3750    61.2290    24.7280    11.5510     9.6570    12.8020     2.4490   -20.4170 
  215.5000    63.1600    24.7240     9.9620     9.5960    12.7290     2.4370   -20.2830 
  215.6250    66.3220    24.7640     9.5150     9.5230    12.6590     2.4210   -20.1710 
  215.7500    68.5710    24.7740     9.7370     9.4470    12.5770     2.4090   -20.0840 
  215.8750    67.8970    24.7820     9.5390     9.3610    12.4820     2.4030   -20.0660 
  216.0000    65.5560    24.8100     9.2360     9.2770    12.3810     2.4070   -20.0810 
  216.1250    63.4180    24.7750     9.0430     9.2090    12.3070     2.4170   -20.1710 
