~V
VERS. 2.00: Ver 2.00
~W
STRT.M 65.0000:
STOP.M 273.0000:
STEP.M 0.1250:
NULL. -999.2500:
UWI. DF3011:
~C
DEPT.M :
DEN.GM/CC :
GR.API :
RML.OHMM :
RI. :
RXO.OHMM :
CALI.CM :
AC.US/MT :
SP.MV :
~A
# ...
  235.0000     2.2410    61.5030    29.2930    27.2350    27.4320    25.0130   378.9770    -7.3850 
  235.1250     2.2380    69.5690    27.7080    26.1850    28.2310    25.0520   371.9770    -7.4710 
  235.2500     2.2450    77.8820    24.5890    23.6400    27.5680    25.0990   360.1990    -7.5990 
  235.3750     2.2640    84.5070    20.5780    20.0240    24.6440    25.1080   344.8160    -7.7090 
  235.5000     2.2910    87.3280    16.5680    16.1410    19.3440    25.1010   330.7600    -7.7450 
  235.6250     2.3180    84.7540    13.4840    12.9170    14.1060    25.1130   323.2870    -7.6400 
  235.7500     2.3370    79.3320    11.3410    10.6230     9.8870    25.1130   322.7240    -7.4310 
  235.8750     2.3450    73.5670     9.9270     9.2200     8.0660    25.0970   324.1670    -7.1810 
  236.0000     2.3470    68.7880     9.1440     8.5210     7.7540    25.0630   321.5690    -6.8970 
  236.1250     2.3480    65.2800     8.9120     8.3510     7.9300    25.0330   316.3470    -6.5860 
  236.2500     2.3520    64.1190     8.9800     8.4050     8.1360    25.0750   312.1790    -6.2870 
  236.3750     2.3610    67.5600     9.2060     8.5210     8.3580    25.1850   310.6830    -6.0010 
  236.5000     2.3720    72.3640     9.3170     8.6010     8.5540    25.2970   310.5470    -5.7500 
  236.6250     2.3810    70.6450     9.3240     8.6080     8.6530    25.3360   309.9870    -5.6050 
  236.7500     2.3870    63.9490     9.2940     8.5790     8.6780    25.3430   308.6620    -5.5300 
  236.8750     2.3890    59.6510     9.2580     8.5450     8.7690    25.3420   306.3110    -5.4730 
  237.0000     2.3900    64.0390     9.2310     8.5200     8.9700    25.3420   303.1470    -5.4260 
  237.1250     2.3900    71.2860     9.2070     8.4970     9.2730    25.3420   300.0830    -5.3670 
  237.2500     2.3870    72.2840     9.1710     8.4630     9.5390    25.3420   297.3770    -5.2800 
  237.3750     2.3820    68.5490     9.1180     8.4130     9.6870    25.3390   294.9950    -5.2060 
  237.5000     2.3730    65.9530     9.0600     8.3580     9.7740    25.3320   294.0790    -5.1450 
  237.6250     2.3610    67.2370     9.0320     8.3320     9.9140    25.3230   295.4600    -5.1120 
  237.7500     2.3440    67.3130     9.0670     8.3650    10.1200    25.3370   299.2420    -5.1390 
  237.8750     2.3250    66.4770     9.1880     8.4800    10.4350    25.3630   305.1200    -5.1990 
  238.0000     2.3070    68.0580     9.3970     8.6770    10.7570    25.3870   307.9480    -5.2800 
  238.1250     2.2940    70.5880     9.6710     8.9350    11.1150    25.4050   303.7320    -5.3760 
  238.2500     2.2900    71.4820     9.9480     9.1960    11.3890    25.4220   293.7920    -5.5020 
  238.3750     2.2950    69.2500    10.1790     9.4130    11.5770    25.4280   284.1580    -5.6560 
  238.5000     2.3070    65.8100    10.3320     9.5570    11.7320    25.4260   279.1340    -5.8110 
  238.6250     2.3210    63.8560    10.3910     9.6180    11.5970    25.4110   275.8110    -5.9280 
  238.7500     2.3340    63.6060    10.4000     9.6370    11.5990    25.3860   273.4670    -5.9780 
  238.8750     2.3440    64.8510    10.4080     9.6540    11.6640    25.3550   270.6600    -5.9920 
  239.0000     2.3530    66.7180    10.4770     9.6980    11.8640    25.3460   264.1920    -5.9940 
  239.1250     2.3610    69.1630    10.6440     9.8010    12.0280    25.3720   261.3480    -5.9860 
  239.2500     2.3670    71.0490    10.9180     9.9590    12.2420    25.4110   260.2840    -5.9660 
  239.3750     2.3700    71.9850    11.2220    10.1680    12.4380    25.4280   261.3680    -5.9100 
  239.5000     2.3690    71.3240    11.4760    10.4170    12.7890    25.4220   263.9530    -5.8590 
  239.6250     2.3630    69.3400    11.6980    10.6940    13.5950    25.3950   267.1050    -5.7980 
  239.7500     2.3610    68.2710    11.8560    10.9770    14.8040    25.3560   269.3990    -5.6980 
  239.8750     2.3690    67.8600    12.0870    11.2510    16.4570    25.3420   270.4760    -5.5600 
  240.0000     2.3900    68.1500    12.3950    11.5040    18.4740    25.3500   271.3340    -5.3830 
  240.1250     2.4170    69.9550    12.6320    11.7290    19.9170    25.3520   271.7470    -5.1880 
  240.2500     2.4380    73.5060    12.8430    11.9280    20.4690    25.3320   272.5870    -4.9770 
  240.3750     2.4460    75.9350    13.0290    12.1030    19.7240    25.2740   270.5850    -4.7850 
  240.5000     2.4440    75.2700    13.1890    12.2540    17.8610    25.1810   264.6890    -4.6390 
  240.6250     2.4380    74.3540    13.3120    12.3700    16.1660    25.1030   258.8210    -4.5930 
  240.7500     2.4340    73.8040    13.3920    12.4450    14.8350    25.0510   256.2390    -4.6360 
  240.8750     2.4340    72.4600    13.4240    12.4760    14.1120    25.0340   257.5450    -4.7520 
  241.0000     2.4310    70.8620    13.4080    12.4610    13.8430    25.0740   260.7530    -4.8950 
  241.1250     2.4240    69.8210    13.3470    12.4030    13.6610    25.1910   263.4730    -5.0170 
  241.2500     2.4130    68.4960    13.2630    12.3240    13.6800    25.2880   265.3620    -5.1300 
  241.3750     2.4020    66.4750    13.1770    12.2430    13.7210    25.2970   266.4950    -5.2110 
  241.5000     2.3960    64.3400    13.1200    12.1890    13.6760    25.2200   266.4660    -5.2370 
  241.6250     2.3980    64.0220    13.1480    12.2150    13.4010    25.1110   265.3180    -5.1900 
  241.7500     2.4080    65.6570    13.2920    12.3520    13.1120    25.0270   263.2380    -5.0870 
  241.8750     2.4210    68.9950    13.5720    12.6140    13.2910    24.9710   259.9580    -4.9530 
  242.0000     2.4320    70.6810    13.9680    12.9820    13.7500    24.8660   254.6580    -4.8400 
  242.1250     2.4390    68.3490    14.4180    13.4040    14.3300    24.6820   248.4760    -4.7530 
  242.2500     2.4380    65.6590    14.8190    13.7930    14.8560    24.5440   243.5120    -4.6570 
  242.3750     2.4330    65.8630    15.1010    14.0960    14.9910    24.5860   241.4650    -4.5650 
  242.5000     2.4280    68.1950    15.2270    14.2880    14.8140    24.7490   242.3400    -4.4740 
  242.6250     2.4270    70.9540    15.2170    14.3680    14.9670    24.7740   243.7130    -4.4110 
  242.7500     2.4320    71.8390    15.1830    14.3870    15.3600    24.6580   244.1700    -4.3820 
  242.8750     2.4400    70.1800    15.2060    14.3790    15.8200    24.4810   243.3240    -4.3810 
  243.0000     2.4500    67.2020    15.2750    14.3680    15.9930    24.3290   241.7640    -4.4190 
  243.1250     2.4590    65.8450    15.3750    14.3750    15.7410    24.2440   240.6100    -4.5260 
  243.2500     2.4670    66.4040    15.4820    14.4170    15.4260    24.1680   240.1710    -4.6570 
  243.3750     2.4720    66.9280    15.5850    14.5140    15.3410    24.0920   240.1660    -4.7650 
  243.5000     2.4720    68.0240    15.7580    14.6780    15.6950    24.0470   239.3610    -4.8460 
  243.6250     2.4680    70.4520    16.0040    14.9090    16.6050    24.2190   236.9860    -4.8710 
  243.7500     2.4630    71.4210    16.2820    15.1710    17.7700    24.6030   233.5810    -4.8710 
  243.8750     2.4630    71.8920    16.5530    15.4280    18.7290    25.0900   229.2250    -4.8570 
  244.0000     2.4710    74.5490    16.7840    15.6510    19.1020    25.4330   223.8220    -4.8280 
  244.1250     2.4830    77.2140    16.9540    15.8140    18.3930    25.5040   221.2230    -4.7960 
  244.2500     2.4940    76.0110    17.0810    15.9230    17.0210    25.4560   223.0100    -4.7640 
  244.3750     2.4980    72.0250    17.1790    15.9850    16.1150    25.3490   226.8560    -4.7550 
  244.5000     2.4980    69.7160    17.2700    16.0150    16.3180    25.2400   229.3270    -4.7610 
  244.6250     2.4970    70.8450    17.3460    16.0310    16.7650    25.2120   231.4080    -4.7870 
  244.7500     2.4970    73.3900    17.3800    16.0530    16.8500    25.1690   234.4150    -4.8280 
  244.8750     2.4960    74.0390    17.3300    16.0860    16.7340    25.0980   236.7360    -4.8780 
