~V
VERS. 2.00: Ver 2.00
~W
STRT.M 60.0000:
STOP.M 277.0000:
STEP.M 0.1250:
NULL. -999.2500:
UWI. DF3048:
~C
DEPT.M :
SP.MV :
GR.API :
RML.OHMM :
RI. :
RXO.OHMM :
CALI.CM :
DEN.GM/CC :
~A
# ...
  217.5000   -18.0110    66.1910   102.8170    88.3040    89.9010    23.8840     2.1630 
  217.6250   -18.1720    65.2710   103.8310    88.2620    86.6140    23.9130     2.1670 
  217.7500   -18.3200    65.1300   106.9050    89.9690    84.4300    23.9640     2.1700 
  217.8750   -18.4630    64.8900   111.9730    93.4380    84.2910    24.1280     2.1700 
  218.0000   -18.6160    63.6580   118.6350    98.4230    87.5490    24.4100     2.1690 
  218.1250   -18.7820    62.6690   126.3970   104.6630    94.0920    24.5050     2.1670 
  218.2500   -18.9610    62.6880   134.4790   111.5360   101.6880    24.4570     2.1660 
  218.3750   -19.0980    62.9160   142.3470   118.6340   107.3910    24.4540     2.1650 
  218.5000   -19.1890    62.5200   149.1700   125.2900   111.2620    24.4230     2.1590 
  218.6250   -19.2490    61.6050   152.8020   129.8070   112.8800    24.3410     2.1510 
  218.7500   -19.2930    62.6940   151.6150   130.6940   108.0770    24.0790     2.1470 
  218.8750   -19.2960    66.0200   144.4520   126.7870   105.6770    23.8790     2.1590 
  219.0000   -19.2870    69.1260   131.8040   118.0800   108.0260    23.7010     2.1900 
  219.1250   -19.2260    71.8110   116.0880   105.8780   102.2770    23.1910     2.2360 
  219.2500   -19.1410    75.1310   101.4110    93.5180    84.1850    23.2050     2.2730 
  219.3750   -19.0960    77.2690    90.0020    83.1810    68.9040    23.4360     2.2890 
  219.5000   -19.0730    76.7150    82.6470    76.0520    61.4650    23.7590     2.2790 
  219.6250   -19.0890    73.6470    79.6040    72.8330    59.4020    23.9100     2.2570 
  219.7500   -19.1130    68.6930    79.3930    72.4170    59.7660    23.9410     2.2390 
  219.8750   -19.1920    63.1810    81.2460    74.1420    60.9590    23.9880     2.2270 
  220.0000   -19.2630    61.2270    84.5560    77.4080    64.4900    23.8540     2.2160 
  220.1250   -19.3950    65.9940    88.9290    81.7940    65.2630    23.4280     2.1940 
  220.2500   -19.5280    69.2750    93.5200    86.4680    64.8670    22.7310     2.1600 
  220.3750   -19.6700    68.7550    97.3240    90.5420    64.5770    22.4090     2.1240 
  220.5000   -19.8300    70.1400    99.0210    92.8510    65.8320    22.4510     2.0970 
  220.6250   -19.9810    74.5760    96.8180    91.7250    66.7110    22.6870     2.0940 
  220.7500   -20.1170    75.9690    91.1760    87.3500    65.6480    22.9380     2.1100 
  220.8750   -20.2160    72.5590    83.3170    80.5840    62.2260    23.0100     2.1350 
  221.0000   -20.3000    69.4270    75.1530    73.0270    56.5400    23.1380     2.1550 
  221.1250   -20.3460    71.2580    68.8810    66.7190    51.9550    23.4130     2.1620 
  221.2500   -20.4070    75.0930    65.1940    62.6150    51.4050    23.6650     2.1620 
  221.3750   -20.4540    78.1690    64.1400    60.9390    55.7310    23.7560     2.1600 
  221.5000   -20.4960    78.1380    65.3750    61.4850    61.9510    23.6920     2.1640 
  221.6250   -20.5120    75.7370    68.5760    64.0590    68.8550    23.5590     2.1770 
  221.7500   -20.5380    73.3610    72.7610    67.7600    76.0610    23.7720     2.1960 
  221.8750   -20.5640    71.7950    77.3230    72.0050    79.9450    24.1860     2.2180 
  222.0000   -20.5990    71.7870    81.7650    76.2640    79.5460    24.4030     2.2320 
  222.1250   -20.6530    71.0480    85.6690    80.0480    82.6850    24.3830     2.2300 
  222.2500   -20.7090    70.0370    89.0110    83.2400    89.5430    24.3600     2.2140 
  222.3750   -20.7700    70.5000    91.8740    85.8690    94.8910    24.4220     2.1910 
  222.5000   -20.8190    73.3350    94.3320    88.0130    96.6590    24.3290     2.1670 
  222.6250   -20.8720    75.0840    96.0590    89.4550   101.1950    23.8640     2.1480 
  222.7500   -20.9110    72.9160    96.5630    89.8550   104.6710    23.3780     2.1340 
  222.8750   -20.9350    69.9130    95.2610    88.7390   106.5670    23.5200     2.1260 
  223.0000   -20.9660    70.7720    91.9200    85.8860   107.9100    23.9880     2.1260 
  223.1250   -20.9930    74.8270    86.9060    81.5020   106.9090    24.2770     2.1340 
  223.2500   -21.0170    76.6070    81.8620    76.9230    97.4100    24.3490     2.1590 
  223.3750   -21.0330    74.3310    78.1360    73.3310    82.0090    24.2890     2.1680 
  223.5000   -21.0630    71.9770    76.5750    71.5700    70.3470    24.2870     2.1670 
  223.6250   -21.0970    74.4410    77.6230    72.1810    68.5080    24.2620     2.1590 
  223.7500   -21.1640    76.8720    80.2570    74.3360    74.2760    24.1720     2.1490 
  223.8750   -21.2630    72.8950    83.6010    77.2800    85.1860    24.1420     2.1470 
  224.0000   -21.3560    64.0020    86.8890    80.3100    96.1660    24.3810     2.1540 
  224.1250   -21.4450    61.3750    89.8270    83.1080    97.3510    24.5400     2.1670 
  224.2500   -21.5090    66.3390    92.9760    86.0830    95.2490    24.4720     2.1820 
  224.3750   -21.5640    71.1290    97.0600    89.8330    93.3760    24.1600     2.1930 
  224.5000   -21.6060    72.5100   102.4420    94.6760    94.6020    23.8810     2.1960 
  224.6250   -21.6310    72.0750   108.6550   100.2260    99.5800    23.7970     2.1910 
  224.7500   -21.6250    70.1260   114.0670   105.0930   109.1530    23.8980     2.1790 
  224.8750   -21.6190    67.0360   117.1620   107.9510   121.8440    24.1440     2.1650 
  225.0000   -21.6430    64.2450   117.0130   107.9370   133.0540    24.4200     2.1590 
  225.1250   -21.6720    64.6170   113.4210   104.7070   136.2840    24.4260     2.1640 
  225.2500   -21.7250    67.2160   108.3150    99.8180   123.0220    24.2730     2.1810 
  225.3750   -21.7830    69.9810   103.2880    94.6190   103.6340    24.1440     2.2040 
  225.5000   -21.8510    70.9120    99.6780    90.3780    93.5680    24.1700     2.2220 
  225.6250   -21.9360    70.1810    98.9270    88.5630    93.3470    24.3530     2.2280 
  225.7500   -22.0280    70.1860   101.3890    89.6510    92.9280    24.4520     2.2230 
  225.8750   -22.0640    69.5700   107.6710    94.1720    93.6740    24.2790     2.2090 
  226.0000   -22.0950    66.7450   118.1960   102.3870    99.6950    24.0730     2.1960 
  226.1250   -22.0410    64.3840   133.2270   114.3700   115.0810    24.1030     2.1880 
  226.2500   -21.9360    64.2180   150.1490   127.8690   134.7090    24.2250     2.1870 
  226.3750   -21.7710    64.8350   165.6420   140.2280   153.3080    24.1650     2.1890 
  226.5000   -21.5940    65.0240   175.6720   148.3700   163.2380    24.0520     2.1910 
  226.6250   -21.3790    64.0240   175.4810   148.7670   162.3560    24.1020     2.1940 
  226.7500   -21.1490    63.4960   166.7840   142.6160   154.6750    24.1780     2.2030 
  226.8750   -20.9500    64.2950   153.0620   132.2780   132.7670    24.2020     2.2170 
  227.0000   -20.7090    67.2480   138.6990   120.9640   104.8810    24.2590     2.2310 
  227.1250   -20.5430    70.6640   127.5520   111.8470    91.1310    24.2610     2.2350 
  227.2500   -20.4280    69.6510   120.2030   105.7620    87.2930    24.2270     2.2280 
  227.3750   -20.3640    64.7930   116.0650   102.3880    87.5720    24.2880     2.2140 
  227.5000   -20.2940    61.5990   113.8650   100.7200    90.0300    24.4680     2.2020 
  227.6250   -20.2210    64.8200   111.9570    99.3970    92.2610    24.5320     2.1950 
  227.7500   -20.1290    69.9790   109.0100    97.2500    92.4260    24.5050     2.1900 
  227.8750   -20.0330    72.4900   104.6230    93.8610    88.6330    24.3600     2.1850 
  228.0000   -19.9220    72.4690    99.0280    89.3020    81.6920    24.3040     2.1780 
  228.1250   -19.7840    71.7150    92.7540    83.8690    74.1440    24.3810     2.1730 
  228.2500   -19.6140    71.1170    86.4540    78.1510    68.3910    24.4790     2.1720 
  228.3750   -19.4150    70.9070    80.4500    72.4960    63.8000    24.5410     2.1770 
  228.5000   -19.1960    70.9730    75.0750    67.2740    60.1520    24.4180     2.1830 
  228.6250   -18.9760    70.9650    71.1750    63.2840    57.3630    24.0860     2.1840 
