~V
VERS. 2.00: Ver 2.00
~W
STRT.M 60.0000:
STOP.M 238.0000:
STEP.M 0.1250:
NULL. -999.2500:
UWI. DF308:
~C
DEPT.M :
DEN.GM/CC :
SP.MV :
AC.US/MT :
GR.API :
CALI.CM :
RXO.OHMM :
RI. :
RML.OHMM :
~A
# ...
  140.0000     2.5770   -15.6160   287.3380    59.0490    24.0690    17.1430    16.3070    19.1280 
  140.1250     2.5730   -15.6180   291.2510    55.8000    24.0620    16.7480    15.9300    18.6820 
  140.2500     2.5680   -15.6280   293.0140    54.0400    24.0610    15.9650    15.6710    18.3880 
  140.3750     2.5750   -15.6480   291.3120    54.8500    24.0810    15.2640    15.6070    18.3620 
  140.5000     2.5920   -15.6770   287.6240    56.1710    24.0850    15.4670    15.8010    18.6890 
  140.6250     2.6000   -15.7240   286.9300    58.7780    24.0630    16.8930    16.2950    19.3990 
  140.7500     2.5830   -15.7690   292.3330    62.4740    24.0600    18.3700    16.9210    20.2240 
  140.8750     2.5440   -15.7940   302.7230    64.9200    24.0690    19.0250    17.4590    20.8560 
  141.0000     2.5060   -15.8420   313.5220    66.4670    24.0740    19.0120    17.6580    20.9910 
  141.1250     2.4980   -15.9030   319.1780    69.6660    24.0840    18.9110    17.2950    20.4040 
  141.2500     2.5150   -15.9240   319.8490    71.6370    24.0930    18.2790    16.5720    19.4100 
  141.3750     2.5390   -15.9360   317.8190    71.4820    24.0620    16.7430    15.7680    18.3930 
  141.5000     2.5520   -15.9270   315.0240    68.3950    23.9870    14.9900    15.1540    17.7120 
  141.6250     2.5510   -15.8740   311.8760    63.7510    23.9080    14.4540    14.9750    17.6860 
  141.7500     2.5490   -15.8230   308.4740    61.6330    23.8820    15.4960    15.2200    18.2310 
  141.8750     2.5550   -15.7640   305.5670    64.3690    23.8920    17.0640    15.8280    19.1950 
  142.0000     2.5680   -15.6710   304.0120    68.7950    23.9380    18.0610    16.6440    20.3030 
  142.1250     2.5750   -15.5750   304.2060    67.6790    23.9290    18.2970    17.4140    21.1900 
  142.2500     2.5680   -15.4880   305.4460    64.6500    23.8880    18.6650    17.9480    21.7000 
  142.3750     2.5440   -15.3960   307.2850    64.7240    23.8850    19.2720    18.2140    21.8730 
  142.5000     2.5160   -15.3230   309.1410    67.3090    23.9270    19.6370    18.2910    21.8620 
  142.6250     2.5060   -15.2640   310.0180    67.5080    23.9320    19.6640    18.3190    21.8640 
  142.7500     2.5180   -15.2160   309.9020    64.7830    23.9440    19.7080    18.4230    22.0120 
  142.8750     2.5360   -15.1870   309.5870    61.8300    23.9700    20.1640    18.6470    22.3480 
  143.0000     2.5440   -15.1710   309.7020    58.7990    23.9920    21.0270    18.9750    22.8330 
  143.1250     2.5380   -15.1750   309.7770    56.3670    23.9960    21.8240    19.3430    23.3580 
  143.2500     2.5370   -15.2040   308.9210    56.5780    23.9930    22.2380    19.6540    23.7690 
  143.3750     2.5400   -15.2470   307.3400    60.5020    23.9920    21.9430    19.8460    23.9620 
  143.5000     2.5410   -15.3170   306.3260    65.0350    23.9940    21.0020    19.8920    23.8860 
  143.6250     2.5380   -15.4310   307.5080    66.4280    23.9710    20.0920    19.7940    23.5370 
  143.7500     2.5380   -15.5400   309.6750    65.0340    23.9130    19.9580    19.6450    23.0660 
  143.8750     2.5410   -15.6480   309.7610    62.7890    23.8270    20.3000    19.5340    22.6170 
  144.0000     2.5450   -15.7810   304.7210    61.9040    23.7050    20.6760    19.5580    22.3390 
  144.1250     2.5600   -15.8740   293.9580    62.7210    23.5360    21.0040    19.8340    22.4170 
  144.2500     2.5820   -15.9510   283.3060    64.1840    23.4110    21.3600    20.3680    22.8720 
  144.3750     2.5950   -16.0380   279.6100    65.2790    23.3900    21.8280    21.1570    23.6960 
  144.5000     2.5780   -16.0860   288.1110    66.0000    23.4440    22.1540    22.1320    24.7590 
  144.6250     2.5300   -16.1040   310.1810    67.2640    23.5040    21.7370    22.9340    25.5580 
  144.7500     2.4710   -16.1410   336.9780    69.2620    23.5400    21.2280    22.9050    25.3580 
  144.8750     2.4190   -16.1820   361.6760    72.1830    23.6140    20.9550    21.4430    23.5730 
  145.0000     2.3890   -16.2260   380.8010    77.6960    23.7830    19.8080    18.5280    20.2260 
  145.1250     2.3880   -16.3050   392.8070    84.8560    23.9420    15.8570    14.9310    16.1260 
  145.2500     2.3990   -16.4030   399.0700    88.2730    23.9680    10.9680    11.7690    12.5360 
  145.3750     2.4020   -16.5190   400.4060    88.3800    23.9140     7.7390     9.5120    10.0740 
  145.5000     2.3900   -16.6410   399.0110    88.2900    23.8920     6.9210     8.2750     8.9420 
  145.6250     2.3740   -16.7800   398.3970    85.0360    23.7220     8.0020     8.2310     9.4020 
  145.7500     2.3610   -16.9180   400.5710    78.0430    23.5580    11.0710     9.2980    11.3160 
  145.8750     2.3430   -17.0430   405.3040    70.7310    23.5300    16.9130    11.6850    14.8350 
  146.0000     2.3120   -17.1590   410.9480    66.4290    23.6720    25.9610    15.6540    20.0480 
  146.1250     2.2740   -17.2720   414.9670    64.4980    23.9220    37.1850    21.5500    26.9250 
  146.2500     2.2470   -17.3610   416.4050    63.5370    24.1420    46.4130    28.4960    34.3010 
  146.3750     2.2360   -17.4120   415.9780    62.0510    24.2670    50.6100    35.2550    40.8860 
  146.5000     2.2330   -17.4770   415.3620    60.1010    24.3110    51.2440    40.5470    45.5940 
  146.6250     2.2260   -17.5130   415.9410    60.3540    24.3210    51.4390    43.4790    47.8660 
  146.7500     2.2220   -17.5100   417.1490    61.0170    24.3240    52.2980    44.5940    48.5200 
  146.8750     2.2310   -17.5020   417.8700    59.2150    24.3110    52.9590    44.0320    47.7510 
  147.0000     2.2480   -17.4640   417.3460    56.6420    24.2640    51.9180    41.6710    45.3480 
  147.1250     2.2570   -17.3730   415.2400    57.5450    24.2240    45.8790    37.2360    40.8330 
  147.2500     2.2560   -17.2870   411.8910    59.2670    24.1900    35.5780    31.7110    35.0370 
  147.3750     2.2520   -17.1970   407.5540    59.5770    24.1850    24.5170    26.1470    29.0190 
  147.5000     2.2490   -17.0860   403.1270    61.8000    24.2050    16.4760    21.3980    23.7730 
  147.6250     2.2510   -16.9980   400.4610    68.6980    24.1850    14.0140    18.0620    20.0920 
  147.7500     2.2640   -16.9210   400.1260    74.6180    24.1300    15.3340    15.9450    17.8580 
  147.8750     2.2870   -16.8540   401.3980    75.7300    24.0880    19.8160    14.9510    16.9810 
  148.0000     2.3060   -16.8240   402.8730    73.3130    24.0740    25.4600    14.9920    17.3370 
  148.1250     2.3000   -16.8360   403.2340    70.7040    24.0900    28.7920    16.1550    18.9470 
  148.2500     2.2750   -16.8760   402.4210    70.6090    24.1360    29.6900    18.1460    21.3420 
  148.3750     2.2510   -16.9380   400.8120    72.0980    24.2000    29.8810    20.6490    24.0300 
  148.5000     2.2440   -17.0010   398.9290    70.2490    24.2490    30.4880    23.0930    26.3200 
  148.6250     2.2540   -17.0660   397.4040    66.2160    24.2870    30.0160    24.5360    27.2650 
  148.7500     2.2650   -17.1500   396.6470    67.1470    24.3060    28.0440    24.6330    26.7650 
  148.8750     2.2670   -17.2250   396.6790    72.1750    24.3130    25.2140    23.5280    25.1360 
  149.0000     2.2650   -17.3000   397.1880    74.0970    24.3130    22.9150    21.7470    23.0020 
  149.1250     2.2730   -17.3760   397.9390    72.8690    24.3130    20.2150    19.9000    21.0270 
  149.2500     2.2870   -17.4160   398.8960    76.2140    24.3130    17.5400    18.3690    19.5230 
  149.3750     2.2940   -17.4600   400.1580    82.9430    24.3070    15.6160    17.2750    18.5710 
  149.5000     2.2860   -17.5190   401.6570    86.7690    24.2900    15.1970    16.6370    18.1460 
  149.6250     2.2710   -17.5650   402.9020    85.1280    24.2560    15.7220    16.4560    18.1900 
  149.7500     2.2650   -17.6230   403.3310    81.2030    24.2390    16.2770    16.5630    18.4760 
  149.8750     2.2670   -17.7040   402.8460    77.7560    24.2350    16.8310    16.8720    18.8960 
