~V
VERS. 2.00: Ver 2.00
~W
STRT.M 115.0000:
STOP.M 288.0000:
STEP.M 0.1250:
NULL. -999.2500:
UWI. DF3049:
~C
DEPT.M :
GR.API :
CALI.CM :
RXO.OHMM :
RI. :
RML.OHMM :
SP.MV :
DEN.GM/CC :
AC.US/MT :
~A
# ...
  205.0000    61.3170    25.1160     5.7920     5.7920     6.7990   -15.6400     2.5030   394.3330 
  205.1250    61.6100    25.0900     4.5360     4.8510     5.7470   -14.9820     2.4690   399.0320 
  205.2500    67.3150    25.0780     4.3830     4.5880     5.6460   -14.4080     2.4690   398.9940 
  205.3750    71.2210    25.0730     4.4600     4.6850     5.9420   -13.9450     2.4820   397.8520 
  205.5000    71.9340    25.0670     4.5600     4.9610     6.3340   -13.5970     2.4910   396.9790 
  205.6250    73.0920    25.0500     4.6130     5.2610     6.6110   -13.3740     2.4920   396.9840 
  205.7500    78.4020    25.0280     4.6130     5.4740     6.6870   -13.2340     2.4850   397.3130 
  205.8750    84.8010    25.0410     4.6720     5.6090     6.6760   -13.1710     2.4760   396.6680 
  206.0000    88.8810    25.1000     4.8820     5.7010     6.6700   -13.1760     2.4660   394.4860 
  206.1250    89.4530    25.1440     5.1330     5.7780     6.7180   -13.2310     2.4620   391.0720 
  206.2500    87.5480    25.1540     5.3140     5.8430     6.8350   -13.3320     2.4640   387.2650 
  206.3750    84.8640    25.1540     5.4560     5.8830     6.9900   -13.4500     2.4650   383.8950 
  206.5000    81.9350    25.1540     5.6650     5.8740     7.1500   -13.5720     2.4540   381.3690 
  206.6250    81.1620    25.1540     5.8570     5.8000     7.2840   -13.7310     2.4320   379.8910 
  206.7500    83.4570    25.1540     5.9070     5.6630     7.3510   -13.9290     2.4140   379.5300 
  206.8750    86.0950    25.1540     5.9520     5.4940     7.3340   -14.1780     2.4060   379.6750 
  207.0000    88.5140    25.1540     6.0580     5.3240     7.2440   -14.4570     2.4050   379.8970 
  207.1250    89.7720    25.1670     6.2160     5.2180     7.1770   -14.7680     2.4050   379.9730 
  207.2500    90.2030    25.2210     6.4400     5.3500     7.4450   -15.0760     2.4110   378.4500 
  207.3750    89.7190    25.3080     6.8110     5.8810     8.3710   -15.4020     2.4340   371.3190 
  207.5000    85.1490    25.3650     7.9070     7.0260    10.3210   -15.7500     2.4810   353.5810 
  207.6250    75.8490    25.3830    11.3720     9.0460    13.6590   -16.1060     2.5410   324.7180 
  207.7500    66.6180    25.3830    19.4600    12.3930    18.9180   -16.4430     2.5770   295.5490 
  207.8750    67.0030    25.3830    30.1740    16.7550    25.4420   -16.7750     2.5660   282.7490 
  208.0000    74.1660    25.3830    37.6550    21.2290    31.7020   -17.1170     2.5130   293.5780 
  208.1250    78.0990    25.3980    37.2120    24.3610    35.4350   -17.4720     2.4410   322.1960 
  208.2500    72.6300    25.4430    31.7030    25.0440    35.1600   -17.8460     2.3810   352.9500 
  208.3750    70.1250    25.5030    28.1640    24.3890    33.1120   -18.2100     2.3390   373.8740 
  208.5000    79.1440    25.4990    26.8360    23.3820    31.0400   -18.5620     2.3160   383.9610 
  208.6250    89.6200    25.4120    26.5730    22.5880    29.7420   -18.9150     2.3100   387.3170 
  208.7500    87.1290    25.2460    26.4110    22.2770    29.4060   -19.2640     2.3180   388.4060 
  208.8750    79.8610    25.1780    26.0180    22.4390    29.7320   -19.5670     2.3280   389.8380 
  209.0000    75.3270    25.2040    24.9440    23.1730    30.7340   -19.8190     2.3310   391.8040 
  209.1250    74.7920    25.3160    23.9220    24.6300    32.5910   -20.0250     2.3210   393.7310 
  209.2500    75.1100    25.4600    25.0220    27.0160    35.5990   -20.1850     2.3070   394.7230 
  209.3750    75.2080    25.5220    28.7840    29.9620    39.2860   -20.3080     2.2980   394.6170 
  209.5000    72.6470    25.5350    33.5790    32.8140    42.7590   -20.3980     2.2970   393.6300 
  209.6250    70.4310    25.5350    36.1850    34.4940    44.5480   -20.4560     2.3030   392.1540 
  209.7500    73.0940    25.5350    34.1410    33.6110    42.7980   -20.4990     2.3140   390.6550 
  209.8750    76.7260    25.5350    29.2530    30.7910    38.5020   -20.5550     2.3270   389.5620 
  210.0000    78.0330    25.5040    23.9720    27.2540    33.4390   -20.6420     2.3360   388.9850 
  210.1250    76.2380    25.4050    18.9060    24.1280    29.1700   -20.7290     2.3410   388.6280 
  210.2500    71.6460    25.2260    14.2980    22.1930    26.7220   -20.8380     2.3400   388.0800 
  210.3750    69.4240    25.2090    13.0370    21.3970    25.9100   -20.9730     2.3330   387.4570 
  210.5000    73.8770    25.3410    16.1010    21.6420    26.5090   -21.1430     2.3190   387.1320 
  210.6250    81.9060    25.4610    20.8120    22.7740    28.2010   -21.3290     2.3060   387.1850 
  210.7500    84.2460    25.4440    23.4190    24.7810    30.8290   -21.5300     2.3010   387.1330 
  210.8750    80.2380    25.2560    24.9870    27.5180    34.1960   -21.7270     2.3000   386.6260 
  211.0000    74.9350    25.0110    27.6330    31.1010    38.4900   -21.8990     2.3000   386.0850 
  211.1250    70.2910    24.8800    31.5160    35.7340    44.0500   -22.0480     2.3010   386.4440 
  211.2500    68.1850    24.9190    36.5150    41.7560    51.4310   -22.1770     2.2990   388.3960 
  211.3750    69.1510    24.9430    44.3820    48.6320    60.0600   -22.2730     2.2870   390.8670 
  211.5000    70.7610    24.9240    54.8590    55.3890    68.7190   -22.3320     2.2700   392.6240 
  211.6250    70.3810    24.8620    62.5030    60.7560    75.6520   -22.3630     2.2590   393.0700 
  211.7500    66.3030    24.8020    61.5580    63.4830    79.0780   -22.3930     2.2600   392.4940 
  211.8750    63.9000    24.7780    58.5680    64.2090    79.8940   -22.4190     2.2670   391.7570 
  212.0000    65.4460    24.7740    58.1270    63.9140    79.5040   -22.4720     2.2740   391.0430 
  212.1250    67.0420    24.7740    59.7300    63.7170    79.3820   -22.5550     2.2770   390.3180 
  212.2500    65.1120    24.7740    60.2550    64.7290    80.8810   -22.6430     2.2780   389.7770 
  212.3750    61.5910    24.7770    58.6920    67.1990    84.1940   -22.7680     2.2810   389.6410 
  212.5000    58.8900    24.7870    57.8400    71.1820    89.2920   -22.9180     2.2840   389.8900 
  212.6250    56.1410    24.7960    61.7810    76.5750    95.9600   -23.0880     2.2830   390.3240 
  212.7500    54.0250    24.7540    70.0190    83.1580   103.7740   -23.2350     2.2730   390.8340 
  212.8750    54.6170    24.6320    77.5740    89.9790   111.4870   -23.3770     2.2620   391.3840 
  213.0000    56.7360    24.5000    82.5370    96.0710   117.8300   -23.4970     2.2580   391.8710 
  213.1250    58.2640    24.4830    85.6570   100.5180   121.6900   -23.5870     2.2650   392.0520 
  213.2500    60.8390    24.6170    86.8970   102.4890   122.2100   -23.6620     2.2700   391.3720 
  213.3750    63.7060    24.7450    87.4720   102.5810   120.4630   -23.7140     2.2660   389.8690 
  213.5000    64.3910    24.8210    86.6180   101.4020   117.3670   -23.7410     2.2580   388.1950 
  213.6250    62.9990    24.8580    84.6380    99.5800   113.7810   -23.7500     2.2540   387.4250 
  213.7500    62.0350    24.8700    83.2240    97.5300   110.3090   -23.7660     2.2540   388.4630 
  213.8750    63.7490    24.8720    81.3570    95.1760   106.7740   -23.7900     2.2460   390.0940 
  214.0000    66.4540    24.8720    79.0440    91.8300   102.2130   -23.8140     2.2450   390.4030 
  214.1250    67.5250    24.8750    77.3300    86.8170    95.6860   -23.8340     2.2680   386.9040 
  214.2500    65.4350    24.8930    76.2730    80.2500    87.4040   -23.8720     2.3230   375.2490 
  214.3750    65.2570    24.9160    72.5470    73.9190    79.6010   -23.9200     2.3730   356.3770 
  214.5000    68.5360    24.9040    63.0540    69.4960    74.1690   -23.9970     2.3910   336.3440 
  214.6250    70.6920    24.8150    52.0590    68.2970    72.4200   -24.0680     2.3720   325.5240 
  214.7500    68.3720    24.7000    50.5820    71.7180    75.6790   -24.1620     2.3360   332.8890 
  214.8750    65.3530    24.5540    65.7230    78.6920    82.7450   -24.2700     2.3070   349.8240 
