~V
VERS. 2.00: Ver 2.00
~W
STRT.M 60.0000:
STOP.M 264.0000:
STEP.M 0.1250:
NULL. -999.2500:
UWI. DF303:
~C
DEPT.M :
DEN.GM/CC :
SP.MV :
AC.US/MT :
GR.API :
CALI.CM :
RXO.OHMM :
RI. :
RML.OHMM :
~A
# ...
  170.0000     2.3140   -29.6400   414.4170    75.1260    24.6140    80.0400    81.6080    93.9470 
  170.1250     2.3040   -29.7190   414.7840    73.1090    24.5400    78.1910    81.2750    93.3430 
  170.2500     2.2970   -29.8050   415.4320    71.6480    24.4220    70.1320    80.2150    91.7380 
  170.3750     2.2940   -29.8760   415.6310    71.8610    24.2820    61.1220    80.1650    91.3580 
  170.5000     2.2920   -29.9390   415.1430    73.2990    24.1900    58.6350    82.4210    93.7580 
  170.6250     2.2900   -29.9860   414.2920    75.0590    24.1400    68.9610    87.6530    99.8440 
  170.7500     2.2870   -30.0240   413.4870    74.8400    24.1160    83.0640    94.2500   107.8400 
  170.8750     2.2880   -30.0350   412.7200    72.1610    24.1040    91.4410   100.2380   115.2280 
  171.0000     2.2920   -30.0300   411.9940    75.4250    24.1040    91.0800   103.7390   119.2600 
  171.1250     2.2970   -29.9890   411.2620    83.3120    24.1010    85.7760   103.9010   118.5610 
  171.2500     2.3020   -29.9240   410.1570    83.5600    24.1010    80.8840   102.8980   116.2140 
  171.3750     2.3070   -29.8350   408.4250    75.2220    24.0980    77.5700   102.6120   114.7750 
  171.5000     2.3090   -29.7500   406.5750    67.6110    24.0940    77.0610   103.7410   115.1440 
  171.6250     2.3020   -29.6490   406.2050    68.0510    24.0920    82.9970   104.8640   115.5440 
  171.7500     2.2930   -29.5480   407.9840    70.2850    24.0930    90.3700   103.0480   112.1940 
  171.8750     2.2920   -29.4480   411.4390    71.4120    24.0950    92.7840    96.1700   102.5580 
  172.0000     2.3000   -29.3350   415.3560    70.9860    24.1000    88.2380    84.3470    87.5160 
  172.1250     2.3080   -29.2270   418.4410    70.3050    24.0940    77.5250    70.2660    71.2660 
  172.2500     2.3120   -29.1090   420.5140    72.9910    24.0740    61.9550    57.7000    57.6500 
  172.3750     2.3140   -28.9830   421.9630    76.9630    24.0220    44.6870    48.2410    47.7530 
  172.5000     2.3200   -28.8530   423.1740    76.9000    23.9390    31.5490    42.0470    41.3680 
  172.6250     2.3310   -28.7400   423.5340    73.9410    23.8760    25.7990    38.7340    38.0170 
  172.7500     2.3420   -28.6330   422.0160    73.6060    23.8420    23.4450    36.8550    36.2070 
  172.8750     2.3530   -28.5310   418.7520    75.6420    23.8320    23.2920    35.6080    35.0750 
  173.0000     2.3630   -28.4380   415.7780    77.0000    23.8310    24.3350    34.4070    33.9600 
  173.1250     2.3700   -28.3680   415.8840    75.9210    23.8580    24.0300    33.0440    32.5780 
  173.2500     2.3780   -28.3350   418.1070    79.1420    23.9680    22.4600    31.8580    31.3030 
  173.3750     2.3850   -28.3380   420.2340    84.0790    24.1880    21.8010    31.3020    30.6750 
  173.5000     2.3860   -28.3590   421.1620    82.7240    24.4290    23.7500    31.7200    31.1050 
  173.6250     2.3740   -28.3990   421.8660    75.2650    24.5500    27.8080    33.3890    32.8930 
  173.7500     2.3560   -28.4440   423.3310    72.1650    24.5870    32.3880    35.9080    35.5640 
  173.8750     2.3390   -28.5080   424.8900    75.5840    24.5920    36.3240    38.8210    38.5890 
  174.0000     2.3260   -28.5910   425.3300    79.0860    24.5910    39.1690    41.5800    41.3570 
  174.1250     2.3210   -28.6810   423.7410    79.3410    24.5970    39.1810    43.7090    43.3590 
  174.2500     2.3220   -28.7620   421.0550    77.5820    24.5800    37.3730    45.3670    44.8460 
  174.3750     2.3280   -28.8420   418.4640    75.7290    24.5300    35.4860    46.8390    46.1950 
  174.5000     2.3340   -28.9200   417.2250    76.4170    24.4880    35.6650    48.2100    47.5710 
  174.6250     2.3370   -28.9860   418.1230    78.7390    24.4720    37.6490    48.7210    48.2950 
  174.7500     2.3320   -29.0300   420.0980    80.8190    24.4720    37.5910    47.3230    47.1990 
  174.8750     2.3200   -29.0380   422.2720    83.2110    24.4710    35.3550    43.3910    43.4610 
  175.0000     2.3110   -29.0120   424.3060    87.4300    24.4700    31.1970    37.4810    37.5210 
  175.1250     2.3200   -28.9640   426.2060    90.2550    24.4810    25.0790    31.2720    31.1240 
  175.2500     2.3350   -28.9050   427.7670    87.0410    24.5740    18.6570    26.2300    25.9060 
  175.3750     2.3440   -28.8180   428.7130    81.5460    24.8140    14.8470    22.8130    22.3960 
  175.5000     2.3390   -28.7070   429.0530    79.5400    25.1150    14.2600    21.0210    20.6400 
  175.6250     2.3270   -28.5680   428.7570    81.3890    25.2840    16.4530    20.9610    20.7860 
  175.7500     2.3180   -28.4350   427.7600    79.7790    25.3190    20.5780    22.2800    22.4420 
  175.8750     2.3190   -28.3250   426.0430    74.3730    25.2770    25.3530    24.8710    25.4890 
  176.0000     2.3270   -28.2310   423.9090    74.0380    25.1850    30.2470    28.5210    29.7240 
  176.1250     2.3300   -28.1500   421.8210    79.8270    25.0990    34.6970    32.8510    34.8020 
  176.2500     2.3230   -28.0600   419.9920    82.9050    25.0200    38.8980    37.1330    39.9180 
  176.3750     2.3100   -27.9840   418.4930    80.7490    24.9700    41.6570    40.9050    44.4970 
  176.5000     2.3000   -27.9010   417.5830    76.1470    24.9430    43.7620    43.9520    48.2120 
  176.6250     2.2920   -27.8390   417.7700    72.4290    24.9180    45.5070    46.3080    51.0420 
  176.7500     2.2860   -27.7640   418.6930    70.4060    24.8940    46.9530    48.4670    53.6300 
  176.8750     2.2800   -27.6760   419.4630    69.8860    24.8770    49.0230    50.7910    56.4900 
  177.0000     2.2780   -27.5600   418.5210    68.9950    24.8710    52.1410    53.4920    59.8970 
  177.1250     2.2890   -27.3980   411.4220    66.9990    24.8710    55.0740    56.6770    63.9400 
  177.2500     2.3260   -27.2150   393.6430    66.2570    24.8690    57.1770    59.9700    68.1900 
  177.3750     2.3920   -26.9820   363.7380    65.1920    24.8680    59.2640    62.4560    71.5930 
  177.5000     2.4710   -26.7060   329.0590    65.0100    24.8680    62.8090    62.6640    72.2380 
  177.6250     2.5170   -26.3980   308.7420    67.1390    24.8440    68.3190    58.7740    67.6160 
  177.7500     2.5180   -26.0710   312.9000    68.3770    24.7940    69.2020    52.0020    59.3590 
  177.8750     2.4850   -25.7220   336.8910    66.3480    24.7470    59.6240    44.4220    50.2990 
  178.0000     2.4460   -25.3580   363.3880    64.5910    24.7190    42.4660    37.9890    42.8760 
  178.1250     2.4260   -24.9980   370.3820    64.3910    24.6890    29.0480    33.8240    38.3120 
  178.2500     2.4300   -24.6260   357.8330    65.0300    24.6330    23.0270    31.2770    35.6670 
  178.3750     2.4510   -24.2440   338.2950    66.8420    24.5870    23.0010    29.7790    34.1560 
  178.5000     2.4690   -23.8750   325.1990    67.8060    24.5550    26.7290    28.9160    33.1640 
  178.6250     2.4730   -23.4770   322.1820    66.5320    24.5440    28.3170    28.7340    32.6380 
  178.7500     2.4860   -23.0670   319.3880    66.3890    24.5890    25.3260    29.5160    33.0400 
  178.8750     2.5280   -22.6340   308.7930    67.6900    24.6460    22.2320    31.6290    34.9600 
  179.0000     2.5930   -22.1980   288.2630    67.3570    24.6780    25.8400    34.7690    38.3390 
  179.1250     2.6520   -21.7480   263.4960    63.6050    24.7030    41.6160    36.4630    40.6330 
  179.2500     2.6830   -21.3100   246.8570    58.6550    24.7680    62.8130    33.5300    37.5200 
  179.3750     2.6810   -20.9000   248.4730    54.1800    24.8330    68.1570    25.9930    28.5570 
  179.5000     2.6500   -20.5020   273.1510    54.4030    24.8200    48.8590    17.4560    18.4390 
  179.6250     2.6050   -20.1500   318.9830    59.0480    24.7040    22.5600    11.3450    11.5200 
  179.7500     2.5630   -19.8400   367.2080    60.0030    24.5550     9.6810     7.5980     7.4870 
  179.8750     2.5290   -19.5900   402.0650    54.9160    24.4920     5.3780     5.5210     5.4330 
