~V
VERS. 2.00: Ver 2.00
~W
STRT.M 64.0000:
STOP.M 268.0000:
STEP.M 0.1250:
NULL. -999.2500:
UWI. DF3002:
~C
DEPT.M :
GR.API :
RML.OHMM :
RI. :
RXO.OHMM :
DEN.GM/CC :
SP.MV :
~A
# ...
  257.1250    75.3500    18.4860    17.3810    18.2110     2.4650   -14.7410 
  257.2500    77.4920    18.7080    17.5550    18.1280     2.4570   -14.7220 
  257.3750    77.1760    19.0250    17.8180    17.9470     2.4550   -14.7110 
  257.5000    74.9490    19.3900    18.1290    18.0720     2.4590   -14.7090 
  257.6250    74.3180    19.7310    18.4250    18.2400     2.4670   -14.7160 
  257.7500    74.3180    20.0000    18.6520    18.5450     2.4750   -14.7000 
  257.8750    74.3180    20.1890    18.7930    18.7160     2.4730   -14.6670 
  258.0000    74.3180    20.3160    18.8600    18.5200     2.4610   -14.6300 
  258.1250    74.3180    20.4190    18.8880    18.4060     2.4410   -14.5510 
  258.2500    74.3180    20.5310    18.9260    18.8030     2.4170   -14.4620 
  258.3750    74.3180    20.6550    18.9910    19.6990     2.3930   -14.3600 
  258.5000    74.3180    20.7800    19.0810    20.9290     2.3780   -14.2700 
  258.6250    74.3180    20.9100    19.2000    21.7610     2.3780   -14.1560 
  258.7500    74.3180    21.0880    19.3710    22.3490     2.4000   -14.0530 
  258.8750    74.3180    21.3920    19.6510    22.8960     2.4450   -13.9330 
  259.0000    74.3180    21.8950    20.0980    23.9760     2.4970   -13.8000 
  259.1250    74.3180    22.6100    20.7250    23.5480     2.5390   -13.6430 
  259.2500    74.3180    23.3200    21.3550    22.8020     2.5600   -13.5040 
  259.3750    74.3180    23.7180    21.7240    21.8950     2.5550   -13.3610 
  259.5000    74.3180    23.4710    21.5310    21.6490     2.5370   -13.2080 
  259.6250    74.3180    22.2440    20.4530    21.4930     2.5160   -13.0370 
  259.7500    74.3180    20.3250    18.7190    21.5760     2.4970   -12.8970 
  259.8750    74.3180    18.1030    16.6650    20.6580     2.4880   -12.7240 
  260.0000    74.3180    16.0250    14.6880    18.4380     2.4870   -12.5920 
  260.1250    74.3180    14.5220    13.1710    15.6280     2.4940   -12.5260 
  260.2500    74.3180    13.6110    12.1570    12.7660     2.5040   -12.4600 
  260.3750    74.3180    13.2020    11.6060    10.6830     2.5120   -12.4310 
  260.5000    74.3180    13.1370    11.4080     9.6440     2.5140   -12.3660 
  260.6250    74.3180    13.2560    11.4540     9.7290     2.5090   -12.3930 
  260.7500    74.3180    13.3990    11.5820    10.0990     2.4990   -12.3630 
  260.8750    74.3180    13.5100    11.7210    10.2300     2.4870   -12.4370 
  261.0000    74.3180    13.5780    11.8350    10.2460     2.4770   -12.4690 
  261.1250    74.3180    13.6110    11.9080    10.1720     2.4720   -12.5000 
  261.2500    74.3180    13.6260    11.9480    10.1490     2.4720   -12.5370 
  261.3750    74.3180    13.6330    11.9610    10.0460     2.4780   -12.5230 
  261.5000    74.3180    13.6350    11.9560     9.9270     2.4860   -12.5920 
  261.6250    74.3180    13.6370    11.9470    10.1040     2.4950   -12.5810 
  261.7500    74.3180    13.6360    11.9420    10.5630     2.5020   -12.6280 
  261.8750    74.3180    13.6290    11.9420    10.9890     2.5040   -12.6020 
  262.0000    74.3180    13.6140    11.9430    11.2370     2.5000   -12.5490 
  262.1250    74.3180    13.5970    11.9440    11.1610     2.4940   -12.5500 
  262.2500    74.3180    13.5850    11.9440    10.9280     2.4860   -12.5760 
  262.3750    74.3180    13.5790    11.9430    11.1570     2.4790   -12.6020 
  262.5000    74.3180    13.5790    11.9410    11.2410     2.4710   -12.5670 
  262.6250    74.3180    13.5830    11.9390    10.8160     2.4660   -12.5750 
  262.7500    74.3180    13.5890    11.9390    10.4870     2.4660   -12.6010 
  262.8750    74.3180    13.5960    11.9390    10.4200     2.4770   -12.7410 
  263.0000    74.3180    13.6010    11.9400    10.4740     2.4930   -12.9150 
  263.1250    74.3180    13.6030    11.9410    10.5500     2.5110   -12.9900 
  263.2500    74.3180    13.6030    11.9420    10.0650     2.5240   -13.0550 
  263.3750    74.3180    13.6020    11.9440     9.1700     2.5250   -13.1530 
  263.5000    74.3180    13.6010    11.9460     8.3400     2.5190   -13.2630 
  263.6250    74.3180    13.6010    11.9470     8.2700     2.5070   -13.3500 
  263.7500    74.3180    13.6010    11.9470     8.5840     2.4930   -13.4000 
  263.8750    74.3180    13.6010    11.9470     9.1530     2.4820   -13.3540 
  264.0000    74.3180    13.6010    11.9470     9.7040     2.4740   -13.3300 
  264.1250    74.3180    13.6010    11.9470     9.9360     2.4720   -13.3560 
  264.2500    74.3180    13.6010    11.9470     9.8890     2.4730   -13.3480 
  264.3750    74.3180    13.6010    11.9470     9.8130     2.4800   -13.3360 
  264.5000    74.3180    13.6010    11.9470     9.9230     2.4910   -13.3420 
  264.6250    74.3180    13.6010    11.9470    10.0790     2.5050   -13.3410 
  264.7500    74.3180    13.6010    11.9470     9.9880     2.5180   -13.3640 
  264.8750    74.3180    13.6010    11.9470     9.9690     2.5230   -13.3640 
  265.0000    74.3180    13.6010    11.9470     9.9470     2.5190   -13.4030 
  265.1250    74.3180    13.6010    11.9470     9.7220     2.5080   -13.3800 
  265.2500    74.3180    13.6010    11.9470     9.4880     2.4950   -13.3820 
  265.3750    74.3180    13.6010    11.9470     9.5390     2.4840   -13.3700 
  265.5000    74.3180    13.6010    11.9470     9.8100     2.4700   -13.3910 
  265.6250    74.3180    13.6010    11.9470     9.7840     2.4460   -13.3700 
  265.7500    74.3180    13.6010    11.9470     9.3790     2.4060   -13.3360 
  265.8750    74.3180    13.6010    11.9470     8.7240     2.3540   -13.3300 
  266.0000    74.3180    13.6010    11.9470     7.7720     2.3030   -13.2810 
  266.1250    74.3180    13.6010    11.9470     6.5230     2.2620   -13.2840 
  266.2500    74.3180    13.6010    11.9470     6.0010     2.2370   -13.2660 
  266.3750    74.3180    13.6010    11.9470     5.8740     2.2270   -13.2890 
  266.5000    74.3180    13.6010    11.9470     5.8720     2.2240   -13.2200 
  266.6250    74.3180    13.6010    11.9470     5.8720     2.2230   -13.2550 
  266.7500    74.3180    13.6010    11.9470     5.8720     2.2220   -13.2750 
  266.8750    74.3180    13.6010    11.9470     5.8700     2.2200   -13.2580 
  267.0000    74.3180    13.6010    11.9470     5.8680     2.2190   -13.2080 
  267.1250    74.3180    13.6010    11.9470     5.8670     2.2190   -13.1810 
  267.2500    74.3180    13.6010    11.9470     5.8670     2.2200   -13.1290 
  267.3750    74.3180    13.6010    11.9470     5.8670  -999.2500   -13.0260 
  267.5000    74.3180    13.6010    11.9470     5.8670  -999.2500   -12.9940 
  267.6250    74.3180    13.6010    11.9470     5.8690  -999.2500   -12.9680 
  267.7500    74.3180    13.6010    11.9470     5.8710  -999.2500   -12.8660 
  267.8750    74.3180    13.6010    11.9470     5.8700  -999.2500   -12.8370 
  268.0000    74.3180    13.6010    11.9470     5.8680  -999.2500   -12.8720 
