~V
VERS. 2.00: Ver 2.00
~W
STRT.M 56.0000:
STOP.M 296.0000:
STEP.M 0.1250:
NULL. -999.2500:
UWI. DF301:
~C
DEPT.M :
DEN.GM/CC :
SP.MV :
AC.US/MT :
GR.API :
CALI.CM :
RXO.OHMM :
RI. :
RML.OHMM :
~A
# ...
  286.0000     2.3800    -4.4550   446.0470    41.3610    24.3790     4.6750     4.0750     4.3780 
  286.1250     2.3600    -4.4140   444.8360    41.3610    24.3410     4.7070     4.0880     4.4160 
  286.2500     2.3550    -4.3350   442.5660    41.3610    24.2850     4.7930     4.1460     4.5320 
  286.3750     2.3680    -4.2880   440.3440    41.3610    24.2380     4.8840     4.2120     4.6710 
  286.5000     2.3910    -4.3040   439.3060    41.3610    24.1970     4.9230     4.2650     4.7940 
  286.6250     2.4110    -4.3300   439.5940    41.3610    24.1510     4.8910     4.2910     4.8720 
  286.7500     2.4240    -4.3090   440.8920    41.3610    24.1310     4.8420     4.2860     4.8700 
  286.8750     2.4360    -4.2200   442.5880    41.3610    24.1230     4.8180     4.2610     4.7920 
  287.0000     2.4460    -4.1360   444.0260    41.3610    24.1270     4.7910     4.2270     4.6600 
  287.1250     2.4490    -4.1230   444.9340    41.3610    24.1280     4.7590     4.1920     4.5180 
  287.2500     2.4420    -4.1980   445.2790    41.3610    24.1270     4.7360     4.1640     4.4250 
  287.3750     2.4350    -4.2980   445.0670    41.3610    24.1170     4.7300     4.1420     4.4010 
  287.5000     2.4350    -4.3400   444.2890    41.3610    24.1170     4.7420     4.1230     4.4410 
  287.6250     2.4430    -4.3300   443.4190    41.3610    24.1830     4.7800     4.1070     4.5290 
  287.7500     2.4440    -4.3920   443.0950    41.3610    24.3010     4.8010     4.0990     4.6310 
  287.8750     2.4350    -4.5180   443.7590    41.3610    24.3890     4.7880     4.0940     4.7070 
  288.0000     2.4240    -4.6730   445.1610    41.3610    24.4720     4.7860     4.0880     4.7380 
  288.1250     2.4170    -4.8090   445.9580    41.3610    24.5900     4.8210     4.0750     4.7310 
  288.2500     2.4100    -4.9330   444.9160    41.3610    24.7360     4.8420     4.0640     4.7190 
  288.3750     2.4060    -5.0770   441.3620    41.3610    24.8250     4.8320     4.0710     4.7410 
  288.5000     2.4160    -5.2350   435.3420    41.3610    24.8390     4.8590     4.1110     4.8090 
  288.6250     2.4380    -5.4230   428.5190    41.3610    24.7960     5.0090     4.1940     4.9210 
  288.7500     2.4410    -5.6040   422.1710    41.3610    24.5720     5.3100     4.3270     5.0740 
  288.8750     2.4220    -5.7530   417.0990    41.3610    24.3420     5.5910     4.4890     5.2470 
  289.0000     2.3950    -5.8380   413.6980    41.3610    24.2170     5.6620     4.6530     5.4060 
  289.1250     2.3760    -5.8690   411.8030    41.3610    24.1610     5.5090     4.7790     5.5000 
  289.2500     2.3730    -5.8060   412.0590    41.3610    24.1240     5.4540     4.8170     5.4970 
  289.3750     2.3790    -5.6690   415.2530    41.3610    24.0920     5.4330     4.7920     5.4290 
  289.5000     2.3860    -5.5120   421.6700    41.3610    24.1570     5.4280     4.6930     5.2960 
  289.6250     2.3940    -5.3520   428.9780    41.3610    24.2640     5.1880     4.5720     5.1690 
  289.7500     2.4130    -5.1420   435.0970    41.3610    24.3990     4.8800     4.4740     5.0800 
  289.8750     2.4350    -4.9380   438.8790    41.3610    24.5970     4.7150     4.4210     5.0300 
  290.0000     2.4490    -4.7680   440.5600    41.3610    24.9890     4.6850     4.4140     5.0040 
  290.1250     2.4510    -4.6540   441.9870    41.3610    25.3060     4.6930     4.4280     4.9820 
  290.2500     2.4440    -4.5740   444.0650    41.3610    25.1560     4.6690     4.4450     4.9590 
  290.3750     2.4340    -4.5110   446.6420    41.3610    24.6460     4.6000     4.4570     4.9400 
  290.5000     2.4270    -4.4340   448.0750    41.3610    24.4130     4.5240     4.4610     4.9300 
  290.6250     2.4280    -4.3240   446.2290    41.3610    24.4070     4.5040     4.4610     4.9270 
  290.7500     2.4350    -4.2610   439.5110    41.3610    24.4530     4.6490     4.4610     4.9270 
  290.8750     2.4350    -4.1940   428.1230    41.3610    24.4020     5.0740     4.4610     4.9270 
  291.0000     2.4240    -4.0600   415.8000    41.3610    24.2460     5.8210     4.4610     4.9270 
  291.1250     2.4100    -3.8390   408.1070    41.3610    24.1010     6.1320     4.4610     4.9270 
  291.2500     2.3970    -3.5830   407.6450    41.3610    24.0540     5.7590     4.4610     4.9270 
  291.3750     2.3860    -3.3670   413.1820    41.3610    24.0780     5.0940     4.4610     4.9270 
  291.5000     2.3720    -3.3590   420.1990    41.3610    24.1280     4.7100     4.4610     4.9270 
  291.6250     2.3580    -3.4440   423.9520    41.3610    24.2190     4.6130     4.4610     4.9270 
  291.7500     2.3550    -3.5140   422.5370    41.3610    24.3620     4.7230     4.4610     4.9270 
  291.8750     2.3660    -3.5770   415.8240    41.3610    24.4630     4.9470     4.4610     4.9270 
  292.0000     2.3810    -3.7130   404.1050    41.3610    24.4190     5.2740     4.4610     4.9270 
  292.1250     2.3880    -3.9680   390.2450    41.3610    24.1480     5.7320     4.4610     4.9270 
  292.2500     2.3890    -4.3350   377.5700    41.3610    23.8930     6.3700     4.4610     4.9270 
  292.3750     2.3930    -4.5820   370.1530    41.3610    23.7150     7.3290     4.4610     4.9270 
  292.5000     2.4010    -4.5820   372.5430    41.3610    23.6780     8.1570     4.4610     4.9270 
  292.6250     2.4030    -4.5820   382.8390    41.3610    23.7340     8.0570     4.4610     4.9270 
  292.7500     2.3950  -999.2500   397.5970    41.3610    23.7800     6.7800     4.4610     4.9270 
  292.8750     2.3920  -999.2500   412.6230    41.3610    23.8310     5.2750     4.4610     4.9270 
  293.0000     2.4060  -999.2500   424.1030    41.3610    23.9230     4.7170     4.4610     4.9270 
  293.1250     2.4360  -999.2500   431.6510    41.3610    23.9200     4.5890     4.4610     4.9270 
  293.2500     2.4580  -999.2500   435.9610    41.3610    23.8270     4.5760     4.4610     4.9270 
  293.3750     2.4550  -999.2500   438.1350    41.3610    23.7580     4.5580     4.4610     4.9270 
  293.5000     2.4310  -999.2500   438.9090    41.3610    23.7340     4.5780     4.4610     4.9270 
  293.6250     2.4060  -999.2500   439.0870    41.3610    23.7080     4.6810     4.4610     4.9270 
  293.7500     2.3980  -999.2500   439.1090    41.3610    23.6750     4.8930     4.4610     4.9270 
  293.8750     2.3970  -999.2500   439.2540    41.3610    23.6380     5.2850     4.4610     4.9270 
  294.0000     2.3870  -999.2500   439.5140    41.3610    23.5600     5.9380     4.4610     4.9270 
  294.1250     2.3590  -999.2500   439.6870    41.3610    23.2550     6.5880     4.4610     4.9270 
  294.2500     2.3180  -999.2500   439.7290    41.3610    22.4840     6.5170     4.4610     4.9270 
  294.3750     2.2830  -999.2500  -999.2500    41.3610    21.0230     5.6940     4.4610     4.9270 
  294.5000     2.2550  -999.2500  -999.2500    41.3610    19.5500     5.0790     4.4610     4.9270 
  294.6250     2.2300  -999.2500  -999.2500    41.3610    18.0000     4.8820     4.4610     4.9270 
  294.7500     2.2210  -999.2500  -999.2500    41.3610    16.9930     4.8660     4.4610     4.9270 
  294.8750     2.2350  -999.2500  -999.2500    41.3610    16.6270     4.8720     4.4610     4.9270 
  295.0000     2.2560  -999.2500  -999.2500    41.3610    16.6120     4.8680     4.4610     4.9270 
  295.1250     2.2690  -999.2500  -999.2500    41.3610    16.6110     4.8650     4.4610     4.9270 
  295.2500     2.2710  -999.2500  -999.2500    41.3610    16.6110     4.8630     4.4610     4.9270 
  295.3750     2.2730  -999.2500  -999.2500    41.3610    16.6110     4.8620     4.4610     4.9270 
  295.5000     2.2720  -999.2500  -999.2500    41.3610    16.6120     4.8610     4.4610     4.9270 
  295.6250     2.2630  -999.2500  -999.2500    41.3610    16.6120     4.8610     4.4610     4.9270 
  295.7500     2.2490  -999.2500  -999.2500    41.3610    16.6120     4.8610     4.4610     4.9270 
  295.8750     2.2370  -999.2500  -999.2500    41.3610    16.6120     4.8610     4.4610     4.9270 
