~V
VERS. 2.00: Ver 2.00
~W
STRT.M 60.0000:
STOP.M 238.0000:
STEP.M 0.1250:
NULL. -999.2500:
UWI. DF308:
~C
DEPT.M :
DEN.GM/CC :
SP.MV :
AC.US/MT :
GR.API :
CALI.CM :
RXO.OHMM :
RI. :
RML.OHMM :
~A
# ...
   90.0000  -999.2500   -29.6150  -999.2500    79.5930    22.0640     7.2380     6.9510     9.3420 
   90.1250  -999.2500   -29.4460  -999.2500    77.3370    22.1110     7.1470     6.7510     8.9340 
   90.2500  -999.2500   -29.2740  -999.2500    74.1260    22.2460     7.0380     6.5150     8.5120 
   90.3750  -999.2500   -29.1200  -999.2500    74.9100    22.4350     6.9910     6.3020     8.1820 
   90.5000     2.1270   -28.9750  -999.2500    80.5880    22.5740     7.0120     6.1470     7.9930 
   90.6250     2.1270   -28.8180  -999.2500    83.0380    22.5840     7.0420     6.0780     7.9600 
   90.7500     2.1200   -28.6880  -999.2500    81.4710    22.5000     7.0590     6.0710     8.0120 
   90.8750     2.1210   -28.6000   464.3510    82.2560    22.4040     7.0820     6.1030     8.0960 
   91.0000     2.1240   -28.5360   464.3510    87.8960    22.3630     7.1130     6.1480     8.1710 
   91.1250     2.1220   -28.5100   463.9150    91.8800    22.3920     7.1050     6.1810     8.2040 
   91.2500     2.1140   -28.5540   463.0350    89.6950    22.4290     7.0370     6.1890     8.1920 
   91.3750     2.1070   -28.6390   462.2790    84.3590    22.4560     6.9570     6.1770     8.1530 
   91.5000     2.1070   -28.7490   461.6390    81.9270    22.4600     6.9240     6.1570     8.1180 
   91.6250     2.1180   -28.8930   461.1190    85.2020    22.4300     7.0000     6.1480     8.1250 
   91.7500     2.1330   -29.0300   460.5320    88.6290    22.3770     7.1490     6.1560     8.1730 
   91.8750     2.1450   -29.1900   459.5320    87.6820    22.3280     7.2890     6.1770     8.2510 
   92.0000     2.1520   -29.3960   458.7960    82.8240    22.2840     7.3310     6.2080     8.3450 
   92.1250     2.1540   -29.6150   461.0120    79.6880    22.2230     7.2620     6.2460     8.4470 
   92.2500     2.1590   -29.8350   465.9950    80.3720    22.1790     7.1830     6.2850     8.5420 
   92.3750     2.1700   -30.0780   470.1540    83.3570    22.1700     7.1110     6.3150     8.6140 
   92.5000     2.1780   -30.3410   469.4530    86.2980    22.2040     7.0380     6.3280     8.6480 
   92.6250     2.1720   -30.6100   463.6340    87.8030    22.3840     6.9090     6.3190     8.6500 
   92.7500     2.1560   -30.8870   458.6260    89.5580    22.6460     6.7580     6.3080     8.6670 
   92.8750     2.1480   -31.1600   457.1750    89.9890    22.7180     6.7000     6.3160     8.7350 
   93.0000     2.1570   -31.4210   455.6810    86.4500    22.3720     6.8350     6.3520     8.8660 
   93.1250     2.1690   -31.7120   443.9760    80.9160    22.0320     7.1230     6.4130     9.0410 
   93.2500     2.1640   -31.9980   422.6180    78.7060    21.9910     7.3240     6.4710     9.1930 
   93.3750     2.1420   -32.2600   400.8520    79.7240    22.1090     7.3760     6.4980     9.2660 
   93.5000     2.1170   -32.5190   387.4690    79.4380    22.1280     7.3650     6.4970     9.2650 
   93.6250     2.1010   -32.7680   383.1530    75.4980    22.0340     7.4090     6.5220     9.3080 
   93.7500     2.0980   -32.9950   381.3040    70.3870    21.9470     7.5570     6.6310     9.5140 
   93.8750     2.1100   -33.1900   383.4560    65.7170    21.9110     8.1010     6.8430     9.9150 
   94.0000     2.1350   -33.3550   395.6090    63.4390    21.8900     9.4210     7.1270    10.4350 
   94.1250     2.1590   -33.4690   420.2660    64.7230    21.8320    11.2440     7.3870    10.8470 
   94.2500     2.1640   -33.5380   446.0400    67.3250    21.7300    11.2520     7.5080    10.9380 
   94.3750     2.1460   -33.5520   463.9410    68.4440    21.5970     9.6270     7.4370    10.6510 
   94.5000     2.1140   -33.5200   472.5990    67.3070    21.5330     8.1880     7.2070    10.1080 
   94.6250     2.0850   -33.4490   476.5740    66.3720    21.4880     7.6140     6.8970     9.5010 
   94.7500     2.0730   -33.3270   480.3400    64.9540    21.4430     7.3860     6.6000     8.9740 
   94.8750     2.0820   -33.1690   484.0110    64.9490    21.4670     7.2180     6.3650     8.5730 
   95.0000     2.1040   -32.9580   486.4050    67.7610    21.5910     7.1130     6.2080     8.2970 
   95.1250     2.1300   -32.6930   485.5550    73.1460    21.6960     7.1740     6.1360     8.1520 
   95.2500     2.1560   -32.4490   481.6660    75.6440    21.8150     7.2910     6.1270     8.1250 
   95.3750     2.1730   -32.2370   476.3580    74.2290    21.9710     7.4220     6.1840     8.2260 
   95.5000     2.1710   -32.0250   472.0120    72.9980    22.1230     7.5810     6.2950     8.4290 
   95.6250     2.1470   -31.8400   470.8190    70.3920    22.2050     7.7450     6.4350     8.6640 
   95.7500     2.1230   -31.6830   472.4950    64.9290    22.2330     7.7980     6.5600     8.8410 
   95.8750     2.1170   -31.5400   476.2270    60.3720    22.2420     7.7580     6.6380     8.9020 
   96.0000     2.1240   -31.4210   480.6250    61.3260    22.2630     7.6760     6.6450     8.8150 
   96.1250     2.1300   -31.2820   483.6710    65.8600    22.3140     7.5450     6.5690     8.5780 
   96.2500     2.1330   -31.0920   484.2380    68.9890    22.3730     7.4240     6.4510     8.2900 
   96.3750     2.1410   -30.8690   481.9610    72.3920    22.4240     7.3700     6.3360     8.0520 
   96.5000     2.1540   -30.6220   477.2460    76.8680    22.4410     7.3560     6.2750     7.9540 
   96.6250     2.1590   -30.3310   471.3480    78.4250    22.4190     7.4400     6.3100     8.0740 
   96.7500     2.1570   -30.0430   466.2470    76.3720    22.3830     7.6160     6.4150     8.3360 
   96.8750     2.1600   -29.7770   463.0480    73.6960    22.3600     7.9740     6.5450     8.6350 
   97.0000     2.1720   -29.5420   461.8300    73.4900    22.3640     8.3280     6.6390     8.8400 
   97.1250     2.1780   -29.3960   461.5650    75.9630    22.4490     8.3540     6.6200     8.8050 
   97.2500     2.1720   -29.3200   460.6630    76.6440    22.6440     8.0790     6.4940     8.5630 
   97.3750     2.1620   -29.2850   458.8550    75.7190    22.8520     7.7210     6.2970     8.1990 
   97.5000     2.1580   -29.3170   457.1590    76.9250    22.9100     7.5190     6.0840     7.8220 
   97.6250     2.1560   -29.4390   456.3940    82.4770    22.8470     7.4380     5.9190     7.5570 
   97.7500     2.1500   -29.6090   454.2820    85.7240    22.7920     7.4240     5.8460     7.4710 
   97.8750     2.1410   -29.8350   448.0210    81.4620    22.7730     7.4830     5.8960     7.6060 
   98.0000     2.1400   -30.0910   438.1570    72.8260    22.7740     7.6870     6.0750     7.9530 
   98.1250     2.1560   -30.3310   431.2380    68.5720    22.7630     8.1930     6.3590     8.4520 
   98.2500     2.1790   -30.5520   432.1500    69.1250    22.7160     8.8600     6.6540     8.9260 
   98.3750     2.1910   -30.7640   439.1410    69.8920    22.6160     9.2550     6.8680     9.1980 
   98.5000     2.1810   -30.9390   446.3170    70.8880    22.4810     9.0320     6.9230     9.1490 
   98.6250     2.1530   -31.0990   448.6710    73.4760    22.3290     8.4470     6.7950     8.7890 
   98.7500     2.1370   -31.2440   448.2470    74.9270    22.2480     8.1780     6.5990     8.3720 
   98.8750     2.1390   -31.3520   447.9510    74.2390    22.2350     8.1660     6.4300     8.0770 
   99.0000     2.1480   -31.4580   448.8170    73.4230    22.2820     8.2790     6.3540     7.9990 
   99.1250     2.1440   -31.5690   449.6660    74.5400    22.3200     8.5960     6.4150     8.1610 
   99.2500     2.1300   -31.6530   449.3420    73.5120    22.3450     8.9220     6.5650     8.4390 
   99.3750     2.1150   -31.7090   448.1600    70.1530    22.3520     9.0070     6.7560     8.7410 
   99.5000     2.1090   -31.7440   447.6170    67.2990    22.3840     8.8060     6.9360     8.9900 
   99.6250     2.1170   -31.6770   450.2040    64.7970    22.5030     8.4870     7.0340     9.0700 
   99.7500     2.1330   -31.5430   455.7590    64.0560    22.6360     8.3600     7.0170     8.9460 
   99.8750     2.1530   -31.3590   461.7620    66.1160    22.6910     8.4200     6.8920     8.6520 
