~V
VERS. 2.00: Ver 2.00
~W
STRT.M 140.0000:
STOP.M 272.0000:
STEP.M 0.1250:
NULL. -999.2500:
UWI. DF3077:
~C
DEPT.M :
GR.API :
CALI.CM :
RXO.OHMM :
RI. :
RML.OHMM :
DEN.GM/CC :
SP.MV :
~A
# ...
  173.7500    66.1020    26.0060    95.9320   112.4880   121.4870     2.2300   -10.4010 
  173.8750    65.3640    26.0810    98.8810   112.3520   121.3400     2.2290   -10.7360 
  174.0000    63.9350    26.0800   104.1170   110.6850   119.5400     2.2210   -11.0350 
  174.1250    63.4860    26.0480   103.8460   107.3290   115.9150     2.2080   -11.1910 
  174.2500    64.1620    25.9890   100.4280   103.3210   111.5870     2.1970   -11.2610 
  174.3750    66.3420    25.9920    96.0370    99.5230   107.4850     2.1920   -11.3030 
  174.5000    68.6160    26.0790    90.3640    96.5700   104.2960     2.1970   -11.3030 
  174.6250    68.1210    26.0790    81.6330    94.6960   102.2720     2.2080   -11.3000 
  174.7500    66.1970    26.0100    74.4120    93.7580   101.2590     2.2220   -11.3340 
  174.8750    65.8700    25.9510    74.4180    93.3420   100.8090     2.2370   -11.4040 
  175.0000    67.0620    26.0690    82.1250    92.6230   100.0330     2.2460   -11.4920 
  175.1250    66.3280    26.0730    89.0750    90.6950    97.9500     2.2450   -11.6100 
  175.2500    64.6410    25.9820    86.0550    87.8060    94.8300     2.2420   -11.7300 
  175.3750    63.7320    25.8730    74.0840    84.6410    91.4120     2.2470   -11.8140 
  175.5000    62.9240    25.8400    62.1460    81.9370    88.4920     2.2600   -11.8580 
  175.6250    61.5860    25.7930    56.5620    81.0520    87.5360     2.2690   -11.8830 
  175.7500    62.6500    25.9610    56.7460    82.2640    88.8460     2.2680   -11.8710 
  175.8750    64.8970    25.9270    58.7710    85.2990    92.1230     2.2590   -11.8400 
  176.0000    66.1040    25.9360    65.5940    89.7090    96.8860     2.2500   -11.8340 
  176.1250    65.7240    26.0400    76.8720    94.1390   101.6700     2.2420   -11.9160 
  176.2500    66.4310    26.0320    83.6000    97.1160   104.8850     2.2370   -12.0320 
  176.3750    67.4770    25.9470    86.0290    97.6890   105.5050     2.2370   -12.1760 
  176.5000    68.0510    25.9110    85.8130    95.7540   103.4150     2.2430   -12.3280 
  176.6250    69.7380    25.9150    75.7650    91.8030    99.1480     2.2490   -12.4730 
  176.7500    71.4040    25.6790    68.2390    87.8500    94.8780     2.2480   -12.5480 
  176.8750    73.6410    25.7260    60.6800    85.5900    92.4370     2.2430   -12.5310 
  177.0000    77.4480    25.7970    59.6480    85.7040    92.5600     2.2390   -12.4750 
  177.1250    80.1720    25.8210    66.9800    89.4580    96.6150     2.2430   -12.3560 
  177.2500    78.3600    25.7280    66.4690    97.3450   105.1320     2.2530   -12.2250 
  177.3750    73.2590    25.6400    64.5480   109.0400   117.7630     2.2570   -12.1350 
  177.5000    69.3710    25.6380    75.1200   123.2970   133.1610     2.2450   -12.0900 
  177.6250    67.3600    25.7210    96.3530   138.2320   149.2910     2.2150   -12.0830 
  177.7500    65.5350    25.6830   110.3420   151.1280   163.2180     2.1950   -12.1670 
  177.8750    64.1700    25.5360   116.5270   160.1450   172.9560     2.1970   -12.3010 
  178.0000    63.3510    25.0130   116.9220   165.3160   178.5420     2.2150   -12.3950 
  178.1250    63.1590    24.9010   117.0660   166.3770   179.6870     2.2260   -12.4110 
  178.2500    62.6670    25.0420   118.1880   164.2050   177.3410     2.2230   -12.3830 
  178.3750    62.0210    25.1470   121.2010   160.6760   173.5310     2.2140   -12.3050 
  178.5000    62.6420    25.4840   122.4310   157.7670   170.3890     2.2070   -12.2060 
  178.6250    64.1790    25.7850   119.5210   155.2080   167.6240     2.2000   -12.1180 
  178.7500    63.9710    25.9290   115.9820   152.5530   164.7570     2.1910   -12.0050 
  178.8750    60.1710    25.9700   111.8310   150.6630   162.7160     2.1860   -11.8920 
  179.0000    56.1350    25.9780   103.9250   150.4860   162.5250     2.1920   -11.8460 
  179.1250    57.1740    25.9840    94.8340   153.8490   166.1570     2.2080   -11.9040 
  179.2500    59.9510    25.9270    91.9590   160.9470   173.8230     2.2210   -11.9650 
  179.3750    60.6090    25.8590   100.2650   171.2600   184.9600     2.2250   -11.9810 
  179.5000    59.2030    25.8040   112.0080   183.2980   197.9620     2.2170   -11.9200 
  179.6250    60.1540    25.7040   123.1130   194.6960   210.2720     2.2020   -11.7620 
  179.7500    63.0160    25.6970   129.9090   202.7940   219.0170     2.1890   -11.5990 
  179.8750    64.6550    25.5830   131.0120   204.9600   221.3570     2.1870   -11.5000 
  180.0000    64.4460    25.5110   130.0920   199.4840   215.4430     2.1970   -11.4500 
  180.1250    63.5350    25.5040   129.6460   186.2080   201.1040     2.2100   -11.3770 
  180.2500    64.1330    25.5480   130.0670   168.9890   182.5080     2.2110   -11.2760 
  180.3750    66.2450    25.5730   127.6700   151.0430   163.1260     2.2040   -11.1710 
  180.5000    68.3480    25.6460   116.2660   134.9460   145.7410     2.2050   -11.1080 
  180.6250    67.8980    25.4700    94.3920   123.4380   133.3130     2.2280   -11.0760 
  180.7500    66.8120    25.4560    75.4520   117.0620   126.4270     2.2560   -11.0320 
  180.8750    66.7170    25.5200    68.1070   116.1820   125.4770     2.2710   -10.9600 
  181.0000    66.4220    25.5110    72.4170   120.5450   130.1880     2.2670   -10.8640 
  181.1250    65.1300    25.3280    79.4400   129.3340   139.6810     2.2520   -10.7850 
  181.2500    64.5700    25.2860    88.4680   139.9550   151.1510     2.2380   -10.7910 
  181.3750    64.7130    25.2750    95.2370   149.1290   161.0590     2.2260   -10.8700 
  181.5000    64.6360    25.2670   103.7020   152.6730   164.8870     2.2170   -10.9620 
  181.6250    63.2370    25.2440   115.2080   147.6000   159.4080     2.2170   -11.0380 
  181.7500    61.6460    25.0810   112.7360   136.0740   146.9590     2.2250   -11.0530 
  181.8750    61.3600    24.9280    96.9860   120.9330   122.9530     2.2400   -10.9680 
  182.0000    64.2630    24.8650    79.1330   105.1410   102.9620     2.2600   -10.8090 
  182.1250    68.1200    24.7260    69.9840    92.5150    89.9530     2.2810   -10.6430 
  182.2500    68.0670    24.7700    55.6370    83.4970    80.2370     2.2970   -10.4860 
  182.3750    66.9750    24.7730    44.6950    77.7800    73.7340     2.3030   -10.3520 
  182.5000    68.3950    24.8740    45.8700    74.9920    70.5170     2.2970   -10.2790 
  182.6250    71.0370    24.9140    58.4590    74.3310    70.3670     2.2870   -10.2660 
  182.7500    71.3490    24.9220    66.9090    75.2150    72.4450     2.2860   -10.3300 
  182.8750    70.5650    24.9250    67.4200    78.6080    77.0620     2.2980   -10.4680 
  183.0000    69.1910    24.9280    58.6710    84.8930    84.8090     2.3080   -10.6200 
  183.1250    67.1860    24.9270    58.5980    93.6310    94.0390     2.2920   -10.6980 
  183.2500    66.8080    24.7730    63.6020   102.8740   104.0100     2.2540   -10.6660 
  183.3750    67.7300    24.4690    68.2560   111.5310   112.8160     2.2210   -10.5740 
  183.5000    65.6400    24.1420    67.3960   117.4510   117.2280     2.2140   -10.4430 
  183.6250    60.0110    23.9240    59.8160   117.0980   114.6910     2.2310   -10.3000 
  183.7500    58.4590    23.8070    53.6900   110.5680   107.4560     2.2490   -10.1690 
  183.8750    63.1130    23.7880    47.2940    99.5140    98.0360     2.2610   -10.0700 
  184.0000    68.3490    23.8280    41.0750    87.0350    88.5960     2.2750   -10.0220 
  184.1250    68.8140    23.8180    36.0310    77.0640    81.7840     2.2940   -10.0590 
  184.2500    67.8580    23.7390    32.7070    70.6980    77.8340     2.3080   -10.1540 
  184.3750    68.7190    23.7250    31.2790    68.1540    76.8830     2.3090   -10.2390 
  184.5000    70.5470    23.7480    30.4870    69.7030    80.3440     2.2990   -10.2660 
  184.6250    71.5470    23.8360    29.5360    77.3850    90.6950     2.2900   -10.2280 
  184.7500    72.0610    23.8980    28.4130    91.5480   108.3540     2.2850   -10.1470 
  184.8750    70.5840    23.8730    32.5980   111.0760   133.9710     2.2760   -10.0670 
