~V
VERS. 2.00: Ver 2.00
~W
STRT.M 57.0000:
STOP.M 272.0000:
STEP.M 0.1250:
NULL. -999.2500:
UWI. DF3050:
~C
DEPT.M :
SP.MV :
GR.API :
CALI.CM :
RXO.OHMM :
RI. :
RML.OHMM :
DEN.GM/CC :
~A
# ...
  180.7500   -24.6120    73.0510    25.0230   114.9740   121.0610   150.0520     2.2200 
  180.8750   -24.4400    75.2360    24.9060   107.9720   121.6720   149.9750     2.2250 
  181.0000   -24.2400    78.6240    24.8350   110.5680   118.1940   144.8790     2.2370 
  181.1250   -24.0280    78.8410    24.8250   102.4630   112.0560   136.9080     2.2520 
  181.2500   -23.8780    74.6370    24.9570    91.1470   104.5260   127.8140     2.2600 
  181.3750   -23.7900    73.6800    24.8170    87.2690    97.1320   119.0480     2.2530 
  181.5000   -23.7610    76.6250    24.8280    86.6980    90.2690   110.9330     2.2330 
  181.6250   -23.7600    77.4840    25.0220    76.8190    84.1790   103.8430     2.2180 
  181.7500   -23.7490    73.6860    25.0190    71.8600    79.4450    98.6590     2.2250 
  181.8750   -23.7140    71.6720    24.9220    71.1810    76.3390    95.5830     2.2440 
  182.0000   -23.6380    73.4190    24.9910    65.9430    74.9890    94.8950     2.2600 
  182.1250   -23.5160    75.2160    24.8050    55.8370    75.4520    96.5540     2.2650 
  182.2500   -23.3330    74.3920    24.7650    56.6340    78.0630   100.9500     2.2650 
  182.3750   -23.1220    74.1310    24.7720    74.1010    82.4350   107.5380     2.2660 
  182.5000   -22.9530    74.8250    24.7990    92.3150    88.1820   115.8910     2.2670 
  182.6250   -22.8630    73.5180    24.7780    90.7370    94.7650   125.4380     2.2650 
  182.7500   -22.8510    70.7880    24.7080    83.8890   101.6260   135.5870     2.2570 
  182.8750   -22.8900    71.2450    24.5650    88.8820   108.1270   145.4120     2.2480 
  183.0000   -22.9620    74.4110    24.4670    96.8500   113.5880   153.9640     2.2430 
  183.1250   -23.0580    77.3960    24.2060   115.2580   117.7160   161.1620     2.2400 
  183.2500   -23.1170    78.3490    24.5480   136.9950   120.6720   167.0480     2.2380 
  183.3750   -23.1130    77.1980    24.7340   145.2670   123.0070   172.2210     2.2350 
  183.5000   -23.0080    73.4570    24.7650   132.5280   125.0680   176.8690     2.2320 
  183.6250   -22.8200    68.2850    24.7780   116.5090   127.2070   181.2530     2.2260 
  183.7500   -22.5990    65.2590    24.7640   119.7140   129.7920   185.5140     2.2190 
  183.8750   -22.3870    66.4080    24.7730   143.0380   133.0990   190.0600     2.2180 
  184.0000   -22.2160    70.5910    24.7750   156.8490   137.1600   194.9600     2.2250 
  184.1250   -22.1060    75.4860    24.7650   151.4900   142.0320   199.9410     2.2350 
  184.2500   -22.0530    76.8910    24.7660   141.1300   146.7850   203.4270     2.2460 
  184.3750   -22.0390    73.9720    24.6430   133.8330   149.2720   202.6230     2.2570 
  184.5000   -22.0390    68.6410    24.5250   130.0400   147.2000   194.5280     2.2660 
  184.6250   -22.0210    64.8470    24.5400   134.9950   139.0230   177.8280     2.2730 
  184.7500   -21.9550    66.0390    24.7450   149.5480   124.0810   153.0900     2.2790 
  184.8750   -21.8260    70.5520    24.7560   138.6010   104.6320   124.5980     2.2810 
  185.0000   -21.6500    75.1960    24.7160    89.0450    83.4830    96.4540     2.2770 
  185.1250   -21.4290    78.6910    24.7040    36.9360    63.7990    72.0420     2.2740 
  185.2500   -21.2330    84.6160    24.3590    16.0530    48.5680    54.0490     2.2840 
  185.3750   -21.0970    93.1040    24.1320    16.4500    37.6920    41.3860     2.3060 
  185.5000   -21.0530    99.1760    24.3390    18.8560    30.5370    33.2000     2.3330 
  185.6250   -21.1120    99.5380    24.7080    16.1770    26.3870    28.7120     2.3570 
  185.7500   -21.2600    98.3610    24.6780    14.3710    24.8240    27.3440     2.3780 
  185.8750   -21.4630    98.9040    24.4780    11.4890    24.7110    27.6520     2.3990 
  186.0000   -21.6980    98.8160    24.3070    11.8190    25.6490    29.0920     2.4180 
  186.1250   -21.9360    95.7080    24.4500    15.0520    27.2870    31.2120     2.4230 
  186.2500   -22.1160    89.0600    24.4440    20.2400    29.3590    33.7610     2.4050 
  186.3750   -22.2410    83.4490    24.4150    23.1040    31.7000    36.8070     2.3740 
  186.5000   -22.3470    81.0050    24.4670    21.1720    34.7240    41.0680     2.3500 
  186.6250   -22.4600    79.2550    24.4920    18.2530    38.9590    47.2600     2.3390 
  186.7500   -22.5940    76.7510    24.4900    26.3760    45.6490    56.8490     2.3350 
  186.8750   -22.7650    76.1020    24.6590    39.8930    55.3960    70.2420     2.3210 
  187.0000   -22.9950    77.2020    24.7750    58.7620    68.1860    87.5070     2.3000 
  187.1250   -23.2840    75.4230    24.7850    89.1520    83.4140   108.0430     2.2780 
  187.2500   -23.6010    70.2450    24.7100   123.2530   100.1840   130.7620     2.2640 
  187.3750   -23.9330    68.4360    24.7520   142.6980   115.6850   151.7170     2.2540 
  187.5000   -24.2200    70.5160    24.7720   156.0500   125.9980   165.2430     2.2480 
  187.6250   -24.4120    73.5070    24.7700   162.6750   128.4310   167.2490     2.2490 
  187.7500   -24.5020    74.4330    24.8010   141.9230   121.2410   155.4680     2.2530 
  187.8750   -24.5340    72.9570    24.9340   123.0280   107.3760   135.2300     2.2540 
  188.0000   -24.5070    70.6250    25.0490   127.5630    89.8420   111.1270     2.2530 
  188.1250   -24.4550    72.3130    24.9330   124.6360    72.0020    87.6330     2.2540 
  188.2500   -24.4410    79.4890    24.9300    89.3020    57.3140    69.1880     2.2630 
  188.3750   -24.4880    84.3280    24.8860    56.2350    46.8580    56.9280     2.2790 
  188.5000   -24.6040    84.6200    24.7570    39.0260    41.2700    51.4810     2.2990 
  188.6250   -24.7780    84.1630    24.6700    29.5360    40.7170    52.6870     2.3160 
  188.7500   -24.9960    83.9520    24.5010    26.8420    46.2200    61.4330     2.3210 
  188.8750   -25.1870    81.0850    24.4410    39.2600    57.3300    76.9580     2.3090 
  189.0000   -25.3320    75.9970    24.4710    68.4200    74.4000    99.3280     2.2820 
  189.1250   -25.4370    72.1150    24.5210   105.8850    97.3280   128.2880     2.2520 
  189.2500   -25.4960    71.1740    24.6170   133.9950   124.3860   161.9200     2.2320 
  189.3750   -25.5130    70.6800    24.4870   153.3990   150.6320   194.8980     2.2240 
  189.5000   -25.5350    68.9640    24.4820   153.5280   171.9910   221.9930     2.2260 
  189.6250   -25.5770    67.0410    24.4450   141.1460   186.2010   240.2050     2.2280 
  189.7500   -25.6570    67.7610    24.4420   144.7790   193.5490   250.9030     2.2210 
  189.8750   -25.7940    68.9620    24.4920   165.8350   198.4000   260.0600     2.2070 
  190.0000   -25.9540    68.7830    24.6130   191.7210   202.6820   269.6700     2.1930 
  190.1250   -26.0960    67.2530    24.7280   207.1470   206.6270   279.4620     2.1860 
  190.2500   -26.1800    65.2820    24.7310   207.7240   210.4240   288.9290     2.1920 
  190.3750   -26.1660    63.8380    24.7130   199.9120   214.3230   297.8990     2.2030 
  190.5000   -26.0650    62.6160    24.7370   198.6650   218.6200   306.4720     2.2110 
  190.6250   -25.9310    61.0950    24.7440   205.6310   223.7020   315.4490     2.2090 
  190.7500   -25.7710    59.4800    24.7400   215.8360   230.9670   326.6910     2.2030 
  190.8750   -25.6140    60.0960    24.7230   225.0150   240.8290   340.9890     2.2010 
  191.0000   -25.4800    63.8810    24.6110   233.6240   253.1910   358.4490     2.2020 
  191.1250   -25.4000    67.8370    24.5760   263.0920   267.4860   378.1590     2.2000 
  191.2500   -25.3560    67.5510    24.7470   305.0370   281.7940   397.5190     2.1960 
  191.3750   -25.3610    64.5450    24.7830   339.0310   293.5810   412.7570     2.1960 
  191.5000   -25.3470    63.3650    24.7940   365.3280   300.4920   420.1300     2.2010 
  191.6250   -25.2600    65.9070    24.6250   375.0970   300.0610   415.9300     2.2080 
  191.7500   -25.1350    68.1570    24.8220   367.5710   290.1170   397.5480     2.2160 
  191.8750   -24.9460    67.9520    24.8160   336.3870   273.9530   371.6480     2.2180 
