~V
VERS. 2.00: Ver 2.00
~W
STRT.M 60.0000:
STOP.M 232.0000:
STEP.M 0.1250:
NULL. -999.2500:
UWI. DF3065:
~C
DEPT.M :
GR.API :
CALI.CM :
RXO.OHMM :
RI. :
RML.OHMM :
DEN.GM/CC :
SP.MV :
~A
# ...
  195.0000    58.4940    24.3870    76.3850   131.0200   168.0400     2.2050   -19.1810 
  195.1250    58.8900    24.3970    78.2240   131.9580   169.9600     2.1920   -19.1110 
  195.2500    59.3970    24.3320    78.9290   132.5610   171.2440     2.1800   -19.1170 
  195.3750    63.7720    24.0650    78.0640   132.8200   171.6600     2.1720   -19.1200 
  195.5000    70.6650    23.8410    76.7080   132.6890   170.7500     2.1650   -19.1140 
  195.6250    71.1860    23.8020    73.9030   132.6590   169.5220     2.1570   -19.0990 
  195.7500    65.1740    23.7570    69.3130   133.5130   169.1610     2.1430   -18.9920 
  195.8750    59.8520    23.6530    68.2780   135.2390   169.8270     2.1340   -18.8730 
  196.0000    60.2460    23.5230    70.3030   137.9130   171.6060     2.1440   -18.7960 
  196.1250    61.8650    23.5070    68.3520   141.8790   175.0860     2.1730   -18.7270 
  196.2500    60.5990    23.5160    66.4870   145.9470   179.2540     2.2040   -18.6400 
  196.3750    59.3000    23.4530    66.4360   149.0490   182.6830     2.2210   -18.5560 
  196.5000    60.8830    23.2220    66.4680   150.4860   184.2240     2.2280   -18.4080 
  196.6250    62.6220    23.2100    64.7530   149.2300   182.1160     2.2390   -18.3120 
  196.7500    62.1900    23.3090    63.0730   145.2260   176.2820     2.2510   -18.2510 
  196.8750    60.8810    23.4910    62.5090   138.4630   166.6390     2.2480   -18.0960 
  197.0000    60.0360    23.5070    62.4070   128.8180   153.2900     2.2320   -18.0090 
  197.1250    60.2930    23.5090    61.9120   115.8620   136.2120     2.2160   -17.9460 
  197.2500    61.5510    23.5480    59.9120   101.2830   117.6820     2.2100   -17.8780 
  197.3750    64.1800    23.5570    55.5520    86.3580    99.6240     2.2160   -17.8640 
  197.5000    67.3320    23.5080    46.2360    72.4140    83.4160     2.2240   -17.7860 
  197.6250    70.0670    23.5130    33.9850    61.1410    70.6530     2.2280   -17.6470 
  197.7500    74.0090    23.6120    24.9330    52.8200    61.4080     2.2290   -17.6530 
  197.8750    79.7520    23.6910    22.5500    47.5900    56.0070     2.2380   -17.6230 
  198.0000    83.9060    23.5560    22.8980    45.3750    54.3580     2.2610   -17.5280 
  198.1250    79.7170    23.5260    25.1470    46.2720    56.4360     2.2850   -17.5740 
  198.2500    72.2300    23.5930    31.2600    49.2610    61.1560     2.2930   -17.5390 
  198.3750    67.5790    23.6500    39.2990    53.9690    67.8530     2.2740   -17.5220 
  198.5000    65.6840    23.5230    44.3920    59.8860    75.8370     2.2460   -17.6380 
  198.6250    63.8280    23.5200    46.2160    66.5360    84.6550     2.2200   -17.6960 
  198.7500    60.8900    23.5390    48.2280    73.4640    93.9000     2.2020   -17.7490 
  198.8750    57.6070    23.4920    51.3480    80.7210   103.7400     2.1990   -17.8940 
  199.0000    56.5910    23.2920    54.7190    88.5110   114.4530     2.2080   -17.9840 
  199.1250    59.6870    23.4850    57.6560    97.0930   126.2530     2.2260   -18.0620 
  199.2500    63.2300    23.5450    61.3360   105.9510   138.3120     2.2490   -18.1860 
  199.3750    63.8760    23.6000    65.7750   113.7250   148.6530     2.2670   -18.2390 
  199.5000    61.2950    23.5980    72.1080   118.6440   154.8430     2.2670   -18.3020 
  199.6250    58.9460    23.5110    75.1630   118.4680   153.8120     2.2500   -18.3670 
  199.7500    59.4890    23.3970    69.6660   113.8330   146.6520     2.2260   -18.3440 
  199.8750    61.9170    23.2160    58.7210   106.0370   135.4960     2.2130   -18.3460 
  200.0000    63.5600    23.1880    52.2750    97.0340   123.2010     2.2130   -18.3880 
  200.1250    63.7140    23.1900    48.9820    89.1030   112.7460     2.2210   -18.4160 
  200.2500    66.7080    23.2230    47.4930    83.2030   105.0910     2.2280   -18.4080 
  200.3750    70.5860    23.2560    49.0150    79.6600   100.3770     2.2240   -18.3610 
  200.5000    70.7420    23.2540    52.5640    78.1720    98.1600     2.2150   -18.3270 
  200.6250    69.5000    23.1990    54.3200    77.9490    97.5550     2.2070   -18.3310 
  200.7500    71.5010    23.1650    54.8660    77.7720    97.3210     2.2030   -18.2980 
  200.8750    73.6300    23.1000    53.9530    77.2270    97.1290     2.2010   -18.2730 
  201.0000    71.0310    22.8990    50.5430    76.2640    96.8500     2.2000   -18.2280 
  201.1250    66.1700    22.8190    45.7790    75.0260    96.6120     2.1950   -18.1410 
  201.2500    64.0600    22.7110    39.8790    74.1420    97.0180     2.1840   -18.1780 
  201.3750    65.9790    22.5950    39.7230    74.2370    98.6750     2.1840   -18.1600 
  201.5000    69.2020    22.1160    50.7260    75.4600   101.5600     2.2150   -18.0540 
  201.6250    70.7840    22.3360    69.8520    78.1160   105.4730     2.2630   -17.9830 
  201.7500    67.3570    23.1540    86.9690    81.6020   109.8080     2.2960   -17.9080 
  201.8750    60.9570    23.7390    93.8080    85.4450   113.8220     2.2850   -17.8640 
  202.0000    57.5230    24.3050    92.6850    89.0740   116.9370     2.2470   -17.8380 
  202.1250    60.2660    24.5030    93.0140    92.0960   118.7930     2.2060   -17.6900 
  202.2500    64.2440    24.6730    97.4200    94.2370   119.3450     2.1820   -17.4960 
  202.3750    66.4990    24.6750   105.5020    95.2170   118.2560     2.1870   -17.4000 
  202.5000    66.6150    24.5950   114.7490    94.8470   115.5740     2.2100   -17.2080 
  202.6250    65.4230    24.4720   114.3840    92.9860   111.6300     2.2370   -17.0250 
  202.7500    65.0410    24.5290   104.5080    90.1890   107.0570     2.2600   -16.8910 
  202.8750    66.0920    24.6360    93.8970    86.8150   102.1980     2.2780   -16.6350 
  203.0000    67.7760    24.7290    86.1550    83.3070    97.5500     2.2870   -16.4470 
  203.1250    69.2730    24.7890    78.2370    80.4740    93.8820     2.2820   -16.3420 
  203.2500    71.2160    24.8790    72.1540    78.5630    91.4560     2.2660   -16.1710 
  203.3750    72.1840    24.8330    75.7340    77.6820    90.2410     2.2460   -16.0250 
  203.5000    70.8890    24.7710    94.0590    77.6520    89.9440     2.2280   -15.9970 
  203.6250    69.2110    24.7540   101.5160    77.8420    89.7330     2.2180   -16.0060 
  203.7500    69.1980    24.7750    91.0450    77.4030    88.6810     2.2200   -15.9590 
  203.8750    68.5950    24.7850    79.5900    76.0100    86.4970     2.2280   -15.9000 
  204.0000    67.5120    24.7860    80.5240    73.6470    83.2610     2.2310   -15.8220 
  204.1250    67.5440    24.8230    75.2540    70.3040    79.2000     2.2350   -15.7750 
  204.2500    67.9170    24.8720    64.5250    66.6750    75.0550     2.2580   -15.7300 
  204.3750    67.3740    24.9150    58.2590    63.5170    71.6730     2.3120   -15.6590 
  204.5000    66.9370    24.9490    62.3460    61.4740    69.7700     2.3670   -15.5320 
  204.6250    70.7560    24.9310    64.1350    61.6810    70.6010     2.3940   -15.3480 
  204.7500    75.3180    24.8650    64.4790    64.2380    74.2200     2.3870   -15.2330 
  204.8750    74.7760    24.8080    64.2570    69.1830    80.2880     2.3650   -15.0980 
  205.0000    68.2870    24.7150    74.8670    76.1650    88.0490     2.3510   -14.9390 
  205.1250    63.6430    24.4200    97.8300    84.5500    95.7380     2.3480   -14.7620 
  205.2500    63.1180    24.2640   140.0140    90.5920    99.6620     2.3600   -14.5210 
  205.3750    63.9060    24.0540   180.6040    89.2300    96.0240     2.4050   -14.3590 
  205.5000    65.7190    23.8490   146.2720    78.2670    83.8530     2.4740   -14.2530 
  205.6250    70.3680    23.8240    77.7560    60.7470    65.7720     2.5270   -14.0910 
  205.7500    74.7640    23.7700    35.8200    43.5090    47.5730     2.5280   -13.9140 
  205.8750    76.0540    23.6170    24.6820    29.6670    32.4630     2.4940   -13.7590 
  206.0000    76.3030    23.2270    17.1590    20.0470    21.6090     2.4820   -13.5530 
  206.1250    80.3640    23.1790     8.6830    14.4270    15.2560     2.5000   -13.3470 
