~V
VERS. 2.00: Ver 2.00
~W
STRT.M 67.0000:
STOP.M 279.0000:
STEP.M 0.1250:
NULL. -999.2500:
UWI. DF3057:
~C
DEPT.M :
GR.API :
CALI.CM :
RXO.OHMM :
RI. :
RML.OHMM :
DEN.GM/CC :
SP.MV :
~A
# ...
  112.0000    66.2600    24.8050    11.3240     9.1940    12.4040  -999.2500   -36.1730 
  112.1250    64.0940    24.6950    11.3900     9.2230    12.3880  -999.2500   -36.0590 
  112.2500    63.6520    24.3420    11.5870     9.2050    12.3010  -999.2500   -35.9050 
  112.3750    66.6450    24.1100    11.8400     9.1530    12.1810  -999.2500   -35.7410 
  112.5000    69.9520    24.0000    12.0350     9.0750    12.0580  -999.2500   -35.5810 
  112.6250    69.1790    23.6950    12.0400     8.9920    11.9480  -999.2500   -35.4070 
  112.7500    66.5180    23.6000    11.9550     8.9150    11.8580  -999.2500   -35.2490 
  112.8750    64.6040    23.5800    11.8840     8.8540    11.7960  -999.2500   -35.1270 
  113.0000    63.8110    23.5550    11.8270     8.8080    11.7410  -999.2500   -35.0510 
  113.1250    61.8510    23.3870    11.6760     8.7680    11.6770  -999.2500   -34.9560 
  113.2500    60.3500    23.5010    11.3950     8.7390    11.6330  -999.2500   -34.8010 
  113.3750    62.5130    23.5980    11.0310     8.7380    11.6230  -999.2500   -34.5990 
  113.5000    68.7490    23.5650    10.9820     8.7640    11.6310  -999.2500   -34.3740 
  113.6250    74.3140    23.3310    11.2180     8.7770    11.6210  -999.2500   -34.1510 
  113.7500    73.4200    23.3120    11.3500     8.7390    11.5450  -999.2500   -33.9130 
  113.8750    67.1490    23.4740    11.1950     8.6370    11.3780  -999.2500   -33.6610 
  114.0000    62.0830    23.5540    10.8700     8.4670    11.1240  -999.2500   -33.4340 
  114.1250    64.4140    23.4700    10.6490     8.1990    10.7180  -999.2500   -33.2500 
  114.2500    70.3910    23.4800    10.2950     7.8450    10.1970  -999.2500   -33.0920 
  114.3750    75.6920    23.5510     9.4660     7.4540     9.6490  -999.2500   -32.9350 
  114.5000    80.5600    23.5520     8.5560     7.0910     9.1700  -999.2500   -32.8180 
  114.6250    84.9510    23.3940     8.2910     6.8250     8.8480  -999.2500   -32.8300 
  114.7500    86.7250    23.5670     8.3630     6.6800     8.7110  -999.2500   -32.9640 
  114.8750    82.9940    23.9310     8.3130     6.6820     8.7870  -999.2500   -33.2080 
  115.0000    77.5610    24.3500     8.2670     6.8310     9.0560  -999.2500   -33.4830 
  115.1250    76.3300    24.2800     8.9600     7.1210     9.5040  -999.2500   -33.7480 
  115.2500    76.0670    23.9740    10.0250     7.4920    10.0390  -999.2500   -33.9980 
  115.3750    73.1030    24.0890    10.7700     7.8800    10.5620  -999.2500   -34.2260 
  115.5000    68.9850    24.1110    11.0070     8.2400    11.0220  -999.2500   -34.4220 
  115.6250    68.6600    24.0290    10.9620     8.5040    11.3430  -999.2500   -34.5460 
  115.7500    70.7840    24.0310    10.9690     8.6160    11.4550  -999.2500   -34.5810 
  115.8750    72.7400    24.1020    11.0140     8.5590    11.3480  -999.2500   -34.5060 
  116.0000    74.4440    24.1340    11.0490     8.3830    11.0940  -999.2500   -34.3490 
  116.1250    74.5190    23.9520    11.0710     8.1410    10.7780  -999.2500   -34.1600 
  116.2500    73.8320    24.0680    11.0880     7.8980    10.4680  -999.2500   -33.9400 
  116.3750    74.4220    24.2800    10.8830     7.7160    10.2690  -999.2500   -33.7120 
  116.5000    75.4390    24.3180    10.1780     7.6390    10.2440  -999.2500   -33.4950 
  116.6250    74.4770    24.1390     9.8880     7.6920    10.3950  -999.2500   -33.3260 
  116.7500    72.7620    24.1340    10.5450     7.8480    10.6570  -999.2500   -33.1780 
  116.8750    72.2360    24.1860    11.4060     8.0570    10.9580  -999.2500   -33.0070 
  117.0000    73.9950    24.1970    11.5210     8.2660    11.2190  -999.2500   -32.7810 
  117.1250    76.7130    24.1900    11.3250     8.4420    11.4380  -999.2500   -32.4960 
  117.2500    79.7070    24.1260    10.9940     8.6060    11.6370  -999.2500   -32.1930 
  117.3750    81.8270    24.0510    10.6370     8.7310    11.7780  -999.2500   -31.8570 
  117.5000    80.0350    23.9570    10.3220     8.7840    11.8100  -999.2500   -31.4330 
  117.6250    75.7990    23.9200    10.1730     8.7130    11.6890  -999.2500   -30.8830 
  117.7500    74.1100    23.9290    10.2370     8.5100    11.3770  -999.2500   -30.2800 
  117.8750    77.9570    23.9170    10.3130     8.1340    10.8110  -999.2500   -29.6370 
  118.0000    84.8150    23.9400    10.0250     7.6040    10.0260  -999.2500   -28.9810 
  118.1250    90.7150    24.1040     8.9380     6.9990     9.1460  -999.2500   -28.3280 
  118.2500    98.2720    24.2110     7.4710     6.4180     8.3310  -999.2500   -27.7060 
  118.3750   107.2030    24.2660     6.4520     5.9290     7.6860  -999.2500   -27.1480 
  118.5000   114.8930    24.1840     6.2550     5.5730     7.2530  -999.2500   -26.6630 
  118.6250   117.1830    24.1960     6.2850     5.3910     7.0750  -999.2500   -26.2820 
  118.7500   112.5010    24.2320     6.4010     5.3410     7.0750  -999.2500   -26.0040 
  118.8750   104.4970    24.4280     6.4790     5.3930     7.2100  -999.2500   -25.8500 
  119.0000    99.6300    24.6850     6.3820     5.5090     7.4220  -999.2500   -25.7910 
  119.1250   103.8710    24.7100     6.1800     5.6590     7.6590  -999.2500   -25.8230 
  119.2500   108.4750    24.5690     6.4000     5.8060     7.8690  -999.2500   -25.9100 
  119.3750   104.3060    24.4110     7.2400     5.9300     8.0300  -999.2500   -26.0380 
  119.5000    92.4780    24.1840     8.2290     6.0390     8.1630  -999.2500   -26.1750 
  119.6250    87.2780    24.2680     8.0250     6.1260     8.2620  -999.2500   -26.3050 
  119.7500    91.8310    24.6210     7.1790     6.1970     8.3410  -999.2500   -26.4400 
  119.8750    96.1830    24.8540     6.7460     6.2750     8.4270  -999.2500   -26.5810 
  120.0000    93.3740    24.8070     6.9810     6.3780     8.5510  -999.2500   -26.6570 
  120.1250    90.9890    24.7610     7.1660     6.4820     8.6990  -999.2500   -26.6280 
  120.2500    93.0900    24.7330     7.6870     6.5760     8.8540  -999.2500   -26.5780 
  120.3750    94.5150    24.6860     8.2780     6.6650     9.0200  -999.2500   -26.5730 
  120.5000    93.0350    24.4320     8.3850     6.7190     9.1410  -999.2500   -26.6810 
  120.6250    91.3340    24.2040     7.5410     6.7000     9.1490  -999.2500   -26.8340 
  120.7500    87.6240    24.2200     7.2330     6.6140     9.0600  -999.2500   -26.8550 
  120.8750    82.8060    24.2180     7.2630     6.4590     8.8760  -999.2500   -26.7070 
  121.0000    82.7210    24.1380     7.2690     6.2470     8.5940  -999.2500   -26.5530 
  121.1250    90.3230    24.1250     7.2080     5.9950     8.2510  -999.2500   -26.4920 
  121.2500    96.7400    24.1370     7.1790     5.7580     7.9290  -999.2500   -26.4470 
  121.3750    99.4600    24.2360     6.7790     5.5770     7.6850  -999.2500   -26.3230 
  121.5000   100.6990    24.2900     6.1740     5.4740     7.5660  -999.2500   -26.0840 
  121.6250   100.9370    24.3330     6.1000     5.4890     7.6430  -999.2500   -25.7890 
  121.7500    99.9960    24.4000     6.2940     5.6030     7.8600  -999.2500   -25.5990 
  121.8750    98.6900    24.3920     6.5400     5.7810     8.1340  -999.2500   -25.5770 
  122.0000    98.4440    24.2260     6.9810     5.9510     8.3470  -999.2500   -25.6260 
  122.1250    98.3820    24.2580     7.8680     6.0500     8.4140     2.4060   -25.6110 
  122.2500    99.2280    24.4100     7.7020     6.0480     8.3030     2.4060   -25.5280 
  122.3750   101.0550    24.4020     6.9130     5.9360     8.0200     2.4210   -25.4690 
  122.5000   102.2740    24.2640     6.5910     5.7660     7.6740     2.4310   -25.5040 
  122.6250   103.3880    24.2250     6.5900     5.6260     7.4080     2.4200   -25.6610 
  122.7500   103.9820    24.2140     6.3730     5.5420     7.2740     2.4020   -25.8120 
  122.8750   103.9880    24.1970     6.1460     5.5420     7.3070     2.3890   -25.8850 
  123.0000   103.8880    24.1720     6.1280     5.6370     7.4960     2.3950   -25.8950 
  123.1250   104.6850    24.1380     6.2890     5.7940     7.7340     2.4230   -25.8760 
