~V
VERS. 2.00: Ver 2.00
~W
STRT.M 64.0000:
STOP.M 257.0000:
STEP.M 0.1250:
NULL. -999.2500:
UWI. DF3069:
~C
DEPT.M :
GR.API :
CALI.CM :
RXO.OHMM :
RI. :
RML.OHMM :
DEN.GM/CC :
SP.MV :
~A
# ...
  244.0000    60.4080    23.8020    22.0460    17.6130    19.0450     2.4900   -15.7810 
  244.1250    63.5920    23.8160    22.4320    17.8750    19.2580     2.5220   -15.7720 
  244.2500    64.9870    23.8020    24.3130    18.1120    19.4410     2.5280   -15.6680 
  244.3750    63.0740    23.8560    25.5090    18.3000    19.5270     2.5120   -15.6560 
  244.5000    60.1260    23.7900    24.0470    18.4110    19.5080     2.4980   -15.7260 
  244.6250    59.7950    23.8850    21.4290    18.4260    19.3810     2.5040   -15.6470 
  244.7500    60.8200    23.9100    19.8990    18.3540    19.2340     2.5250   -15.5820 
  244.8750    61.3710    23.7900    19.3900    18.2260    19.0850     2.5470   -15.6420 
  245.0000    62.5370    23.7660    19.4550    18.0820    18.9590     2.5540   -15.6160 
  245.1250    65.7350    23.7840    20.2990    17.9640    18.8810     2.5550   -15.5530 
  245.2500    67.5240    23.7560    22.0280    17.8810    18.8160     2.5690   -15.6100 
  245.3750    64.2680    23.7550    24.2500    17.8260    18.7600     2.5930   -15.6110 
  245.5000    60.0980    23.7770    26.9330    17.7790    18.6600     2.6010   -15.5490 
  245.6250    62.0490    23.7820    28.5170    17.6900    18.4650     2.5850   -15.5310 
  245.7500    62.0490    23.7570    28.1780    17.5610    18.1940     2.5560   -15.5670 
  245.8750    62.0490    23.7110    28.0990    17.3970    17.9180     2.5300   -15.5120 
  246.0000    62.0490    23.7680    28.9060    17.2190    17.6780     2.5150   -15.5240 
  246.1250    62.0490    23.8020    31.3650    17.0530    17.4830     2.5110   -15.5400 
  246.2500    62.0490    23.8730    32.4910    16.9320    17.3980     2.5210   -15.5210 
  246.3750    62.0490    23.9770    34.1340    16.8630    17.4240     2.5400   -15.5440 
  246.5000    62.0490    23.8030    33.0380    16.8550    17.5350     2.5450   -15.5790 
  246.6250    62.0490    23.7740    29.2000    16.8770    17.6470     2.5310   -15.6140 
  246.7500    62.0490    23.7720    25.8860    16.9070    17.7400     2.5100   -15.6130 
  246.8750    62.0490    23.7840    25.8660    16.9170    17.7900     2.4990   -15.6110 
  247.0000    62.0490    23.7660    23.7720    16.9090    17.7990     2.5060   -15.5980 
  247.1250    62.0490    23.6400    19.4770    16.8800    17.7290     2.5170   -15.6020 
  247.2500    62.0490    23.6910    18.7500    16.8570    17.6370     2.5250   -15.5850 
  247.3750    62.0490    23.7700    20.0680    16.8380    17.5460     2.5250   -15.6460 
  247.5000    62.0490    23.7650    20.2160    16.8190    17.4890     2.5190   -15.6530 
  247.6250    62.0490    23.6920    18.4500    16.7980    17.4760     2.5120   -15.7230 
  247.7500    62.0490    23.7250    17.9340    16.7440    17.4490     2.5070   -15.8260 
  247.8750    62.0490    23.5470    17.2680    16.6550    17.4250     2.5070   -15.8980 
  248.0000    62.0490    23.4430    16.4300    16.5430    17.4280     2.5070   -15.9820 
  248.1250    62.0490    23.3980    15.3100    16.4290    17.4820     2.4990   -16.0190 
  248.2500    62.0490    23.4490    14.2310    16.3320    17.5230     2.4800   -16.0800 
  248.3750    62.0490    23.5000    13.4180    16.2410    17.4980     2.4530   -16.0990 
  248.5000    62.0490    23.5600    13.1090    16.1850    17.4840     2.4210   -16.1530 
  248.6250    62.0490    23.7230    13.4350    16.1510    17.5180     2.3890   -16.1890 
  248.7500    62.0490    23.6940    13.4430    16.1330    17.5710     2.3770   -16.1680 
  248.8750    62.0490    23.6730    13.2700    16.1430    17.6250     2.3970   -16.2110 
  249.0000    62.0490    23.7570    12.7870    16.1590    17.6660     2.4330   -16.2320 
  249.1250    62.0490    23.7420    12.3690    16.1810    17.7610     2.4440   -16.3270 
  249.2500    62.0490    23.5860    12.1460    16.2160    17.9100     2.4330   -16.4030 
  249.3750    62.0490    23.4240    12.3830    16.2610    18.0800     2.4340   -16.4430 
  249.5000    62.0490    23.4180    12.6120    16.2900    18.2360     2.4620   -16.5000 
  249.6250    62.0490    23.2810    12.4010    16.2730    18.3650     2.4870   -16.4900 
  249.7500    62.0490    22.9220    11.8270    16.2360    18.4630     2.4940   -16.5130 
  249.8750    62.0490    22.8330    11.3390    16.1700    18.5200     2.4950   -16.5080 
  250.0000    62.0490    22.8200    11.3850    16.0830    18.5240     2.5030   -16.5310 
  250.1250    62.0490    22.7710    12.4790    16.0020    18.4830     2.5170   -16.5230 
  250.2500    62.0490    22.6800    13.9110    15.9400    18.4310     2.5370   -16.4970 
  250.3750    62.0490    22.7660    15.1070    15.8980    18.4210     2.5590   -16.4940 
  250.5000    62.0490    22.8070    16.0880    15.8790    18.4480     2.5730   -16.4760 
  250.6250    62.0490    22.7580    16.9380    15.8790    18.4630     2.5750   -16.5220 
  250.7500    62.0490    22.8600    19.5000    15.8860    18.4960     2.5670   -16.5740 
  250.8750    62.0490    23.0320    24.5250    15.8920    18.5350     2.5510   -16.6300 
  251.0000    62.0490    23.1010    35.1760    15.9100    18.5540     2.5320   -16.6710 
  251.1250    62.0490    23.0110    34.4620    15.9350    18.5390     2.5150   -16.6900 
  251.2500    62.0490    23.0730    27.9340    15.9560    18.5150     2.5010   -16.7380 
  251.3750    62.0490    23.1250    22.0420    15.9720    18.4830     2.4920   -16.7230 
  251.5000    62.0490    23.1470    20.5840    15.9880    18.4480     2.4920   -16.6650 
  251.6250    62.0490    23.1770    20.3090    15.9880    18.4480     2.4920   -16.6840 
  251.7500    62.0490    23.1760    18.6340    15.9880    18.4480     2.4750   -16.7140 
  251.8750    62.0490    23.1770    16.4140    15.9880    18.4480     2.4450   -16.6940 
  252.0000    62.0490    23.3640    15.3150    15.9880    18.4480     2.4260   -16.5980 
  252.1250    62.0490    23.2240    15.5500    15.9880    18.4480     2.4280   -16.4900 
  252.2500    62.0490    23.1830    15.8360    15.9880    18.4480     2.4420   -16.4300 
  252.3750    62.0490    23.1690    15.6990    15.9880    18.4480     2.4570   -16.3660 
  252.5000    62.0490    23.3890    14.9440    15.9880    18.4480     2.4790   -16.3660 
  252.6250    62.0490    23.3800    12.7090    15.9880    18.4480     2.5060   -16.2920 
  252.7500    62.0490    23.2830    11.7020    15.9880    18.4480     2.5280   -16.1380 
  252.8750    62.0490    23.3400    11.3490    15.9880    18.4480     2.5400   -16.0980 
  253.0000    62.0490    23.1830    11.5000    15.9880    18.4480     2.5420   -16.0980 
  253.1250    62.0490    23.1760    11.7490    15.9880    18.4480     2.5440  -999.2500 
  253.2500    62.0490    23.2150    11.7810    15.9880    18.4480     2.5500  -999.2500 
  253.3750    62.0490    23.1910    11.5070    15.9880    18.4480     2.5520  -999.2500 
  253.5000    62.0490    23.3690    11.1690    15.9880    18.4480     2.5340  -999.2500 
  253.6250    62.0490    23.3160    11.1530    15.9880    18.4480     2.5090  -999.2500 
  253.7500    62.0490    23.2020    11.6390    15.9880    18.4480     2.5000  -999.2500 
  253.8750    62.0490    23.2350    12.6610    15.9880    18.4480     2.5100  -999.2500 
  254.0000    62.0490    23.1750    13.9370    15.9880    18.4480     2.5160  -999.2500 
  254.1250    62.0490    23.2830    13.8720    15.9880    18.4480     2.5040  -999.2500 
  254.2500    62.0490    23.0980    12.9190    15.9880    18.4480     2.4870  -999.2500 
  254.3750    62.0490    23.0670    11.8740    15.9880    18.4480     2.4890  -999.2500 
  254.5000    62.0490    23.0440    11.0180    15.9880    18.4480     2.5010  -999.2500 
  254.6250    62.0490    22.6900    10.8540    15.9880    18.4480     2.4560  -999.2500 
  254.7500    62.0490    22.2490    11.1450    15.9880    18.4480     2.3180  -999.2500 
  254.8750    62.0490    20.9040    11.4310    15.9880    18.4480     2.1420  -999.2500 
  255.0000    62.0490    20.1480    11.4200    15.9880    18.4480     2.0550  -999.2500 
  255.1250    62.0490    20.0100    11.3840    15.9880    18.4480     2.0690  -999.2500 
