~V
VERS. 2.00: Ver 2.00
~W
STRT.M 130.0000:
STOP.M 271.0000:
STEP.M 0.1250:
NULL. -999.2500:
UWI. DF3076:
~C
DEPT.M :
DEN.GM/CC :
GR.API :
CALI.CM :
RXO.OHMM :
RI. :
RML.OHMM :
SP.MV :
~A
# ...
  208.7500     2.3010    81.0140    23.7150    94.7590    66.5050    83.8130   -23.0760 
  208.8750     2.2830    76.0890    23.8720    84.9970    74.4180    91.8800   -23.6270 
  209.0000     2.2770    71.6670    24.0390    81.0470    79.6820    96.7170   -24.1380 
  209.1250     2.2660    72.1780    24.0900    89.3330    83.7620   100.7800   -24.6060 
  209.2500     2.2440    73.6930    24.0780   101.7260    87.9030   105.4150   -25.0400 
  209.3750     2.2220    74.2750    24.0600   109.1160    91.8030   109.8420   -25.4430 
  209.5000     2.2080    75.9480    24.0500   110.0370    94.5690   112.6090   -25.8150 
  209.6250     2.2040    75.9920    24.0430   107.3440    95.3040   112.5130   -26.1610 
  209.7500     2.2090    72.0900    24.0410   103.1100    94.6530   110.6600   -26.4710 
  209.8750     2.2140    69.2450    24.0440    98.6000    93.4060   108.2090   -26.7440 
  210.0000     2.2130    71.1820    24.0430    97.6440    92.1640   105.8780   -26.9860 
  210.1250     2.2080    74.5990    24.0480   100.4440    90.9900   103.6370   -27.2060 
  210.2500     2.2040    74.4490    24.0510   100.6580    89.5700   101.0550   -27.4100 
  210.3750     2.2070    72.3020    24.0470    96.0790    87.7200    97.9530   -27.5960 
  210.5000     2.2150    70.4540    24.0400    89.1310    85.4840    94.4740   -27.7790 
  210.6250     2.2180    69.1720    24.0360    83.8020    83.1200    91.0660   -27.9490 
  210.7500     2.2110    69.4190    24.0340    81.3300    81.0260    88.1940   -28.1270 
  210.8750     2.2040    72.0350    24.0330    80.2740    79.4890    86.1380   -28.3100 
  211.0000     2.2050    76.4030    24.0350    78.9280    78.6800    85.0190   -28.5050 
  211.1250     2.2150    78.3750    24.0330    78.1480    78.7980    85.0220   -28.7070 
  211.2500     2.2300    77.6670    24.0330    79.6070    79.7330    85.9890   -28.9260 
  211.3750     2.2420    76.6230    24.0320    82.7260    81.4760    87.8790   -29.1600 
  211.5000     2.2430    76.2120    24.0340    86.5450    83.9080    90.5120   -29.4020 
  211.6250     2.2310    74.6300    24.0340    89.9320    86.7240    93.4870   -29.6780 
  211.7500     2.2120    70.9330    24.0350    92.6350    89.3840    96.1970   -29.9660 
  211.8750     2.1960    67.2200    24.0260    94.0170    91.5700    98.3360   -30.2730 
  212.0000     2.1880    65.7560    24.0010    93.9380    93.2850   100.0150   -30.5850 
  212.1250     2.1880    67.8190    23.9790    92.3920    95.1100   102.0160   -30.9130 
  212.2500     2.1920    71.6780    23.9670    92.0300    98.0290   105.3760   -31.2620 
  212.3750     2.1970    73.7010    23.9580    95.0230   102.8910   110.8940   -31.6530 
  212.5000     2.2040    72.3340    23.9370   101.0400   110.0910   118.8580   -32.0430 
  212.6250     2.2190    69.6600    23.9110   109.8770   119.5100   128.9320   -32.4570 
  212.7500     2.2360    67.3750    23.8490   120.8860   129.4970   139.1230   -32.8850 
  212.8750     2.2410    65.1960    23.7410   128.6110   138.4820   147.4740   -33.3360 
  213.0000     2.2290    64.2180    23.7190   127.9800   145.2520   152.5750   -33.7880 
  213.1250     2.2070    65.1250    23.7710   120.8650   152.1720   150.4790   -34.2550 
  213.2500     2.1930    66.9920    23.8210   115.8680   150.4490   151.8000   -34.7180 
  213.3750     2.1900    69.6420    23.8300   115.9930   145.9830   150.5660   -35.1770 
  213.5000     2.1950    73.0300    23.7570   118.0590   138.4070   146.2780   -35.6420 
  213.6250     2.2060    76.6000    23.5230   114.0210   127.1820   137.9220   -36.0940 
  213.7500     2.2190    78.6460    23.1790   100.5230   114.1020   126.6070   -36.5480 
  213.8750     2.2250    77.6880    22.8160    82.1940   101.4320   114.1030   -36.9980 
  214.0000     2.2220    74.3410    22.4820    66.2030    91.5570   102.9500   -37.4660 
  214.1250     2.2170    73.1830    22.2550    56.6480    86.9670    96.3730   -37.9470 
  214.2500     2.2200    74.5520    22.1110    52.3970    87.6460    95.3280   -38.4330 
  214.3750     2.2270    73.8870    22.0660    55.6710    93.8600   100.5860   -38.9200 
  214.5000     2.2300    69.9940    22.2180    70.5390   105.6520   112.3960   -39.4120 
  214.6250     2.2300    69.3870    22.6410    96.0400   122.9340   130.6030   -39.8850 
  214.7500     2.2260    71.7010    23.0550   119.8520   142.2490   151.2500   -40.3210 
  214.8750     2.2170    70.5450    23.3620   132.4970   159.9410   170.5240   -40.7070 
  215.0000     2.2080    65.5420    23.5310   134.1380   173.2450   185.5210   -41.0220 
  215.1250     2.2080    62.5090    23.5660   133.4780   182.1510   195.7560   -41.2340 
  215.2500     2.2160    62.9890    23.5420   139.8540   190.3970   204.7930   -41.3460 
  215.3750     2.2190    66.1110    23.4750   154.5910   199.3800   214.2970   -41.3430 
  215.5000     2.2100    69.3200    23.3400   171.8990   207.5270   223.0820   -41.2300 
  215.6250     2.1980    69.6770    23.2400   181.4160   210.5380   226.9530   -41.0350 
  215.7500     2.1890    65.7880    23.3140   179.8720   207.9350   224.8740   -40.7690 
  215.8750     2.1830    61.2850    23.4040   168.1150   202.2210   218.7510   -40.4670 
  216.0000     2.1790    61.2360    23.3440   154.1770   197.2550   212.3860   -40.1380 
  216.1250     2.1760    65.0020    23.3230   151.2400   196.8290   210.1710   -39.7810 
  216.2500     2.1790    68.1690    23.4320   158.7120   201.0620   212.9810   -39.3820 
  216.3750     2.1880    68.1060    23.6130   168.4420   208.8450   219.9600   -38.9500 
  216.5000     2.2050    64.8860    23.7150   172.7240   218.1490   229.0340   -38.4910 
  216.6250     2.2190    63.1580    23.6550   172.4860   226.1560   237.2140   -37.9790 
  216.7500     2.2230    63.7180    23.6190   175.5330   231.0490   242.3390   -37.4110 
  216.8750     2.2220    65.3330    23.6030   178.1170   232.2260   243.6260   -36.7850 
  217.0000     2.2240    65.4740    23.5870   177.2970   229.9510   241.2840   -36.1060 
  217.1250     2.2270    63.0620    23.5900   176.1970   224.4760   235.5740   -35.3720 
  217.2500     2.2220    61.7610    23.6490   177.1850   217.0170   227.7740   -34.6360 
  217.3750     2.2070    63.0950    23.7410   181.8540   208.1430   218.5290   -33.8950 
  217.5000     2.1890    66.4810    23.8040   188.5210   198.0970   208.2330   -33.1660 
  217.6250     2.1810    69.5020    23.8290   190.3400   186.4920   196.6250   -32.4370 
  217.7500     2.1940    70.3800    23.8400   186.8760   173.5900   183.7550   -31.7290 
  217.8750     2.2150    68.4120    23.8630   176.8860   160.2690   170.1720   -31.0350 
  218.0000     2.2360    65.4280    23.8930   159.6380   148.1370   157.2780   -30.3480 
  218.1250     2.2570    66.0730    23.9070   141.9630   139.6020   147.5990   -29.6700 
  218.2500     2.2870    68.1190    23.9110   127.1820   135.2620   142.2650   -29.0090 
  218.3750     2.3230    66.5630    23.8850   116.5980   134.9130   141.5390   -28.3600 
  218.5000     2.3540    62.4400    23.8100   115.6140   136.9550   144.1660   -27.6940 
  218.6250     2.3670    63.4720    23.6620   124.2680   137.3620   146.4600   -27.0400 
  218.7500     2.3520    68.9200    23.5720   127.6100   131.9440   143.7120   -26.3950 
  218.8750     2.3120    71.0950    23.4760   116.3180   119.1850   133.3780   -25.7680 
  219.0000     2.2560    66.1740    23.3430    97.0330   101.4880   116.5660   -25.1690 
  219.1250     2.1950    63.5800    23.2910    78.7070    83.9450    97.7220   -24.6090 
  219.2500     2.1530    67.5060    23.3030    62.7470    69.9220    81.4960   -24.0710 
  219.3750     2.1440    71.1120    23.3380    50.9890    60.0190    69.4340   -23.5640 
  219.5000     2.1650    68.8410    23.3890    44.5290    53.6580    61.3980   -23.1250 
  219.6250     2.2020    64.8730    23.3760    41.4530    50.2060    56.8810   -22.7410 
  219.7500     2.2340    65.0530    23.2670    38.9800    48.2870    54.3220   -22.4140 
  219.8750     2.2470    68.8550    23.0610    36.7160    47.2600    52.9860   -22.1160 
