~V
VERS. 2.00: Ver 2.00
~W
STRT.M 125.0000:
STOP.M 269.0000:
STEP.M 0.1250:
NULL. -999.2500:
UWI. DF3036:
~C
DEPT.M :
GR.API :
RML.OHMM :
RI. :
RXO.OHMM :
CALI.CM :
DEN.GM/CC :
SP.MV :
~A
# ...
  203.7500    76.5800     8.8630     7.6630     6.6640    24.7590     2.3660   -26.8710 
  203.8750    82.5310     8.8340     7.7060     6.7760    24.4770     2.3710   -26.9810 
  204.0000    85.7710     8.8540     7.7760     6.9400    24.1330     2.3910   -27.1300 
  204.1250    88.8560     8.9350     7.8780     7.1110    23.9540     2.4180   -27.3210 
  204.2500    91.9270     9.0550     8.0010     7.3850    23.8520     2.4390   -27.5700 
  204.3750    94.4970     9.1870     8.1220     7.7260    23.8160     2.4460   -27.8270 
  204.5000    95.3660     9.2900     8.2170     8.1100    23.7890     2.4390   -28.1490 
  204.6250    95.1430     9.3020     8.2410     8.4020    23.7530     2.4220   -28.4960 
  204.7500    95.2620     9.2050     8.1800     8.5930    23.6520     2.4020   -28.8790 
  204.8750    95.1830     8.9960     8.0300     8.7160    23.5130     2.3860   -29.2710 
  205.0000    95.2390     8.7090     7.8120     8.7360    23.2920     2.3730   -29.7060 
  205.1250    98.2130     8.4300     7.5890     8.1550    23.1670     2.3640   -30.1010 
  205.2500   103.6440     8.2850     7.4590     7.6180    23.1370     2.3570   -30.4900 
  205.3750   108.0280     8.3780     7.5180     7.4990    23.0810     2.3530   -30.8330 
  205.5000   109.2740     8.7680     7.8270     7.7420    22.8290     2.3530   -31.1400 
  205.6250   107.6070     9.4600     8.4250     8.4470    22.4890     2.3550   -31.2620 
  205.7500   106.0140    10.2620     9.1710     9.6340    22.3810     2.3570   -31.2500 
  205.8750   104.6810    10.9700     9.9060    11.0950    22.6600     2.3590   -31.0550 
  206.0000   103.3260    11.3920    10.4520    12.1320    23.3060     2.3580   -30.7130 
  206.1250   102.2210    11.3840    10.6400    12.2000    23.8180     2.3570   -30.3270 
  206.2500   101.1630    11.1490    10.5780    12.0930    24.0150     2.3560   -29.9380 
  206.3750   100.9430    10.9830    10.4810    12.0010    24.0410     2.3550   -29.6040 
  206.5000    99.6480    11.2190    10.6290    11.6970    24.0050     2.3540   -29.3150 
  206.6250    96.5190    12.1950    11.3630    11.6580    23.9090     2.3570   -29.1850 
  206.7500    93.5100    13.7830    12.6930    12.8880    23.8400     2.3670   -29.2210 
  206.8750    89.9840    15.7790    14.5300    15.4530    23.8990     2.3840   -29.4200 
  207.0000    86.2610    17.8830    16.6690    19.6190    24.0990     2.4020   -29.7610 
  207.1250    83.4280    19.6540    18.9060    21.9380    24.3450     2.4190   -30.1920 
  207.2500    83.0290    21.5440    21.3070    23.8450    24.4900     2.4330   -30.6880 
  207.3750    82.9170    24.2340    24.4250    25.1420    24.4840     2.4420   -31.2250 
  207.5000    80.0910    29.6320    29.2720    27.9680    24.3830     2.4460   -31.8110 
  207.6250    74.8950    39.4340    37.7530    34.2930    24.2550     2.4350   -32.4390 
  207.7500    68.9880    54.9270    50.2990    45.4880    24.0860     2.4040   -33.0690 
  207.8750    65.5450    75.4390    66.7060    64.2770    23.8500     2.3530   -33.7260 
  208.0000    65.3700    96.7860    85.5540    82.1440    23.5590     2.2910   -34.3570 
  208.1250    66.9580   117.3810   104.1590    87.8820    23.4050     2.2350   -34.9590 
  208.2500    68.4490   135.0220   120.1430    92.9420    23.3380     2.1960   -35.4770 
  208.3750    69.1650   148.6700   132.7110   101.7830    23.3680     2.1760   -35.9160 
  208.5000    69.4000   158.9740   142.3930   109.2850    23.4940     2.1720   -36.2910 
  208.6250    68.6190   167.0320   149.9990   115.3450    23.6540     2.1780   -36.6010 
  208.7500    67.7030   173.6740   156.2970   125.3580    23.8180     2.1830   -36.8650 
  208.8750    67.9040   178.5660   161.1160   135.7640    24.0670     2.1840   -37.0920 
  209.0000    70.2530   181.4840   164.3320   142.4230    24.2900     2.1800   -37.3230 
  209.1250    73.4180   182.5220   166.0370   141.3460    24.3760     2.1730   -37.4850 
  209.2500    73.3810   182.7340   167.0900   137.0800    24.3880     2.1660   -37.6490 
  209.3750    69.9620   182.8410   168.1110   133.6270    24.3880     2.1630   -37.7730 
  209.5000    65.7880   183.3910   169.6020   132.5950    24.3900     2.1610   -37.8970 
  209.6250    65.3580   185.0260   172.1650   135.5030    24.3890     2.1610   -37.9270 
  209.7500    68.6690   188.1850   176.0970   134.9010    24.3950     2.1620   -37.9520 
  209.8750    73.1510   193.2570   181.6940   127.2550    24.4110     2.1630   -37.9070 
  210.0000    75.5090   199.3990   188.7540   125.1340    24.4500     2.1650   -37.8660 
  210.1250    73.5300   205.2720   195.8010   138.1710    24.4680     2.1690   -37.7620 
  210.2500    70.1680   208.1270   200.2020   154.0200    24.4760     2.1740   -37.6980 
  210.3750    67.7060   207.1160   199.5780   163.5090    24.4760     2.1770   -37.6520 
  210.5000    67.8820   200.4200   192.7760   168.8870    24.4780     2.1800   -37.6520 
  210.6250    69.5960   192.3910   180.2230   167.4950    24.4770     2.1800   -37.7200 
  210.7500    70.3580   183.9220   166.0170   152.1220    24.4760     2.1790   -37.8050 
  210.8750    70.5740   172.8360   153.3620   131.0600    24.4780     2.1770   -37.9360 
  211.0000    70.9840   162.5730   144.6150   118.4830    24.4900     2.1750   -38.0370 
  211.1250    71.8420   159.3490   141.7700   119.4350    24.5200     2.1740   -38.1740 
  211.2500    72.4370   161.1240   143.5960   124.7810    24.5550     2.1720   -38.2380 
  211.3750    72.7180   165.7660   148.4480   129.9680    24.5520     2.1710   -38.2800 
  211.5000    72.0910   170.5770   153.7100   131.7440    24.5050     2.1690   -38.2320 
  211.6250    70.6240   171.3930   155.5730   136.1760    24.4640     2.1670   -38.1510 
  211.7500    71.2200   167.7480   152.3350   145.6700    24.4530     2.1670   -37.9940 
  211.8750    74.0530   160.2880   144.2060   151.4790    24.5030     2.1690   -37.8050 
  212.0000    75.2090   151.2800   133.3730   141.3320    24.5520     2.1730   -37.5610 
  212.1250    72.4600   144.1970   123.5810   118.0330    24.6080     2.1770   -37.3610 
  212.2500    70.7270   136.4430   117.5570    99.1950    24.6780     2.1820   -37.1640 
  212.3750    71.1580   134.2780   116.3160    93.6460    24.7190     2.1870   -37.0040 
  212.5000    71.2070   136.8690   119.5300    97.5910    24.6970     2.1910   -36.8470 
  212.6250    70.7930   142.4570   125.9330   108.8470    24.6750     2.1930   -36.7310 
  212.7500    70.5860   147.6160   132.4140   125.0610    24.6710     2.1920   -36.6180 
  212.8750    69.9030   149.5400   136.3380   134.7960    24.6790     2.1860   -36.5330 
  213.0000    68.6950   146.0510   135.5000   131.1480    24.6980     2.1790   -36.4620 
  213.1250    67.5780   135.5120   127.9610   120.9260    24.7690     2.1840   -36.3860 
  213.2500    66.2650   120.4840   115.6550   111.5620    24.8700     2.2070   -36.2980 
  213.3750    65.5810   103.5810   100.7470    90.0980    24.9360     2.2490   -36.2410 
  213.5000    67.8010    87.3960    85.6700    61.3590    24.8990     2.2970   -36.1880 
  213.6250    71.3850    74.2330    72.7970    42.4550    24.6370     2.3210   -36.1950 
  213.7500    72.5410    64.4340    62.8640    37.9240    24.2300     2.3090   -36.2360 
  213.8750    72.1670    58.3000    56.2960    36.0080    23.8750     2.2680   -36.3230 
  214.0000    73.5780    56.3000    53.5750    35.6540    23.5170     2.2180   -36.4810 
  214.1250    76.1270    60.3950    56.5620    36.1260    23.0000     2.1810   -36.6760 
  214.2500    75.2770    71.1450    65.8660    36.0570    22.2860     2.1640   -36.9440 
  214.3750    71.1240    89.1900    82.2210    35.8050    21.3460     2.1610   -37.1860 
  214.5000    67.8710   113.4370   104.6930    37.0940    20.2350     2.1660   -37.4880 
  214.6250    68.5160   139.8930   129.4850    39.6900    19.8500     2.1730   -37.7200 
  214.7500    68.0290   161.7520   149.9570    46.8690    20.0880     2.1790   -37.9730 
  214.8750    65.5330   173.9910   161.2490    58.9550    20.6870     2.1840   -38.1850 
