~V
VERS. 2.00: Ver 2.00
~W
STRT.M 120.0000:
STOP.M 235.0000:
STEP.M 0.1250:
NULL. -999.2500:
UWI. DF3022:
~C
DEPT.M :
SP.MV :
GR.API :
CALI.CM :
RXO.OHMM :
RI. :
RML.OHMM :
DEN.GM/CC :
~A
# ...
  176.2500   -22.8630    76.7700    24.8270    43.0450    49.1760    49.7870     2.3080 
  176.3750   -22.6630    71.1280    25.0760    49.7780    50.7760    51.5860     2.2940 
  176.5000   -22.4550    61.8780    25.2100    53.4610    52.9430    54.1180     2.2850 
  176.6250   -22.2420    58.0190    25.2210    52.8670    54.7270    56.3430     2.2860 
  176.7500   -21.9940    57.6710    25.1930    52.0850    55.6680    57.7210     2.2950 
  176.8750   -21.7010    56.7360    25.1740    51.8930    55.3810    57.8650     2.3100 
  177.0000   -21.3730    53.5400    25.1680    52.3170    53.2200    56.0580     2.3320 
  177.1250   -21.0450    50.3180    25.1640    54.5410    48.2940    51.1190     2.3610 
  177.2500   -20.6940    48.3480    25.1480    54.4920    41.8190    44.2460     2.3930 
  177.3750   -20.3150    48.5640    25.1150    48.8190    35.5140    37.3930     2.4280 
  177.5000   -19.9160    50.6970    25.0910    37.0700    30.9010    32.3130     2.4700 
  177.6250   -19.5140    51.9240    25.0840    25.8860    29.2150    30.3690     2.5230 
  177.7500   -19.0970    50.1680    25.0840    22.5450    30.0790    31.2190     2.5770 
  177.8750   -18.6730    47.9320    25.0840    30.4080    32.8230    34.3310     2.6220 
  178.0000   -18.2540    48.2500    25.0840    53.8280    35.6870    37.9750     2.6570 
  178.1250   -17.8250    51.4240    25.0840    87.6370    34.7630    37.5040     2.6780 
  178.2500   -17.3890    53.1760    25.0840    95.2790    29.0780    31.2450     2.6760 
  178.3750   -16.9410    51.7870    25.0840    66.7380    21.2050    22.3480     2.6520 
  178.5000   -16.4850    47.9940    25.0840    29.2980    14.2610    14.6700     2.6160 
  178.6250   -16.0080    44.4690    25.0840    13.9050     9.7090     9.8410     2.5760 
  178.7500   -15.5400    42.0650    25.0880     8.4380     6.8020     6.9010     2.5290 
  178.8750   -15.0880    39.7370    25.1360     6.3630     5.0080     5.2080     2.4700 
  179.0000   -14.6630    38.3830    25.2710     4.8860     3.9670     4.3140     2.4060 
  179.1250   -14.3020    40.0590    25.3770     3.8960     3.5080     3.9890     2.3580 
  179.2500   -14.0180    43.4180    25.0690     3.5100     3.3710     3.9640     2.3410 
  179.3750   -13.8260    44.6820    24.3870     3.5190     3.4480     4.1330     2.3520 
  179.5000   -13.7170    41.9700    23.9330     3.7380     3.6480     4.4120     2.3770 
  179.6250   -13.7190    39.0770    23.9370     4.0630     3.8790     4.6990     2.3910 
  179.7500   -13.7860    38.9920    24.3600     4.3320     4.0640     4.9050     2.3870 
  179.8750   -13.9040    39.7530    25.2540     4.4420     4.1800     5.0060     2.3680 
  180.0000   -14.0450    38.6300    26.5050     4.3800     4.2440     5.0380     2.3490 
  180.1250   -14.1770    36.8800    28.0100     4.2770     4.2850     5.0550     2.3480 
  180.2500   -14.2930    36.9860    29.4040     4.1380     4.3330     5.1030     2.3680 
  180.3750   -14.3860    38.8090    30.5420     4.0650     4.4030     5.2010     2.3950 
  180.5000   -14.4640    40.9900    30.4630     4.1090     4.4980     5.3490     2.4130 
  180.6250   -14.5010    43.2520    29.2280     4.2380     4.6130     5.5370     2.4160 
  180.7500   -14.5250    44.5330    28.0180     4.4690     4.7260     5.7350     2.4230 
  180.8750   -14.5390    44.6750    26.8450     4.8410     4.8110     5.9070     2.4380 
  181.0000   -14.5480    44.5050    25.9120     5.2230     4.8420     6.0130     2.4500 
  181.1250   -14.5670    44.4390    25.5800     5.1640     4.7940     6.0210     2.4440 
  181.2500   -14.5860    44.3320    25.7970     4.8920     4.6960     5.9690     2.4310 
  181.3750   -14.6110    44.4290    26.3550     4.5820     4.5840     5.9060     2.4190 
  181.5000   -14.6320    46.1640    27.2830     4.2440     4.5020     5.8830     2.4120 
  181.6250   -14.6380    51.3050    28.6670     3.9450     4.4940     5.9520     2.4070 
  181.7500   -14.6280    57.5860    29.3760     3.8520     4.5510     6.0940     2.3880 
  181.8750   -14.6020    63.8740    28.8150     3.9780     4.6480     6.2710     2.3480 
  182.0000   -14.5560    67.8790    27.6200     4.2160     4.7480     6.4270     2.2960 
  182.1250   -14.4850    64.0370    27.1320     4.4380     4.8110     6.4960     2.2520 
  182.2500   -14.3960    53.9880    27.7220     4.6120     4.8310     6.4800     2.2240 
  182.3750   -14.2890    43.7340    28.6690     4.8410     4.8180     6.4100     2.2190 
  182.5000   -14.1670    39.0820    29.2820     4.9990     4.7870     6.3260     2.2440 
  182.6250   -14.0700    38.0200    29.5700     4.9030     4.7470     6.2570     2.2880 
  182.7500   -14.0110    40.4370    29.6780     4.6170     4.7000     6.2010     2.3250 
  182.8750   -13.9970    47.6470    29.2020     4.3930     4.6460     6.1510     2.3410 
  183.0000   -14.0300    52.4240    28.4080     4.2280     4.5870     6.1010     2.3450 
  183.1250   -14.1020    47.1200    28.6180     4.0860     4.5400     6.0760     2.3430 
  183.2500   -14.2090    39.3860    29.7870     4.0160     4.5230     6.0960     2.3370 
  183.3750   -14.3560    36.5950    31.0050     4.0060     4.5440     6.1690     2.3290 
  183.5000   -14.5410    38.3490    31.7660     4.0720     4.6020     6.2890     2.3320 
  183.6250   -14.7450    41.0260    31.5560     4.2780     4.6950     6.4460     2.3490 
  183.7500   -14.9710    44.2320    31.0050     4.5520     4.8180     6.6290     2.3630 
  183.8750   -15.2150    47.8440    30.9330     4.7320     4.9720     6.8600     2.3670 
  184.0000   -15.4940    51.9440    31.8350     4.7880     5.1670     7.1680     2.3720 
  184.1250   -15.8270    56.7210    32.9300     4.9320     5.4130     7.5730     2.3900 
  184.2500   -16.2140    62.9590    32.3740     5.3520     5.6840     8.0220     2.4040 
  184.3750   -16.6360    70.0010    29.5060     6.1120     5.9460     8.4500     2.4380 
  184.5000   -17.0950    76.4040    26.5800     7.0470     6.1530     8.7620     2.4410 
  184.6250   -17.6080    79.6780    25.3960     7.7010     6.2380     8.8580     2.4210 
  184.7500   -18.1620    81.2310    25.1750     7.8720     6.2080     8.7810     2.3840 
  184.8750   -18.7570    82.5490    25.1610     7.6510     6.1010     8.6130     2.3570 
  185.0000   -19.3900    84.2310    25.1590     7.2290     5.9840     8.4680     2.3650 
  185.1250   -20.0530    86.4070    25.1530     6.9400     5.9430     8.4850     2.3900 
  185.2500   -20.7470    89.1560    25.1350     6.9600     6.0090     8.6930     2.4060 
  185.3750   -21.4580    92.3590    25.1070     7.3820     6.1770     9.0540     2.4010 
  185.5000   -22.1730    93.5900    25.0890     7.9910     6.4070     9.4800     2.3840 
  185.6250   -22.8710    88.7900    25.0840     8.4110     6.6260     9.8400     2.3730 
  185.7500   -23.5230    83.3090    25.0840     8.6770     6.7770    10.0490     2.3690 
  185.8750   -24.1230    81.1970    25.0840     8.7460     6.8500    10.1110     2.3690 
  186.0000   -24.6590    82.3630    25.0840     8.4880     6.8770    10.1060     2.3770 
  186.1250   -25.1150    83.4260    25.0840     8.3730     6.9190    10.1600     2.3920 
  186.2500   -25.5020    82.4540    25.0800     8.4920     7.0170    10.3210     2.4060 
  186.3750   -25.8260    79.0790    25.0730     8.8790     7.1800    10.5760     2.4070 
  186.5000   -26.0920    75.8740    25.0670     9.6470     7.3900    10.8720     2.3950 
  186.6250   -26.2790    77.1180    25.0650    10.6790     7.6170    11.1230     2.3820 
  186.7500   -26.3820    81.1980    25.0650    11.3840     7.8170    11.2820     2.3770 
  186.8750   -26.3820    84.3510    25.0650    11.7060     7.9660    11.3520     2.3840 
  187.0000   -26.2530    84.3110    25.0650    11.8620     8.0620    11.3750     2.4080 
  187.1250   -25.9500    80.8740    25.0650    11.8920     8.1200    11.4160     2.4410 
  187.2500   -25.4940    80.0980    25.0650    11.7130     8.1680    11.4990     2.4660 
  187.3750   -24.9130    83.9780    25.0650    11.4190     8.1990    11.5790     2.4680 
