~V
VERS. 2.00: Ver 2.00
~W
STRT.M 125.0000:
STOP.M 276.0000:
STEP.M 0.1250:
NULL. -999.2500:
UWI. DF3039:
~C
DEPT.M :
SP.MV :
GR.API :
CALI.CM :
RXO.OHMM :
RI. :
RML.OHMM :
DEN.GM/CC :
~A
# ...
  260.0000   -13.1390    70.1530    24.0560    13.8340    15.1860    16.6600     2.4580 
  260.1250   -13.2170    67.4960    23.9880    13.3870    15.1310    16.5500     2.4650 
  260.2500   -13.2190    66.0900    23.8310    12.6070    15.0960    16.4630     2.4740 
  260.3750   -13.1610    67.5050    23.9190    13.0900    15.0820    16.4040     2.4830 
  260.5000   -13.0600    71.2600    23.8950    13.8930    15.0750    16.3690     2.4840 
  260.6250   -12.9590    72.9460    23.8090    13.8760    15.0500    16.3250     2.4830 
  260.7500   -12.8560    71.9270    23.8420    13.8290    14.9920    16.2560     2.4880 
  260.8750   -12.7890    71.3440    23.9220    13.9100    14.8940    16.1480     2.4990 
  261.0000   -12.7730    71.0260    23.8510    13.9600    14.7390    15.9860     2.5050 
  261.1250   -12.8420    68.7720    24.0450    13.3880    14.5390    15.7790     2.5020 
  261.2500   -12.9900    68.8800    24.0710    13.6430    14.3430    15.5780     2.4970 
  261.3750   -13.1880    71.1690    24.0890    14.8110    14.1840    15.4390     2.4980 
  261.5000   -13.4200    70.8850    24.0880    14.6550    14.0760    15.3680     2.4980 
  261.6250   -13.6470    67.3570    24.0870    14.8110    14.0380    15.3960     2.4930 
  261.7500   -13.8650    65.4340    24.0870    17.2450    14.0630    15.4920     2.4860 
  261.8750   -14.0650    65.1450    24.0870    20.4970    14.1320    15.6370     2.4830 
  262.0000   -14.2430    65.8260    24.0870    22.6650    14.2280    15.8070     2.4890 
  262.1250   -14.3940    68.7050    24.0820    25.5870    14.3530    16.0000     2.4980 
  262.2500   -14.5360    72.1740    24.0510    26.0350    14.5040    16.2160     2.5070 
  262.3750   -14.6600    73.2250    24.0040    24.0940    14.6850    16.4500     2.5140 
  262.5000   -14.7680    71.0530    23.8430    22.0250    14.9030    16.7250     2.5240 
  262.6250   -14.8660    70.1070    23.9440    20.5870    15.1160    16.9980     2.5310 
  262.7500   -14.9570    72.5330    24.0820    20.4600    15.2740    17.1990     2.5240 
  262.8750   -15.0440    75.7300    24.1190    20.5360    15.3390    17.2740     2.5050 
  263.0000   -15.1100    76.2150    24.0160    20.2430    15.2710    17.1850     2.4910 
  263.1250   -15.1480    74.9230    23.8640    18.7910    15.0290    16.8950     2.4910 
  263.2500   -15.1400    73.1720    23.8880    18.5620    14.7000    16.5190     2.5000 
  263.3750   -15.1100    69.9760    23.8850    18.0000    14.3700    16.1600     2.5100 
  263.5000   -15.0550    66.2800    23.8560    15.0090    14.0930    15.8800     2.5210 
  263.6250   -14.9680    65.8660    23.9200    14.0140    13.9370    15.7540     2.5310 
  263.7500   -14.8540    66.9020    24.0650    14.9430    13.9030    15.7840     2.5340 
  263.8750   -14.7070    65.6600    24.1170    16.8340    13.9810    15.9230     2.5260 
  264.0000   -14.5730    62.9600    24.1000    17.3810    14.1540    16.1450     2.5120 
  264.1250   -14.4740    63.1950    24.1290    19.7210    14.4200    16.4160     2.5080 
  264.2500   -14.4300    65.0880    24.1720    22.2240    14.7020    16.6880     2.5200 
  264.3750   -14.4450    65.5710    24.1590    22.9840    14.9620    16.9350     2.5420 
  264.5000   -14.5240    64.6580    24.2200    22.2060    15.2310    17.2100     2.5570 
  264.6250   -14.7120    64.6270    24.1960    21.6660    15.5200    17.5350     2.5590 
  264.7500   -14.9360    65.4290    24.1690    22.7180    15.7990    17.8760     2.5480 
  264.8750   -15.1370    65.4910    24.2420    24.4280    16.0550    18.1960     2.5300 
  265.0000   -15.3660    66.3630    24.2600    24.7720    16.2770    18.4780     2.5170 
  265.1250   -15.5630    69.4170    24.1050    23.5250    16.4230    18.6740     2.5170 
  265.2500   -15.7930    69.4170    23.9650    23.1850    16.5140    18.7870     2.5330 
  265.3750   -15.9820    69.4170    23.8330    23.9190    16.5670    18.8410     2.5530 
  265.5000   -16.1340    69.4170    23.8360    24.4940    16.5950    18.8650     2.5610 
  265.6250   -16.2180    69.4170    23.8610    24.0030    16.6220    18.8670     2.5560 
  265.7500   -16.2810    69.4170    23.9070    23.0760    16.6840    18.8900     2.5520 
  265.8750   -16.3850    69.4170    23.8330    21.8930    16.7920    18.9240     2.5580 
  266.0000   -16.4270    69.4170    23.8760    21.0540    16.9060    18.9250     2.5660 
  266.1250   -16.5420    69.4170    23.8380    22.2800    16.9970    18.8700     2.5660 
  266.2500   -16.5830    69.4170    23.7170    23.2810    17.0300    18.7660     2.5620 
  266.3750   -16.6470    69.4170    23.6850    23.6810    16.9680    18.6110     2.5620 
  266.5000   -16.6900    69.4170    23.5610    23.4940    16.7990    18.3930     2.5640 
  266.6250   -16.7670    69.4170    23.6630    23.3550    16.5460    18.1530     2.5640 
  266.7500   -16.8390    69.4170    23.6250    22.4390    16.2550    17.8990     2.5570 
  266.8750   -16.9610    69.4170    23.6000    22.3790    15.9160    17.6080     2.5410 
  267.0000   -17.0920    69.4170    23.8320    22.9900    15.5440    17.2770     2.5190 
  267.1250   -17.1390    69.4170    23.8300    22.8550    15.1320    16.8590     2.5080 
  267.2500   -17.2200    69.4170    23.8390    22.9730    14.6820    16.3690     2.5110 
  267.3750   -17.2100    69.4170    23.8810    24.4600    14.1980    15.8230     2.5200 
  267.5000   -17.1650    69.4170    23.9420    23.1100    13.7190    15.2950     2.5250 
  267.6250   -17.0080    69.4170    23.8900    18.8600    13.3230    14.8720     2.5220 
  267.7500   -16.8270    69.4170    23.8980    14.8300    13.0630    14.6240     2.5120 
  267.8750   -16.4940    69.4170    23.9340    13.8350    12.9760    14.5830     2.4970 
  268.0000   -16.1410    69.4170    23.8670    13.6190    13.0750    14.7410     2.4900 
  268.1250   -15.8220    69.4170    23.9220    13.9100    13.3550    15.0730     2.5000 
  268.2500   -15.5370    69.4170    23.8900    14.7800    13.7140    15.4670     2.5180 
  268.3750   -15.3110    69.4170    23.8490    15.7750    14.0890    15.8340     2.5250 
  268.5000   -15.1830    69.4170    23.8750    16.0070    14.4080    16.1080     2.5070 
  268.6250   -15.1140    69.4170    23.8340    15.6850    14.5880    16.2440     2.4840 
  268.7500   -15.0760    69.4170    23.8620    14.5040    14.6620    16.2950     2.4710 
  268.8750   -15.1390    69.4170    23.9180    14.3320    14.6630    16.2800     2.4740 
  269.0000   -15.3110    69.4170    23.7760    14.3840    14.6160    16.2370     2.4870 
  269.1250   -15.4450    69.4170    23.5290    16.7410    14.5530    16.1970     2.4980 
  269.2500   -15.5310    69.4170    23.1870    19.8460    14.5090    16.1890     2.5030 
  269.3750   -15.6850    69.4170    23.0740    21.7750    14.4810    16.2240     2.5010 
  269.5000   -15.7440    69.4170    22.8170    19.9600    14.4660    16.2800     2.4950 
  269.6250   -15.8200    69.4170    22.7120    15.8340    14.4510    16.3170     2.4860 
  269.7500   -15.9180    69.4170    22.4960    12.4600    14.4360    16.3450     2.4770 
  269.8750   -16.0200    69.4170    22.1120    11.2460    14.4190    16.3740     2.4820 
  270.0000   -16.0490    69.4170    21.7070    11.9640    14.4110    16.4100     2.5060 
  270.1250   -16.1240    69.4170    21.7740    13.5900    14.4030    16.4130     2.5280 
  270.2500   -16.1920    69.4170    21.8610    16.6560    14.3950    16.3950     2.5280 
  270.3750   -16.2340    69.4170    22.0010    18.3750    14.3860    16.3460     2.5090 
  270.5000   -16.3110    69.4170    22.0140    17.2490    14.3760    16.2950     2.4890 
  270.6250   -16.3740    69.4170    21.9740    12.6820    14.3660    16.2430     2.4830 
  270.7500   -16.4240    69.4170    21.8220    11.4380    14.3600    16.1960     2.4930 
  270.8750   -16.4840    69.4170    21.7010    10.8950    14.3580    16.1600     2.5120 
  271.0000   -16.5190    69.4170    21.6330    10.5050    14.3600    16.1330     2.5260 
  271.1250   -16.5610    69.4170    21.6710    10.3210    14.3600    16.1330     2.5250 
