~V
VERS. 2.00: Ver 2.00
~W
STRT.M 125.0000:
STOP.M 275.0000:
STEP.M 0.1250:
NULL. -999.2500:
UWI. DF3074:
~C
DEPT.M :
GR.API :
CALI.CM :
RXO.OHMM :
RI. :
RML.OHMM :
DEN.GM/CC :
SP.MV :
~A
# ...
  248.7500    70.1230    25.3900     8.9870     9.6280     9.5910     2.3200   -10.6980 
  248.8750    71.1880    25.3670     9.6780     9.3560     9.4860     2.3100   -11.3020 
  249.0000    74.3280    25.3490     9.6440     9.3340     9.5160     2.3060   -11.9170 
  249.1250    79.7450    25.3430     8.9300     9.2820     9.3860     2.3050   -12.4590 
  249.2500    83.4070    25.3480     8.3810     9.1020     9.0870     2.3050   -12.8870 
  249.3750    81.6420    25.3400     8.2380     8.8360     8.7180     2.3110   -13.1830 
  249.5000    74.8790    25.3440     8.2410     8.5510     8.3760     2.3250   -13.3740 
  249.6250    67.2850    25.3560     8.1060     8.3060     8.1360     2.3370   -13.4780 
  249.7500    60.9310    25.3820     7.8770     8.1140     7.9940     2.3350   -13.5530 
  249.8750    56.4270    25.4140     7.7010     7.9600     7.9190     2.3230   -13.6060 
  250.0000    54.4240    25.4450     7.5630     7.8100     7.8540     2.3120   -13.6300 
  250.1250    53.9770    25.4940     7.4080     7.6060     7.7170     2.3070   -13.6080 
  250.2500    55.1340    25.5370     7.2870     7.3310     7.4780     2.3080   -13.5050 
  250.3750    60.8610    25.5730     7.2420     6.9990     7.1570     2.3150   -13.3040 
  250.5000    71.9470    25.5700     7.2350     6.6560     6.8140     2.3240   -12.9930 
  250.6250    81.6770    25.5690     7.1940     6.3740     6.5530     2.3320   -12.5760 
  250.7500    82.9580    25.4890     7.0580     6.1940     6.4330     2.3460   -12.1000 
  250.8750    75.1040    25.4070     6.7670     6.1270     6.4680     2.3710   -11.6130 
  251.0000    62.8220    25.3730     6.4400     6.1540     6.6240     2.4010   -11.1120 
  251.1250    54.6150    25.3840     6.3880     6.2260     6.8120     2.4160   -10.6070 
  251.2500    52.0260    25.4080     6.5470     6.2630     6.9200     2.4000   -10.0870 
  251.3750    50.4070    25.4040     6.7150     6.2220     6.8910     2.3710    -9.5670 
  251.5000    48.2150    25.3620     6.7130     6.1000     6.7400     2.3460    -9.1430 
  251.6250    46.8830    25.3350     6.5970     5.9330     6.5450     2.3340    -8.8110 
  251.7500    46.3530    25.3690     6.4730     5.7820     6.3990     2.3300    -8.5060 
  251.8750    45.4940    25.4190     6.4280     5.6810     6.3400     2.3230    -8.2000 
  252.0000    45.5610    25.4880     6.4280     5.6410     6.3660     2.3120    -7.9200 
  252.1250    48.7660    25.5110     6.4270     5.6600     6.4500     2.2950    -7.6570 
  252.2500    52.7660    25.5510     6.4080     5.7020     6.5370     2.2770    -7.4520 
  252.3750    56.9080    25.5110     6.3800     5.7460     6.6020     2.2680    -7.2800 
  252.5000    59.8590    25.3480     6.3160     5.7740     6.6380     2.2720    -7.0930 
  252.6250    60.2800    25.2820     6.2840     5.7820     6.6560     2.2860    -6.8330 
  252.7500    61.3240    25.3720     6.3030     5.7830     6.6800     2.2950    -6.5000 
  252.8750    63.5000    25.5040     6.3980     5.7860     6.7200     2.2950    -6.1120 
  253.0000    64.4550    25.5070     6.5940     5.7940     6.7760     2.2950    -5.6800 
  253.1250    62.2880    25.3660     7.0360     5.8040     6.8340     2.3020    -5.2720 
  253.2500    61.1930    25.2760     7.6580     5.8040     6.8700     2.3150    -4.8930 
  253.3750    62.8070    25.2830     8.6400     5.7850     6.8610     2.3250    -4.5700 
  253.5000    64.3550    25.3110     9.7020     5.7370     6.8030     2.3320    -4.2820 
  253.6250    63.7320    25.3500     9.2110     5.6590     6.7140     2.3370    -4.0460 
  253.7500    61.6650    25.4150     7.7020     5.5650     6.6300     2.3370    -3.8580 
  253.8750    58.7720    25.4800     6.2900     5.4720     6.5680     2.3300    -3.6640 
  254.0000    55.4850    25.5390     5.5760     5.3910     6.5250     2.3260    -3.4550 
  254.1250    55.0470    25.5930     5.3540     5.3280     6.4860     2.3290    -3.2390 
  254.2500    56.3840    25.6410     5.3090     5.2720     6.4360     2.3370    -3.0670 
  254.3750    55.8580    25.6860     5.4010     5.2200     6.3770     2.3380    -2.9720 
  254.5000    53.9520    25.6660     5.5980     5.1740     6.3190     2.3340    -2.8840 
  254.6250    54.4900    25.5870     5.8190     5.1410     6.2850     2.3340    -2.7630 
  254.7500    56.3270    25.5150     5.9680     5.1300     6.2910     2.3440    -2.6570 
  254.8750    56.3740    25.4790     5.9780     5.1500     6.3540     2.3610    -2.6170 
  255.0000    54.9860    25.4580     5.8450     5.2000     6.4690     2.3730    -2.6280 
  255.1250    55.1410    25.4660     5.6630     5.2710     6.6070     2.3740    -2.6320 
  255.2500    56.2180    25.4750     5.5430     5.3360     6.7230     2.3660    -2.5620 
  255.3750    57.0230    25.4690     5.4780     5.3760     6.7900     2.3580    -2.4710 
  255.5000    58.2420    25.4420     5.4470     5.3820     6.7990     2.3550    -2.3720 
  255.6250    58.4110    25.4310     5.4650     5.3580     6.7650     2.3540    -2.3260 
  255.7500    56.3130    25.4210     5.5130     5.3300     6.7320     2.3560    -2.3500 
  255.8750    53.4380    25.4060     5.5410     5.3130     6.7320     2.3590    -2.3460 
  256.0000    52.0120    25.3840     5.5280     5.3120     6.7730     2.3560    -2.3570 
  256.1250    52.5860    25.3930     5.5280     5.3160     6.8190     2.3470    -2.4270 
  256.2500    52.9710    25.4240     5.5580     5.3040     6.8140     2.3420    -2.5070 
  256.3750    53.8690    25.4590     5.5190     5.2610     6.7330     2.3440    -2.5550 
  256.5000    55.9250    25.4720     5.3960     5.1930     6.6000     2.3450    -2.6280 
  256.6250    57.9670    25.4580     5.3660     5.1370     6.4920     2.3370    -2.6830 
  256.7500    59.3020    25.4200     5.4470     5.1340     6.4800     2.3300    -2.6830 
  256.8750    60.3590    25.3750     5.6090     5.2060     6.5920     2.3360    -2.7710 
  257.0000    61.3500    25.3100     5.7910     5.3500     6.8140     2.3510    -2.8470 
  257.1250    62.6830    25.1880     5.9270     5.5340     7.0930     2.3620    -2.8880 
  257.2500    63.5770    25.0670     5.8160     5.6950     7.3230     2.3620    -2.9570 
  257.3750    63.7400    25.0340     5.5400     5.7810     7.4170     2.3630    -2.9440 
  257.5000    64.4860    25.1700     5.3280     5.7690     7.3440     2.3640    -2.8910 
  257.6250    64.9810    25.2750     5.2800     5.6630     7.1300     2.3580    -2.8570 
  257.7500    63.8600    25.3340     5.2890     5.5240     6.8980     2.3390    -2.8550 
  257.8750    62.5700    25.3450     5.3180     5.3970     6.7290     2.3220    -2.7760 
  258.0000    63.1690    25.3370     5.3580     5.3110     6.6570     2.3220    -2.7160 
  258.1250    65.0640    25.3040     5.3820     5.2780     6.6610     2.3410    -2.7140 
  258.2500    64.9790    25.2630     5.3350     5.2730     6.6700     2.3670    -2.6900 
  258.3750    64.1480    25.2350     5.2190     5.2790     6.6520     2.3810    -2.7490 
  258.5000    63.8170    25.1900     5.1410     5.2980     6.6240     2.3750    -2.8550 
  258.6250    63.3920    25.1430     5.2130     5.3520     6.6580     2.3570    -2.9330 
  258.7500    63.1660    25.1050     5.4800     5.4570     6.7880     2.3530    -2.9610 
  258.8750    63.4770    25.1000     5.9290     5.6090     7.0030     2.3710    -3.0210 
  259.0000    64.4620    25.0820     6.4090     5.7800     7.2460     2.3950    -3.0890 
  259.1250    66.8660    25.0000     6.6950     5.9110     7.4070     2.4090    -3.1000 
  259.2500    69.1780    24.8770     6.8100     5.9530     7.4180     2.4090    -3.0740 
  259.3750    68.4940    24.8580     6.8640     5.8880     7.2580     2.4030    -3.0160 
  259.5000    64.7470    24.9430     6.7550     5.7300     6.9720     2.3940    -2.9210 
  259.6250    62.2210    25.0530     6.3190     5.5220     6.6400     2.3820    -2.8290 
  259.7500    62.1920    25.1730     5.8100     5.3280     6.3550     2.3680    -2.7560 
  259.8750    63.1020    25.3020     5.4680     5.1830     6.1610     2.3490    -2.7380 
