~V
VERS. 2.00: Ver 2.00
~W
STRT.M 100.0000:
STOP.M 258.0000:
STEP.M 0.1250:
NULL. -999.2500:
UWI. DF3025:
~C
DEPT.M :
AC.US/MT :
DEN.GM/CC :
GR.API :
CALI.CM :
RXO.OHMM :
RI. :
RML.OHMM :
SP.MV :
~A
# ...
  120.0000   428.8650     2.1990    68.0420    23.2870     8.8080     7.0640     8.3350   -28.9730 
  120.1250   429.5450     2.2120    71.7860    23.3470     8.6160     7.0300     8.3410   -28.8920 
  120.2500   427.8140     2.2240    72.9230    23.4120     8.8420     7.1020     8.4820   -28.8130 
  120.3750   424.0110     2.2280    70.1140    23.4450     9.0950     7.2790     8.7200   -28.7520 
  120.5000   420.0380     2.2260    67.6610    23.4130     9.1450     7.5330     8.9990   -28.7010 
  120.6250   418.9740     2.2240    69.4750    23.3070     9.6690     7.8100     9.2420   -28.6200 
  120.7500   421.3010     2.2210    72.5020    23.1960    10.3260     8.0370     9.3890   -28.4960 
  120.8750   425.6800     2.2150    73.5210    23.1320    10.6020     8.1670     9.4250   -28.3260 
  121.0000   430.1120     2.2050    72.2630    23.1170    10.5420     8.1940     9.3750   -28.1200 
  121.1250   431.9310     2.2010    70.6630    23.1190    10.3560     8.1220     9.2770   -27.8940 
  121.2500   429.3440     2.2060    69.2340    23.1190    10.1710     7.9940     9.1750   -27.6450 
  121.3750   421.9620     2.2210    67.7290    23.1180     9.9400     7.8320     9.0780   -27.3440 
  121.5000   411.2040     2.2470    67.3190    23.1220     9.6620     7.6590     8.9790   -26.9990 
  121.6250   400.6280     2.2840    69.2850    23.1680     9.4300     7.4720     8.8430   -26.6300 
  121.7500   393.6230     2.3160    70.5180    23.2710     9.1330     7.2660     8.6540   -26.2590 
  121.8750   392.7650     2.3310    69.7580    23.4060     8.7150     7.0700     8.4670   -25.8980 
  122.0000   398.0640     2.3250    67.9540    23.5180     8.5330     6.9710     8.4160   -25.5390 
  122.1250   396.4720     2.3190    67.2810    23.5710     8.8860     7.1470     8.7460   -25.1830 
  122.2500   372.5920     2.3470    67.5320    23.5870    10.0240     7.7050     9.5880   -24.8410 
  122.3750   325.9790     2.4210    68.1160    23.5910    14.7120     8.7660    11.0550   -24.5130 
  122.5000   277.1660     2.5210    67.1560    23.5790    21.9460    10.3850    13.1360   -24.1950 
  122.6250   258.9620     2.5950    62.9880    23.5380    25.1910    12.3860    15.4560   -23.8920 
  122.7500   271.3730     2.6130    58.6770    23.4870    21.7290    14.0240    17.0050   -23.6130 
  122.8750   300.5720     2.5780    57.3690    23.4540    17.2450    14.5420    16.8890   -23.3760 
  123.0000   334.1880     2.5070    60.1890    23.4460    15.5250    13.6760    15.0970   -23.1890 
  123.1250   367.9950     2.4210    63.6590    23.4480    14.1900    11.8980    12.6620   -23.0520 
  123.2500   398.2480     2.3480    66.1200    23.4480    10.9970    10.1520    10.6790   -22.9450 
  123.3750   417.9770     2.3020    69.7880    23.4480     8.1580     8.8020     9.3760   -22.8840 
  123.5000   424.1260     2.2830    73.2770    23.4480     7.7320     7.8930     8.6170   -22.8860 
  123.6250   420.7200     2.2780    73.8820    23.4480     8.8840     7.3500     8.1810   -22.9210 
  123.7500   419.5880     2.2750    72.6320    23.4480    10.7540     6.9510     7.7900   -22.9260 
  123.8750   426.7760     2.2660    71.9830    23.4720    10.4340     6.5770     7.3490   -22.8750 
  124.0000   439.4170     2.2450    72.8510    23.5800     7.6360     6.1970     6.8910   -22.7720 
  124.1250   448.3470     2.2160    75.0620    23.7920     5.8040     5.8800     6.5500   -22.6450 
  124.2500   447.9890     2.1990    78.0060    23.9970     5.5310     5.6920     6.3900   -22.5380 
  124.3750   438.4570     2.2060    79.6590    24.0950     5.6300     5.6370     6.3900   -22.4610 
  124.5000   423.6380     2.2330    80.0770    24.0650     5.8720     5.6710     6.4770   -22.4180 
  124.6250   412.0830     2.2650    80.2860    23.9380     6.2630     5.7310     6.5690   -22.4160 
  124.7500   410.4220     2.2920    79.4390    23.7670     6.6600     5.7800     6.6280   -22.4660 
  124.8750   417.4210     2.3050    77.4620    23.5990     6.2290     5.8350     6.6850   -22.5740 
  125.0000   424.1690     2.2980    75.3060    23.4840     6.0560     5.9420     6.8180   -22.7160 
  125.1250   429.7560     2.2710    73.9490    23.4380     7.3350     6.1840     7.1610   -22.8370 
  125.2500   439.6500     2.2460    72.3460    23.4150     9.1280     6.6310     7.8010   -22.9190 
  125.3750   441.7810     2.2420    69.9670    23.4000    10.0480     7.3780     8.8370   -22.9710 
  125.5000   416.3210     2.2800    65.7200    23.3990    10.4830     8.4950    10.3120   -22.9980 
  125.6250   361.1580     2.3690    61.4980    23.4580    11.7430     9.9710    12.1340   -22.9760 
  125.7500   311.5570     2.4660    60.6290    23.6180    14.5180    11.4200    13.7610   -22.8710 
  125.8750   291.8960     2.5260    62.1450    23.8190    16.0600    12.2930    14.4740   -22.6390 
  126.0000   303.7390     2.5250    62.6300    23.8940    14.3180    12.0740    13.7100   -22.2650 
  126.1250   335.3680     2.4780    62.9150    23.7520    11.3930    10.6110    11.5690   -21.7730 
  126.2500   368.5370     2.4250    65.8390    23.5880     9.4240     8.7280     9.2280   -21.2550 
  126.3750   401.8760     2.3830    70.6760    23.5120     8.4310     7.0090     7.3480   -20.7730 
  126.5000   433.4420     2.3490    76.4350    23.4730     7.1020     5.7660     6.1700   -20.3830 
  126.6250   450.6230     2.3160    83.0450    23.3940     5.8450     5.1670     5.7690   -20.1180 
  126.7500   451.0230     2.2810    88.1720    23.2980     5.1270     5.0470     5.8710   -19.9300 
  126.8750   442.8030     2.2510    89.0160    23.2220     5.7570     5.2840     6.2820   -19.8070 
  127.0000   435.7250     2.2350    85.2290    23.1770     7.0820     5.7140     6.7680   -19.7600 
  127.1250   434.1570     2.2440    79.5500    23.1730     7.8070     6.1070     7.0270   -19.7810 
  127.2500   436.9560     2.2610    75.8770    23.2560     7.0900     6.2670     6.9450   -19.8270 
  127.3750   442.9040     2.2690    77.5590    23.5180     5.8570     6.1480     6.5870   -19.8520 
  127.5000   449.2590     2.2640    85.0860    23.9690     5.2340     5.8340     6.1180   -19.8080 
  127.6250   452.6140     2.2620    92.0090    24.4610     5.0170     5.4470     5.6950   -19.6600 
  127.7500   453.0400     2.2750    93.4790    24.7990     4.9690     5.0850     5.3570   -19.4420 
  127.8750   452.1420     2.3020    91.9240    24.9140     5.0750     4.7840     5.1100   -19.1880 
  128.0000   450.9370     2.3330    91.0890    24.8300     5.1000     4.5610     4.9670   -18.9330 
  128.1250   448.1330     2.3520    92.0920    24.6450     4.6000     4.4540     4.9770   -18.7130 
  128.2500   440.8380     2.3520    92.2870    24.4970     4.3230     4.4660     5.1320   -18.5560 
  128.3750   428.4030     2.3390    90.0270    24.3590     4.7680     4.5870     5.3970   -18.4720 
  128.5000   414.9550     2.3250    85.1970    24.1060     5.8290     4.7680     5.6880   -18.4450 
  128.6250   409.4710     2.3210    81.6190    23.8110     6.7710     4.9140     5.8710   -18.4560 
  128.7500   413.1090     2.3200    82.6340    23.7730     6.3110     4.9590     5.8990   -18.4790 
  128.8750   420.2420     2.3170    84.7260    24.0350     5.3580     4.9190     5.8410   -18.4960 
  129.0000   424.0560     2.3130    84.4700    24.3350     5.1790     4.9060     5.8930   -18.4860 
  129.1250   416.9650     2.3250    82.0380    24.4030     5.5370     5.1800     6.4000   -18.4420 
  129.2500   393.2450     2.3630    78.2780    24.3490     6.4030     5.9200     7.5270   -18.3980 
  129.3750   350.2170     2.4260    74.5520    24.3050     8.2550     7.2560     9.3450   -18.3570 
  129.5000   296.6880     2.4960    71.8350    24.2580    13.0750     9.1460    11.6750   -18.2980 
  129.6250   265.1490     2.5340    69.3720    24.1520    20.5390    10.9940    13.5790   -18.2120 
  129.7500   275.9840     2.5170    66.5070    24.0030    21.6900    11.7170    13.7840   -18.1210 
  129.8750   323.8420     2.4510    65.7660    23.8750    15.7950    10.8650    12.0680   -18.0440 
