~V
VERS. 2.00: Ver 2.00
~W
STRT.M 60.0000:
STOP.M 277.0000:
STEP.M 0.1250:
NULL. -999.2500:
UWI. DF3048:
~C
DEPT.M :
SP.MV :
GR.API :
RML.OHMM :
RI. :
RXO.OHMM :
CALI.CM :
DEN.GM/CC :
~A
# ...
  116.2500   -18.8320    73.6080     8.8280     7.8700     9.9220    23.4480     2.2210 
  116.3750   -17.7280    79.4650     8.1260     7.2700     9.4510    23.6660     2.2340 
  116.5000   -16.4550    86.0100     7.4390     6.6320     8.5140    24.0720     2.2420 
  116.6250   -15.1700    94.0620     6.9550     6.1180     7.1630    24.3030     2.2460 
  116.7500   -13.9220   100.5290     6.7190     5.7980     6.2090    24.3320     2.2520 
  116.8750   -12.8110   105.1590     6.7110     5.6790     6.0850    24.2380     2.2590 
  117.0000   -11.8650   108.9290     6.8500     5.7190     6.3280    24.1470     2.2630 
  117.1250   -11.1690   109.4750     7.0210     5.8450     6.5230    23.9300     2.2630 
  117.2500   -10.7330   106.0150     7.1280     5.9670     6.7710    23.9400     2.2610 
  117.3750   -10.4520   103.0110     7.1580     6.0570     7.0170    23.9880     2.2640 
  117.5000   -10.3270   102.5730     7.1700     6.1340     6.9560    24.1360     2.2750 
  117.6250   -10.2910   103.0700     7.2570     6.2520     6.8390    24.1030     2.2980 
  117.7500   -10.3150   101.1140     7.4270     6.4170     7.1410    23.9310     2.3250 
  117.8750   -10.3350    98.6420     7.6130     6.5810     7.5990    23.9610     2.3450 
  118.0000   -10.3760    99.6730     7.7110     6.6690     8.1270    24.0760     2.3510 
  118.1250   -10.3940   104.6190     7.6060     6.5850     8.8130    24.1850     2.3380 
  118.2500   -10.4160   107.0880     7.3320     6.3500     8.6390    24.0210     2.3150 
  118.3750   -10.4550   106.0790     6.9750     6.0280     7.3460    23.9480     2.2900 
  118.5000   -10.5590   106.0150     6.6340     5.7040     6.5120    23.9990     2.2700 
  118.6250   -10.6780   107.3000     6.3960     5.4680     6.2290    24.2120     2.2600 
  118.7500   -10.8430   105.2930     6.2850     5.3520     6.1180    24.3830     2.2620 
  118.8750   -11.0030   100.8960     6.3280     5.3850     6.1780    24.2110     2.2780 
  119.0000   -11.1760    98.7530     6.5460     5.5820     6.3820    23.8380     2.3080 
  119.1250   -11.2790    99.5230     6.9570     5.9540     6.6020    23.6690     2.3460 
  119.2500   -11.3920    99.3540     7.4620     6.4200     6.8410    23.7520     2.3750 
  119.3750   -11.5420    97.9500     7.9460     6.8880     7.6080    24.0500     2.3820 
  119.5000   -11.7550    93.8870     8.2820     7.2500     8.5880    24.3990     2.3590 
  119.6250   -11.9320    89.2020     8.3390     7.3790     9.2700    24.3730     2.3160 
  119.7500   -12.0540    88.8090     8.1620     7.2940     8.6090    23.9700     2.2730 
  119.8750   -12.0760    91.0830     7.8260     7.0450     8.0730    23.6840     2.2430 
  120.0000   -12.0420    89.8660     7.4220     6.7110     7.6650    23.4790     2.2300 
  120.1250   -11.9770    85.9970     7.0450     6.3780     7.3500    23.3850     2.2320 
  120.2500   -11.8260    88.1870     6.7630     6.1100     6.9040    23.3570     2.2400 
  120.3750   -11.6240    93.9350     6.6250     5.9470     6.5440    23.4220     2.2490 
  120.5000   -11.3650    97.3990     6.6590     5.9160     6.4700    23.5920     2.2550 
  120.6250   -11.1360    98.7960     6.8750     6.0380     6.5800    23.8820     2.2570 
  120.7500   -10.9710    99.9500     7.1650     6.2480     6.8300    24.0180     2.2590 
  120.8750   -10.9210    97.9280     7.4160     6.4640     7.2080    24.0220     2.2680 
  121.0000   -10.9310    93.4650     7.5220     6.5980     7.7320    23.9710     2.2820 
  121.1250   -11.0050    94.2460     7.4220     6.5730     8.1950    23.9400     2.2940 
  121.2500   -11.1420    99.0730     7.2300     6.4430     8.4680    23.9570     2.2950 
  121.3750   -11.3020   103.6250     7.0720     6.2940     7.8400    23.9370     2.2830 
  121.5000   -11.4870   104.7360     7.0460     6.2100     7.0180    23.8550     2.2620 
  121.6250   -11.7100   101.3130     7.1810     6.2450     6.7810    23.6680     2.2430 
  121.7500   -11.8930    98.7620     7.3570     6.3440     7.1840    23.5910     2.2340 
  121.8750   -11.9890   100.4470     7.4620     6.4330     7.9040    23.5850     2.2350 
  122.0000   -11.9570   104.8040     7.4230     6.4410     8.2210    23.6080     2.2440 
  122.1250   -11.8580   105.2150     7.2270     6.3250     7.8150    23.6470     2.2570 
  122.2500   -11.7000   103.9710     6.9800     6.1400     7.1240    23.6870     2.2700 
  122.3750   -11.5430   105.1700     6.7680     5.9510     6.6760    23.8360     2.2790 
  122.5000   -11.3530   105.8770     6.6430     5.8180     6.4710    24.0500     2.2830 
  122.6250   -11.2240   103.7220     6.6270     5.7850     6.4900    24.0600     2.2790 
  122.7500   -11.0960   101.9960     6.6840     5.8310     6.6520    24.1470     2.2690 
  122.8750   -11.0780   102.0070     6.7840     5.9310     6.6660    24.2700     2.2570 
  123.0000   -11.2060   101.5860     6.9070     6.0550     6.3610    24.3170     2.2490 
  123.1250   -11.4990    99.7580     7.0400     6.1880     6.4070    23.8120     2.2480 
  123.2500   -11.8530    98.6260     7.1820     6.3250     6.6070    23.4750     2.2540 
  123.3750   -12.1930    97.4860     7.3380     6.4680     6.7400    23.3400     2.2660 
  123.5000   -12.5000    97.0670     7.5050     6.6110     6.7700    23.2890     2.2800 
  123.6250   -12.6970    96.0830     7.6420     6.7180     6.7280    23.1940     2.2920 
  123.7500   -12.8720    93.1840     7.6900     6.7460     6.8010    23.0950     2.2970 
  123.8750   -12.9610    91.8080     7.5880     6.6560     6.9310    23.1740     2.2970 
  124.0000   -12.9700    92.9970     7.3150     6.4400     6.9960    23.3270     2.2940 
  124.1250   -12.8910    95.9220     6.9210     6.1350     7.0120    23.4280     2.2910 
  124.2500   -12.7750   100.4160     6.5830     5.8690     6.8700    23.5200     2.2920 
  124.3750   -12.7040   105.9890     6.4670     5.7620     6.6340    23.7280     2.2920 
  124.5000   -12.7070   110.3120     6.6950     5.9120     6.2770    23.9450     2.2870 
  124.6250   -12.7990   107.9390     7.3230     6.3900     6.2900    23.9030     2.2700 
  124.7500   -12.9460   101.6860     8.1360     7.0560     6.5980    23.5730     2.2440 
  124.8750   -13.1740    95.7490     8.8860     7.7340     7.2310    23.2970     2.2160 
  125.0000   -13.4220    92.0160     9.3170     8.2130     8.0510    23.1610     2.1950 
  125.1250   -13.6050    91.6080     9.1940     8.2630     8.5900    23.1500     2.1930 
  125.2500   -13.7660    94.1670     8.6840     7.9560     8.4330    23.2050     2.2070 
  125.3750   -13.8500    97.2910     8.0200     7.4490     7.7810    23.2400     2.2290 
  125.5000   -13.8920    96.9970     7.4310     6.9300     7.1020    23.2400     2.2520 
  125.6250   -13.8380    94.4660     7.0770     6.5620     6.6620    23.2450     2.2670 
  125.7500   -13.7970    94.9580     6.9300     6.3670     6.5290    23.2650     2.2750 
  125.8750   -13.7190    96.6900     6.9500     6.3290     6.6440    23.2670     2.2790 
  126.0000   -13.7150    93.4020     7.0920     6.4150     6.9120    23.1960     2.2830 
  126.1250   -13.8610    88.1560     7.3350     6.6070     6.9650    23.0730     2.2870 
  126.2500   -14.1630    86.7220     7.6310     6.8600     7.1370    22.9610     2.2890 
  126.3750   -14.5710    86.6910     7.9320     7.1370     7.4480    22.9190     2.2830 
  126.5000   -15.0020    85.0730     8.1870     7.3990     7.9080    22.9130     2.2700 
  126.6250   -15.5150    83.1110     8.3600     7.6120     8.7290    22.9130     2.2520 
  126.7500   -15.9790    83.1030     8.4980     7.7990    10.2230    22.9040     2.2350 
  126.8750   -16.4660    83.1470     8.6780     8.0120    11.4200    22.8790     2.2230 
  127.0000   -16.8940    81.7640     8.9740     8.3100     9.8960    22.8550     2.2140 
  127.1250   -17.2350    80.4240     9.4200     8.7390     9.2200    22.8330     2.2050 
  127.2500   -17.4620    78.9020     9.9140     9.2360     9.5880    22.8030     2.1960 
  127.3750   -17.6480    76.5620    10.3270     9.7070    10.5880    22.7550     2.1870 
