~V
VERS. 2.00: Ver 2.00
~W
STRT.M 120.0000:
STOP.M 278.0000:
STEP.M 0.1250:
NULL. -999.2500:
UWI. DF3047:
~C
DEPT.M :
DEN.GM/CC :
SP.MV :
AC.US/MT :
GR.API :
CALI.CM :
RXO.OHMM :
RI. :
RML.OHMM :
~A
# ...
  170.0000     2.2680   -19.0470   373.9040    72.8240    26.1290    93.7080    91.1660   106.5700 
  170.1250     2.2720   -19.1540   375.9590    71.9520    26.1560    94.5720    97.5670   114.4030 
  170.2500     2.2660   -19.3030   377.6570    70.7900    26.1370   103.1270   106.4660   125.3540 
  170.3750     2.2560   -19.5110   378.3220    68.9100    26.0820   120.2030   118.3700   140.0350 
  170.5000     2.2510   -19.7160   377.9840    65.9770    26.0430   137.4880   131.8700   156.7030 
  170.6250     2.2500   -19.9320   377.2940    64.7990    26.0820   143.9570   143.3950   170.6200 
  170.7500     2.2480   -20.1500   377.0900    66.8730    26.1610   142.6240   150.3120   178.2680 
  170.8750     2.2460   -20.3570   377.6870    67.0700    26.2090   137.8320   152.2770   179.5290 
  171.0000     2.2470   -20.5470   378.8100    63.7080    26.1990   131.0120   151.1250   177.2460 
  171.1250     2.2530   -20.7240   379.4200    61.3960    26.1370   126.7250   149.4560   174.7070 
  171.2500     2.2540   -20.8820   378.7560    62.5030    26.0500   129.5010   148.3180   172.6310 
  171.3750     2.2460   -21.0130   377.0800    64.6500    25.9380   137.8910   146.7300   169.5050 
  171.5000     2.2320   -21.1220   375.5630    66.6550    25.8080   146.4810   143.2160   163.6250 
  171.6250     2.2230   -21.1690   375.5060    69.6610    25.6660   146.1500   136.6840   154.2330 
  171.7500     2.2290   -21.1790   376.3080    71.0200    25.5070   133.8180   128.4810   143.4970 
  171.8750     2.2440   -21.1800   376.7130    68.9610    25.3040   114.9590   120.1940   133.4110 
  172.0000     2.2550   -21.1690   375.9230    66.4690    25.0750   100.4280   113.2810   125.4630 
  172.1250     2.2580   -21.1630   374.4360    66.4420    24.9960    97.7230   109.0180   120.8220 
  172.2500     2.2620   -21.1680   373.8150    68.3460    25.1870   101.7480   107.2400   119.0660 
  172.3750     2.2750   -21.1720   374.8500    70.2960    25.5380   106.1440   107.9460   120.1130 
  172.5000     2.2900   -21.1950   377.3350    71.4680    25.8010   108.1000   111.1380   123.9040 
  172.6250     2.2840   -21.2530   380.5520    71.6990    25.8090   111.0790   116.9010   130.4770 
  172.7500     2.2600   -21.3190   383.9420    70.3700    25.7130   118.7370   123.8370   138.2450 
  172.8750     2.2370   -21.3750   387.4640    68.3060    25.6350   129.4050   130.1740   145.0590 
  173.0000     2.2310   -21.4220   390.9480    67.0800    25.5840   136.5150   133.6370   148.0800 
  173.1250     2.2400   -21.4450   393.9020    68.9610    25.5600   130.9240   131.6260   144.3800 
  173.2500     2.2470   -21.4530   396.0570    72.3330    25.6120   116.2020   125.4540   136.3230 
  173.3750     2.2460   -21.4780   397.2410    73.6080    25.8020    99.4910   117.4630   127.1570 
  173.5000     2.2420   -21.5130   397.3200    73.3000    26.1020    86.6360   110.1570   119.6340 
  173.6250     2.2410   -21.5560   396.1580    72.9470    26.3710    83.2050   105.6260   115.6120 
  173.7500     2.2450   -21.6050   394.4320    72.3830    26.5140    89.5230   103.8780   114.5680 
  173.8750     2.2490   -21.6630   392.9450    71.6270    26.5720   101.0150   104.5800   115.9460 
  174.0000     2.2490   -21.7150   392.3860    72.1650    26.6290   109.2400   107.3390   119.2970 
  174.1250     2.2400   -21.7690   392.7870    74.2020    26.6880   111.5470   112.3920   124.8990 
  174.2500     2.2260   -21.8040   392.9190    73.4960    26.6980   116.3640   119.4820   132.5870 
  174.3750     2.2150   -21.7850   391.7670    68.2390    26.6730   127.2640   128.4000   142.1630 
  174.5000     2.2130   -21.7000   389.2120    61.9500    26.6710   139.7790   138.2150   152.5360 
  174.6250     2.2210   -21.5710   386.3550    62.0010    26.7170   145.4570   146.2110   160.3430 
  174.7500     2.2380   -21.4330   384.6560    66.6810    26.7580   143.6460   149.2770   161.9480 
  174.8750     2.2560   -21.2950   384.5410    69.9610    26.7750   137.3160   145.3710   155.3810 
  175.0000     2.2640   -21.1910   385.3380    68.5830    26.7660   127.1700   134.8350   141.8720 
  175.1250     2.2620   -21.0900   385.3860    65.7520    26.7290   111.0840   120.1600   125.0740 
  175.2500     2.2600   -20.9960   383.5730    65.8610    26.6870    92.7660   105.5150   109.2820 
  175.3750     2.2620   -20.9370   379.9170    67.0880    26.6430    77.8320    93.0280    96.3770 
  175.5000     2.2670   -20.9100   375.4140    67.4710    26.5880    69.3270    83.7970    87.2500 
  175.6250     2.2680   -20.9070   371.7280    66.7260    26.5120    65.7330    79.0000    83.0370 
  175.7500     2.2610   -20.9150   369.8960    66.4330    26.4350    63.3980    78.1490    83.0900 
  175.8750     2.2440   -20.9260   370.2370    66.7270    26.4040    64.4110    80.9900    87.0740 
  176.0000     2.2250   -20.9350   372.4050    67.0210    26.4480    73.3060    86.8080    94.1620 
  176.1250     2.2180   -20.9540   375.3820    68.4960    26.5390    89.1840    94.1760   102.6350 
  176.2500     2.2230   -20.9790   377.4530    69.3210    26.6010    96.4060   100.4210   109.3880 
  176.3750     2.2370   -21.0150   377.2640    69.9580    26.6230    88.0800   103.4530   112.0080 
  176.5000     2.2600   -21.0670   374.0740    71.1840    26.6330    73.0200   102.4720   109.9010 
  176.6250     2.2870   -21.1260   368.2300    70.4230    26.6130    65.8240    98.6730   105.1710 
  176.7500     2.3070   -21.1840   362.6360    66.4220    26.5810    65.6560    95.5780   102.0310 
  176.8750     2.3090   -21.2560   360.2030    61.6320    26.5700    66.8290    95.8100   103.1880 
  177.0000     2.2900   -21.3270   362.9030    58.4400    26.5680    66.8780   101.2700   110.3180 
  177.1250     2.2620   -21.4100   370.8380    57.0470    26.5020    72.2430   113.9050   125.1060 
  177.2500     2.2470   -21.5170   379.7710    58.5990    26.3950    87.9120   131.3720   144.7700 
  177.3750     2.2490   -21.6100   385.9810    63.0920    26.3290   108.0690   149.1330   163.8760 
  177.5000     2.2580   -21.6710   387.3090    67.1790    26.3400   120.6590   159.5180   172.9530 
  177.6250     2.2680   -21.6920   383.7850    67.8810    26.3960   116.3350   152.9400   161.2610 
  177.7500     2.2830   -21.6710   378.9800    67.4610    26.4450   100.2690   133.5230   136.6030 
  177.8750     2.3020   -21.6110   375.4740    69.5470    26.4910    79.6000   109.4260   109.7260 
  178.0000     2.3170   -21.5390   374.7270    74.5180    26.5430    63.1320    88.0640    87.8760 
  178.1250     2.3210   -21.4430   377.2170    79.4090    26.5810    56.0840    73.8640    74.2660 
  178.2500     2.3150   -21.3290   381.2820    79.3310    26.5790    53.2740    65.7380    66.9720 
  178.3750     2.3000   -21.2280   385.3070    76.9620    26.5620    51.8630    62.8340    65.0560 
  178.5000     2.2810   -21.1660   387.7480    76.4720    26.5800    52.7760    64.4950    67.8330 
  178.6250     2.2680   -21.1750   387.5840    75.5290    26.6150    59.1530    70.6740    75.1540 
  178.7500     2.2620   -21.2370   386.2150    72.4080    26.5910    69.8820    79.4250    84.9300 
  178.8750     2.2570   -21.3320   385.3290    69.2660    26.5010    81.7160    88.7340    94.9700 
  179.0000     2.2530   -21.4370   385.9230    68.2720    26.4130    88.6640    96.1510   102.6080 
  179.1250     2.2560   -21.5790   387.3510    69.2430    26.3830    82.5970    99.3230   105.4670 
  179.2500     2.2640   -21.7480   387.6310    70.1230    26.3990    69.1940    99.6880   105.6600 
  179.3750     2.2700   -21.9190   385.8610    70.4420    26.4470    58.1430    99.9620   106.4710 
  179.5000     2.2670   -22.0730   382.9000    69.6990    26.4700    54.9280   103.0620   110.9450 
  179.6250     2.2490   -22.2100   381.5980    67.6950    26.3810    58.4510   111.4160   121.3280 
  179.7500     2.2260   -22.3370   383.5720    63.9010    26.2240    63.0230   123.2740   135.3690 
  179.8750     2.2080   -22.4530   387.8610    60.0180    26.0840    67.0580   135.0970   148.8160 
