~V
VERS. 2.00: Ver 2.00
~W
STRT.M 60.0000:
STOP.M 282.0000:
STEP.M 0.1250:
NULL. -999.2500:
UWI. DF3058:
~C
DEPT.M :
GR.API :
RML.OHMM :
RI. :
RXO.OHMM :
CALI.CM :
DEN.GM/CC :
SP.MV :
~A
# ...
  240.0000    62.0730   119.0810   111.3130   281.4970    24.4900     2.1850    -9.9150 
  240.1250    60.0970   103.2100    97.8210   140.7830    24.4560     2.1900   -10.0490 
  240.2500    61.6910    87.7980    83.2150    90.6060    24.3250     2.1970   -10.1620 
  240.3750    66.6230    77.9920    72.6510    72.3690    24.1990     2.2050   -10.2920 
  240.5000    70.9620    75.4850    68.5640    65.2040    24.1410     2.2140   -10.3790 
  240.6250    71.0250    80.6110    71.7600    68.9910    24.1480     2.2200   -10.4390 
  240.7500    68.4140    89.7800    79.0280    81.4240    24.1950     2.2210   -10.4680 
  240.8750    65.0870    99.3050    87.2100    99.5530    24.2780     2.2120   -10.4580 
  241.0000    62.7030   104.9030    92.5800   117.8150    24.3390     2.2020   -10.4220 
  241.1250    63.5930   101.5780    90.9610   125.6150    24.3270     2.1960   -10.3530 
  241.2500    66.4930    91.2510    83.3430   116.4340    24.2650     2.1980   -10.3090 
  241.3750    69.8470    77.9510    72.7140    93.2250    24.2250     2.2090   -10.2430 
  241.5000    71.4960    66.1130    62.7550    66.3620    24.2600     2.2220   -10.1900 
  241.6250    70.6160    59.4360    56.3960    51.7210    24.2900     2.2300   -10.1270 
  241.7500    70.6450    56.2160    53.3300    49.5240    24.3020     2.2310   -10.0710 
  241.8750    71.1110    55.4940    52.6410    52.2430    24.3050     2.2250   -10.0300 
  242.0000    69.7650    56.0250    53.1470    55.8510    24.3090     2.2180   -10.0010 
  242.1250    66.7740    56.5530    53.6510    56.8430    24.3040     2.2120   -10.0040 
  242.2500    64.8450    56.3440    53.4510    54.4820    24.2960     2.2100    -9.9980 
  242.3750    64.5770    55.3270    52.4830    49.5120    24.2820     2.2120   -10.0020 
  242.5000    65.5470    53.7380    50.9690    43.2430    24.2800     2.2180    -9.9880 
  242.6250    66.5310    51.6480    48.9790    38.2630    24.3050     2.2280   -10.0250 
  242.7500    66.5370    48.9090    46.3710    36.3050    24.3640     2.2390   -10.0590 
  242.8750    67.7190    45.2210    42.8580    37.1920    24.3470     2.2510   -10.1120 
  243.0000    71.1220    40.5380    38.3980    36.9890    24.3130     2.2630   -10.1680 
  243.1250    76.4730    35.2810    33.3910    32.0960    24.3150     2.2730   -10.2290 
  243.2500    83.0270    30.3510    28.6960    26.6080    24.3450     2.2810   -10.2840 
  243.3750    89.5470    26.3200    24.8580    21.8850    24.3720     2.2850   -10.3530 
  243.5000    93.5110    23.4070    22.0830    18.9590    24.3620     2.2860   -10.4160 
  243.6250    92.3370    21.7040    20.4480    18.6340    24.3110     2.2860   -10.4690 
  243.7500    89.2220    20.8270    19.6330    19.1370    24.2830     2.2860   -10.5470 
  243.8750    86.1000    20.8020    19.6730    19.5000    24.3130     2.2920   -10.6310 
  244.0000    84.1230    22.1110    20.9360    19.9080    24.4130     2.3040   -10.7270 
  244.1250    84.8190    26.2390    24.7760    23.7370    24.4700     2.3190   -10.8370 
  244.2500    85.6710    34.3750    32.1350    33.0450    24.3880     2.3310   -10.9560 
  244.3750    85.1030    47.1760    43.7150    47.5960    24.1620     2.3330   -11.0600 
  244.5000    82.8430    63.8290    58.9610    66.8210    23.9560     2.3220   -11.1850 
  244.6250    77.8990    81.2720    75.2550    82.2370    23.8270     2.3020   -11.3050 
  244.7500    70.9410    94.1640    88.3400    89.1460    23.8350     2.2790   -11.4320 
  244.8750    67.3740   101.0300    95.4390    90.4620    23.9260     2.2660   -11.5080 
  245.0000    71.6230   102.0340    96.4500    91.0590    24.0700     2.2720   -11.5750 
  245.1250    78.0500   100.0070    93.9260    90.4060    24.1350     2.3000   -11.6200 
  245.2500    75.3480    98.6100    91.6360    92.0280    24.1760     2.3510   -11.6580 
  245.3750    67.0500    98.6270    90.6260   102.3950    24.1960     2.4190   -11.6970 
  245.5000    64.6200    99.3090    90.4620   116.8130    24.2070     2.4810   -11.7250 
  245.6250    70.9690    99.0370    89.8540   126.5910    24.2120     2.5210   -11.7340 
  245.7500    76.1940    96.9090    87.8850   125.7640    24.2150     2.5250   -11.7250 
  245.8750    76.7650    93.0100    84.4720   111.7410    24.2170     2.4960   -11.7310 
  246.0000    75.2740    88.2870    80.2770    95.0920    24.2100     2.4570   -11.7100 
  246.1250    75.3740    84.0980    76.3960    80.8890    24.1780     2.4280   -11.6650 
  246.2500    77.3130    80.9920    73.3990    67.7210    24.1470     2.4180   -11.5910 
  246.3750    79.5070    78.8000    71.2320    58.7670    24.1280     2.4310   -11.4880 
  246.5000    78.8530    77.0290    69.5120    54.7710    24.0390     2.4540   -11.3770 
  246.6250    73.8900    75.1940    67.8340    53.4290    23.8900     2.4760   -11.2790 
  246.7500    69.2710    73.4050    66.1600    48.4520    23.8850     2.4910   -11.2000 
  246.8750    67.6860    72.2310    64.9120    42.2530    24.0070     2.4980   -11.1660 
  247.0000    67.4310    72.3860    64.8020    37.5010    24.1050     2.5010   -11.2000 
  247.1250    65.4770    75.0560    66.9980    39.0980    24.0230     2.4990   -11.2930 
  247.2500    64.2980    79.9580    71.6630    46.7370    23.8490     2.4960   -11.4750 
  247.3750    66.4620    86.8590    78.6720    57.3990    23.7900     2.4960   -11.7340 
  247.5000    71.5530    95.0480    87.2720    68.9290    23.8820     2.4990   -12.0300 
  247.6250    75.3420   103.0600    95.8890    75.3710    23.9060     2.5040   -12.3350 
  247.7500    74.8700   110.5720   102.7130    75.9430    23.9060     2.5050   -12.6160 
  247.8750    69.7150   114.8730   106.6040    76.6480    23.9600     2.4950   -12.8430 
  248.0000    64.1060   115.5670   107.2200    82.3460    23.9860     2.4740   -12.9910 
  248.1250    65.3000   112.8470   104.7020    87.4200    23.8560     2.4460   -13.0890 
  248.2500    70.4070   108.5160   100.6380    87.4580    23.7900     2.4180   -13.1230 
  248.3750    73.8830   103.7740    96.1020    82.3790    23.8650     2.3940   -13.0660 
  248.5000    73.8710    99.6140    92.0170    76.9410    24.1000     2.3800   -12.9420 
  248.6250    73.7570    97.1290    89.4080    74.2270    24.3180     2.3790   -12.8010 
  248.7500    75.3430    96.5630    88.5820    78.6070    24.4130     2.3930   -12.6280 
  248.8750    76.8780    97.7860    89.5450    82.7380    24.2970     2.4150   -12.4500 
  249.0000    75.3680   100.0750    91.7900    83.7600    24.1830     2.4360   -12.2620 
  249.1250    70.5180   102.1050    94.3440    86.7910    24.1520     2.4510   -12.0610 
  249.2500    66.9600   102.8590    96.2440    89.6050    24.1500     2.4630   -11.8350 
  249.3750    65.2810   102.3890    97.3740    91.1920    24.1390     2.4760   -11.5910 
  249.5000    65.5870   102.0210    98.6110    91.3900    24.1080     2.4900   -11.3400 
  249.6250    66.7410   104.1530   101.9080    88.8320    24.0690     2.5010   -11.0630 
  249.7500    67.9050   108.8580   107.5040    94.1670    24.0260     2.5020   -10.7790 
  249.8750    67.7340   113.7020   113.4580   110.2660    23.9420     2.4840   -10.4870 
  250.0000    65.1400   114.1800   115.6040   134.6920    23.8220     2.4560   -10.2140 
  250.1250    59.7630   103.4410   107.1840   168.7720    23.7660     2.4290    -9.9180 
  250.2500    50.1560    82.1910    87.8420   189.9000    23.7690     2.4120    -9.6310 
  250.3750    38.4360    56.2280    62.0060   185.4990    23.8160     2.4100    -9.3600 
  250.5000    28.8640    33.8610    37.8260   144.5070    23.8210     2.4110    -9.1250 
  250.6250    26.2580    20.1890    22.1600    69.4040    23.7660     2.4010    -8.8940 
  250.7500    28.1580    12.4870    13.2100    23.4680    23.7880     2.3690    -8.6970 
  250.8750    29.6250     8.5510     8.5680     8.8760    23.8640     2.3180    -8.5340 
  251.0000    29.4810     6.8050     6.3590     5.1420    23.8240     2.2710    -8.4320 
  251.1250    29.9090     6.3870     5.5980     4.5950    23.4510     2.2390    -8.3980 
