~V
VERS. 2.00: Ver 2.00
~W
STRT.M 64.0000:
STOP.M 259.0000:
STEP.M 0.1250:
NULL. -999.2500:
UWI. DF3067:
~C
DEPT.M :
DEN.GM/CC :
GR.API :
CALI.CM :
RXO.OHMM :
RI. :
RML.OHMM :
SP.MV :
~A
# ...
  176.5000     2.2470    73.1390    23.2590    89.0720   102.5890   127.7170   -41.1580 
  176.6250     2.2170    69.5130    23.4850   142.1410   142.2110   177.7500   -41.1990 
  176.7500     2.1960    65.4500    23.5820   170.4850   197.2910   239.5760   -41.3000 
  176.8750     2.1850    64.0620    23.4990   163.3260   257.1740   297.7910   -41.4480 
  177.0000     2.1820    64.2130    23.3430   134.2780   299.3030   333.0040   -41.5970 
  177.1250     2.1860    63.0230    23.3550   119.1670   307.8100   335.7060   -41.6450 
  177.2500     2.1970    61.4640    23.6250   128.8180   302.6950   325.4250   -41.5480 
  177.3750     2.2120    61.7770    24.0290   174.6040   298.4880   315.7870   -41.2930 
  177.5000     2.2210    62.4070    24.3500   222.2680   300.2970   312.1630   -40.9220 
  177.6250     2.2160    61.9060    24.4620   302.4430   305.6700   312.8060   -40.4980 
  177.7500     2.2030    61.6680    24.4720   353.1300   306.1070   310.2620   -40.0960 
  177.8750     2.1920    61.8890    24.4680   346.4070   295.2330   298.9640   -39.7460 
  178.0000     2.1910    61.8170    24.4560   259.0130   272.9990   278.0550   -39.4600 
  178.1250     2.2020    62.6840    24.3980   181.4350   246.4950   252.4410   -39.2160 
  178.2500     2.2130    65.5920    24.3220   143.3150   224.7220   230.3880   -38.9690 
  178.3750     2.2180    67.9250    24.2690   128.9950   211.8420   216.7710   -38.6910 
  178.5000     2.2160    67.1120    24.2560   135.8040   209.4670   214.0960   -38.3850 
  178.6250     2.2140    65.1030    24.2590   162.1200   218.6800   223.9520   -38.0770 
  178.7500     2.2130    64.8600    24.2590   188.5460   233.0580   239.7200   -37.8070 
  178.8750     2.2100    64.6350    24.2560   239.5070   241.6390   251.4640   -37.5850 
  179.0000     2.2020    62.8090    24.2520   271.2350   230.6220   246.9930   -37.3990 
  179.1250     2.2020    59.8000    24.2500   266.9090   194.8740   218.0330   -37.2230 
  179.2500     2.2130    56.9180    24.2510   209.2870   153.0560   177.6630   -37.0390 
  179.3750     2.2320    55.4650    24.2470   136.8970   117.0680   138.0550   -36.8390 
  179.5000     2.2490    56.6680    24.2330    82.9960    90.7700   106.3680   -36.6290 
  179.6250     2.2570    62.5120    24.2110    66.6110    74.4000    85.4790   -36.4140 
  179.7500     2.2610    68.5610    24.1940    55.3180    64.2810    72.1370   -36.1850 
  179.8750     2.2630    71.4130    24.1840    41.3880    58.8390    64.5940   -35.9260 
  180.0000     2.2590    71.8220    24.2150    43.1820    56.8630    61.4310   -35.6290 
  180.1250     2.2390    73.4290    24.3180    53.6730    57.5600    61.7080   -35.2900 
  180.2500     2.2080    74.9290    24.4350    61.2910    59.5590    63.7230   -34.9180 
  180.3750     2.1860    72.5280    24.5050    67.3260    62.4040    66.8830   -34.5160 
  180.5000     2.1900    67.6320    24.5210    67.0450    66.2900    71.3120   -34.0780 
  180.6250     2.2280    64.7750    24.5210    60.8340    72.3520    78.1940   -33.5950 
  180.7500     2.2910    62.8650    24.5220    60.0880    80.2570    87.0720   -33.0830 
  180.8750     2.3780    60.4530    24.4700    67.2800    86.3190    94.4660   -32.5490 
  181.0000     2.4940    58.8670    24.2320   100.6070    81.6870    92.4820   -31.9970 
  181.1250     2.6100    58.8160    23.7660   132.9950    63.0680    69.7410   -31.4240 
  181.2500     2.6750    58.1670    23.3210   108.8150    46.8100    36.7560   -30.8410 
  181.3750     2.6660    58.1350    23.0190    48.9920    26.2480    20.4350   -30.2610 
  181.5000     2.6060    60.2970    22.7910    13.3890    13.9460    11.2400   -29.6900 
  181.6250     2.5510    62.5630    22.5780     6.1500     8.2690     7.0310   -29.1530 
  181.7500     2.5250    61.7420    22.5050     4.4780     5.4930     5.0220   -28.6660 
  181.8750     2.5160    58.3910    22.6300     4.3310     4.2380     4.2260   -28.2550 
  182.0000     2.4970    55.1250    22.8440     4.3120     3.8090     4.0740   -27.9400 
  182.1250     2.4570    53.6350    22.9920     4.2330     3.8790     4.2370   -27.7330 
  182.2500     2.4120    54.0700    23.0370     4.1620     4.1230     4.4620   -27.6140 
  182.3750     2.3810    55.9580    23.0100     4.1890     4.4010     4.6660   -27.5840 
  182.5000     2.3700    59.1390    22.9620     4.3770     4.6520     4.8380   -27.6460 
  182.6250     2.3780    61.8200    22.9260     4.6640     4.8720     5.0130   -27.8210 
  182.7500     2.3950    63.4020    22.9380     4.8120     5.0890     5.2270   -28.0760 
  182.8750     2.4140    66.4400    23.0080     4.9910     5.3170     5.4960   -28.3860 
  183.0000     2.4350    72.2160    23.1240     5.3590     5.5630     5.8210   -28.7250 
  183.1250     2.4560    81.9940    23.2700     5.8370     5.8080     6.1820   -29.0750 
  183.2500     2.4740    91.9320    23.4320     6.4310     6.0170     6.5370   -29.4370 
  183.3750     2.4810    97.9510    23.5700     6.9550     6.1680     6.8620   -29.8180 
  183.5000     2.4750    99.0330    23.6370     7.2170     6.2680     7.1630   -30.2210 
  183.6250     2.4640   100.3110    23.6300     7.1930     6.3710     7.5020   -30.6490 
  183.7500     2.4600   104.3720    23.6200     7.3120     6.5540     7.9510   -31.0840 
  183.8750     2.4610   105.6220    23.6310     8.0430     6.8630     8.5570   -31.5160 
  184.0000     2.4600   102.2360    23.6420     9.2210     7.3050     9.3100   -31.9360 
  184.1250     2.4500    97.7990    23.6190    10.1070     7.8270    10.1180   -32.3320 
  184.2500     2.4350    95.5250    23.5760    10.9330     8.3000    10.8150   -32.6920 
  184.3750     2.4200    96.3230    23.5520    11.2910     8.6100    11.2650   -32.9950 
  184.5000     2.4090    99.2410    23.5600    10.7310     8.6900    11.4000   -33.2230 
  184.6250     2.4040    99.7220    23.6370    10.0370     8.5190    11.2110   -33.3620 
  184.7500     2.4030    97.5950    23.8060     9.8830     8.2190    10.8660   -33.4390 
  184.8750     2.4050    96.7050    24.0150     9.7300     7.8730    10.4780   -33.4730 
  185.0000     2.4040    97.2360    24.1630     9.2150     7.5510    10.1360   -33.4810 
  185.1250     2.3980    94.3820    24.1820     8.6150     7.3290     9.9360   -33.4590 
  185.2500     2.3910    91.4350    24.1530     8.7300     7.2320     9.9040   -33.4080 
  185.3750     2.3890    92.8640    24.1230     9.1350     7.2790    10.0560   -33.3240 
  185.5000     2.3960    97.9920    24.0050     9.6680     7.4770    10.4030   -33.2160 
  185.6250     2.4140   103.0820    23.6980    10.8390     7.8720    11.0270   -33.0870 
  185.7500     2.4320   105.4830    23.3430    12.0080     8.4700    11.9500   -32.9410 
  185.8750     2.4400   103.2410    23.1890    12.8560     9.2770    13.1790   -32.7710 
  186.0000     2.4360    97.6380    23.3540    13.3610    10.2360    14.5980   -32.5650 
  186.1250     2.4350    92.7680    23.6640    16.3810    11.1160    15.7730   -32.2910 
  186.2500     2.4380    92.4090    23.8680    21.6390    11.5270    16.0970   -31.9350 
  186.3750     2.4350    95.3760    23.9270    22.5000    11.1460    15.1640   -31.4700 
  186.5000     2.4190    99.3860    23.9020    16.4850     9.9880    13.1730   -30.8920 
  186.6250     2.3970   102.3310    23.8050    11.3420     8.4620    10.9170   -30.2200 
  186.7500     2.3810   102.2660    23.6110     8.1550     7.1170     9.1590   -29.5280 
  186.8750     2.3800    97.0150    23.3860     6.3450     6.1720     8.1340   -28.8540 
  187.0000     2.3970    86.5310    23.2650     5.6710     5.6820     7.8080   -28.2070 
  187.1250     2.4260    78.1280    23.3490     6.5390     5.6460     8.0370   -27.5670 
  187.2500     2.4480    79.2790    23.5190     7.6760     5.8420     8.4260   -26.9140 
  187.3750     2.4540    86.6320    23.6400     8.3830     6.0820     8.6920   -26.2720 
  187.5000     2.4450    92.6820    23.6610     8.2720     6.1930     8.6460   -25.6820 
  187.6250     2.4330    89.8550    23.6120     7.1290     6.0570     8.2440   -25.2110 
