~V
VERS. 2.00: Ver 2.00
~W
STRT.M 60.0000:
STOP.M 268.0000:
STEP.M 0.1250:
NULL. -999.2500:
UWI. DF3035:
~C
DEPT.M :
GR.API :
CALI.CM :
RXO.OHMM :
RI. :
RML.OHMM :
SP.MV :
DEN.GM/CC :
AC.US/MT :
~A
# ...
  170.0000    74.4670    25.6220    93.1150    89.9710   107.3610   -28.8300     2.2860   397.8800 
  170.1250    66.5400    25.6320   103.4840   107.1210   127.7950   -28.9460     2.2640   399.1290 
  170.2500    60.2330    25.6170   113.3570   122.3220   145.7680   -29.0290     2.2440   400.6850 
  170.3750    60.6370    25.6130   122.0520   132.7000   157.3810   -29.0920     2.2300   400.9910 
  170.5000    66.2060    25.6280   127.2090   136.6080   160.6350   -29.1500     2.2200   399.0810 
  170.6250    69.8470    25.6310   124.5860   133.2670   155.2240   -29.1940     2.2170   395.1300 
  170.7500    68.3650    25.6040   116.7310   125.5300   145.2200   -29.2570     2.2240   390.9370 
  170.8750    66.9450    25.5660   106.9250   115.6440   133.5940   -29.3550     2.2370   387.7730 
  171.0000    72.2760    25.5400    97.0410   105.9260   123.0380   -29.4660     2.2540   386.3150 
  171.1250    80.0750    25.4960    85.1670    98.8930   116.2230   -29.5870     2.2710   386.9220 
  171.2500    79.8470    25.4100    71.5520    95.5560   113.8200   -29.7250     2.2880   389.2020 
  171.3750    73.5140    25.3130    61.2930    96.5830   116.3560   -29.8720     2.2930   393.2540 
  171.5000    68.7090    25.2790    60.8490   102.2460   123.9790   -30.0210     2.2770   398.9620 
  171.6250    68.6250    25.3430    72.0890   112.6310   136.6010   -30.1690     2.2470   405.4310 
  171.7500    68.5590    25.4340    84.0420   124.9540   150.7800   -30.2970     2.2270   410.7740 
  171.8750    66.4220    25.5140    86.6610   135.8780   162.0660   -30.3900     2.2210   413.4180 
  172.0000    63.1690    25.5700    78.6610   141.6790   165.7600   -30.4360     2.2200   412.5230 
  172.1250    61.6910    25.5800    69.4120   139.4150   159.5050   -30.4490     2.2130   408.1360 
  172.2500    62.8840    25.5490    66.0190   132.6100   149.3220   -30.4380     2.2090   402.3420 
  172.3750    64.7460    25.5180    66.5270   125.0740   139.8950   -30.3780     2.2130   396.6150 
  172.5000    65.2930    25.5180    66.2980   119.3290   133.3020   -30.2900     2.2180   392.0210 
  172.6250    65.1920    25.5190    65.9870   115.7190   129.0290   -30.2070     2.2140   389.2250 
  172.7500    65.4490    25.4860    69.9850   112.0360   124.2670   -30.1000     2.2060   387.5200 
  172.8750    65.3690    25.4270    75.4790   106.4480   117.1170   -29.9840     2.2000   386.1330 
  173.0000    63.9100    25.3520    74.1440    98.3570   107.3350   -29.8890     2.1980   384.6140 
  173.1250    63.0130    25.2530    63.2660    88.8230    96.6080   -29.7970     2.2000   383.2170 
  173.2500    63.0510    25.1430    52.8690    80.1150    87.3830   -29.7100     2.2040   382.5080 
  173.3750    62.4070    25.0540    49.1110    73.6130    80.9500   -29.6450     2.2120   382.8480 
  173.5000    62.5330    25.0390    52.3850    69.9450    77.7270   -29.5940     2.2270   384.2260 
  173.6250    66.7910    25.1110    58.9180    69.3930    77.8080   -29.5550     2.2500   386.3670 
  173.7500    71.8980    25.1720    63.5470    70.8200    79.9060   -29.5790     2.2730   388.6450 
  173.8750    72.9690    25.1620    65.5450    73.5360    83.2780   -29.6840     2.2890   390.6810 
  174.0000    70.7470    25.1030    66.7630    76.9950    87.3580   -29.8720     2.2940   392.2860 
  174.1250    69.5580    25.0550    69.3570    80.9270    91.9390   -30.1640     2.2890   393.5920 
  174.2500    70.2930    25.0230    75.1510    85.1350    96.8820   -30.5490     2.2800   395.2780 
  174.3750    72.6290    24.9960    84.8800    89.3310   101.8600   -31.0160     2.2710   397.9130 
  174.5000    73.9930    24.9910    95.3090    92.8100   105.9920   -31.5240     2.2680   401.3300 
  174.6250    71.6930    25.0270   100.0700    94.2690   107.6610   -32.0150     2.2690   404.0060 
  174.7500    66.9110    25.0980    98.8930    93.4920   106.6640   -32.3780     2.2690   404.4620 
  174.8750    63.5850    25.1900    94.4370    90.8270   103.5340   -32.5330     2.2680   402.3500 
  175.0000    63.9330    25.2760    90.2200    87.1130    99.3570   -32.4420     2.2650   398.5430 
  175.1250    65.3640    25.3430    89.9280    83.3770    95.3260   -32.1020     2.2600   394.7890 
  175.2500    67.1020    25.4090    90.7460    80.2690    92.0410   -31.5800     2.2480   392.4350 
  175.3750    69.4830    25.4590    86.7120    77.9290    89.5670   -30.9200     2.2290   391.6810 
  175.5000    70.7750    25.4450    76.7970    76.3070    87.8110   -30.2050     2.2100   392.0270 
  175.6250    70.9750    25.3540    68.6790    75.4120    86.8060   -29.4980     2.2110   392.7760 
  175.7500    72.4190    25.2760    67.7380    75.0090    86.3640   -28.9110     2.2320   393.2320 
  175.8750    73.6940    25.2670    71.4030    74.9260    86.3500   -28.5320     2.2580   392.9690 
  176.0000    70.0180    25.3080    74.8030    75.0220    86.6540   -28.3900     2.2730   391.8240 
  176.1250    63.5830    25.3460    75.3400    75.3370    87.3960   -28.4680     2.2670   389.9880 
  176.2500    61.6560    25.3690    74.1910    75.9580    88.6680   -28.6910     2.2590   388.1560 
  176.3750    64.1950    25.3930    71.9480    76.9290    90.5330   -29.0300     2.2620   386.6690 
  176.5000    66.6750    25.4260    70.1620    78.1870    92.8790   -29.4280     2.2770   385.4400 
  176.6250    67.0660    25.4840    72.6560    79.4550    95.2110   -29.8710     2.2870   383.9880 
  176.7500    67.7760    25.5710    76.7020    80.2950    96.7370   -30.2900     2.2850   382.0050 
  176.8750    69.3720    25.6310    74.6160    80.5570    97.1020   -30.6330     2.2790   379.5990 
  177.0000    71.6480    25.5520    64.5800    80.6920    96.8700   -30.8800     2.2740   377.2860 
  177.1250    71.6620    25.3150    57.0580    82.1510    97.9610   -31.0240     2.2790   376.1330 
  177.2500    68.6320    25.1300    61.7310    86.4460   102.3840   -31.1020     2.2920   376.7800 
  177.3750    64.1940    25.0970    79.6690    95.3130   112.0820   -31.1120     2.3000   379.4340 
  177.5000    61.1700    25.1790   104.5180   110.3620   128.6560   -31.0680     2.2900   383.6940 
  177.6250    60.7480    25.2900   124.2350   132.8540   153.3910   -30.9460     2.2640   388.7890 
  177.7500    61.4230    25.3540   133.8550   158.0490   180.7680   -30.7790     2.2420   393.8050 
  177.8750    63.0710    25.2960   137.1120   177.4390   199.7010   -30.5970     2.2310   398.3540 
  178.0000    65.3040    25.1060   134.1900   179.0560   194.6080   -30.4140     2.2320   402.1880 
  178.1250    66.0420    24.9180   117.4570   152.7590   157.5820   -30.2660     2.2390   404.7300 
  178.2500    66.4780    24.8340    92.8510   113.7530   112.4820   -30.1200     2.2460   405.8990 
  178.3750    70.1770    24.8250    69.3070    77.6960    75.7600   -29.9830     2.2550   405.8910 
  178.5000    77.8510    24.8330    48.1390    52.5060    52.0720   -29.8980     2.2750   405.3500 
  178.6250    82.7930    24.8200    31.2700    39.8590    41.1710   -29.9540     2.3150   405.1440 
  178.7500    81.6150    24.7670    24.5770    35.5860    38.8790   -30.1150     2.3550   405.3070 
  178.8750    77.6840    24.6750    34.4610    39.0720    44.7970   -30.3660     2.3650   405.2090 
  179.0000    73.4200    24.6110    67.5450    51.7820    60.3170   -30.6960     2.3340   404.3250 
  179.1250    67.8930    24.7000   111.6480    79.8950    92.1090   -31.0870     2.2830   402.7920 
  179.2500    62.8900    24.9400   139.6390   125.1680   144.4130   -31.5030     2.2460   401.5740 
  179.3750    60.3510    25.2400   153.0950   185.4460   219.5680   -31.9100     2.2290   401.2750 
  179.5000    59.9130    25.4880   166.6530   247.6870   304.4380   -32.2670     2.2230   401.9290 
  179.6250    58.7770    25.6120   179.4580   288.8860   362.5090   -32.4720     2.2180   403.0660 
  179.7500    57.1010    25.6410   188.8090   305.2410   384.0190   -32.5750     2.2140   403.9940 
  179.8750    56.9850    25.6110   199.0580   300.2570   376.1910   -32.5910     2.2070   404.4810 
