~V
VERS. 2.00: Ver 2.00
~W
STRT.M 105.0000:
STOP.M 269.0000:
STEP.M 0.1250:
NULL. -999.2500:
UWI. DF304:
~C
DEPT.M :
GR.API :
CALI.CM :
RXO.OHMM :
RI. :
RML.OHMM :
SP.MV :
DEN.GM/CC :
AC.US/MT :
~A
# ...
  215.0000    63.8990    24.6110   116.4370    84.9210   100.2630   -14.2740     2.6860   237.7760 
  215.1250    63.0710    24.6100    94.7370    64.6920    76.6590   -13.9310     2.6190   266.2410 
  215.2500    61.3320    24.5910    79.1450    43.1460    51.1680   -13.5420     2.5720   307.3480 
  215.3750    60.8870    24.5420    59.1170    26.6060    31.2740   -13.1490     2.5490   349.8080 
  215.5000    61.7470    24.4710    34.6580    16.1670    18.4980   -12.7800     2.5370   379.9290 
  215.6250    61.1640    24.3620    17.4180    10.7810    11.9720   -12.4300     2.5310   390.4730 
  215.7500    60.1760    24.2720     9.1920     7.8630     8.6950   -12.1330     2.5280   391.4380 
  215.8750    59.7050    24.2360     6.8270     6.4040     7.3680   -11.8950     2.5260   390.7180 
  216.0000    59.0660    24.2300     6.5980     5.8580     7.1860   -11.7360     2.5190   391.8930 
  216.1250    58.8650    24.2260     6.8840     5.9500     7.6530   -11.6590     2.5110   394.8340 
  216.2500    59.5100    24.2090     7.1420     6.2840     8.2180   -11.6540     2.5070   398.0070 
  216.3750    61.0780    24.1700     7.2020     6.6410     8.6120   -11.6910     2.5060   400.8430 
  216.5000    62.2280    24.1410     7.0650     6.9010     8.7570   -11.7670     2.5040   403.0190 
  216.6250    62.4070    24.1350     6.9830     6.9730     8.7420   -11.8920     2.5040   404.0080 
  216.7500    62.2240    24.1310     6.8990     7.0420     8.6950   -12.0230     2.5060   403.8240 
  216.8750    60.5330    24.1310     6.8920     7.0730     8.5810   -12.1310     2.5090   402.7720 
  217.0000    58.3360    24.1310     6.9540     7.0410     8.4400   -12.2120     2.5110   401.2970 
  217.1250    58.9010    24.1310     6.9130     6.9450     8.2840   -12.2500     2.5090   399.4510 
  217.2500    60.3350    24.1310     6.8220     6.8100     8.1370   -12.2490     2.5070   397.1170 
  217.3750    60.3340    24.1310     6.7160     6.6660     8.0390   -12.2150     2.5070   394.2860 
  217.5000    58.2480    24.1310     6.6010     6.5510     8.0360   -12.1450     2.5060   391.1850 
  217.6250    54.3340    24.1290     6.5950     6.5030     8.1640   -12.0400     2.5050   388.0060 
  217.7500    49.2040    24.1140     6.7650     6.4930     8.3510   -11.9160     2.5040   385.3120 
  217.8750    46.5640    24.0790     6.9680     6.4570     8.4790   -11.8020     2.5030   385.0130 
  218.0000    51.8890    24.0530     7.1390     6.3090     8.4000   -11.6750     2.4980   389.5440 
  218.1250    59.2130    24.0400     7.1840     5.9720     7.9830   -11.5780     2.4850   399.3490 
  218.2500    60.7510    24.0190     7.0140     5.5300     7.3740   -11.5350     2.4660   408.3680 
  218.3750    61.7000    23.9760     6.7230     5.1020     6.7830   -11.5430     2.4490   410.9200 
  218.5000    72.2030    23.9450     6.2360     4.8050     6.4150   -11.5780     2.4390   405.7350 
  218.6250    90.7100    23.9380     5.8520     4.7470     6.4600   -11.6160     2.4410   397.2780 
  218.7500   105.0420    23.9710     5.7710     4.9070     6.8630   -11.6390     2.4470   391.6270 
  218.8750   112.1610    24.0760     6.1850     5.2430     7.5160   -11.6250     2.4540   389.7380 
  219.0000   116.4250    24.2530     6.7520     5.6700     8.2390   -11.5840     2.4580   389.7650 
  219.1250   120.1380    24.3690     7.0700     6.0550     8.7700   -11.5020     2.4640   389.7920 
  219.2500   122.4650    24.4090     7.1110     6.3040     9.0030   -11.3830     2.4740   389.6070 
  219.3750   123.0610    24.4210     6.9560     6.3990     8.9670   -11.2410     2.4800   389.1820 
  219.5000   122.0660    24.4430     6.7860     6.3840     8.7940   -11.0840     2.4740   388.8520 
  219.6250   119.0750    24.4850     6.7240     6.3310     8.6370   -10.9390     2.4590   388.5350 
  219.7500   115.5140    24.5010     6.7250     6.2900     8.5550   -10.8400     2.4440   388.0830 
  219.8750   114.2570    24.5000     6.7220     6.2750     8.5390   -10.7860     2.4330   387.7360 
  220.0000   116.5020    24.4840     6.7640     6.2940     8.5750   -10.7850     2.4280   386.9970 
  220.1250   120.7330    24.4500     6.9410     6.3680     8.6820   -10.8020     2.4360   386.0880 
  220.2500   123.6760    24.4170     7.1280     6.4980     8.8590   -10.8270     2.4490   384.2930 
  220.3750   124.0940    24.4040     7.2070     6.6700     9.0890   -10.8440     2.4560   380.3500 
  220.5000   121.7110    24.4030     7.3680     6.8490     9.3180   -10.8700     2.4480   374.7100 
  220.6250   118.7270    24.4030     7.7970     6.9810     9.4580   -10.8930     2.4310   371.6090 
  220.7500   118.7500    24.4030     8.1540     7.0410     9.4750   -10.8820     2.4250   374.9350 
  220.8750   119.7800    24.4030     8.0990     7.0310     9.3800   -10.8530     2.4350   374.7480 
  221.0000   119.3450    24.4030     7.6420     6.9750     9.2250   -10.8150     2.4510   371.4450 
  221.1250   118.0630    24.4030     7.2460     6.9040     9.0760   -10.8090     2.4620   371.5380 
  221.2500   119.0940    24.4030     7.0440     6.8420     8.9690   -10.8120     2.4630   375.5140 
  221.3750   120.3340    24.4030     6.9290     6.7940     8.9040   -10.8240     2.4580   380.1730 
  221.5000   118.2650    24.4040     6.8170     6.7610     8.8780   -10.8340     2.4520   382.2310 
  221.6250   115.1750    24.4090     6.8480     6.7500     8.9040   -10.8370     2.4580   380.4290 
  221.7500   114.8070    24.4260     7.1900     6.7560     8.9740   -10.8580     2.4690   376.8690 
  221.8750   116.6630    24.4680     7.5740     6.7730     9.0740   -10.8890     2.4740   372.8900 
  222.0000   118.0690    24.5260     7.7400     6.7980     9.1890   -10.9130     2.4690   368.9720 
  222.1250   116.3970    24.5980     7.8580     6.8530     9.3390   -10.9450     2.4690   364.8980 
  222.2500   115.1850    24.6500     7.8990     6.9750     9.5890   -10.9890     2.4760   360.8820 
  222.3750   115.4020    24.6870     8.1560     7.2160    10.0270   -11.0700     2.4750   358.1450 
  222.5000   114.4940    24.7030     9.0310     7.6200    10.7260   -11.1450     2.4540   357.9760 
  222.6250   113.6680    24.7070    10.9920     8.2770    11.7880   -11.2390     2.4200   359.7900 
  222.7500   111.7720    24.7060    12.8020     9.2600    13.2860   -11.4590     2.3890   360.5140 
  222.8750   105.9570    24.7030    13.5880    10.7680    15.5180   -11.7240     2.3680   359.4800 
  223.0000    95.4560    24.6980    14.2770    13.1770    19.0410   -12.0470     2.3560   353.4670 
  223.1250    85.5420    24.7030    17.9730    17.6700    25.3230   -12.4580     2.3470   344.8750 
  223.2500    79.7250    24.7060    28.9290    25.6560    35.6510   -12.9080     2.3350   342.1580 
  223.3750    74.7770    24.7070    54.7800    39.4310    52.2320   -13.3940     2.3170   349.8420 
  223.5000    70.3750    24.7070    97.3660    61.2320    77.8010   -13.8900     2.2920   364.9690 
  223.6250    67.0580    24.7070   132.1610    91.8100   115.3800   -14.3880     2.2670   378.4490 
  223.7500    63.0500    24.7070   143.9820   123.5290   156.9900   -14.8570     2.2450   385.0070 
  223.8750    60.7390    24.7070   141.1540   148.3890   189.8580   -15.2970     2.2310   385.6690 
  224.0000    61.3430    24.7070   137.2500   162.5110   205.9410   -15.7070     2.2290   383.7890 
  224.1250    62.2470    24.7070   135.0150   165.9210   206.5680   -16.0660     2.2400   381.8620 
  224.2500    60.9890    24.7070   132.5080   162.3580   198.8820   -16.3750     2.2570   380.2730 
  224.3750    59.7090    24.7070   129.2890   152.4940   183.9050   -16.6300     2.2730   378.3540 
  224.5000    61.0850    24.7070   122.3890   137.7170   163.5250   -16.8420     2.2810   375.7380 
  224.6250    65.4050    24.7070   106.0710   121.7520   142.9700   -17.0270     2.2790   373.3470 
  224.7500    67.7850    24.7060    87.0720   109.1200   127.3570   -17.1750     2.2730   372.7220 
  224.8750    65.7300    24.7010    75.7370   102.2910   118.9540   -17.3090     2.2640   374.4650 
