~V
VERS. 2.00: Ver 2.00
~W
STRT.M 56.0000:
STOP.M 270.0000:
STEP.M 0.1250:
NULL. -999.2500:
UWI. DF3053:
~C
DEPT.M :
GR.API :
CALI.CM :
RXO.OHMM :
RI. :
RML.OHMM :
DEN.GM/CC :
SP.MV :
~A
# ...
  213.3750    72.9750    24.2410    16.7090    11.2020    13.7760     2.2330   -17.8490 
  213.5000    70.6020    24.2570    17.8680    12.0850    14.7990     2.2260   -17.9870 
  213.6250    68.8530    24.3530    17.8240    12.9070    15.6990     2.2410   -18.1970 
  213.7500    69.0250    24.4930    19.5700    13.5980    16.4230     2.2700   -18.4860 
  213.8750    69.4980    24.5960    22.1610    14.0720    16.8730     2.3040   -18.8180 
  214.0000    68.6550    24.6200    21.9530    14.2220    16.8880     2.3340   -19.1320 
  214.1250    68.1600    24.5900    19.7550    13.8910    16.2440     2.3560   -19.3570 
  214.2500    71.6460    24.5430    18.1070    13.1900    15.1400     2.3710   -19.5020 
  214.3750    76.1460    24.4860    19.0170    12.3100    13.8930     2.3830   -19.6170 
  214.5000    75.8890    24.4430    19.2100    11.5460    12.9460     2.3960   -19.7590 
  214.6250    70.7660    24.4510    16.7360    11.3430    12.9550     2.4070   -19.9700 
  214.7500    68.1080    24.4950    16.2830    11.9720    14.2370     2.4010   -20.2400 
  214.8750    68.8460    24.5350    20.3860    13.8140    17.2230     2.3680   -20.5580 
  215.0000    69.9800    24.5380    31.6900    17.4360    22.4910     2.3110   -20.9060 
  215.1250    68.3140    24.4940    44.5160    24.0440    31.3470     2.2520   -21.2510 
  215.2500    64.7770    24.4420    54.3540    33.5140    43.6290     2.2140   -21.5420 
  215.3750    60.5210    24.4250    63.9930    44.8370    58.1710     2.2020   -21.7530 
  215.5000    56.7250    24.4590    74.7710    55.8130    72.0060     2.2100   -21.8880 
  215.6250    55.4670    24.5170    84.4310    63.9000    81.2350     2.2270   -21.9800 
  215.7500    55.5930    24.5770    89.7210    69.2480    86.4800     2.2410   -22.0440 
  215.8750    55.8620    24.6370    90.5740    72.6670    89.6730     2.2470   -22.0790 
  216.0000    55.8680    24.6930    87.6340    74.7610    92.1270     2.2450   -22.0820 
  216.1250    56.1890    24.7530    85.7920    75.2730    93.5780     2.2350   -22.0890 
  216.2500    55.2800    24.8170    80.5420    74.1210    93.1740     2.2260   -22.1380 
  216.3750    53.0210    24.7900    75.2310    71.4760    90.5800     2.2210   -22.2510 
  216.5000    52.4830    24.6010    74.0810    68.0910    86.3980     2.2210   -22.4050 
  216.6250    55.4330    24.3920    75.6680    65.1590    82.1410     2.2240   -22.5530 
  216.7500    59.5470    24.3670    73.4980    63.2800    78.9830     2.2260   -22.6590 
  216.8750    61.3990    24.5000    74.3060    62.2640    76.7350     2.2260   -22.7100 
  217.0000    59.8640    24.6320    83.6780    61.3670    74.5160     2.2320   -22.7080 
  217.1250    56.5100    24.6700    94.3250    59.5750    71.2650     2.2470   -22.6760 
  217.2500    55.9860    24.6690    86.8970    56.8020    67.2530     2.2620   -22.6770 
  217.3750    59.0050    24.6520    68.0670    53.6680    63.4640     2.2720   -22.7660 
  217.5000    62.0310    24.6150    50.6000    51.2330    61.0150     2.2720   -22.9650 
  217.6250    61.4070    24.5690    49.8630    51.0910    61.2860     2.2630   -23.2600 
  217.7500    58.0090    24.5430    60.7020    53.9290    64.5490     2.2520   -23.5940 
  217.8750    54.5630    24.5450    75.9110    60.2410    71.3210     2.2420   -23.9370 
  218.0000    53.3690    24.5690    94.3050    69.9350    81.9720     2.2370   -24.2880 
  218.1250    54.2150    24.6000   118.8650    81.8520    96.2140     2.2380   -24.6300 
  218.2500    55.7500    24.6180   141.5580    92.7500   110.3090     2.2410   -24.9330 
  218.3750    56.4710    24.6220   144.4110   100.0990   120.0850     2.2460   -25.1590 
  218.5000    55.3470    24.6230   132.1400   103.1080   123.4900     2.2520   -25.3250 
  218.6250    53.0780    24.6150   115.3330   102.7680   121.7840     2.2530   -25.4690 
  218.7500    52.6380    24.5860   107.6100   101.8560   119.3070     2.2470   -25.6290 
  218.8750    55.5050    24.5350   110.0220   101.8850   118.2130     2.2360   -25.7940 
  219.0000    58.9680    24.4770   120.3360   103.4690   119.2310     2.2280   -25.9380 
  219.1250    59.8880    24.4540   126.9640   106.2870   122.0220     2.2300   -26.0560 
  219.2500    57.4410    24.4780   124.0710   108.6310   124.4190     2.2390   -26.1920 
  219.3750    54.1470    24.5200   118.4490   108.2640   122.8050     2.2470   -26.3770 
  219.5000    52.2180    24.5450   118.2840   102.5650   112.6890     2.2510   -26.6140 
  219.6250    53.1110    24.5400   115.5210    89.3880    92.8070     2.2530   -26.8560 
  219.7500    54.8150    24.5130   104.8980    72.6130    71.3630     2.2560   -27.0790 
  219.8750    55.3440    24.4340    84.1430    56.6160    53.8850     2.2570   -27.3120 
  220.0000    56.4140    24.3000    56.5820    44.6090    42.3210     2.2570   -27.6030 
  220.1250    60.6320    24.2020    37.5580    38.5890    37.3240     2.2600   -27.9690 
  220.2500    64.5250    24.2120    31.8920    37.6880    37.4510     2.2670   -28.3450 
  220.3750    64.1630    24.3090    38.1040    42.3630    42.9750     2.2720   -28.6660 
  220.5000    58.7610    24.4320    75.5150    54.0350    55.0810     2.2670   -28.9130 
  220.6250    54.1170    24.5320   134.8340    76.0430    77.5900     2.2550   -29.1180 
  220.7500    52.7640    24.5790   179.5220   106.1180   110.2920     2.2460   -29.3300 
  220.8750    52.9920    24.5590   203.1520   137.8430   147.6410     2.2450   -29.5300 
  221.0000    53.3650    24.5050   214.7870   160.0020   173.6520     2.2500   -29.6770 
  221.1250    54.3060    24.4650   211.9180   161.0120   170.7620     2.2560   -29.7440 
  221.2500    55.8190    24.4280   194.7490   147.7700   152.2730     2.2600   -29.7980 
  221.3750    56.4610    24.3730   162.2800   129.6650   131.8090     2.2600   -29.8800 
  221.5000    55.1600    24.3060   122.9120   113.8230   115.9560     2.2590   -30.0080 
  221.6250    54.2570    24.2540    98.9950   104.4530   107.5700     2.2530   -30.1330 
  221.7500    54.3990    24.2280    97.5390   101.0060   105.4820     2.2430   -30.2160 
  221.8750    55.1160    24.2200   110.3590   102.4960   108.7140     2.2330   -30.2460 
  222.0000    55.7370    24.2150   123.6490   107.3910   115.7230     2.2300   -30.2370 
  222.1250    55.4490    24.1940   127.3440   113.9890   124.3280     2.2310   -30.1650 
  222.2500    54.3670    24.1650   130.1750   120.2490   131.6910     2.2280   -30.0140 
  222.3750    52.9540    24.1430   132.5120   125.2780   136.7890     2.2230   -29.7710 
  222.5000    52.3640    24.1360   136.2290   129.0130   140.3780     2.2170   -29.4650 
  222.6250    52.8550    24.1370   141.5290   131.6920   143.7010     2.2150   -29.1360 
  222.7500    53.7250    24.1380   145.3430   133.5110   146.6700     2.2180   -28.8170 
  222.8750    54.7070    24.1380   145.6000   134.2000   148.2240     2.2250   -28.4940 
  223.0000    54.7310    24.1360   143.2050   133.6010   147.8180     2.2320   -28.1450 
  223.1250    54.0410    24.1380   139.1860   131.6470   145.5690     2.2350   -27.7770 
  223.2500    53.6150    24.1540   140.0930   129.0410   142.8240     2.2300   -27.4610 
  223.3750    54.4490    24.1950   143.4150   126.4120   140.6100     2.2170   -27.2320 
  223.5000    55.6760    24.2180   145.1180   124.3320   139.2790     2.1980   -27.0950 
  223.6250    56.7980    24.0840   137.7680   123.4980   138.7280     2.1840   -27.0220 
  223.7500    56.8340    23.8810   121.5540   123.9310   138.6330     2.1810   -26.9590 
  223.8750    55.5470    23.8140   116.3910   125.0190   138.3950     2.1860   -26.8660 
  224.0000    53.9340    23.9490   127.5580   124.9560   136.3310     2.1900   -26.7170 
  224.1250    52.7640    24.0950   135.6860   120.4800   129.2270     2.1940   -26.4960 
  224.2500    51.2340    24.0830   136.3400   111.2310   117.1510     2.2060   -26.2530 
  224.3750    49.6100    23.9690   120.0590    98.7700   102.2090     2.2250   -26.0270 
  224.5000    50.6690    23.8370    88.9180    85.9110    87.6530     2.2410   -25.8480 
