~V
VERS. 2.00: Ver 2.00
~W
STRT.M 60.0000:
STOP.M 277.0000:
STEP.M 0.1250:
NULL. -999.2500:
UWI. DF3044:
~C
DEPT.M :
GR.API :
CALI.CM :
RXO.OHMM :
RI. :
RML.OHMM :
DEN.GM/CC :
SP.MV :
~A
# ...
  240.0000    65.0180    23.1560    56.3230    52.6080    58.9450     2.2600   -20.3620 
  240.1250    65.9310    23.1130    53.4380    53.5020    59.9580     2.2580   -20.4990 
  240.2500    65.1530    23.0940    49.4060    54.3470    60.8630     2.2660   -20.6360 
  240.3750    63.8090    23.0900    48.8580    54.3770    60.7740     2.2850   -20.7780 
  240.5000    64.3210    23.0900    58.3820    52.8670    58.9890     2.3110   -20.9290 
  240.6250    69.5660    23.0960    68.6820    49.6130    55.4850     2.3330   -21.0710 
  240.7500    78.7070    23.1300    64.9220    46.1280    51.9330     2.3450   -21.1970 
  240.8750    86.6280    23.1970    51.1910    43.8680    49.9230     2.3420   -21.3100 
  241.0000    85.3570    23.2460    42.1340    43.8930    50.6310     2.3180   -21.4050 
  241.1250    73.5020    23.2620    46.2990    47.2310    55.0220     2.2750   -21.4550 
  241.2500    63.7060    23.2650    64.8880    53.1660    61.6650     2.2320   -21.4810 
  241.3750    62.2700    23.2670    90.0610    59.8850    68.0580     2.2080   -21.4750 
  241.5000    66.0110    23.2670    98.7250    63.6020    70.7240     2.2130   -21.4540 
  241.6250    67.6550    23.2670    77.7500    60.4870    67.0800     2.2270   -21.4200 
  241.7500    67.7980    23.2650    54.1010    54.1700    60.5940     2.2350   -21.3650 
  241.8750    67.1760    23.2620    40.6860    48.5230    54.6760     2.2370   -21.2970 
  242.0000    66.2290    23.2610    35.4720    45.4210    51.2740     2.2540   -21.2220 
  242.1250    66.6790    23.2520    36.8280    45.4820    51.2240     2.2930   -21.1530 
  242.2500    69.2890    23.1880    41.8180    47.7490    53.5120     2.3480   -21.0850 
  242.3750    72.7150    23.0720    49.7430    51.5700    57.3680     2.4030   -21.0160 
  242.5000    73.2980    23.0520    58.0520    56.0890    61.8580     2.4410   -20.9410 
  242.6250    70.1340    23.2030    63.8310    60.1500    65.8340     2.4580   -20.8600 
  242.7500    67.3490    23.3290    62.1470    62.8610    68.4300     2.4570   -20.7890 
  242.8750    68.2320    23.4000    59.2040    63.4990    68.9100     2.4470   -20.7080 
  243.0000    70.9560    23.4230    59.8580    61.6160    66.8150     2.4250   -20.6240 
  243.1250    71.0190    23.4230    61.0720    57.3800    62.2690     2.3850   -20.5310 
  243.2500    69.1230    23.4230    59.6140    52.6810    57.1010     2.3410   -20.4290 
  243.3750    67.3570    23.4220    53.5850    48.9830    52.8090     2.3270   -20.3310 
  243.5000    66.0820    23.4120    45.8350    47.1670    50.4920     2.3730   -20.2280 
  243.6250    67.8050    23.3740    42.3820    47.8460    51.0080     2.4410   -20.1160 
  243.7500    71.2780    23.3150    47.9680    50.4210    53.5680     2.4910   -19.9810 
  243.8750    72.7430    23.2740    58.9140    54.2410    57.2290     2.4970   -19.8360 
  244.0000    71.4310    23.2610    71.0010    58.2530    60.8810     2.4670   -19.6730 
  244.1250    71.0580    23.2610    75.9700    61.4070    63.8740     2.4380   -19.4800 
  244.2500    71.0550    23.2610    75.7770    64.2990    67.0430     2.4380   -19.2790 
  244.3750    69.5060    23.2610    71.0040    68.1930    71.5370     2.4740   -19.0590 
  244.5000    66.7250    23.2380    67.9760    73.2350    77.1910     2.5250   -18.8250 
  244.6250    61.5400    23.1520    87.7820    74.4680    79.2970     2.5600   -18.5810 
  244.7500    52.5670    23.0210   133.0470    65.4510    72.0830     2.5620   -18.3370 
  244.8750    42.7700    22.9410   155.4390    47.9740    55.6420     2.5290   -18.0930 
  245.0000    38.1880    22.9180   115.9170    30.8250    37.0300     2.4750   -17.8430 
  245.1250    40.6160    22.9180    51.2490    19.7620    23.5180     2.4240   -17.6060 
  245.2500    44.0620    22.9200    18.5250    13.1110    15.1500     2.3900   -17.3760 
  245.3750    45.6230    22.9240     7.8730     9.2740    10.3590     2.3710   -17.1590 
  245.5000    46.4530    22.9270     5.0650     7.1230     7.6640     2.3540   -16.9580 
  245.6250    48.8830    22.9280     4.6370     6.0630     6.2630     2.3300   -16.8040 
  245.7500    51.2380    22.9260     4.6280     5.5030     5.4760     2.3050   -16.6960 
  245.8750    51.9750    22.9090     4.6400     5.2190     5.0630     2.2880   -16.6330 
  246.0000    52.7440    22.8640     4.6450     5.0870     4.8820     2.2790   -16.6100 
  246.1250    56.2770    22.8000     4.6970     5.1100     4.8590     2.2720   -16.6150 
  246.2500    60.0150    22.7720     4.8180     5.2260     4.9590     2.2670   -16.6470 
  246.3750    60.2520    22.7720     4.9930     5.3990     5.1360     2.2690   -16.7020 
  246.5000    56.3630    22.7940     5.2170     5.5630     5.3340     2.2780   -16.7810 
  246.6250    51.3440    22.8420     5.6200     5.6420     5.4660     2.2870   -16.8480 
  246.7500    50.1110    22.8700     6.2480     5.6180     5.5000     2.2950   -16.9030 
  246.8750    53.5300    22.8790     6.8680     5.5060     5.4500     2.3040   -16.9440 
  247.0000    57.7590    22.8800     6.9580     5.3460     5.3630     2.3130   -16.9700 
  247.1250    57.7790    22.8800     6.5050     5.1910     5.3000     2.3210   -16.9870 
  247.2500    54.6780    22.8800     6.0020     5.0760     5.2870     2.3260   -17.0070 
  247.3750    51.6520    22.8800     5.8360     5.0060     5.3230     2.3270   -17.0170 
  247.5000    51.0130    22.8800     5.8650     4.9740     5.3900     2.3260   -17.0190 
  247.6250    52.1680    22.8800     5.9240     4.9610     5.4570     2.3250   -17.0210 
  247.7500    54.3530    22.8800     5.8620     4.9460     5.4920     2.3260   -17.0280 
  247.8750    56.4640    22.8810     5.6970     4.9290     5.4850     2.3230   -17.0400 
  248.0000    57.1980    22.8820     5.5440     4.9220     5.4580     2.3150   -17.0800 
  248.1250    57.2650    22.8830     5.5280     4.9380     5.4630     2.3120   -17.1350 
  248.2500    57.5740    22.8820     5.5840     4.9770     5.5340     2.3250   -17.2020 
  248.3750    58.2970    22.8830     5.5320     5.0380     5.6710     2.3520   -17.2920 
  248.5000    59.1580    22.8870     5.4730     5.1230     5.8490     2.3840   -17.3970 
  248.6250    58.8350    22.8930     5.7710     5.2400     6.0360     2.4050   -17.5220 
  248.7500    58.6800    22.9040     6.5990     5.3930     6.2260     2.4130   -17.6560 
  248.8750    59.6740    22.9140     8.0680     5.5850     6.4360     2.4140   -17.7810 
  249.0000    61.7080    22.9180     9.7500     5.8030     6.6760     2.4150   -17.8730 
  249.1250    63.9740    22.9020    10.4050     6.0080     6.9130     2.4110   -17.9450 
  249.2500    64.5480    22.8350     9.8840     6.1560     7.0890     2.3950   -17.9890 
  249.3750    63.7590    22.7090     8.8370     6.2170     7.1570     2.3710   -18.0010 
  249.5000    62.4680    22.6040     7.9210     6.1890     7.1170     2.3560   -17.9830 
  249.6250    61.4690    22.5500     7.6000     6.0980     7.0120     2.3580   -17.9290 
  249.7500    60.1290    22.5190     7.3010     6.0010     6.9170     2.3650   -17.8460 
  249.8750    57.4090    22.5070     6.9410     5.9290     6.8630     2.3650   -17.7660 
  250.0000    55.7380    22.4970     6.6780     5.8900     6.8490     2.3550   -17.7020 
  250.1250    56.9320    22.4710     6.5890     5.8750     6.8570     2.3500   -17.6340 
  250.2500    57.5590    22.4390     6.5720     5.8660     6.8610     2.3530   -17.5650 
  250.3750    56.3600    22.4250     6.5950     5.8520     6.8520     2.3630   -17.5100 
  250.5000    54.5590    22.4230     6.7460     5.8430     6.8430     2.3750   -17.4640 
  250.6250    53.3510    22.4320     7.1820     5.8660     6.8560     2.3920   -17.4230 
  250.7500    53.2370    22.4950     7.8090     5.9290     6.9090     2.4110   -17.4000 
  250.8750    57.0390    22.6480     8.4690     6.0250     7.0090     2.4170   -17.3730 
  251.0000    63.2460    22.7850     9.4460     6.1320     7.1320     2.3910   -17.3360 
  251.1250    64.1120    22.8500    10.6790     6.2150     7.2220     2.3470   -17.3060 
