~V
VERS. 2.00: Ver 2.00
~W
STRT.M 55.0000:
STOP.M 252.0000:
STEP.M 0.1250:
NULL. -999.2500:
UWI. DF3024:
~C
DEPT.M :
GR.API :
RML.OHMM :
RI. :
RXO.OHMM :
CALI.CM :
DEN.GM/CC :
SP.MV :
~A
# ...
   88.7500    72.5040    10.1680     8.4290     9.2430    24.0560  -999.2500   -32.4710 
   88.8750    69.5440    10.1650     8.3840     9.0770    24.0750  -999.2500   -32.5200 
   89.0000    67.7410    10.1140     8.2900     8.8610    24.0800  -999.2500   -32.4960 
   89.1250    70.1000     9.9500     8.1210     8.6370    24.0800  -999.2500   -32.5190 
   89.2500    72.0500     9.6710     7.8880     8.4610    24.0760  -999.2500   -32.5720 
   89.3750    71.5370     9.3150     7.6140     8.2450    24.0610  -999.2500   -32.6120 
   89.5000    70.1900     8.9490     7.3400     8.1130    24.0250  -999.2500   -32.6480 
   89.6250    69.5290     8.6720     7.1280     7.8440    24.0060  -999.2500   -32.7490 
   89.7500    68.7890     8.5370     7.0130     7.6330    23.9850  -999.2500   -32.8130 
   89.8750    68.9110     8.5790     7.0230     7.8190    23.9580  -999.2500   -32.7770 
   90.0000    71.1710     8.8130     7.1630     8.2200    23.9530  -999.2500   -32.7950 
   90.1250    72.0700     9.2410     7.4320     8.5980    23.9630  -999.2500   -32.9150 
   90.2500    69.6920     9.7640     7.7630     8.9300    23.9210  -999.2500   -32.8990 
   90.3750    67.3130    10.2810     8.0960     9.2610    23.8400  -999.2500   -32.7950 
   90.5000    67.4550    10.6910     8.3750     9.4530    23.7890  -999.2500   -32.8380 
   90.6250    68.7960    10.8900     8.5350     9.4930    23.7770  -999.2500   -32.8090 
   90.7500    71.0660    10.8960     8.5750     9.5630    23.7770  -999.2500   -32.6640 
   90.8750    74.5280    10.7440     8.5050     9.6220    23.7770  -999.2500   -32.6560 
   91.0000    76.8580    10.4810     8.3490     9.5320    23.7770  -999.2500   -32.6360 
   91.1250    76.4290    10.1320     8.1340     9.2820    23.7770  -999.2500   -32.3800 
   91.2500    74.1890     9.7460     7.9080     9.0420    23.7770  -999.2500   -32.1690 
   91.3750    72.3390     9.3740     7.7090     8.9240    23.7780  -999.2500   -32.0460 
   91.5000    72.1610     9.0820     7.5760     8.8840    23.7820  -999.2500   -31.7570 
   91.6250    73.6280     8.9810     7.5610     8.7280    23.7920  -999.2500   -31.4760 
   91.7500    75.0610     9.0950     7.6670     8.5970    23.7930  -999.2500   -31.3060 
   91.8750    74.5500     9.4160     7.8850     8.7390    23.7750  -999.2500   -30.9970 
   92.0000    72.1260     9.8760     8.1760     9.0590    23.7450  -999.2500   -30.5490 
   92.1250    67.9430    10.3270     8.4520     9.1650    23.7480  -999.2500   -30.1470 
   92.2500    64.2640    10.5890     8.6050     9.1550    23.7430  -999.2500   -29.7100 
   92.3750    63.6360    10.5330     8.5420     9.1000    23.7450  -999.2500   -29.1160 
   92.5000    67.4590    10.1130     8.2220     8.9150    23.7700  -999.2500   -28.3880 
   92.6250    73.0970     9.3790     7.6600     8.5080    23.8560  -999.2500   -27.5090 
   92.7500    76.9800     8.5940     7.0340     7.9080    24.0340  -999.2500   -26.6460 
   92.8750    81.2380     7.9740     6.4990     7.1250    24.2460  -999.2500   -25.9650 
   93.0000    87.1890     7.6860     6.1860     6.2010    24.3500  -999.2500   -25.4830 
   93.1250    90.7030     7.8680     6.2180     6.0990    24.2510  -999.2500   -25.2740 
   93.2500    88.6110     8.3960     6.5370     6.5980    24.0190  -999.2500   -25.2780 
   93.3750    82.5770     9.1320     7.0670     7.5510    23.8380  -999.2500   -25.4020 
   93.5000    76.4830     9.8890     7.6770     8.6320    23.7910  -999.2500   -25.7390 
   93.6250    72.1900    10.4040     8.1610     8.8800    23.8020  -999.2500   -26.2210 
   93.7500    71.7240    10.5270     8.3640     8.5860    23.8070  -999.2500   -26.4960 
   93.8750    74.9930    10.1980     8.2100     8.3440    23.8070  -999.2500   -26.5920 
   94.0000    79.1720     9.4900     7.7310     8.2680    23.8120  -999.2500   -26.6420 
   94.1250    82.7800     8.6470     7.0840     8.1310    23.8710  -999.2500   -26.4090 
   94.2500    85.5710     8.0480     6.5570     7.8130    24.0370  -999.2500   -25.9990 
   94.3750    86.3730     7.9430     6.3400     7.3650    24.2670  -999.2500   -25.7440 
   94.5000    84.9250     8.4160     6.5280     7.3100    24.3930  -999.2500   -25.5930 
   94.6250    82.0190     9.3900     7.1370     8.7840    24.3390  -999.2500   -25.5670 
   94.7500    78.8210    10.4530     7.9290    11.9570    24.2100  -999.2500   -25.8950 
   94.8750    76.0100    11.2630     8.6740    16.9520    24.0630  -999.2500   -26.4650 
   95.0000    74.0730    11.5850     9.1600    20.4540    23.9240  -999.2500   -27.0700 
   95.1250    73.4800    11.3450     9.2340    16.6850    23.7730  -999.2500   -27.8360 
   95.2500    72.3570    10.8750     9.0580    11.7450    23.6410  -999.2500   -28.7270 
   95.3750    69.6530    10.4330     8.8100     9.2770    23.5060  -999.2500   -29.5170 
   95.5000    66.9180    10.1720     8.6340     8.6180    23.4580  -999.2500   -30.1520 
   95.6250    64.7570    10.1230     8.5970     8.8180    23.5130  -999.2500   -30.6310 
   95.7500    62.9040    10.1660     8.6410     9.1260    23.6190  -999.2500   -30.9700 
   95.8750    62.7840    10.2250     8.7100     9.4400    23.7210  -999.2500   -31.1850 
   96.0000    65.7900    10.2720     8.7660     9.6600    23.7740  -999.2500   -31.2930 
   96.1250    70.6020    10.3200     8.7920     9.6810    23.7930  -999.2500   -31.3220 
   96.2500    72.1400    10.4060     8.8040     9.6100    23.8010  -999.2500   -31.2870 
   96.3750    71.9080    10.5550     8.8210     9.5250    23.8030  -999.2500   -31.1610 
   96.5000    73.2900    10.7690     8.8570     9.4770    23.7990  -999.2500   -31.0060 
   96.6250    72.4530    11.0120     8.9230     9.5160    23.8030  -999.2500   -30.9360 
   96.7500    68.5030    11.2130     9.0030     9.5860    23.8060  -999.2500   -30.8020 
   96.8750    65.9820    11.3260     9.0800     9.7390    23.8130  -999.2500   -30.5490 
   97.0000    66.7300    11.3340     9.1340     9.8540    23.8330  -999.2500   -30.3900 
   97.1250    67.8630    11.2460     9.1470     9.8230    23.8760  -999.2500   -30.3170 
   97.2500    66.4360    11.1110     9.1220     9.7440    23.9000  -999.2500   -30.0910 
   97.3750    65.5030    10.9420     9.0580     9.6070    23.9110  -999.2500   -29.8790 
   97.5000    64.4580    10.7330     8.9540     9.4470    23.9140  -999.2500   -29.7860 
   97.6250    62.9760    10.4650     8.7960     9.3140    23.9160  -999.2500   -29.5370 
   97.7500    63.2880    10.1560     8.5970     9.2850    23.9190  -999.2500   -29.2610 
   97.8750    67.6360     9.8430     8.3720     9.3130    23.9280  -999.2500   -29.1220 
   98.0000    75.7360     9.5800     8.1570     9.1670    23.9640  -999.2500   -28.9250 
   98.1250    81.1610     9.4430     8.0020     8.8400    24.0880  -999.2500   -28.6310 
   98.2500    81.2660     9.4440     7.9330     8.4940    24.2440  -999.2500   -28.5590 
   98.3750    78.1360     9.5750     7.9570     8.2880    24.2830  -999.2500   -28.6250 
   98.5000    75.7930     9.7960     8.0630     8.4090    24.1230  -999.2500   -28.6630 
   98.6250    75.8270    10.0440     8.2240     8.7770    23.9170  -999.2500   -28.7790 
   98.7500    76.0230    10.2620     8.3930     9.0600    23.8180  -999.2500   -28.9800 
   98.8750    76.0010    10.4350     8.5480     9.2900    23.7950  -999.2500   -29.2410 
   99.0000    75.7500    10.5720     8.6780     9.7180    23.7810  -999.2500   -29.5780 
   99.1250    75.4680    10.6930     8.7820     9.9270    23.7480  -999.2500   -29.8800 
   99.2500    76.2160    10.7980     8.8680     9.7500    23.7330  -999.2500   -30.0450 
   99.3750    75.2420    10.8650     8.9370     9.5820    23.7350  -999.2500   -30.1460 
   99.5000    71.3820    10.8710     8.9830     9.5440    23.7380  -999.2500   -30.1760 
   99.6250    68.5760    10.7970     8.9980     9.4820    23.7370  -999.2500   -30.1470 
   99.7500    68.5650    10.6670     8.9820     9.4160    23.7250  -999.2500   -30.0820 
   99.8750    70.9650    10.4930     8.9320     9.3720    23.6980  -999.2500   -29.8240 
