~V
VERS. 2.00: Ver 2.00
~W
STRT.M 130.0000:
STOP.M 280.0000:
STEP.M 0.1250:
NULL. -999.2500:
UWI. DF3042:
~C
DEPT.M :
DEN.GM/CC :
GR.API :
RML.OHMM :
RI. :
RXO.OHMM :
CALI.CM :
SP.MV :
~A
  130.0000     2.1820    80.5050    10.4190     9.0650     9.9820    22.0000   -23.7430 
  130.1250     2.2150    77.9170    10.9690     9.5250    10.1970    22.2320   -23.9520 
  130.2500     2.2570    73.7050    11.5040    10.0490    10.2720    22.6470   -24.1330 
  130.3750     2.2970    69.9120    11.8540    10.4880    10.3570    22.9460   -24.2970 
  130.5000     2.3130    66.3860    11.9140    10.7070    10.6610    23.0160   -24.5670 
  130.6250     2.2910    61.8730    11.6620    10.6040    10.9760    23.0480   -24.7510 
  130.7500     2.2480    60.4900    11.2840    10.3020    11.1570    23.1350   -24.9880 
  130.8750     2.2030    63.1670    10.9280     9.9400    11.3770    23.2010   -25.1510 
  131.0000     2.1720    67.1480    10.6870     9.6370    11.7880    23.2150   -25.2930 
  131.1250     2.1600    69.0120    10.6010     9.4780    12.1160    23.1630   -25.3800 
  131.2500     2.1560    67.4330    10.6080     9.4290    12.1320    23.0520   -25.3630 
  131.3750     2.1550    63.7890    10.6520     9.4460    12.0130    22.9110   -25.3690 
  131.5000     2.1520    61.1930    10.6830     9.4760    11.8450    22.7900   -25.2380 
  131.6250     2.1470    64.5560    10.6540     9.4710    11.6740    22.7170   -25.1400 
  131.7500     2.1430    69.2220    10.5610     9.4110    11.4950    22.6860   -24.9240 
  131.8750     2.1410    70.6130    10.4080     9.2910    11.3100    22.6590   -24.7070 
  132.0000     2.1430    68.6610    10.2190     9.1180    11.1170    22.6110   -24.4080 
  132.1250     2.1500    68.3070    10.0360     8.9220    10.9020    22.5890   -24.0950 
  132.2500     2.1590    71.4680     9.8960     8.7500    10.5920    22.5850   -23.8650 
  132.3750     2.1680    74.4900     9.8250     8.6340    10.2200    22.5800   -23.5750 
  132.5000     2.1760    73.4590     9.8310     8.5880     9.9720    22.5680   -23.4070 
  132.6250     2.1820    69.1960     9.9110     8.6160    10.0860    22.5490   -23.2100 
  132.7500     2.1870    68.4270    10.0210     8.6790    10.3890    22.5380   -23.0290 
  132.8750     2.1920    71.5010    10.1280     8.7510    10.6730    22.5190   -22.9200 
  133.0000     2.1960    74.2820    10.2070     8.8140    10.9080    22.5040   -22.8210 
  133.1250     2.2020    74.7480    10.2460     8.8530    10.9990    22.5020   -22.7420 
  133.2500     2.2100    74.0160    10.2580     8.8750    10.9930    22.5140   -22.6410 
  133.3750     2.2200    73.2100    10.2490     8.8820    10.9740    22.5250   -22.5260 
  133.5000     2.2270    71.6840    10.2200     8.8790    10.9550    22.5270   -22.3750 
  133.6250     2.2320    69.1590    10.1700     8.8680    10.9710    22.5170   -22.1650 
  133.7500     2.2330    66.8190    10.1160     8.8570    10.9660    22.5020   -22.0240 
  133.8750     2.2330    64.2370    10.0790     8.8530    10.9120    22.4950   -21.7880 
  134.0000     2.2320    62.9010    10.0660     8.8540    10.7900    22.4960   -21.5580 
  134.1250     2.2310    66.1790    10.0480     8.8350    10.5210    22.4970   -21.3240 
  134.2500     2.2340    71.7960     9.9600     8.7550    10.2330    22.5050   -20.9720 
  134.3750     2.2430    75.0820     9.7520     8.5790    10.0920    22.5180   -20.6470 
  134.5000     2.2620    73.9160     9.4100     8.2980    10.0410    22.5270   -20.2270 
  134.6250     2.2850    75.4170     8.9760     7.9430     9.9980    22.5540   -19.8820 
  134.7500     2.3020    81.6690     8.5590     7.6010     9.5560    22.6500   -19.4880 
  134.8750     2.3050    86.3430     8.2330     7.3360     8.8940    22.8090   -19.2050 
  135.0000     2.2950    86.2350     8.0410     7.1870     8.4720    22.8880   -19.0000 
  135.1250     2.2760    84.6930     8.0000     7.1730     8.7670    22.8470   -18.8080 
  135.2500     2.2560    85.8030     8.0540     7.2440     9.1440    22.7800   -18.7560 
  135.3750     2.2400    90.1690     8.1540     7.3630     9.2680    22.7100   -18.6950 
  135.5000     2.2280    94.3810     8.2530     7.4940     9.2390    22.6430   -18.7440 
  135.6250     2.2220    93.8000     8.3010     7.6010     9.3240    22.5880   -18.7730 
  135.7500     2.2240    88.8460     8.3000     7.6780     9.5110    22.5790   -18.7650 
  135.8750     2.2320    84.0340     8.2880     7.7410     9.7940    22.6020   -18.7160 
  136.0000     2.2430    81.4220     8.3390     7.8410    10.1200    22.6530   -18.5730 
  136.1250     2.2540    80.4290     8.5770     8.0680    10.3970    22.6780   -18.3150 
  136.2500     2.2660    79.1510     8.9950     8.4360    10.7070    22.6860   -17.9780 
  136.3750     2.2800    76.6370     9.5050     8.8870    11.3680    22.6890   -17.5540 
  136.5000     2.2960    73.8390     9.9370     9.2750    12.7380    22.7530   -17.0470 
  136.6250     2.3090    76.1530    10.0080     9.3480    15.1580    23.0050   -16.4760 
  136.7500     2.3120    81.5200     9.6920     9.0180    17.2140    23.4700   -15.9360 
  136.8750     2.3060    83.8420     9.0560     8.3250    15.3400    23.9500   -15.4010 
  137.0000     2.2930    85.1860     8.2840     7.4440    10.8910    24.2500   -14.9050 
  137.1250     2.2840    91.6310     7.6180     6.6230     8.2470    24.3280   -14.6760 
  137.2500     2.2820   101.1850     7.0130     6.0130     7.2440    24.3310   -14.5200 
  137.3750     2.2880   107.9090     6.7220     5.6580     6.9360    24.3160   -14.6070 
  137.5000     2.2960   108.7820     6.7090     5.5500     6.9310    24.3130   -14.8740 
  137.6250     2.2960   104.1750     6.9300     5.6840     7.1220    24.2790   -15.3840 
  137.7500     2.2880    97.6690     7.2750     5.9810     7.4340    24.1420   -16.1380 
  137.8750     2.2730    92.6480     7.6960     6.4050     7.8700    23.8730   -16.9600 
  138.0000     2.2540    88.3160     8.1650     6.9270     8.5280    23.5640   -17.9690 
  138.1250     2.2370    82.5190     8.6710     7.5180     9.4770    23.3810   -18.9130 
  138.2500     2.2230    78.9640     9.1950     8.1280    10.2540    23.3260   -19.8790 
  138.3750     2.2140    78.2030     9.7150     8.7130    10.5990    23.3350   -20.7630 
  138.5000     2.2090    76.5750    10.1990     9.2320    10.7640    23.3630   -21.5090 
  138.6250     2.2060    72.9260    10.5840     9.6220    11.4690    23.3760   -22.0920 
  138.7500     2.2060    71.6020    10.8450     9.8700    11.9310    23.3800   -22.3630 
  138.8750     2.2070    73.2680    10.9580     9.9540    12.1010    23.3800   -22.5160 
  139.0000     2.2080    74.7140    10.9010     9.8640    12.1430    23.3800   -22.4240 
  139.1250     2.2080    75.7970    10.6260     9.5730    11.9780    23.3800   -22.1070 
  139.2500     2.2080    76.5760    10.1890     9.1530    11.7390    23.3800   -21.6890 
  139.3750     2.2090    75.4620     9.6990     8.7040    11.6490    23.3800   -21.1150 
  139.5000     2.2160    72.2260     9.3810     8.4010    11.7380    23.3800   -20.3860 
  139.6250     2.2430    69.4500     9.7200     8.6350    12.0270    23.3830   -19.5510 
  139.7500     2.2940    69.7550    11.0800     9.7370    12.9510    23.4110   -18.6430 
  139.8750     2.3660    70.5210    13.7350    12.0220    15.2560    23.5260   -17.6670 
  140.0000     2.4470    68.6480    17.6070    15.5320    19.5930    23.7470   -16.6440 
  140.1250     2.5140    65.7300    21.9520    19.7450    26.9120    24.0260   -15.6690 
  140.2500     2.5560    65.8000    25.2310    23.2180    33.5750    24.1570   -14.7060 
  140.3750     2.5700    67.9160    26.0670    24.5620    35.9290    24.1700   -13.7890 
  140.5000     2.5610    68.4160    23.8060    22.9790    33.4610    24.1100   -13.0550 
  140.6250     2.5300    70.1620    19.0710    18.7820    29.8100    24.0430   -12.3900 
  140.7500     2.4870    75.9110    14.1990    14.1300    24.1460    24.0250   -11.9630 
  140.8750     2.4380    85.1420    10.3720    10.2470    16.2420    24.0410   -11.6130 
  141.0000     2.3930    94.5200     7.8780     7.5300    10.0220    24.0900   -11.4380 
  141.1250     2.3660   101.1270     6.6780     6.0050     7.4470    24.1090   -11.4460 
