~V
VERS. 2.00: Ver 2.00
~W
STRT.M 120.0000:
STOP.M 271.0000:
STEP.M 0.1250:
NULL. -999.2500:
UWI. DF3037:
~C
DEPT.M :
GR.API :
RML.OHMM :
RI. :
RXO.OHMM :
CALI.CM :
SP.MV :
DEN.GM/CC :
AC.US/MT :
~A
# ...
  180.0000    72.0520   107.8010    97.1570    99.5300    24.3320   -20.2930     2.2760   386.1290 
  180.1250    69.2010   100.2750    90.2430    95.8590    24.3790   -20.5750     2.2790   387.3930 
  180.2500    71.8570    94.6030    84.6190    93.6700    24.4230   -20.7450     2.2810   388.9390 
  180.3750    76.7800    92.0150    81.6150    91.0410    24.2610   -20.8410     2.2770   390.2850 
  180.5000    78.1820    92.6230    81.5810    86.1780    24.0520   -20.8300     2.2680   391.1920 
  180.6250    75.5530    95.6590    84.1920    79.1710    24.1260   -20.7640     2.2550   391.7780 
  180.7500    72.8590    98.6250    87.3900    75.5570    24.4180   -20.7510     2.2460   392.4030 
  180.8750    71.6130    99.2820    89.2250    78.9360    24.7570   -20.7640     2.2490   393.0840 
  181.0000    72.1230    96.0490    88.0830    82.9500    24.8740   -20.8730     2.2650   393.5780 
  181.1250    73.9290    88.7430    83.2590    82.2350    24.7080   -20.9380     2.2890   393.7130 
  181.2500    74.1300    80.5450    77.0810    74.4070    24.3880   -21.0010     2.3100   393.7080 
  181.3750    73.3930    74.0190    71.7250    62.2760    24.1440   -21.0180     2.3210   393.6160 
  181.5000    75.2900    70.2610    68.4190    49.7320    24.0670   -21.0620     2.3200   393.0650 
  181.6250    78.4520    68.3900    66.7740    45.7240    24.1380   -21.0380     2.3100   391.4160 
  181.7500    77.1350    65.6700    64.5230    55.8880    24.3040   -20.9950     2.3010   389.2050 
  181.8750    74.3920    60.3610    59.9890    71.1120    24.4850   -20.9110     2.3000   387.8620 
  182.0000    73.2250    52.2960    52.7980    76.1010    24.5160   -20.8420     2.3080   389.0490 
  182.1250    72.4530    43.2640    44.3610    61.8520    24.1600   -20.7050     2.3240   393.6610 
  182.2500    73.0210    36.0540    37.2980    40.2320    23.6160   -20.5710     2.3370   399.1180 
  182.3750    76.5410    32.2780    33.2010    24.4820    23.2970   -20.3590     2.3370   402.4580 
  182.5000    80.2720    32.5730    32.8200    20.9200    23.4200   -20.1340     2.3210   401.6990 
  182.6250    81.0880    37.4650    36.9340    27.5170    23.8210   -19.8820     2.2890   396.7680 
  182.7500    82.8780    45.6010    44.5140    37.3800    24.0410   -19.6280     2.2510   390.8970 
  182.8750    83.7190    55.8560    54.6000    51.0140    24.1820   -19.3770     2.2140   386.4640 
  183.0000    79.5810    66.6480    65.5720    66.7420    24.5220   -19.0170     2.1820   384.5380 
  183.1250    73.7240    75.8110    74.9920    78.7710    24.8020   -18.7210     2.1660   384.8600 
  183.2500    71.1250    82.3320    81.5190    87.3390    24.5840   -18.3400     2.1650   385.7650 
  183.3750    70.3110    86.2950    85.0980    87.3520    24.0190   -18.0000     2.1790   386.4890 
  183.5000    68.7830    88.7840    86.7740    81.9410    23.6580   -17.6130     2.2020   386.9300 
  183.6250    68.2740    91.5740    88.2340    80.2860    23.8030   -17.2120     2.2230   387.4300 
  183.7500    68.5750    95.9900    90.8870    84.5150    24.0330   -16.7900     2.2360   388.2990 
  183.8750    68.4120   102.4550    95.2230    90.5720    24.1410   -16.3120     2.2400   389.5160 
  184.0000    68.0870   110.5780   101.0110    93.2140    24.1870   -15.8980     2.2390   390.8040 
  184.1250    67.4660   119.1360   107.3320    95.1240    24.1750   -15.4060     2.2390   391.7040 
  184.2500    66.4440   126.4800   112.8390   101.5480    24.1330   -14.9400     2.2440   392.0090 
  184.3750    65.2070   131.6540   116.7460   113.1250    24.0490   -14.4750     2.2530   391.7030 
  184.5000    63.8580   134.6310   118.9780   123.2230    23.9110   -14.0060     2.2650   390.9260 
  184.6250    63.4130   136.5000   120.3310   115.2610    23.7510   -13.5500     2.2760   389.9850 
  184.7500    65.2230   139.3300   122.4390   102.0000    23.4510   -13.1210     2.2820   389.3090 
  184.8750    68.5410   144.5870   126.5370    96.0150    23.2130   -12.7290     2.2830   389.1640 
  185.0000    71.2120   153.0460   133.3270    98.9760    23.4880   -12.4190     2.2790   389.6250 
  185.1250    70.9470   164.9260   143.0400   114.5320    24.4260   -12.1490     2.2750   390.5830 
  185.2500    68.8730   178.4570   154.1600   134.4400    25.0250   -11.9740     2.2720   391.6540 
  185.3750    67.6660   192.1020   165.3670   146.4010    25.2520   -11.8030     2.2710   392.5870 
  185.5000    68.3670   204.5310   175.5440   146.6540    25.3220   -11.7360     2.2700   393.2240 
  185.6250    68.9220   214.6790   183.8200   150.8140    25.3520   -11.6720     2.2670   393.4800 
  185.7500    67.1330   222.9450   190.5270   147.9630    25.3450   -11.7080     2.2610   393.5140 
  185.8750    63.9230   229.7220   195.9730   141.7650    25.3440   -11.8040     2.2530   393.4610 
  186.0000    63.5000   235.1450   200.2790   149.1420    25.3700   -11.8940     2.2450   393.3940 
  186.1250    66.2090   238.3290   202.7830   163.6520    25.4180   -12.1360     2.2420   393.2390 
  186.2500    67.9710   238.5740   202.9830   173.6910    25.4180   -12.3310     2.2460   392.9080 
  186.3750    67.5740   235.2420   200.3870   173.1160    25.3590   -12.5950     2.2570   392.4020 
  186.5000    65.8920   228.5270   195.1160   174.5860    25.2770   -12.7790     2.2750   391.8700 
  186.6250    64.3550   219.6630   188.0610   169.5600    25.2000   -12.9810     2.2930   391.5910 
  186.7500    63.3570   211.1490   181.1970   162.2970    25.1780   -13.0300     2.3060   391.7180 
  186.8750    64.2820   204.4090   175.7440   152.5780    25.2080   -12.9690     2.3100   392.2960 
  187.0000    66.3750   199.8520   172.1670   146.0090    25.3010   -12.7370     2.3060   393.2280 
  187.1250    66.4590   197.1170   170.3340   146.9030    25.3960   -12.2900     2.2950   394.2400 
  187.2500    65.5770   194.8610   169.1500   153.7070    25.4030   -11.7140     2.2820   394.9750 
  187.3750    65.0140   192.2520   167.8950   158.2770    25.3020   -11.0750     2.2700   395.2680 
  187.5000    64.7320   188.7990   166.0910   150.6330    25.1480   -10.4240     2.2580   395.1750 
  187.6250    66.1570   184.0900   163.3340   139.4410    25.0230    -9.8180     2.2490   394.8540 
  187.7500    68.3440   178.0950   159.5430   132.3670    24.9950    -9.3740     2.2450   394.4320 
  187.8750    66.7410   170.4950   154.4120   129.1330    24.9100    -9.1360     2.2460   393.8410 
  188.0000    61.1180   161.0160   147.6260   128.7230    24.7330    -9.2700     2.2510   392.9660 
  188.1250    58.6620   149.7380   139.0340   124.0420    24.4520    -9.7780     2.2610   391.7570 
  188.2500    61.9530   138.3090   129.8970   109.2890    24.1970   -10.7200     2.2720   390.4230 
  188.3750    67.1920   128.5460   121.7260    87.7560    23.9270   -11.9310     2.2850   389.0560 
  188.5000    71.0060   121.9260   115.9170    62.5920    23.6410   -13.4020     2.2970   387.5800 
  188.6250    73.1530   119.1790   113.3580    44.7820    23.4960   -14.9970     2.3060   385.8040 
  188.7500    72.5510   118.0940   112.3430    37.6480    23.4650   -16.5700     2.3120   383.9320 
  188.8750    68.9860   116.2420   110.7430    38.6340    23.4810   -18.0280     2.3170   382.6350 
  189.0000    64.8470   111.5450   106.5830    41.7140    23.4630   -19.2310     2.3260   382.9640 
  189.1250    63.9750   103.1020    98.7810    42.6390    23.3510   -20.0640     2.3400   386.4810 
  189.2500    67.1340    93.4470    89.4530    35.7940    23.2430   -20.5190     2.3520   393.0020 
  189.3750    71.2180    85.2590    81.0430    23.8400    23.2290   -20.6670     2.3530   401.5250 
  189.5000    71.2710    80.6870    75.7650    14.9970    23.3330   -20.5250     2.3380   409.9160 
  189.6250    66.0480    81.8320    76.0020    13.5130    23.3690   -20.2840     2.3080   414.4730 
  189.7500    61.7800    88.5000    81.8650    17.8760    23.4540   -20.0210     2.2770   413.1130 
  189.8750    61.2780   101.1670    93.9150    28.3450    23.7440   -19.8600     2.2570   405.0400 
