~V
VERS. 2.00: Ver 2.00
~W
STRT.M 60.0000:
STOP.M 232.0000:
STEP.M 0.1250:
NULL. -999.2500:
UWI. DF3065:
~C
DEPT.M :
GR.API :
CALI.CM :
RXO.OHMM :
RI. :
RML.OHMM :
DEN.GM/CC :
SP.MV :
~A
# ...
  116.2500    82.0610    23.8110     8.3270     5.8850     8.0480     2.3270   -17.3420 
  116.3750    80.4000    23.9620     8.2290     5.8420     8.0200     2.3280   -17.4920 
  116.5000    79.8680    23.9760     8.6370     5.7940     8.0070     2.3220   -17.6090 
  116.6250    80.6380    23.8430     8.3970     5.7390     7.9870     2.3140   -17.7020 
  116.7500    82.6540    23.9600     7.7620     5.6640     7.9260     2.3020   -17.8200 
  116.8750    85.0280    24.1850     7.3990     5.5480     7.8070     2.2900   -17.9030 
  117.0000    87.8820    24.2940     7.3040     5.3960     7.6420     2.2900   -17.9600 
  117.1250    89.9430    24.2350     6.5690     5.2400     7.4710     2.3140   -18.0130 
  117.2500    89.6770    24.4790     6.6230     5.1040     7.3390     2.3560   -18.0420 
  117.3750    88.9240    24.6420     7.7800     5.0250     7.2810     2.3840   -18.0590 
  117.5000    89.7120    24.7470     8.7100     5.0310     7.3410     2.3890   -18.0620 
  117.6250    90.0670    24.6330     8.9660     5.1410     7.5360     2.3890   -18.0990 
  117.7500    87.9300    24.5710     8.8780     5.3190     7.8060     2.3880   -18.1340 
  117.8750    86.5430    24.6300     8.7080     5.5450     8.1030     2.3740   -18.1690 
  118.0000    87.0260    24.5980     8.8190     5.7690     8.3470     2.3440   -18.2090 
  118.1250    87.4440    24.4620     9.0600     5.9110     8.4480     2.3130   -18.2150 
  118.2500    88.6290    24.5880     9.1210     5.9390     8.4020     2.3010   -18.2210 
  118.3750    93.1670    24.7540     8.8910     5.8550     8.2390     2.3060   -18.2240 
  118.5000    99.5090    24.7510     8.8930     5.6690     7.9630     2.3270   -18.2410 
  118.6250   103.9900    24.4620     8.5150     5.4100     7.6010     2.3540   -18.2330 
  118.7500   105.1510    24.4300     7.8320     5.1380     7.2330     2.3760   -18.2500 
  118.8750   103.9810    24.4950     7.3000     4.8940     6.9250     2.3880   -18.3030 
  119.0000   100.5630    24.5290     7.2230     4.7260     6.7480     2.3980   -18.3980 
  119.1250    96.8420    24.5140     7.7330     4.7070     6.8090     2.4070   -18.5870 
  119.2500    95.3600    24.5190     8.3890     4.8490     7.1290     2.4110   -18.8150 
  119.3750    95.5160    24.4790     8.8010     5.1740     7.7210     2.4040   -19.1080 
  119.5000    93.2960    24.4050     9.3320     5.6960     8.5750     2.3830   -19.4830 
  119.6250    85.4430    24.0810    10.1820     6.4010     9.6090     2.3460   -19.8740 
  119.7500    76.1380    23.7460    10.7540     7.1640    10.6190     2.2980   -20.2610 
  119.8750    71.0540    23.3770    10.6060     7.8440    11.3850     2.2520   -20.6240 
  120.0000    71.4390    23.0560    10.2950     8.2470    11.6880     2.2190   -20.9320 
  120.1250    75.2780    22.9820    10.2980     8.1840    11.3540     2.2000   -21.1730 
  120.2500    77.2960    23.0400    10.7760     7.7680    10.5940     2.1890   -21.3420 
  120.3750    77.4780    23.2730    11.1390     7.1540     9.6390     2.1870   -21.4140 
  120.5000    79.8810    23.5930    10.4980     6.5220     8.7650     2.1990   -21.3670 
  120.6250    84.3290    23.9320     9.1330     6.1070     8.3180     2.2240   -21.2770 
  120.7500    84.7070    24.1210     7.9830     5.9660     8.3420     2.2550   -21.1930 
  120.8750    80.8320    24.0130     8.5030     6.1100     8.7950     2.2740   -21.1270 
  121.0000    76.7210    23.6080    10.2410     6.5250     9.5720     2.2650   -21.0940 
  121.1250    73.0670    23.0370    11.4200     7.1480    10.5110     2.2280   -21.0510 
  121.2500    68.4940    22.9190    11.4660     7.8030    11.3450     2.1830   -21.0190 
  121.3750    66.8880    22.8010    10.1430     8.3220    11.8740     2.1550   -20.9750 
  121.5000    69.5290    22.7140     8.4550     8.5670    11.9660     2.1460   -20.9030 
  121.6250    70.8370    22.5900     7.7730     8.4120    11.5260     2.1450   -20.7710 
  121.7500    70.0080    22.4450     8.3010     8.0070    10.7840     2.1450   -20.5110 
  121.8750    74.2120    22.4340     8.7950     7.4920     9.9810     2.1560   -20.1610 
  122.0000    85.8050    22.4810     7.8380     6.9650     9.2630     2.1900   -19.7140 
  122.1250    96.8020    22.7950     6.4210     6.5090     8.7270     2.2430   -19.2210 
  122.2500   101.0820    22.9610     5.9720     6.1560     8.3610     2.2920   -18.7250 
  122.3750   100.3650    23.2040     6.6850     5.9260     8.1700     2.3180   -18.2760 
  122.5000    99.4460    23.2690     7.6520     5.8010     8.1100     2.3190   -17.8850 
  122.6250   100.1020    23.2660     8.2190     5.7140     8.0930     2.3070   -17.5800 
  122.7500    99.4220    23.3450     7.9660     5.5890     8.0220     2.3000   -17.3880 
  122.8750    96.7660    23.5460     8.1090     5.4400     7.9000     2.3100   -17.2780 
  123.0000    94.6660    23.7000     8.8890     5.3410     7.8280     2.3320   -17.2740 
  123.1250    95.3270    23.8490     9.3040     5.4290     8.0330     2.3510   -17.3550 
  123.2500    96.9760    23.9760     9.0260     5.7700     8.6420     2.3600   -17.4670 
  123.3750    97.0380    24.1440     9.4360     6.4370     9.7410     2.3750   -17.6230 
  123.5000    92.4010    24.3510    12.9000     7.4610    11.2220     2.4110   -17.8240 
  123.6250    83.0860    24.4430    22.6550     8.7680    12.8230     2.4750   -18.0500 
  123.7500    75.6350    24.4670    29.6490    10.0720    14.1410     2.5510   -18.3140 
  123.8750    73.1620    24.3740    25.0930    11.0310    14.8450     2.5890   -18.5870 
  124.0000    73.4000    24.1020    16.3550    11.3590    14.7490     2.5500   -18.8370 
  124.1250    74.9240    23.6390    12.4810    10.9130    13.8560     2.4410   -19.0750 
  124.2500    75.9870    23.5790    11.7160    10.0500    12.5730     2.3160   -19.2840 
  124.3750    74.1670    23.6150    11.5360     9.0560    11.2030     2.2280   -19.4070 
  124.5000    71.5960    23.6390    11.0640     8.1190    10.0200     2.1900   -19.4300 
  124.6250    75.4820    23.6320     9.5500     7.4170     9.2570     2.2000   -19.3740 
  124.7500    83.9700    23.8280     8.1600     6.9130     8.7740     2.2450   -19.2150 
  124.8750    90.8160    24.2480     8.3980     6.5580     8.4550     2.2900   -18.9920 
  125.0000    91.5220    24.4390     9.3060     6.3080     8.2280     2.3120   -18.7240 
  125.1250    90.8620    24.4700     9.3630     6.1640     8.0970     2.3060   -18.3980 
  125.2500    93.9980    24.4800     9.0010     6.0910     8.0560     2.2870   -18.0870 
  125.3750    99.3030    24.6020     9.0770     6.0820     8.0960     2.2800   -17.7970 
  125.5000   101.1450    24.6410     9.6100     6.1230     8.1750     2.2900   -17.5660 
  125.6250    98.3090    24.5040     9.5700     6.1890     8.2360     2.3070   -17.3790 
  125.7500    94.6750    24.4850     9.2420     6.2440     8.2690     2.3190   -17.2330 
  125.8750    92.0190    24.4700     8.9870     6.2780     8.2780     2.3200   -17.1200 
  126.0000    90.6910    24.4510     9.1770     6.2750     8.2390     2.3120   -17.0300 
  126.1250    91.4440    24.3710     9.4640     6.2040     8.1080     2.3000   -16.9520 
  126.2500    95.4440    24.1920     9.4450     6.0710     7.9180     2.2930   -16.8540 
  126.3750   100.4820    24.2000     9.1730     5.8800     7.6940     2.2950   -16.7630 
  126.5000   103.4390    24.4290     9.0270     5.6500     7.4520     2.3070   -16.6530 
  126.6250   103.2750    24.5210     8.7550     5.4300     7.2470     2.3260   -16.5370 
  126.7500   101.9590    24.6310     8.5610     5.2550     7.0920     2.3420   -16.4300 
  126.8750   101.0750    24.7690     8.5550     5.1330     6.9990     2.3480   -16.3270 
  127.0000   101.0690    24.7590     8.4110     5.0720     6.9930     2.3480   -16.2500 
  127.1250   102.4460    24.7820     8.4200     5.0800     7.0770     2.3520   -16.2140 
  127.2500   101.2710    24.7860     8.7200     5.1270     7.1990     2.3620   -16.2060 
  127.3750    97.7150    24.7640     8.9000     5.1910     7.3200     2.3650   -16.2380 
