~V
VERS. 2.00: Ver 2.00
~W
STRT.M 58.0000:
STOP.M 259.0000:
STEP.M 0.1250:
NULL. -999.2500:
UWI. DF3010:
~C
DEPT.M :
GR.API :
RML.OHMM :
RI. :
RXO.OHMM :
CALI.CM :
DEN.GM/CC :
SP.MV :
~A
# ...
  125.5000    69.7360    11.3400     9.8320    11.2110    23.5050     2.2510   -35.7790 
  125.6250    74.7380    11.2970     9.8270    11.1970    23.5920     2.2410   -36.0170 
  125.7500    75.6200    11.1820     9.7620    11.0620    23.6320     2.2280   -36.2640 
  125.8750    72.8870    11.0340     9.6600    10.7990    23.6540     2.2110   -36.6070 
  126.0000    70.6760    10.8990     9.5560    10.4610    23.7490     2.1970   -36.8220 
  126.1250    69.8630    10.8170     9.4910    10.4690    23.9640     2.1880   -37.0020 
  126.2500    68.9450    10.7850     9.4730    10.6640    24.0840     2.1810   -37.2530 
  126.3750    67.9170    10.7870     9.4860    10.8750    23.8960     2.1770   -37.4020 
  126.5000    67.5200    10.7990     9.5060    10.9960    23.6300     2.1760   -37.5120 
  126.6250    68.0220    10.7870     9.4940    11.0480    23.5100     2.1790   -37.7260 
  126.7500    66.4840    10.7370     9.4370    11.0030    23.5000     2.1820   -37.8540 
  126.8750    63.0360    10.6490     9.3390    10.8090    23.5300     2.1810   -38.0140 
  127.0000    60.9300    10.5400     9.2220    10.5770    23.5330     2.1730   -38.2930 
  127.1250    62.4280    10.4460     9.1220    10.5570    23.4650     2.1610   -38.4900 
  127.2500    65.5950    10.3930     9.0640    10.6430    23.3940     2.1540   -38.6200 
  127.3750    68.2980    10.3920     9.0570    10.6710    23.4610     2.1560   -38.8870 
  127.5000    68.8120    10.4310     9.0920    10.6030    23.6830     2.1700   -39.1540 
  127.6250    67.1770    10.4810     9.1470    10.5250    23.9240     2.1890   -39.2710 
  127.7500    65.3470    10.5090     9.1950    10.5180    24.1280     2.2020   -39.3580 
  127.8750    65.1970    10.5010     9.2250    10.5460    24.2960     2.2020   -39.3810 
  128.0000    66.6750    10.4650     9.2370    10.4650    24.3660     2.1870   -39.2820 
  128.1250    68.3660    10.4220     9.2420    10.3260    24.2930     2.1630   -39.1020 
  128.2500    69.3630    10.3990     9.2520    10.4040    24.1490     2.1420   -38.9590 
  128.3750    68.1860    10.4000     9.2720    10.6710    23.9870     2.1310   -38.6870 
  128.5000    65.8880    10.4160     9.2940    10.8300    23.8460     2.1340   -38.2450 
  128.6250    63.5410    10.4230     9.3020    10.7630    23.7770     2.1480   -37.8780 
  128.7500    64.0050    10.4000     9.2800    10.6790    23.7180     2.1640   -37.4720 
  128.8750    68.4810    10.3400     9.2210    10.6400    23.6470     2.1780   -36.9110 
  129.0000    73.3700    10.2480     9.1290    10.5800    23.5680     2.1890   -36.4200 
  129.1250    74.9770    10.1350     9.0150    10.3980    23.5080     2.1980   -35.9830 
  129.2500    77.0440    10.0210     8.9010    10.2170    23.4880     2.2050   -35.4280 
  129.3750    80.6520     9.9130     8.7950    10.0820    23.4860     2.2080   -34.9360 
  129.5000    80.4990     9.8120     8.7010     9.8630    23.4860     2.2060   -34.5640 
  129.6250    74.3460     9.7110     8.6140     9.5500    23.4780     2.1970   -34.1050 
  129.7500    69.9220     9.6060     8.5290     9.2530    23.4510     2.1870   -33.7860 
  129.8750    68.7260     9.5050     8.4480     9.1140    23.4030     2.1810   -33.5810 
  130.0000    68.7780     9.4260     8.3780     9.1630    23.3590     2.1820   -33.2760 
  130.1250    70.7000     9.4060     8.3440     9.3840    23.3780     2.1900   -33.1100 
  130.2500    74.3220     9.4490     8.3560     9.3860    23.4650     2.1980   -33.1080 
  130.3750    75.7340     9.5430     8.4150     9.3130    23.5670     2.2030   -33.0290 
  130.5000    74.5030     9.6560     8.5060     9.4140    23.6270     2.2030   -32.9100 
  130.6250    73.8310     9.7320     8.5910     9.6420    23.6370     2.2010   -33.0060 
  130.7500    72.4970     9.7390     8.6310     9.8470    23.6440     2.2000   -33.0660 
  130.8750    69.6710     9.6650     8.6080     9.8790    23.6720     2.2030   -33.0250 
  131.0000    66.4490     9.5230     8.5240     9.6810    23.7500     2.2070   -33.0200 
  131.1250    65.6390     9.3470     8.4020     9.1900    23.8560     2.2090   -33.0660 
  131.2500    68.7110     9.1920     8.2950     8.8580    23.9250     2.2080   -33.1020 
  131.3750    72.8360     9.0990     8.2400     8.7580    23.9550     2.2050   -33.1530 
  131.5000    74.9730     9.0930     8.2630     8.8040    23.9700     2.2040   -33.2760 
  131.6250    74.1090     9.1990     8.3850     8.9360    24.0060     2.2070   -33.3630 
  131.7500    72.8170     9.3900     8.5780     9.1020    24.0780     2.2120   -33.3770 
  131.8750    71.6100     9.6410     8.8150     9.3580    24.1520     2.2160   -33.4870 
  132.0000    71.5070     9.9220     9.0610     9.6010    24.1910     2.2160   -33.6300 
  132.1250    73.2240    10.1760     9.2630     9.7450    24.1830     2.2110   -33.4720 
  132.2500    73.0040    10.3320     9.3660     9.8150    24.1380     2.2000   -33.2060 
  132.3750    70.6220    10.3180     9.3170     9.8480    24.0690     2.1850   -32.8770 
  132.5000    69.9310    10.0820     9.0820     9.8200    23.9250     2.1680   -32.2750 
  132.6250    72.0750     9.6080     8.6520     9.5780    23.7110     2.1540   -31.4670 
  132.7500    72.0750     9.0490     8.1510     9.2500    23.5300     2.1480   -30.5630 
  132.8750    70.7480     8.5910     7.7210     8.8500    23.4590     2.1530   -29.4540 
  133.0000    72.1990     8.4630     7.5350     8.4900    23.5500     2.1710   -28.3020 
  133.1250    74.4340     9.0330     7.8890     8.6610    23.7150     2.2020   -27.2460 
  133.2500    72.4340    10.4050     8.9170    10.0070    23.9280     2.2430   -26.1470 
  133.3750    67.5460    12.5960    10.7150    12.7550    24.1880     2.2960   -25.2090 
  133.5000    62.9590    15.3700    13.1850    16.8470    24.4260     2.3600   -24.6090 
  133.6250    60.2950    18.0660    15.8830    21.0140    24.5250     2.4310   -24.1230 
  133.7500    59.5680    19.8560    18.0050    24.5160    24.4930     2.4980   -23.8370 
  133.8750    61.1240    20.1840    18.9070    28.5840    24.3700     2.5470   -23.9040 
  134.0000    62.8160    18.9830    18.3360    31.6910    24.1880     2.5630   -24.0660 
  134.1250    64.8080    16.6870    16.4950    27.0080    23.9160     2.5340   -24.1960 
  134.2500    67.0690    14.2700    14.2980    18.3530    23.6620     2.4780   -24.3800 
  134.3750    68.9270    12.2080    12.2470    12.0620    23.5620     2.4190   -24.5510 
  134.5000    69.5260    10.6540    10.5720     9.5370    23.5430     2.3780   -24.5240 
  134.6250    71.1800     9.6250     9.3750     8.6190    23.5280     2.3660   -24.4490 
  134.7500    74.8330     8.9460     8.5420     8.0850    23.5400     2.3700   -24.4020 
  134.8750    80.1400     8.5550     8.0200     7.7490    23.5520     2.3740   -24.1850 
  135.0000    86.5330     8.4080     7.7560     7.1670    23.4440     2.3690   -23.9070 
  135.1250    91.3000     8.4560     7.7000     6.7600    23.1220     2.3560   -23.8540 
  135.2500    91.9950     8.5300     7.7070     6.6670    22.9030     2.3420   -23.8490 
  135.3750    90.2270     8.4700     7.6490     6.8180    22.9070     2.3320   -23.7670 
  135.5000    89.4570     8.1670     7.4290     7.0300    23.1150     2.3260   -23.8400 
  135.6250    93.0760     7.6230     7.0250     7.1540    23.4570     2.3230   -24.0160 
  135.7500    98.4320     7.0820     6.6030     7.0440    23.8280     2.3210   -24.1360 
  135.8750   100.6010     6.7940     6.3500     6.4840    24.1150     2.3170   -24.4490 
  136.0000    96.0410     6.9710     6.4480     5.9480    24.1860     2.3080   -24.8410 
  136.1250    88.2240     7.8040     7.0970     6.5710    24.0500     2.2940   -25.1310 
  136.2500    83.6250     9.0980     8.2000     7.9320    23.8950     2.2800   -25.4670 
  136.3750    81.5820    10.5850     9.5720     9.4900    23.8190     2.2750   -25.7430 
  136.5000    79.6060    11.8770    10.8820    10.4880    23.7870     2.2830   -25.8360 
  136.6250    77.1420    12.4270    11.5930    10.6690    23.7560     2.3000   -25.8100 
