~V
VERS. 2.00: Ver 2.00
~W
STRT.M 63.0000:
STOP.M 257.0000:
STEP.M 0.1250:
NULL. -999.2500:
UWI. DF3070:
~C
DEPT.M :
DEN.GM/CC :
GR.API :
RML.OHMM :
RI. :
RXO.OHMM :
CALI.CM :
SP.MV :
~A
# ...
  220.5000     2.3630   122.5620    10.9190     9.1820     9.1060    23.7920   -18.3650 
  220.6250     2.3500   119.5160    10.7830     9.0320     9.6080    23.8250   -18.5360 
  220.7500     2.3380   119.6920    10.4620     8.7380     9.5610    23.8250   -18.7290 
  220.8750     2.3290   122.9280    10.1120     8.3850     9.3900    23.8050   -18.9800 
  221.0000     2.3250   127.9220     9.8880     8.1290     9.5500    23.7950   -19.2870 
  221.1250     2.3280   129.9920    10.3440     8.3840    10.0230    23.8300   -19.6760 
  221.2500     2.3380   124.3960    12.0690     9.8000    10.7810    23.9040   -20.1200 
  221.3750     2.3470   111.8640    16.4480    13.5820    12.7470    23.9840   -20.6510 
  221.5000     2.3460    98.5150    25.0410    21.3590    18.4830    24.0150   -21.2520 
  221.6250     2.3280    88.5620    41.1650    35.5620    32.8720    23.9700   -21.8890 
  221.7500     2.2920    80.1080    63.5980    55.1180    58.5510    23.9280   -22.5460 
  221.8750     2.2530    72.3700    89.1280    77.5930    98.8370    23.9270   -23.2130 
  222.0000     2.2220    67.7510   112.9820    98.8160   141.9820    23.9450   -23.8400 
  222.1250     2.2040    68.2410   128.8790   113.3650   159.3790    23.9580   -24.4480 
  222.2500     2.2020    68.4750   136.3590   121.0790   160.5680    23.9560   -25.0180 
  222.3750     2.2090    67.3700   138.8660   124.2240   151.9110    23.9120   -25.5660 
  222.5000     2.2200    66.7040   140.4370   125.7020   140.2840    23.8280   -26.0190 
  222.6250     2.2310    67.1510   143.0000   127.3980   133.3680    23.8040   -26.3950 
  222.7500     2.2390    67.3060   146.0740   129.5710   133.0840    23.8930   -26.7820 
  222.8750     2.2420    67.4510   148.6600   131.7130   137.9310    24.0350   -27.0960 
  223.0000     2.2420    67.6230   149.3630   133.0840   144.7840    24.0920   -27.4290 
  223.1250     2.2400    65.9870   147.3290   132.6190   146.8500    23.9730   -27.6260 
  223.2500     2.2360    63.1370   142.7050   129.9640   138.8820    23.8190   -27.8440 
  223.3750     2.2320    61.3630   136.5960   124.8470   126.9140    23.7760   -27.9530 
  223.5000     2.2270    61.7630   128.8000   117.4220   120.4640    23.8810   -28.0640 
  223.6250     2.2250    65.0130   122.5560   108.3990   122.2420    24.0140   -28.1200 
  223.7500     2.2280    68.4610   117.3810    99.6140   121.9220    24.0150   -28.1460 
  223.8750     2.2380    71.2880   111.3610    92.7070   110.4690    23.8740   -28.1400 
  224.0000     2.2490    74.3080   106.8350    89.1370    93.4920    23.7100   -28.1070 
  224.1250     2.2600    75.2800   108.4840    90.6600    82.4340    23.6770   -28.0550 
  224.2500     2.2640    72.4060   115.0550    96.5440    78.3490    23.7640   -28.0030 
  224.3750     2.2610    67.2150   124.4850   105.5070    81.6510    23.8930   -27.9370 
  224.5000     2.2540    62.8330   133.7210   115.0530    92.9600    23.9870   -27.8620 
  224.6250     2.2450    62.3690   138.0340   121.0290   112.0340    23.9150   -27.7190 
  224.7500     2.2370    66.1140   135.8140   121.1710   130.6140    23.7290   -27.5540 
  224.8750     2.2330    72.1640   127.9260   115.2990   141.1070    23.6050   -27.3710 
  225.0000     2.2340    77.0260   118.5680   105.4790   142.6910    23.6430   -27.1850 
  225.1250     2.2380    77.1970   110.7550    95.1850   130.3410    23.7710   -26.9840 
  225.2500     2.2420    75.0560   104.6780    87.0220   103.7300    23.8610   -26.7760 
  225.3750     2.2420    71.8410    98.1630    81.3840    81.9490    23.8580   -26.5460 
  225.5000     2.2380    69.3710    93.1990    77.2950    74.9590    23.7540   -26.3550 
  225.6250     2.2320    68.4770    87.6090    73.1020    75.8720    23.6250   -26.2070 
  225.7500     2.2290    69.5530    80.6420    67.8820    75.2670    23.5890   -26.0740 
  225.8750     2.2330    74.3300    73.0720    61.9460    73.4180    23.6650   -26.0100 
  226.0000     2.2450    81.3060    66.4530    56.3960    73.9740    23.7720   -25.9090 
  226.1250     2.2620    84.7330    62.7860    52.9720    69.2740    23.8460   -25.9510 
  226.2500     2.2720    82.7480    62.4420    52.3270    53.8820    23.8630   -25.9340 
  226.3750     2.2680    79.0040    65.5750    54.7720    44.9450    23.8460   -26.0090 
  226.5000     2.2530    77.6930    72.1250    60.3200    47.2010    23.8480   -26.0310 
  226.6250     2.2380    75.0650    82.2650    69.1230    56.8660    23.8180   -26.1790 
  226.7500     2.2530    68.4300    94.5320    79.8420    64.4530    23.6440   -26.3090 
  226.8750     2.3120    62.3860   107.3490    91.0770    68.8240    23.4230   -26.4750 
  227.0000     2.4050    61.9050   118.6770   101.0790    82.9620    23.4750   -26.7030 
  227.1250     2.5020    64.3460   125.7630   107.5430   115.2150    23.8810   -26.9350 
  227.2500     2.5450    64.1610   128.0860   109.9770   162.2380    24.1960   -27.2120 
  227.3750     2.5210    64.1380   126.0160   108.5540   198.2300    24.2460   -27.5130 
  227.5000     2.4480    67.3090   120.9680   104.3190   171.5340    24.1940   -27.8560 
  227.6250     2.3650    70.2680   114.5830    98.6440   126.5930    24.1940   -28.1870 
  227.7500     2.2990    72.7690   108.2950    92.9810   110.0520    24.1450   -28.5090 
  227.8750     2.2600    77.2410   102.8100    88.0580   110.6390    24.0440   -28.8130 
  228.0000     2.2460    82.8480    98.8910    84.5130   110.2170    23.9630   -29.0530 
  228.1250     2.2540    85.3710    97.9750    83.4790    96.6460    23.9370   -29.2680 
  228.2500     2.2760    86.7250   100.2590    85.1390    83.2260    23.9370   -29.4520 
  228.3750     2.2990    87.7420   105.2920    89.2380    77.9580    23.9640   -29.6320 
  228.5000     2.3130    85.2640   111.5230    94.6080    81.1720    24.0310   -29.7480 
  228.6250     2.3120    79.3280   116.3000    99.1280    91.0730    24.1070   -29.8110 
  228.7500     2.2960    75.0330   118.0850   101.3630   103.9930    24.1890   -29.9010 
  228.8750     2.2750    74.2280   117.0000   101.1890   119.8270    24.3000   -29.9450 
  229.0000     2.2570    74.7650   114.7030    99.7400   135.0610    24.3940   -30.0840 
  229.1250     2.2460    74.0460   113.9420    99.1790   123.1540    24.3800   -30.1160 
  229.2500     2.2420    71.7630   116.1690   100.9740   101.6660    24.2930   -30.2120 
  229.3750     2.2410    68.4680   121.6040   105.5340    96.5210    24.2180   -30.2170 
  229.5000     2.2400    65.7860   129.5930   112.4390   107.3650    24.1800   -30.2730 
  229.6250     2.2400    66.0800   138.9140   120.7210   124.5880    24.1350   -30.3070 
  229.7500     2.2420    68.2540   147.6840   128.7160   133.6340    24.0930   -30.3560 
  229.8750     2.2470    69.3730   154.4640   135.1620   136.8040    24.0730   -30.4050 
  230.0000     2.2540    68.0810   158.0110   138.9640   143.3780    24.0710   -30.4140 
  230.1250     2.2580    68.1240   156.4930   138.5200   151.9380    24.0730   -30.4140 
  230.2500     2.2580    68.8760   150.1910   133.9430   156.2580    24.0940   -30.3770 
  230.3750     2.2560    67.0760   139.8510   125.6890   154.0790    24.1330   -30.3450 
  230.5000     2.2540    63.9970   127.3190   115.1460   147.0060    24.1390   -30.3340 
  230.6250     2.2550    64.6340   115.3590   104.5360   135.4060    24.0660   -30.2690 
  230.7500     2.2600    67.9870   106.2700    96.0590   117.9150    23.9790   -30.1880 
  230.8750     2.2680    70.0330   101.6050    91.2930   100.7480    23.9660   -30.1020 
  231.0000     2.2770    70.3340   102.4990    91.4540    91.8940    24.0550   -30.0290 
  231.1250     2.2860    73.0020   110.7370    98.2640    92.1410    24.1730   -29.9820 
  231.2500     2.2930    76.4000   125.0800   110.5590    95.8560    24.2290   -29.9470 
  231.3750     2.2950    76.5500   144.0710   126.8910   104.2560    24.2100   -29.9350 
  231.5000     2.2920    73.8880   164.9200   144.6230   122.0720    24.1320   -29.9250 
  231.6250     2.2810    73.1700   183.0940   159.6930   153.1070    24.0350   -29.9650 
