~V
VERS. 2.00: Ver 2.00
~W
STRT.M 57.0000:
STOP.M 290.0000:
STEP.M 0.1250:
NULL. -999.2500:
UWI. DF3043:
~C
DEPT.M :
SP.MV :
DEN.GM/CC :
AC.US/MT :
GR.API :
CALI.CM :
RXO.OHMM :
RI. :
RML.OHMM :
~A
# ...
  277.0000   -11.9720     1.9770   396.2560    62.0560    25.4970     4.7950     4.9000     6.6730 
  277.1250   -11.9410     2.0460   403.2550    60.6000    25.3610     4.7200     4.9360     6.6900 
  277.2500   -11.9090     2.1080   400.5930    61.2130    25.7450     4.6320     4.9670     6.6720 
  277.3750   -11.8810     2.1710   381.0780    64.9240    26.8830     4.6440     4.9860     6.6260 
  277.5000   -11.8640     2.2400   351.4590    67.2090    28.4340     4.6590     4.9970     6.5780 
  277.6250   -11.8540     2.3080   326.8610    64.0990    29.7520     4.6240     5.0170     6.5680 
  277.7500   -11.8490     2.3530   315.8040    60.4030    30.5930     4.5970     5.0600     6.6170 
  277.8750   -11.8630     2.3720   313.0430    59.2750    31.1430     4.6340     5.1310     6.7290 
  278.0000   -11.9220     2.3790   308.2180    60.5480    31.9060     4.6960     5.2230     6.8910 
  278.1250   -12.0610     2.3830   299.5440    61.7220    32.6540     4.7840     5.3170     7.0730 
  278.2500   -12.2530     2.3800   296.1180    62.1210    31.9880     4.9500     5.3890     7.2260 
  278.3750   -12.4400     2.3700   300.8680    61.4310    29.6430     5.2110     5.4280     7.3140 
  278.5000   -12.5710     2.3620   310.0260    59.9730    27.1680     5.4330     5.4380     7.3240 
  278.6250   -12.6230     2.3520   318.1460    59.0350    27.0390     5.4620     5.4290     7.2670 
  278.7500   -12.6360     2.3220   321.3980    59.3350    28.4490     5.3960     5.4230     7.1950 
  278.8750   -12.6470     2.2740   320.1750    61.7200    29.2070     5.4860     5.4270     7.1370 
  279.0000   -12.6670     2.2220   318.4520    68.0590    28.5720     5.9660     5.4390     7.1030 
  279.1250   -12.6680     2.1720   321.4950    74.2270    27.9950     6.7660     5.4590     7.0830 
  279.2500   -12.6330     2.1240   329.6610    73.4400    28.1020     7.3120     5.4820     7.0620 
  279.3750   -12.5970     2.0910   339.0880    65.9080    27.8400     7.3800     5.5030     7.0450 
  279.5000   -12.6180     2.0880   345.8580    64.0820    26.9240     7.2770     5.5270     7.0470 
  279.6250   -12.7270     2.1110   350.1150    64.0820    26.6410     7.0510     5.5680     7.0900 
  279.7500   -12.8510     2.1500   357.3380    64.0820    27.0980     6.8630     5.6300     7.1610 
  279.8750   -12.9150     2.1960   369.0470    64.0820    27.3490     6.6600     5.7060     7.2330 
  280.0000   -12.8850     2.2350   377.9660    64.0820    27.0930     6.4130     5.7770     7.2780 
  280.1250   -12.8010     2.2400   373.9040    64.0820    26.7650     6.1110     5.8150     7.2670 
  280.2500   -12.7460     2.1960   362.1290    64.0820    26.4370     5.7570     5.8190     7.2190 
  280.3750   -12.7510     2.1500   353.9030    64.0820    25.9500     5.4640     5.8100     7.1560 
  280.5000   -12.7940     2.1360   354.4740    64.0820    25.4080     5.5320     5.8200     7.1000 
  280.6250   -12.8100     2.1570   359.4980    64.0820    25.0290     5.4030     5.8690     7.0680 
  280.7500   -12.7750     2.1980   362.6390    64.0820    24.8580     5.2080     5.9330     7.0470 
  280.8750   -12.7060     2.2410   362.0860    64.0820    24.8490     5.1260     5.9770     7.0170 
  281.0000   -12.6400     2.2850   357.1730    64.0820    25.0310     5.2230     5.9820     6.9650 
  281.1250   -12.6160     2.3310   348.8400    64.0820    25.3870     5.2200     5.9500     6.9100 
  281.2500   -12.6450     2.3730   342.0330    64.0820    25.8380     5.1630     5.9240     6.8880 
  281.3750   -12.7180     2.4000   338.4920    64.0820    26.1980     5.1480     5.9320     6.9120 
  281.5000   -12.8020     2.4110   335.3710    64.0820    26.0850     5.2210     5.9790     6.9670 
  281.6250   -12.8470     2.4120   327.6630    64.0820    25.4030     5.3600     6.0390     6.9940 
  281.7500   -12.8380     2.4160   314.8300    64.0820    24.7420     5.4350     6.0790     6.9520 
  281.8750   -12.7870     2.4220   299.0920    64.0820    24.4190     5.4170     6.0970     6.8660 
  282.0000   -12.7290     2.4260   283.9110    64.0820    24.3410     5.4280     6.1310     6.8190 
  282.1250   -12.7130     2.4290   273.3740    64.0820    24.3380     5.7310     6.2680     6.9600 
  282.2500   -12.7480     2.4400   268.3960    64.0820    24.3510     6.7150     6.5550     7.3310 
  282.3750   -12.8210     2.4600   267.3890    64.0820    24.3610     8.2050     6.9930     7.9020 
  282.5000   -12.9070     2.4770   269.0620    64.0820    24.3500     9.2250     7.5180     8.5600 
  282.6250   -12.9890     2.4830   271.9080    64.0820    24.3300     8.8970     7.9910     9.1190 
  282.7500   -13.0710     2.4780   272.3670    64.0820    24.3220     8.7700     8.3110     9.4730 
  282.8750   -13.1630     2.4690   268.6500    64.0820    24.3160     8.5320     8.4630     9.6280 
  283.0000   -13.2690     2.4620   262.7670    64.0820    24.3020     7.8840     8.4980     9.6680 
  283.1250   -13.4030     2.4610   260.7980    64.0820    24.2860     7.3820     8.4840     9.6930 
  283.2500   -13.5630     2.4680   263.5380    64.0820    24.2640     7.8210     8.4710     9.7430 
  283.3750   -13.7260     2.4750   267.3600    64.0820    24.1930     9.1120     8.4620     9.7950 
  283.5000   -13.8390     2.4790   268.4140    64.0820    24.0660    10.6960     8.4540     9.8240 
  283.6250   -13.8440     2.4820   265.7800    64.0820    23.9720    12.0000     8.4470     9.8220 
  283.7500   -13.7850     2.4870   263.3600    64.0820    23.9910    12.9080     8.4430     9.8060 
  283.8750   -13.7400     2.4930   263.7460    64.0820    24.0920    13.8560     8.4430     9.7880 
  284.0000   -13.7660     2.4990   266.6740    64.0820    24.1950    15.3660     8.4440     9.7720 
  284.1250   -13.8450     2.4960   269.0580    64.0820    24.2210    15.4260     8.4450     9.7590 
  284.2500   -13.8860     2.4760   269.9270    64.0820    24.2250    15.0240     8.4450     9.7520 
  284.3750   -13.8510     2.4480   271.6260    64.0820    24.2720    14.2140     8.4410     9.7520 
  284.5000   -13.7650     2.4260   274.1150    64.0820    24.3010    13.2090     8.4320     9.7570 
  284.6250   -13.7080     2.4160   271.7080    64.0820    24.1200    13.3980     8.4180     9.7600 
  284.7500   -13.7040     2.4110   264.6000    64.0820    23.8350    14.6380     8.4030     9.7570 
  284.8750   -13.7140     2.4070   258.8590    64.0820    23.6700    15.9980     8.3940     9.7490 
  285.0000   -13.7020     2.4080   258.8600    64.0820    23.7240    16.9280     8.4010     9.7400 
  285.1250   -13.6790     2.4200   260.2590    64.0820    23.9500    17.1420     8.4330     9.7340 
  285.2500   -13.6810     2.4440   257.6890    64.0820    24.0030    16.5950     8.4620     9.7320 
  285.3750   -13.7200     2.4670   252.7080    64.0820    23.7720    15.8940     8.4620     9.7320 
  285.5000   -13.7880     2.4790   250.1470    64.0820    23.4630    17.0070     8.4620     9.7320 
  285.6250   -13.8800     2.4830   253.7680    64.0820    23.3080    19.0050     8.4620     9.7320 
  285.7500   -13.9940     2.4910   258.1330    64.0820    23.2770    20.1750     8.4620     9.7320 
  285.8750   -14.1300     2.5030   259.1280    64.0820    23.1300    17.1720     8.4620     9.7320 
  286.0000   -14.2650     2.5080   256.8840    64.0820    23.0310    14.8440     8.4620     9.7320 
  286.1250   -14.3430     2.5040   255.6820    64.0820    22.7540    15.2600     8.4620     9.7320 
  286.2500   -14.3480     2.5020   257.1510    64.0820    22.2780    19.1030     8.4620     9.7320 
  286.3750   -14.3000     2.5040   258.8510    64.0820    21.8310    20.4690     8.4620     9.7320 
  286.5000   -14.2380     2.5050   259.4600    64.0820    21.6250    19.0910     8.4620     9.7320 
  286.6250   -14.1880     2.5010   258.8270    64.0820    21.5500    16.8070     8.4620     9.7320 
  286.7500   -14.1640     2.4980   258.4300    64.0820    21.5010    18.8480     8.4620     9.7320 
  286.8750   -14.1640     2.4970   258.4340    64.0820    21.4180    19.7170     8.4620     9.7320 
