~V
VERS. 2.00: Ver 2.00
~W
STRT.M 55.0000:
STOP.M 252.0000:
STEP.M 0.1250:
NULL. -999.2500:
UWI. DF3024:
~C
DEPT.M :
GR.API :
RML.OHMM :
RI. :
RXO.OHMM :
CALI.CM :
DEN.GM/CC :
SP.MV :
~A
# ...
  235.0000    70.5750    12.3460    10.7080    10.0780    24.0680     2.4660   -12.2080 
  235.1250    68.3170    12.4540    10.7980    11.3540    24.1450     2.4610   -12.1970 
  235.2500    68.4620    12.4830    10.8330    12.5750    24.1640     2.4480   -12.1680 
  235.3750    71.9380    12.4340    10.8060    13.5200    24.1240     2.4330   -12.0150 
  235.5000    76.3550    12.3430    10.7370    13.3190    24.0890     2.4260   -11.9570 
  235.6250    76.5420    12.2690    10.6630    12.3290    24.0860     2.4310   -11.9130 
  235.7500    72.8090    12.2450    10.6160    11.9850    24.0730     2.4440   -11.8200 
  235.8750    69.4010    12.2670    10.6020    12.9880    23.9840     2.4540   -11.7500 
  236.0000    71.0840    12.3010    10.6130    14.1870    23.8920     2.4590   -11.7010 
  236.1250    77.1570    12.3000    10.6320    13.5700    23.7370     2.4630   -11.6600 
  236.2500    79.4340    12.2600    10.6440    11.5750    23.7320     2.4710   -11.6100 
  236.3750    74.4310    12.2150    10.6570    10.2230    23.7420     2.4850   -11.5590 
  236.5000    68.2450    12.2270    10.7010     9.9300    23.6420     2.4980   -11.5180 
  236.6250    68.2810    12.3690    10.8260    10.6880    23.5660     2.5040   -11.5000 
  236.7500    71.0660    12.6240    11.0390    11.1020    23.5090     2.4990   -11.4390 
  236.8750    72.7910    12.9420    11.3210    11.4960    23.6030     2.4880   -11.4420 
  237.0000    73.6240    13.2450    11.6230    12.9650    23.8030     2.4800   -11.4750 
  237.1250    73.8610    13.4380    11.8710    14.9930    23.9030     2.4770   -11.4170 
  237.2500    74.6500    13.5080    12.0210    15.3750    23.8990     2.4760   -11.4450 
  237.3750    77.1070    13.4800    12.0650    13.8430    23.7920     2.4650   -11.4950 
  237.5000    79.2510    13.4110    12.0330    11.7620    23.5120     2.4450   -11.4260 
  237.6250    76.6460    13.3700    11.9780    10.7520    23.3940     2.4220   -11.4600 
  237.7500    72.6410    13.3920    11.9540    10.9640    23.4930     2.4100   -11.5060 
  237.8750    70.2650    13.4730    11.9790    11.6250    23.7620     2.4240   -11.4280 
  238.0000    69.5060    13.5800    12.0390    11.5420    23.9400     2.4580   -11.4630 
  238.1250    70.3480    13.6650    12.1060    11.5760    23.9050     2.5010   -11.4830 
  238.2500    70.9940    13.6960    12.1490    12.0410    23.7560     2.5380   -11.3870 
  238.3750    70.6970    13.6770    12.1700    12.5700    23.7080     2.5590   -11.4010 
  238.5000    70.2760    13.6480    12.1960    11.7230    23.8100     2.5670   -11.4260 
  238.6250    71.7450    13.6860    12.2810    10.6250    23.7670     2.5640   -11.3790 
  238.7500    73.5180    13.8290    12.4500    10.3630    23.4950     2.5530   -11.3930 
  238.8750    74.3240    14.0730    12.7020    10.7050    23.2090     2.5370   -11.3840 
  239.0000    75.0720    14.3630    12.9950    11.3650    23.1070     2.5230   -11.3410 
  239.1250    75.9770    14.5870    13.2460    12.1780    23.1320     2.5150   -11.3100 
  239.2500    75.6700    14.6590    13.3880    12.9830    23.2830     2.5140   -11.3040 
  239.3750    73.3450    14.5450    13.3880    13.7860    23.5870     2.5180   -11.2200 
  239.5000    70.9730    14.2750    13.2610    14.6340    23.8360     2.5200   -11.1150 
  239.6250    70.6990    13.9610    13.0730    16.1030    23.9530     2.5200   -11.0140 
  239.7500    71.1180    13.7530    12.9360    18.7730    24.0230     2.5220   -10.8530 
  239.8750    70.3270    13.7430    12.9240    21.7030    24.0450     2.5350   -10.7600 
  240.0000    69.2870    13.9350    13.0560    21.3730    23.9980     2.5560   -10.6330 
  240.1250    70.8300    14.2350    13.2780    21.3770    23.8630     2.5730   -10.5430 
  240.2500    73.2530    14.4520    13.4400    23.8220    23.8490     2.5710   -10.4710 
  240.3750    73.7990    14.4510    13.4150    28.3210    23.8090     2.5410   -10.4090 
  240.5000    72.9660    14.1730    13.1370    31.6980    23.5920     2.4990   -10.4250 
  240.6250    72.6540    13.6580    12.6180    31.4220    23.4780     2.4610   -10.4150 
  240.7500    71.3200    13.1040    12.0400    27.7520    23.5280     2.4430   -10.4350 
  240.8750    67.7730    12.6640    11.5550    23.1940    23.6000     2.4530   -10.4270 
  241.0000    65.3080    12.4390    11.2730    19.9310    23.6140     2.4780   -10.4250 
  241.1250    68.7410    12.5000    11.2820    18.8980    23.6030     2.5030   -10.3710 
  241.2500    73.4500    12.7590    11.5080    17.3730    23.7290     2.5130   -10.3000 
  241.3750    74.7480    13.1260    11.8730    15.0030    23.8090     2.5040   -10.2300 
  241.5000    74.7480    13.4940    12.2770    12.5700    23.8110     2.4880   -10.0900 
  241.6250    74.7480    13.7350    12.5910    11.1980    23.9970     2.4750   -10.0290 
  241.7500    74.7480    13.8050    12.7540    10.6780    24.1090     2.4730    -9.9100 
  241.8750    74.7480    13.7140    12.7520    10.4910    24.1660     2.4810    -9.7950 
  242.0000    74.7480    13.5200    12.6160    10.5230    24.1460     2.4910    -9.7420 
  242.1250    74.7480    13.3110    12.4070    10.8550    24.0600     2.4980    -9.6810 
  242.2500    74.7480    13.1650    12.2110    11.2490    23.9430     2.4970    -9.6870 
  242.3750    74.7480    13.1180    12.0860    10.9550    23.9330     2.4870    -9.6840 
  242.5000    74.7480    13.1700    12.0640    10.1880    23.9460     2.4730    -9.6990 
  242.6250    74.7480    13.3030    12.1600     9.1080    23.8230     2.4630    -9.7220 
  242.7500    74.7480    13.4630    12.3180     9.0920    23.7370     2.4650    -9.7300 
  242.8750    74.7480    13.6180    12.4900    10.0050    23.7090     2.4800    -9.7740 
  243.0000    74.7480    13.7480    12.6340    11.4540    23.6650     2.4960    -9.7720 
  243.1250    74.7480    13.8470    12.7200    13.1490    23.6980     2.5060    -9.7560 
  243.2500    74.7480    13.9250    12.7650    14.5030    23.7440     2.5060    -9.7510 
  243.3750    74.7480    13.9860    12.7850    15.0930    23.7290     2.5010    -9.7420 
  243.5000    74.7480    14.0230    12.7830    14.5160    23.6520     2.5020    -9.7790 
  243.6250    74.7480    14.0230    12.7470    13.9440    23.4950     2.5120    -9.7850 
  243.7500    74.7480    13.9830    12.6740    13.5820    23.2860     2.5290    -9.8180 
  243.8750    74.7480    13.9110    12.5750    13.2260    23.1930     2.5480    -9.8650 
  244.0000    74.7480    13.8300    12.4750    13.4130    23.2210     2.5590    -9.8520 
  244.1250    74.7480    13.7850    12.4220    14.0340    23.3040     2.5580    -9.9660 
  244.2500    74.7480    13.8110    12.4410    14.2640    23.3340     2.5460   -10.0010 
  244.3750    74.7480    13.9330    12.5510    14.3990    23.2960     2.5280   -10.0640 
  244.5000    74.7480    14.1520    12.7510    14.7670    23.3770     2.5100   -10.0590 
  244.6250    74.7480    14.4470    13.0330    14.8870    23.5610     2.4940   -10.0330 
  244.7500    74.7480    14.7540    13.3420    14.6580    23.6560     2.4780   -10.0840 
  244.8750    74.7480    15.0170    13.6190    14.6330    23.6860     2.4630   -10.0700 
  245.0000    74.7480    15.1880    13.8030    14.3950    23.7160     2.4500   -10.1570 
  245.1250    74.7480    15.2040    13.8150    13.6210    23.6260     2.4430   -10.1600 
  245.2500    74.7480    15.0730    13.6740    12.8840    23.4440     2.4450   -10.1290 
  245.3750    74.7480    14.8110    13.4150    12.2050    23.3990     2.4540   -10.1220 
  245.5000    74.7480    14.4480    13.0900    11.4690    23.4530     2.4660   -10.1200 
  245.6250    74.7480    14.0340    12.7490    10.8140    23.4070     2.4790   -10.0710 
  245.7500    74.7480    13.6340    12.4280    10.1320    23.1870     2.4920   -10.0840 
  245.8750    74.7480    13.4830    12.3050     9.8990    23.1280     2.5020   -10.1190 
  246.0000    74.7480    13.0050    11.8990     9.2750    23.0330     2.5060   -10.0470 
  246.1250    74.7480    12.7980    11.7140     9.0640    23.0030     2.5000   -10.0670 
