~V
VERS. 2.00: Ver 2.00
~W
STRT.M 60.0000:
STOP.M 283.0000:
STEP.M 0.1250:
NULL. -999.2500:
UWI. DF3045:
~C
DEPT.M :
DEN.GM/CC :
SP.MV :
AC.US/MT :
GR.API :
CALI.CM :
RXO.OHMM :
RI. :
RML.OHMM :
~A
# ...
  140.0000     2.2340   -28.4200   416.1700    63.8410    22.2610    13.8930    11.2180    12.7800 
  140.1250     2.2430   -28.0980   412.6440    61.7920    22.2080    13.3140    11.1830    12.7130 
  140.2500     2.2400   -27.8130   413.4880    59.8300    22.1780    12.7620    11.1490    12.6680 
  140.3750     2.2310   -27.5640   418.5040    57.9980    22.1890    12.3440    11.0970    12.6110 
  140.5000     2.2220   -27.3400   424.2900    58.5360    22.2780    11.9250    11.0170    12.5220 
  140.6250     2.2130   -27.1450   425.7980    62.1580    22.2610    11.7680    10.9120    12.4020 
  140.7500     2.2060   -26.9650   422.8040    64.4210    22.1750    11.9030    10.7960    12.2640 
  140.8750     2.1990   -26.7940   417.5380    64.3710    22.1560    12.4320    10.6870    12.1350 
  141.0000     2.1950   -26.6270   412.8120    63.8020    22.0630    12.9630    10.6110    12.0480 
  141.1250     2.2000   -26.4570   410.7940    64.1160    22.0280    13.5230    10.6560    12.1390 
  141.2500     2.2200   -26.2820   410.4980    64.4670    22.0770    13.8400    10.9330    12.5840 
  141.3750     2.2410   -26.0930   411.2670    64.9260    22.4480    14.0920    11.5010    13.3970 
  141.5000     2.2500   -25.8520   413.8830    64.7290    23.0500    14.4040    12.2400    14.4000 
  141.6250     2.2460   -25.5510   417.5470    62.9410    23.4540    14.6650    12.8730    15.2010 
  141.7500     2.2580   -25.1930   410.3060    59.9920    23.6590    14.9380    13.0900    15.4500 
  141.8750     2.3090   -24.8030   381.1550    58.9870    23.6470    15.9480    12.6450    14.8650 
  142.0000     2.3960   -24.4180   337.9060    62.3000    23.2890    19.5530    11.5230    13.4660 
  142.1250     2.4690   -24.0840   318.6220    66.9820    23.2940    22.5370     9.9910    11.5820 
  142.2500     2.4810   -23.8240   343.6260    71.7800    23.8200    17.5300     8.5400     9.8280 
  142.3750     2.4310   -23.6910   393.6730    76.8930    24.2570     9.1170     7.4340     8.5990 
  142.5000     2.3520   -23.6920   432.2830    80.9870    24.4240     5.4380     6.8370     8.0930 
  142.6250     2.2800   -23.8250   437.2240    78.8510    24.3880     6.3790     6.8280     8.3510 
  142.7500     2.2230   -24.0490   427.2030    72.8230    24.1760     9.4320     7.2240     9.0530 
  142.8750     2.1860   -24.3100   418.7890    69.7250    24.0350    12.0660     7.9040     9.9890 
  143.0000     2.1720   -24.5520   416.2570    71.3710    23.8810    12.5540     8.6590    10.8730 
  143.1250     2.1810   -24.7170   417.3200    76.0360    23.7000    12.6600     9.1680    11.3120 
  143.2500     2.1980   -24.8030   417.7730    79.9520    23.4450    12.1510     9.3040    11.2620 
  143.3750     2.2150   -24.7640   416.9360    79.6360    23.4090    11.1680     9.1450    10.8910 
  143.5000     2.2310   -24.6260   416.2420    74.0400    23.4610    10.0260     8.8540    10.4520 
  143.6250     2.2470   -24.4200   416.8030    66.2090    23.4330     9.3450     8.5690    10.1330 
  143.7500     2.2550   -24.1710   418.3510    64.0880    23.4050     9.2200     8.3580     9.9830 
  143.8750     2.2490   -23.8860   420.5490    68.1260    23.4090     9.3990     8.2390     9.9870 
  144.0000     2.2310   -23.5830   423.2220    72.1040    23.4570     9.7640     8.1790    10.0470 
  144.1250     2.2130   -23.2640   427.9200    73.5260    23.5580    10.1670     8.0820    10.0480 
  144.2500     2.2060   -22.9120   434.9860    75.4390    23.6770    10.3980     7.9110     9.9270 
  144.3750     2.2120   -22.5360   442.4820    76.2170    23.7030     9.8800     7.6810     9.6850 
  144.5000     2.2300   -22.1370   446.6970    73.9090    23.7530     9.0040     7.3960     9.3420 
  144.6250     2.2550   -21.6980   444.6220    74.6450    23.7050     9.3640     7.0840     8.9630 
  144.7500     2.2850   -21.2520   438.1280    81.3390    23.5910     9.7390     6.7940     8.6220 
  144.8750     2.3130   -20.8480   428.2310    89.5570    23.6840     8.5460     6.5410     8.3480 
  145.0000     2.3290   -20.4960   416.9510    93.1340    24.0920     6.7700     6.3570     8.1970 
  145.1250     2.3300   -20.2180   409.8810    92.9820    24.2270     5.9930     6.2790     8.1790 
  145.2500     2.3270   -20.0020   410.8030    91.6460    24.1160     6.3690     6.2530     8.2060 
  145.3750     2.3280   -19.8130   417.5740    90.8330    23.9530     6.5980     6.2400     8.2350 
  145.5000     2.3330   -19.6600   423.7580    91.0410    23.9230     6.3310     6.2340     8.2380 
  145.6250     2.3390   -19.5430   425.5030    91.6350    23.6620     6.0570     6.2080     8.1570 
  145.7500     2.3470   -19.4350   427.0930    94.1570    23.4960     6.5750     6.1290     8.0090 
  145.8750     2.3540   -19.3030   431.8200    96.4670    23.4390     6.8080     6.0050     7.8170 
  146.0000     2.3470   -19.1600   437.6970    94.5140    23.9630     6.2830     5.8640     7.6240 
  146.1250     2.3270   -18.9950   438.8010    90.3950    24.0310     5.5110     5.7400     7.4800 
  146.2500     2.3180   -18.8090   434.0580    88.3680    23.8200     5.4680     5.6400     7.3940 
  146.3750     2.3320   -18.6320   427.1620    88.8780    23.6920     5.5910     5.5530     7.3210 
  146.5000     2.3530   -18.4830   424.8620    88.4500    23.8970     5.5470     5.4700     7.2410 
  146.6250     2.3490   -18.3750   431.6780    89.3280    23.9390     5.3310     5.3760     7.1350 
  146.7500     2.3240   -18.3090   441.3510    93.6140    23.9350     5.1750     5.2780     6.9940 
  146.8750     2.3070   -18.2890   448.1130    98.9770    23.9460     5.0730     5.1870     6.8330 
  147.0000     2.3070   -18.3120   451.6200   100.4010    24.0400     4.9260     5.1090     6.7120 
  147.1250     2.3100   -18.3880   450.8890    95.6280    24.0380     4.6570     5.0860     6.6840 
  147.2500     2.3070   -18.5200   440.8540    90.6400    23.9970     4.5290     5.1230     6.7310 
  147.3750     2.3080   -18.7150   421.2290    90.3720    23.9480     4.7030     5.2020     6.8040 
  147.5000     2.3190   -18.9410   406.8620    94.1080    23.9730     5.2670     5.2910     6.8870 
  147.6250     2.3310   -19.2000   412.0710    99.7190    23.7460     5.8790     5.4000     6.9910 
  147.7500     2.3310   -19.5050   427.9510   102.7610    23.5930     5.9390     5.5400     7.1450 
  147.8750     2.3170   -19.8370   442.3330   100.3910    24.0120     5.9750     5.7270     7.3880 
  148.0000     2.2950   -20.1600   448.1620    94.2680    24.1810     6.2570     6.0010     7.7790 
  148.1250     2.2720   -20.4590   445.4170    88.6740    24.1550     6.1840     6.3980     8.3330 
  148.2500     2.2520   -20.7060   439.0940    84.4350    24.0940     6.5880     6.8460     8.9460 
  148.3750     2.2360   -20.8530   434.6680    81.5340    24.0310     8.1540     7.2800     9.5040 
  148.5000     2.2290   -20.9050   431.7240    80.2690    24.0990     9.8560     7.5810     9.8340 
  148.6250     2.2310   -20.8280   428.1310    79.1700    24.0950    10.5200     7.5590     9.6940 
  148.7500     2.2380   -20.6240   425.8120    79.6780    24.0620    10.1110     7.2000     9.1300 
  148.8750     2.2520   -20.3370   426.8640    84.8800    24.2380     9.0420     6.5890     8.2670 
  149.0000     2.2830   -20.0140   431.8510    92.5020    24.3570     7.1910     5.8610     7.2840 
  149.1250     2.3300   -19.6830   440.4570    96.8760    24.4200     5.5570     5.2070     6.4560 
  149.2500     2.3680   -19.3890   450.8630    98.4120    24.5430     4.6020     4.7450     5.9230 
  149.3750     2.3830   -19.1680   460.5980   100.0250    24.5990     4.3570     4.5100     5.6970 
  149.5000     2.3860   -19.0200   463.7600   102.9620    24.5360     4.3030     4.5160     5.7840 
  149.6250     2.4010   -18.9540   447.9710   105.5710    24.3890     4.3180     4.8090     6.1860 
  149.7500     2.4300   -18.9310   416.3620   106.0580    24.1380     4.7270     5.2750     6.7350 
  149.8750     2.4680   -18.9080   382.4680   101.8360    23.8270     6.5260     5.8420     7.3500 
