~V
VERS. 2.00: Ver 2.00
~W
STRT.M 60.0000:
STOP.M 266.0000:
STEP.M 0.1250:
NULL. -999.2500:
UWI. DF3052:
~C
DEPT.M :
GR.API :
CALI.CM :
RXO.OHMM :
RI. :
RML.OHMM :
DEN.GM/CC :
SP.MV :
~A
# ...
  228.7500    58.8650    24.0430   171.9870   124.1910   127.4220     2.5090   -15.4190 
  228.8750    60.1880    24.0100   157.3770   114.8920   114.2860     2.6010   -15.0780 
  229.0000    63.0790    23.9730   115.8280   100.9110    97.7830     2.6630   -14.7370 
  229.1250    65.1470    23.9620    81.4130    85.1400    80.9890     2.6790   -14.4050 
  229.2500    65.3230    23.9420    64.7090    70.0560    65.5920     2.6700   -14.0830 
  229.3750    65.6360    23.9410    58.0140    56.1420    51.5970     2.6500   -13.7710 
  229.5000    69.1900    24.0140    51.5670    43.7240    39.2930     2.6240   -13.4810 
  229.6250    76.3830    24.1220    39.3670    33.4000    29.2890     2.6090   -13.2270 
  229.7500    82.1750    24.1710    26.2870    24.7180    21.1910     2.6080   -13.0270 
  229.8750    82.4180    24.1650    17.1940    17.7310    14.9990     2.6010   -12.8980 
  230.0000    76.4360    24.1300    11.5740    12.4790    10.6640     2.5610   -12.8520 
  230.1250    67.7950    24.0710     8.2230     9.1630     8.1670     2.4920   -12.9190 
  230.2500    61.5820    24.0440     6.2970     7.1900     6.8400     2.4300   -13.1000 
  230.3750    59.3750    24.0570     5.8010     6.3280     6.4000     2.3990   -13.3900 
  230.5000    60.2260    24.0580     5.9650     6.1940     6.4880     2.4010   -13.7850 
  230.6250    62.2400    24.0200     6.2840     6.3850     6.8010     2.4210   -14.2960 
  230.7500    63.7330    23.9830     6.5450     6.5740     7.0650     2.4360   -14.8700 
  230.8750    64.2460    23.9500     6.5040     6.6140     7.1430     2.4350   -15.4820 
  231.0000    64.1850    23.8840     6.0400     6.4290     6.9680     2.4220   -16.1070 
  231.1250    65.9320    23.8100     5.4290     6.0510     6.6150     2.3960   -16.7350 
  231.2500    71.9990    23.7780     5.0370     5.6950     6.3460     2.3670   -17.3220 
  231.3750    82.4860    23.8040     4.9700     5.5160     6.3200     2.3430   -17.8560 
  231.5000    94.3070    23.8950     5.2660     5.5960     6.6030     2.3340   -18.3270 
  231.6250   102.8290    24.0430     5.9680     5.9530     7.1830     2.3480   -18.6890 
  231.7500   107.8190    24.1770     6.6820     6.4770     7.9040     2.3740   -18.9270 
  231.8750   110.8870    24.2450     7.1300     7.0460     8.6260     2.3980   -19.0320 
  232.0000   112.8530    24.2590     7.3040     7.5370     9.2030     2.4110   -18.9930 
  232.1250   112.7400    24.2620     7.3350     7.8120     9.4830     2.4070   -18.7680 
  232.2500   111.0140    24.2400     7.3280     7.8840     9.5030     2.3940   -18.3880 
  232.3750   109.2020    24.1740     7.3120     7.8150     9.3440     2.3850   -17.8830 
  232.5000   108.5100    24.0950     7.3120     7.6770     9.1190     2.3910   -17.2300 
  232.6250   109.0020    24.0570     7.2970     7.5600     8.9480     2.4150   -16.4210 
  232.7500   110.3710    23.9960     7.2550     7.5000     8.8690     2.4350   -15.5170 
  232.8750   112.7960    23.8920     7.2330     7.4960     8.8750     2.4400   -14.5420 
  233.0000   115.7370    23.8370     7.2700     7.5150     8.9280     2.4320   -13.5500 
  233.1250   117.6560    23.9330     7.3820     7.5230     8.9890     2.4240   -12.5940 
  233.2500   118.1540    24.0580     7.4790     7.4930     9.0400     2.4200   -11.7610 
  233.3750   118.0630    24.1140     7.5030     7.4180     9.0550     2.4170   -11.0520 
  233.5000   118.5140    24.1140     7.4160     7.3060     9.0310     2.4160   -10.4860 
  233.6250   119.8850    24.1110     7.1620     7.2020     9.0250     2.4200   -10.1090 
  233.7500   120.3880    24.1140     6.9040     7.1800     9.1250     2.4240    -9.8930 
  233.8750   118.1220    24.1150     6.7440     7.3170     9.4380     2.4210    -9.8300 
  234.0000   113.4890    24.1150     6.7110     7.7170    10.1230     2.4130    -9.9090 
  234.1250   109.9150    24.1170     6.8500     8.6430    11.5600     2.4070   -10.1360 
  234.2500   108.2630    24.1060     7.5080    10.2650    13.9360     2.4090   -10.4160 
  234.3750   105.3520    24.0710     9.4740    12.8120    17.4990     2.4150   -10.7110 
  234.5000    98.4420    24.0010    13.6690    16.4390    22.3870     2.4140   -11.0380 
  234.6250    88.8940    23.8990    20.7010    21.4930    28.9190     2.3950   -11.3790 
  234.7500    80.6900    23.8060    30.3570    27.7780    36.7480     2.3640   -11.7300 
  234.8750    74.7390    23.7540    43.2520    34.9170    45.3430     2.3330   -12.0900 
  235.0000    70.4050    23.7430    57.4830    41.9700    53.6470     2.3090   -12.4340 
  235.1250    67.6980    23.7370    65.8240    47.7290    60.4450     2.2950   -12.7220 
  235.2500    66.2910    23.7210    67.1510    52.0020    65.5770     2.2830   -12.9440 
  235.3750    65.6040    23.7100    65.0540    55.2060    69.5720     2.2730   -13.1280 
  235.5000    64.7400    23.7090    63.5560    58.5080    73.8770     2.2640   -13.2650 
  235.6250    63.1210    23.7340    73.7070    63.4640    80.0920     2.2570   -13.3550 
  235.7500    61.5510    23.8050   104.4930    69.9510    87.8740     2.2510   -13.4040 
  235.8750    61.0480    23.8990   143.0850    77.4780    96.7580     2.2460   -13.4060 
  236.0000    62.0160    23.9630   162.5980    85.8070   106.3650     2.2390   -13.3600 
  236.1250    63.1490    23.9760   148.6550    94.8540   115.9030     2.2270   -13.2710 
  236.2500    62.7020    23.9790   127.9020   102.8930   123.1780     2.2130   -13.1700 
  236.3750    60.3950    23.9800   120.2500   108.2280   126.5610     2.2050   -13.0440 
  236.5000    57.3290    23.9710   127.6280   109.7460   125.1280     2.2020   -12.8970 
  236.6250    56.1230    23.9580   147.4400   105.8660   117.9260     2.2000   -12.7380 
  236.7500    57.6890    23.9540   160.3340    98.2540   107.4620     2.1990   -12.5830 
  236.8750    60.9340    23.9600   144.8190    88.5420    95.5680     2.2060   -12.4320 
  237.0000    64.4410    23.9600   103.5560    77.9690    83.5670     2.2170   -12.2940 
  237.1250    68.2480    23.9250    69.9540    67.8260    72.8390     2.2150   -12.1770 
  237.2500    72.5470    23.8540    54.7330    59.2600    64.1510     2.2040   -12.0690 
  237.3750    76.0760    23.7910    48.7580    52.8130    57.6890     2.1970   -11.9750 
  237.5000    77.4560    23.7820    45.1470    48.1800    53.0920     2.2060   -11.8950 
  237.6250    77.2370    23.7960    43.1600    45.1940    50.2390     2.2280   -11.8170 
  237.7500    77.6080    23.7910    42.0650    43.3020    48.5130     2.2440   -11.7520 
  237.8750    79.0890    23.7820    40.2170    42.1610    47.5820     2.2470   -11.7060 
  238.0000    81.1010    23.7850    36.8240    41.7850    47.5800     2.2470   -11.6790 
  238.1250    82.5440    23.7760    34.2620    42.8230    49.2990     2.2530   -11.6650 
  238.2500    82.3300    23.7520    35.3640    45.5640    52.8950     2.2570   -11.6630 
  238.3750    79.3710    23.7450    40.4700    50.1360    58.3330     2.2500   -11.6760 
  238.5000    73.9680    23.7800    48.5470    56.1760    65.1740     2.2350   -11.6980 
  238.6250    68.6470    23.8500    58.7430    62.9860    72.4020     2.2230   -11.7390 
  238.7500    66.0560    23.9280    66.8650    69.1420    78.3740     2.2150   -11.7870 
  238.8750    66.9820    23.9780    70.0940    73.3420    81.7280     2.2090   -11.8300 
  239.0000    70.3530    23.9800    68.1300    74.7090    81.7770     2.2100   -11.8560 
  239.1250    72.8120    23.9660    64.9030    72.9440    78.5590     2.2250   -11.8720 
  239.2500    72.3970    23.9670    63.3280    69.6340    74.0250     2.2400   -11.8820 
  239.3750    70.9300    23.9730    62.1160    65.8000    69.2620     2.2440   -11.8720 
  239.5000    71.2790    23.9710    59.2040    62.2060    64.8720     2.2320   -11.8630 
  239.6250    73.9500    23.9720    56.2400    58.8710    60.9900     2.2130   -11.8550 
  239.7500    76.4530    23.9860    54.2800    55.7180    57.4530     2.2030   -11.8470 
  239.8750    77.5140    24.0010    51.7280    52.4840    53.9110     2.2060   -11.8390 
