~V
VERS. 2.00: Ver 2.00
~W
STRT.M 57.0000:
STOP.M 272.0000:
STEP.M 0.1250:
NULL. -999.2500:
UWI. DF3055:
~C
DEPT.M :
SP.MV :
GR.API :
RML.OHMM :
RI. :
RXO.OHMM :
CALI.CM :
DEN.GM/CC :
~A
# ...
   68.2500  -999.2500    83.4600     7.9390     7.4740    12.8500    24.2450  -999.2500 
   68.3750  -999.2500    73.1760     8.3550     7.9870    13.9630    24.1850  -999.2500 
   68.5000  -999.2500    69.3420     8.4390     8.3250    13.3270    24.1600  -999.2500 
   68.6250  -999.2500    71.3960     8.3740     8.4370    12.5660    24.1770  -999.2500 
   68.7500  -999.2500    74.6930     8.3490     8.3260    12.3880    24.2320  -999.2500 
   68.8750  -999.2500    77.5810     8.3970     8.1190    11.8620    24.2940  -999.2500 
   69.0000  -999.2500    78.0200     8.4840     7.8950    10.7970    24.3540  -999.2500 
   69.1250  -999.2500    77.7410     8.5570     7.6940     9.5150    24.4320  -999.2500 
   69.2500  -999.2500    82.1720     8.5060     7.5180     8.5050    24.5040  -999.2500 
   69.3750  -999.2500    89.7830     8.2610     7.3470     8.1800    24.4550  -999.2500 
   69.5000  -999.2500    94.6290     7.8040     7.1640     8.3110    24.2370  -999.2500 
   69.6250  -999.2500    96.4080     7.2130     6.9610     8.3230    24.0500  -999.2500 
   69.7500  -999.2500   100.5820     6.6620     6.7600     7.9540    23.9890  -999.2500 
   69.8750  -999.2500   106.5230     6.2960     6.6310     7.3790    23.9840  -999.2500 
   70.0000  -999.2500   110.2550     6.2040     6.6750     7.0120    23.9840  -999.2500 
   70.1250  -999.2500   108.6740     6.4470     6.9930     7.3570    23.9840  -999.2500 
   70.2500  -999.2500   102.2900     7.0780     7.6760     8.9360    23.9840  -999.2500 
   70.3750  -999.2500    94.4990     7.9220     8.5790    11.5810    23.9840  -999.2500 
   70.5000  -999.2500    85.3940     8.7600     9.5080    14.7290    23.9840  -999.2500 
   70.6250  -999.2500    74.3360     9.3190    10.2220    17.3640    23.9850  -999.2500 
   70.7500  -999.2500    66.1730     9.3700    10.4640    17.3590    23.9890  -999.2500 
   70.8750  -999.2500    65.4400     9.1640    10.3530    14.9170    24.0060  -999.2500 
   71.0000  -999.2500    69.7360     8.9930    10.1270    12.7700    24.0470  -999.2500 
   71.1250  -999.2500    71.5430     9.0070    10.0080    13.2850    24.1370  -999.2500 
   71.2500  -999.2500    68.4020     9.1710    10.0790    15.5480    24.3130  -999.2500 
   71.3750  -999.2500    65.9970     9.3010    10.1950    18.0570    24.5350  -999.2500 
   71.5000  -999.2500    68.3420     9.2690    10.1870    19.2560    24.7180  -999.2500 
   71.6250  -999.2500    72.0430     9.0400     9.9260    16.8840    24.8020  -999.2500 
   71.7500  -999.2500    72.6340     8.6780     9.3740    13.0320    24.8180  -999.2500 
   71.8750  -999.2500    74.1300     8.3140     8.7200    11.2950    24.8230  -999.2500 
   72.0000  -999.2500    78.3230     8.0200     8.1190    10.6350    24.8380  -999.2500 
   72.1250  -999.2500    80.5790     7.8420     7.6760    10.1750    24.8690  -999.2500 
   72.2500  -999.2500    77.0090     7.8360     7.4590     9.7640    24.9530  -999.2500 
   72.3750  -999.2500    72.5230     7.9640     7.4060     9.8150    25.0810  -999.2500 
   72.5000  -999.2500    69.6040     8.1830     7.4720    10.3080    25.2040  -999.2500 
   72.6250  -999.2500    66.8180     8.4200     7.6060    10.9600    25.2790  -999.2500 
   72.7500  -999.2500    64.4550     8.6270     7.7650    11.3630    25.2540  -999.2500 
   72.8750  -999.2500    62.0220     8.7970     7.9060    11.4160    25.2020  -999.2500 
   73.0000  -999.2500    60.3360     8.9320     8.0110    11.2920    25.1760  -999.2500 
   73.1250  -999.2500    59.7590     9.0050     8.0740    11.2190    25.1700  -999.2500 
   73.2500  -999.2500    61.8850     8.9970     8.0890    11.3370    25.1560  -999.2500 
   73.3750  -999.2500    64.4260     8.9430     8.0660    11.4910    25.1220  -999.2500 
   73.5000  -999.2500    64.4530     8.8270     8.0070    11.4990    25.0490  -999.2500 
   73.6250  -999.2500    60.9800     8.6420     7.9170    11.3090    24.9220  -999.2500 
   73.7500  -999.2500    57.3700     8.4450     7.8020    10.9730    24.7730  -999.2500 
   73.8750  -999.2500    59.5170     8.2660     7.6720    10.7060    24.6850  -999.2500 
   74.0000  -999.2500    66.2230     8.1160     7.5290    10.5300    24.6710  -999.2500 
   74.1250  -999.2500    71.4140     7.9370     7.3670    10.3520    24.7020  -999.2500 
   74.2500  -999.2500    70.6920     7.7110     7.1880    10.1040    24.7440  -999.2500 
   74.3750  -999.2500    68.2260     7.4280     7.0320     9.8540    24.7480  -999.2500 
   74.5000  -999.2500    68.2970     7.1640     6.9790     9.6560    24.6860  -999.2500 
   74.6250  -999.2500    70.8480     7.2010     7.1640     9.8160    24.5590  -999.2500 
   74.7500  -999.2500    72.2000     7.9680     7.8480    11.4180    24.4060  -999.2500 
   74.8750  -999.2500    72.0150     9.4870     9.0990    16.1710    24.3390  -999.2500 
   75.0000  -999.2500    70.4780    11.5860    10.8580    25.0900    24.3130  -999.2500 
   75.1250  -999.2500    68.1620    13.7610    12.8130    35.8000    24.2800  -999.2500 
   75.2500  -999.2500    65.0520    14.9980    14.2610    45.1870    24.2040  -999.2500 
   75.3750  -999.2500    61.8790    14.6930    14.6160    45.0040    24.0790  -999.2500 
   75.5000  -999.2500    60.3390    12.9720    13.6710    32.7760    23.9290  -999.2500 
   75.6250  -999.2500    60.9620    10.7610    11.8420    18.4530    23.8140  -999.2500 
   75.7500  -999.2500    61.1990     9.1080     9.9630    11.7740    23.8180  -999.2500 
   75.8750  -999.2500    60.0320     8.1720     8.5590    10.2130    23.9680  -999.2500 
   76.0000  -999.2500    59.5140     7.8160     7.7010    10.3020    24.2930  -999.2500 
   76.1250  -999.2500    62.5920     7.8450     7.2970    10.8120    24.8050  -999.2500 
   76.2500  -999.2500    66.9270     8.0720     7.2290    11.2700    25.2690  -999.2500 
   76.3750  -999.2500    67.8630     8.2970     7.2910    11.5600    25.5530  -999.2500 
   76.5000  -999.2500    64.0490     8.4400     7.3840    11.6520    25.6350  -999.2500 
   76.6250  -999.2500    59.1310     8.4870     7.4540    11.5970    25.6260  -999.2500 
   76.7500  -999.2500    59.2720     8.4640     7.4750    11.4490    25.5830  -999.2500 
   76.8750  -999.2500    62.9910     8.4150     7.4520    11.3850    25.5100  -999.2500 
   77.0000  -999.2500    65.9510     8.3540     7.3860    11.3220    25.4300  -999.2500 
   77.1250  -999.2500    67.1660     8.2850     7.2820    11.1760    25.3870  -999.2500 
   77.2500  -999.2500    67.8190     8.2160     7.1590    10.8580    25.3790  -999.2500 
   77.3750  -999.2500    69.3660     8.1590     7.0490    10.3340    25.3790  -999.2500 
   77.5000  -999.2500    70.5520     8.1180     6.9800     9.7990    25.3790  -999.2500 
   77.6250  -999.2500    70.5690     8.0950     6.9650     9.5530    25.3790  -999.2500 
   77.7500  -999.2500    70.6650     8.0840     7.0040     9.8180    25.3790  -999.2500 
   77.8750  -999.2500    71.3640     8.0670     7.0620    10.1950    25.3790  -999.2500 
   78.0000  -999.2500    70.7840     8.0260     7.1070    10.5590    25.3780  -999.2500 
   78.1250  -999.2500    69.5420     7.9530     7.1140    10.8950    25.3770  -999.2500 
   78.2500  -999.2500    70.1890     7.8640     7.0700    10.9890    25.3770  -999.2500 
   78.3750  -999.2500    70.4310     7.8100     7.0090    10.9190    25.3770  -999.2500 
   78.5000  -999.2500    68.7920     7.8390     6.9690    10.8120    25.3780  -999.2500 
   78.6250  -999.2500    66.9490     7.9690     6.9860    10.7070    25.3780  -999.2500 
   78.7500  -999.2500    65.4590     8.1930     7.0830    10.7880    25.3750  -999.2500 
   78.8750  -999.2500    62.5790     8.4450     7.2160    11.0650    25.3660  -999.2500 
   79.0000  -999.2500    61.1820     8.6650     7.3240    11.3380    25.3460  -999.2500 
   79.1250  -999.2500    63.2150     8.7740     7.3360    11.3210    25.3060  -999.2500 
   79.2500  -999.2500    66.3400     8.6330     7.1680    10.8490    25.2400  -999.2500 
   79.3750  -999.2500    70.2870     8.2100     6.8390     9.9840    25.1760  -999.2500 
