~V
VERS. 2.00: Ver 2.00
~W
STRT.M 125.0000:
STOP.M 276.0000:
STEP.M 0.1250:
NULL. -999.2500:
UWI. DF3039:
~C
DEPT.M :
SP.MV :
GR.API :
CALI.CM :
RXO.OHMM :
RI. :
RML.OHMM :
DEN.GM/CC :
~A
# ...
  181.2500   -25.7050    55.1730    24.0950   183.3470   184.0970   207.5120     2.2250 
  181.3750   -25.6020    57.5420    23.9640   141.6030   175.4460   196.6750     2.2150 
  181.5000   -25.4920    60.5710    23.9170   126.2870   168.5540   187.8820     2.2150 
  181.6250   -25.4190    60.0820    23.9010   142.7400   163.3200   180.7400     2.2220 
  181.7500   -25.3760    57.3320    23.8950   174.2310   158.6220   173.9990     2.2280 
  181.8750   -25.3740    55.6860    24.0300   193.2330   153.4760   166.4940     2.2320 
  182.0000   -25.3580    57.8130    24.1760   188.9800   146.1180   156.3750     2.2420 
  182.1250   -25.2510    61.4540    24.2130   184.8040   134.9910   142.3530     2.2550 
  182.2500   -25.0740    64.0310    24.1700   172.7690   121.5440   126.4400     2.2630 
  182.3750   -24.9200    65.1310    24.1980   144.4950   107.1190   110.2970     2.2660 
  182.5000   -24.8700    64.1150    24.1880   104.0120    93.3620    95.4980     2.2700 
  182.6250   -24.9600    63.3210    24.1900    73.1160    82.1280    83.9000     2.2850 
  182.7500   -25.0770    64.2420    24.1760    54.6130    73.8500    75.7060     2.3080 
  182.8750   -25.0850    68.3980    24.1320    47.5500    68.6660    70.9610     2.3280 
  183.0000   -24.9860    72.2490    24.1470    47.0540    66.5460    69.5200     2.3310 
  183.1250   -24.8910    69.1510    24.2470    51.2020    67.6230    71.3360     2.3160 
  183.2500   -24.9250    63.2850    24.2680    58.8360    70.5600    74.8530     2.2980 
  183.3750   -25.0680    59.7430    24.2390    66.0300    74.7950    79.3750     2.2820 
  183.5000   -25.1930    60.5680    24.2100    73.2760    79.5070    84.1490     2.2690 
  183.6250   -25.1550    62.4580    24.2100    76.7310    83.5160    88.0920     2.2590 
  183.7500   -25.0160    63.1370    24.2120    77.6310    86.0730    90.5570     2.2580 
  183.8750   -24.9050    63.5400    24.2510    78.5390    87.0910    91.5760     2.2660 
  184.0000   -24.9190    63.8520    24.4150    80.2480    86.8140    91.5680     2.2770 
  184.1250   -25.0440    63.3390    24.4100    79.5590    85.8680    91.1960     2.2760 
  184.2500   -25.1080    61.4400    24.2450    78.7390    84.9580    91.1600     2.2680 
  184.3750   -25.0530    60.2240    24.0090    77.2860    84.6190    91.9810     2.2650 
  184.5000   -24.9430    61.4290    23.6790    78.8060    85.1310    93.7260     2.2750 
  184.6250   -24.8910    60.9850    23.6140    84.8350    86.6440    96.3610     2.2890 
  184.7500   -24.9460    58.8970    23.7810    91.9130    88.6530    99.4590     2.2940 
  184.8750   -25.0740    58.7980    24.1030    96.4600    90.9400   102.7880     2.2910 
  185.0000   -25.1320    63.2640    24.4660   100.5270    93.4380   106.3310     2.2860 
  185.1250   -25.0390    66.9910    24.7030   105.1460    96.3660   110.2450     2.2800 
  185.2500   -24.9250    67.5140    24.8050   105.8310    99.8360   114.7030     2.2690 
  185.3750   -24.8880    68.4160    24.8280    98.0500   104.0390   119.9550     2.2550 
  185.5000   -24.9730    69.4210    24.8090    80.7580   109.0270   126.1610     2.2460 
  185.6250   -25.1060    68.9790    24.8150    79.0370   114.9770   133.4640     2.2450 
  185.7500   -25.1350    66.0440    24.8110   104.0130   121.3690   141.1890     2.2430 
  185.8750   -25.0180    63.4510    24.8100   136.4760   127.8690   148.8440     2.2360 
  186.0000   -24.8700    63.1220    24.7570   141.1760   134.2790   156.1520     2.2320 
  186.1250   -24.8360    62.8340    24.7520   132.0040   140.5210   162.9660     2.2370 
  186.2500   -24.9090    62.2870    24.7520   133.7120   146.5530   169.3510     2.2440 
  186.3750   -25.0190    61.9250    24.7090   155.7040   152.2460   175.0470     2.2460 
  186.5000   -25.0650    61.5910    24.5630   189.9520   157.2640   179.6390     2.2410 
  186.6250   -24.9900    61.1900    24.6180   207.3550   160.8120   182.3470     2.2320 
  186.7500   -24.9220    61.0410    24.7480   211.6120   162.1260   182.3050     2.2230 
  186.8750   -24.9580    60.8660    24.5330   205.5050   160.3270   178.7260     2.2190 
  187.0000   -25.0950    59.6470    24.2580   191.1860   155.5730   172.0720     2.2250 
  187.1250   -25.2330    58.2790    24.5790   178.8390   148.9080   164.0610     2.2410 
  187.2500   -25.2540    59.0520    24.8590   174.7200   142.4540   156.9700     2.2580 
  187.3750   -25.1240    61.0870    24.7810   167.4970   137.8300   152.5010     2.2630 
  187.5000   -24.9610    63.9330    24.3520   146.6580   136.6860   152.4820     2.2610 
  187.6250   -24.9550    66.0690    24.3700   124.6540   140.9970   158.6110     2.2700 
  187.7500   -25.0590    64.2680    24.6430   138.5360   150.3060   170.0740     2.2900 
  187.8750   -25.1490    60.2430    24.7840   190.5920   164.2650   186.4330     2.3010 
  188.0000   -25.1200    57.8990    24.7600   244.3760   181.4080   206.2200     2.2870 
  188.1250   -24.9700    58.1320    24.7090   254.2030   198.9030   226.4720     2.2600 
  188.2500   -24.8360    57.3630    24.7820   250.4620   213.6350   243.2610     2.2390 
  188.3750   -24.8300    55.5290    24.8950   264.5140   222.2010   252.4470     2.2240 
  188.5000   -24.9180    54.4640    25.0090   292.2110   222.3410   251.1150     2.2120 
  188.6250   -24.9350    54.7960    25.0840   319.2340   213.9430   240.1930     2.2040 
  188.7500   -24.7870    57.5620    25.0250   301.2590   202.4140   226.7660     2.2070 
  188.8750   -24.5570    60.6600    25.0180   245.7240   190.7420   214.0180     2.2200 
  189.0000   -24.3940    61.1700    25.0280   194.6680   180.8620   203.8230     2.2310 
  189.1250   -24.4060    59.7960    25.0160   179.9990   174.9970   198.0420     2.2280 
  189.2500   -24.5010    59.6300    25.0150   172.9100   172.8800   196.0450     2.2230 
  189.3750   -24.5450    61.7150    25.0140   177.9440   174.0990   197.1540     2.2220 
  189.5000   -24.4490    64.0710    25.0140   198.8580   177.8800   200.3060     2.2250 
  189.6250   -24.2690    64.7830    25.0140   205.4130   182.3890   203.3020     2.2210 
  189.7500   -24.1650    63.7810    25.0140   203.5810   185.4050   203.9060     2.2170 
  189.8750   -24.1480    61.6550    25.0150   203.2310   185.5420   200.8840     2.2210 
  190.0000   -24.1870    58.5950    25.0170   221.8280   181.8270   193.4450     2.2280 
  190.1250   -24.1640    57.4760    25.0230   239.2410   173.1800   181.3020     2.2280 
  190.2500   -24.0070    58.3980    24.9610   228.5330   161.1560   166.4020     2.2220 
  190.3750   -23.7760    58.6490    24.7530   195.3020   147.0810   150.2430     2.2130 
  190.5000   -23.6250    58.5440    24.1740   153.9400   132.1100   134.0920     2.2050 
  190.6250   -23.6530    59.8300    23.9500   128.5380   117.4750   119.1800     2.2060 
  190.7500   -23.7320    61.8810    24.1020   111.7970   104.2900   106.2610     2.2190 
  190.8750   -23.7700    63.4880    24.3340   104.9970    93.4630    96.0770     2.2430 
  191.0000   -23.6500    65.0760    24.6500    96.4180    85.6940    89.2980     2.2680 
  191.1250   -23.4440    66.5340    24.8160    86.1560    82.6180    87.6810     2.2850 
  191.2500   -23.3540    68.8160    24.8540    73.7790    84.5710    91.7030     2.2960 
  191.3750   -23.4100    73.4180    24.8590    64.4920    93.0610   102.6180     2.3010 
  191.5000   -23.5090    75.4490    24.8590    62.3340   109.3880   121.2970     2.3000 
  191.6250   -23.5110    69.1290    24.8720    97.7840   135.4310   150.0880     2.2890 
  191.7500   -23.4240    61.8900    24.9580   203.3540   169.2600   187.6700     2.2720 
  191.8750   -23.2780    60.1530    25.0520   331.2170   208.2120   231.7570     2.2510 
  192.0000   -23.2170    61.0330    24.9330   392.2890   246.6200   275.8320     2.2340 
  192.1250   -23.2930    58.9690    24.8530   364.4170   273.7410   304.9880     2.2300 
  192.2500   -23.3810    57.1520    24.8330   335.6650   282.7520   309.5540     2.2390 
  192.3750   -23.3870    57.5020    24.8260   338.9600   271.8780   289.7730     2.2500 
