~V
VERS. 2.00: Ver 2.00
~W
STRT.M 60.0000:
STOP.M 232.0000:
STEP.M 0.1250:
NULL. -999.2500:
UWI. DF3065:
~C
DEPT.M :
GR.API :
CALI.CM :
RXO.OHMM :
RI. :
RML.OHMM :
DEN.GM/CC :
SP.MV :
~A
# ...
  138.7500    62.7800    24.5770    18.0140    15.2690    18.0390     2.5230   -17.0570 
  138.8750    61.5780    24.1350    18.5730    15.2160    18.1700     2.5260   -17.0710 
  139.0000    59.0390    23.2390    18.0500    15.3600    18.5100     2.5270   -17.0940 
  139.1250    57.7850    23.1750    17.2590    15.6120    18.9120     2.5270   -17.1170 
  139.2500    59.7420    23.5540    16.8600    15.8600    19.3110     2.5350   -17.1500 
  139.3750    62.7340    24.1830    17.3830    16.0480    19.6710     2.5440   -17.1930 
  139.5000    62.1230    24.5530    18.4600    16.1570    19.9580     2.5470   -17.2260 
  139.6250    57.9060    24.6800    18.6700    16.1970    20.2380     2.5430   -17.2630 
  139.7500    55.2920    24.7360    18.1190    16.2280    20.5640     2.5440   -17.2940 
  139.8750    56.5170    24.7280    17.7820    16.3070    20.9730     2.5490   -17.3240 
  140.0000    59.1670    24.7880    18.1840    16.4550    21.4590     2.5550   -17.3500 
  140.1250    59.5130    24.7940    18.8630    16.7020    21.9960     2.5570   -17.3670 
  140.2500    60.2430    24.7660    19.6380    17.0090    22.4660     2.5540   -17.4030 
  140.3750    62.4480    24.7350    19.5440    17.3310    22.8210     2.5490   -17.4250 
  140.5000    64.1790    24.8090    19.6010    17.6480    23.0970     2.5420   -17.4410 
  140.6250    63.0100    24.6810    19.9630    17.9270    23.2610     2.5300   -17.4760 
  140.7500    60.6120    24.5450    20.4880    18.1360    23.3010     2.5170   -17.5330 
  140.8750    58.5790    24.4520    21.0250    18.2870    23.2660     2.5130   -17.5950 
  141.0000    57.7540    24.6170    20.7290    18.3880    23.2060     2.5240   -17.6400 
  141.1250    59.6160    24.6350    21.2000    18.4550    23.1630     2.5420   -17.6900 
  141.2500    64.0030    24.5370    21.3890    18.5050    23.1610     2.5610   -17.7280 
  141.3750    67.2230    24.4290    20.9670    18.5570    23.1820     2.5800   -17.7750 
  141.5000    65.9740    24.4450    20.3480    18.5750    23.1500     2.6040   -17.8320 
  141.6250    61.8380    24.3290    20.8730    18.5410    23.0600     2.6330   -17.8790 
  141.7500    58.8060    24.1600    21.0960    18.4580    22.9240     2.6570   -17.9140 
  141.8750    57.5330    24.2980    21.9130    18.2990    22.7170     2.6620   -17.9370 
  142.0000    56.6020    24.3630    20.3990    18.0900    22.4690     2.6460   -17.9690 
  142.1250    56.0690    24.2950    18.1360    17.9020    22.2610     2.6230   -18.0070 
  142.2500    56.3100    24.0250    15.9850    17.7770    22.1520     2.6080   -18.0390 
  142.3750    56.2980    23.9140    15.5860    17.7660    22.1980     2.5940   -18.0800 
  142.5000    56.8860    23.9720    16.7930    17.9180    22.4550     2.5810   -18.1310 
  142.6250    59.3880    23.9820    18.8470    18.2070    22.8580     2.5750   -18.1900 
  142.7500    61.0810    23.9230    20.4770    18.5390    23.2790     2.5780   -18.2510 
  142.8750    61.7870    23.8690    20.8920    18.8870    23.7220     2.5820   -18.3120 
  143.0000    63.1350    23.8650    20.5820    19.2190    24.1480     2.5820   -18.3730 
  143.1250    65.6690    23.8630    21.4480    19.4860    24.4790     2.5830   -18.4280 
  143.2500    65.0730    23.7600    22.3160    19.6640    24.6980     2.5920   -18.4810 
  143.3750    63.5940    23.7730    22.7890    19.7520    24.7890     2.6110   -18.5320 
  143.5000    65.1130    23.5910    22.5610    19.6990    24.7240     2.6320   -18.5730 
  143.6250    66.5630    23.5900    22.4690    19.5520    24.5420     2.6410   -18.6110 
  143.7500    65.6700    23.4380    22.5200    19.3420    24.2810     2.6220   -18.6490 
  143.8750    63.7880    23.3240    22.5030    19.0600    23.9240     2.5910   -18.6900 
  144.0000    62.0250    23.5480    20.8010    18.6840    23.4430     2.5750   -18.7360 
  144.1250    58.6680    23.8840    18.4830    18.1700    22.8360     2.5850   -18.7880 
  144.2500    55.6540    24.0080    17.6160    17.5660    22.1040     2.6040   -18.8510 
  144.3750    54.1170    23.9620    17.6340    16.8760    21.2530     2.6110   -18.9280 
  144.5000    52.4910    23.9090    16.9540    16.1360    20.3600     2.6000   -19.0240 
  144.6250    51.3600    24.0980    14.5980    15.4600    19.5600     2.5780   -19.1230 
  144.7500    51.7760    24.1280    12.6670    14.9170    18.9890     2.5590   -19.2360 
  144.8750    52.2130    24.0100    12.8370    14.5750    18.6970     2.5550   -19.3370 
  145.0000    51.4140    23.8730    14.2130    14.4510    18.6900     2.5690   -19.4420 
  145.1250    50.0590    23.8490    14.7620    14.5750    18.9990     2.5900   -19.5630 
  145.2500    49.4960    23.8450    15.1010    14.8490    19.4820     2.5990   -19.6620 
  145.3750    50.6300    23.8540    15.7830    15.2110    20.0420     2.5980   -19.7610 
  145.5000    54.5280    23.9270    15.5570    15.5500    20.5090     2.5950   -19.8600 
  145.6250    59.0570    24.2190    16.2050    15.6850    20.6610     2.5940   -19.9590 
  145.7500    59.5010    24.4650    17.0240    15.5660    20.4990     2.5930   -20.0630 
  145.8750    55.6710    24.5030    17.7840    15.2160    20.0580     2.5860   -20.1970 
  146.0000    53.0960    24.5020    17.6440    14.6640    19.3780     2.5740   -20.3450 
  146.1250    56.9780    24.5400    17.0400    14.0220    18.6250     2.5600   -20.4900 
  146.2500    62.7690    24.6600    15.6250    13.5430    18.1750     2.5420   -20.6880 
  146.3750    66.7570    24.7390    14.0370    13.4630    18.4500     2.5100   -20.9260 
  146.5000    70.4540    24.9170    13.4110    14.0460    19.9950     2.4700   -21.1820 
  146.6250    75.1810    24.8720    14.2790    15.8760    23.9090     2.4330   -21.4540 
  146.7500    77.3790    24.8420    18.3950    19.4030    30.4860     2.4040   -21.7360 
  146.8750    74.9870    24.9970    35.8530    25.2020    40.1470     2.3690   -22.0180 
  147.0000    70.4980    25.1510    63.4410    33.6480    52.9140     2.3210   -22.3050 
  147.1250    67.8200    25.1470    89.0610    44.9550    68.2440     2.2730   -22.6130 
  147.2500    68.0040    25.1810   101.1570    56.8330    82.8260     2.2360   -22.9010 
  147.3750    69.8500    24.9060   106.4660    66.1270    92.9360     2.2080   -23.1400 
  147.5000    71.2720    24.8180   106.6160    70.3720    96.0050     2.1870   -23.3570 
  147.6250    71.1510    24.8450    95.1290    68.3700    91.1590     2.1780   -23.5640 
  147.7500    71.6640    24.8740    74.9840    63.4040    83.3570     2.1910   -23.7430 
  147.8750    75.1420    24.6350    58.3920    58.2580    76.5980     2.2160   -23.8970 
  148.0000    79.8890    24.5040    48.9380    55.1620    73.3860     2.2430   -24.0230 
  148.1250    78.6930    24.6080    52.5890    55.4470    74.9390     2.2660   -24.1070 
  148.2500    72.3350    24.9500    72.3800    58.6880    80.1160     2.2760   -24.1580 
  148.3750    68.1140    25.0410    97.8580    64.5520    88.2280     2.2750   -24.2020 
  148.5000    69.9880    25.0800   108.9530    72.0520    97.7810     2.2680   -24.2640 
  148.6250    74.0150    25.1120   108.5980    80.1190   107.0610     2.2610   -24.3090 
  148.7500    73.9940    25.2530   113.9400    87.2430   114.3850     2.2580   -24.3250 
  148.8750    72.1440    25.2540   129.9560    92.2130   118.4620     2.2490   -24.3480 
  149.0000    70.7890    25.1050   136.4760    94.6390   119.4330     2.2290   -24.3710 
  149.1250    69.3450    25.0770   118.1290    95.0110   118.6730     2.2040   -24.4060 
  149.2500    67.7880    25.0850    95.3750    94.9650   118.1580     2.2010   -24.4370 
  149.3750    67.4770    25.0790    87.2140    95.1160   118.5030     2.2270   -24.4640 
  149.5000    68.9150    25.0400    94.1830    95.5760   119.6920     2.2610   -24.4730 
  149.6250    69.8700    24.8890    98.3900    96.2300   121.2710     2.2760   -24.4790 
  149.7500    70.1380    24.9890   103.0660    96.9110   122.7480     2.2610   -24.5070 
  149.8750    71.9260    25.0070   111.3940    97.8630   124.3630     2.2400   -24.5130 
