~V
VERS. 2.00: Ver 2.00
~W
STRT.M 56.0000:
STOP.M 260.0000:
STEP.M 0.1250:
NULL. -999.2500:
UWI. DF3033:
~C
DEPT.M :
GR.API :
RML.OHMM :
RI. :
RXO.OHMM :
CALI.CM :
DEN.GM/CC :
SP.MV :
~A
# ...
  101.0000    69.4470    10.0160     9.2060     9.9500    23.5340  -999.2500   -32.7450 
  101.1250    71.0700     9.9730     9.1420     9.6090    23.5140  -999.2500   -32.2770 
  101.2500    74.2790     9.9800     9.1070     9.3720    23.5110  -999.2500   -31.8910 
  101.3750    76.5410    10.0150     9.0930     9.3210    23.5110  -999.2500   -31.4360 
  101.5000    76.0650    10.0450     9.0800     9.2720    23.5120  -999.2500   -31.0490 
  101.6250    74.4950    10.0360     9.0330     9.1350    23.5300  -999.2500   -30.8720 
  101.7500    75.4960     9.9750     8.9370     9.0430    23.5750  -999.2500   -30.6640 
  101.8750    78.9180     9.8570     8.7870     8.9670    23.6380  -999.2500   -30.5750 
  102.0000    80.7880     9.6930     8.5950     8.8940    23.6970  -999.2500   -30.5170 
  102.1250    78.8350     9.5140     8.3910     8.7670    23.7530  -999.2500   -30.6040 
  102.2500    76.3730     9.3700     8.2180     8.7250    23.8430  -999.2500   -30.6670 
  102.3750    75.8670     9.3000     8.1070     8.8210    24.0010  -999.2500   -30.7390 
  102.5000    77.4300     9.3260     8.0810     8.9020    24.1590  -999.2500   -30.8900 
  102.6250    78.3260     9.4560     8.1570     9.0680    24.2400  -999.2500   -30.9290 
  102.7500    78.5580     9.6390     8.2950     9.2470    24.2770  -999.2500   -31.0520 
  102.8750    79.7360     9.8310     8.4550     9.6030    24.3050  -999.2500   -31.1140 
  103.0000    81.8530     9.9860     8.5940    10.0330    24.2700  -999.2500   -31.1400 
  103.1250    81.6110    10.0650     8.6690    10.1290    24.0730  -999.2500   -31.2360 
  103.2500    78.8240    10.0810     8.6840    10.0140    23.8070  -999.2500   -31.3290 
  103.3750    76.7320    10.0620     8.6600     9.8160    23.6630  -999.2500   -31.4730 
  103.5000    76.1680    10.0420     8.6250     9.7400    23.6360  -999.2500   -31.6950 
  103.6250    74.8980    10.0490     8.6040    10.0480    23.6690  -999.2500   -31.9490 
  103.7500    73.5150    10.0800     8.5990    10.7130    23.7270  -999.2500   -32.1500 
  103.8750    72.9040    10.1150     8.6040    11.6010    23.8180  -999.2500   -32.3790 
  104.0000    72.0100    10.1280     8.6090    12.2940    23.9120  -999.2500   -32.5990 
  104.1250    69.8440    10.0890     8.6090    12.4510    23.9230  -999.2500   -32.7390 
  104.2500    69.7170    10.0050     8.6080    11.5810    23.8430  -999.2500   -32.7760 
  104.3750    70.8280     9.8910     8.6110    11.2730    23.7250  -999.2500   -32.7530 
  104.5000    71.8080     9.7670     8.6200    11.3680    23.6630  -999.2500   -32.5620 
  104.6250    72.5200     9.6460     8.6360    11.4390    23.6500  -999.2500   -32.2420 
  104.7500    74.1050     9.5310     8.6530    11.3860    23.6390  -999.2500   -31.8790 
  104.8750    76.3790     9.4260     8.6680    11.1820    23.6120  -999.2500   -31.3600 
  105.0000    78.7850     9.3510     8.6820    10.9250    23.5910  -999.2500   -30.7980 
  105.1250    81.2710     9.3560     8.7080    10.5410    23.5830  -999.2500   -29.9990 
  105.2500    81.8710     9.4420     8.7470    10.1820    23.5740  -999.2500   -29.1960 
  105.3750    79.7350     9.5520     8.7730     9.9150    23.5500  -999.2500   -28.3250 
  105.5000    76.5820     9.5700     8.7160     9.6530    23.5240  -999.2500   -27.3860 
  105.6250    75.0210     9.3190     8.4520     9.4290    23.5150  -999.2500   -26.5170 
  105.7500    75.6830     8.7800     7.9540     9.1880    23.5560  -999.2500   -25.5490 
  105.8750    79.0610     8.0080     7.2510     8.7030    23.6860  -999.2500   -24.7010 
  106.0000    86.2580     7.1310     6.4430     7.2580    23.8980  -999.2500   -23.9010 
  106.1250    93.2730     6.3370     5.6890     5.4690    24.0520  -999.2500   -23.3890 
  106.2500    95.4050     5.7650     5.1190     4.7260    24.1330  -999.2500   -23.1200 
  106.3750    96.1680     5.5280     4.8300     4.7770    24.1590  -999.2500   -23.0300 
  106.5000    99.1310     5.7270     4.9040     5.1440    24.1620  -999.2500   -23.2180 
  106.6250    99.1350     6.5030     5.4840     5.8450    24.0670  -999.2500   -23.6530 
  106.7500    91.6580     7.7140     6.4940     7.4510    23.8280  -999.2500   -24.2920 
  106.8750    81.2740     9.1530     7.8090    10.7290    23.5650  -999.2500   -25.0690 
  107.0000    73.4910    10.5000     9.1800    16.3960    23.5820  -999.2500   -25.9340 
  107.1250    68.4560    11.2800    10.1790    25.1980    23.7420  -999.2500   -26.8130 
  107.2500    66.3990    11.3610    10.5670    32.9310    23.8480  -999.2500   -27.6820 
  107.3750    68.0810    10.8440    10.3280    29.2790    23.8810  -999.2500   -28.5020 
  107.5000    71.6030    10.0540     9.6940    18.7690    23.8690  -999.2500   -29.2850 
  107.6250    72.5290     9.4260     9.0380    11.9280    23.8120  -999.2500   -29.9700 
  107.7500    70.7650     9.1560     8.6130    10.1600    23.7250  -999.2500   -30.6910 
  107.8750    68.4120     9.2240     8.4690     9.9540    23.5830  -999.2500   -31.3350 
  108.0000    66.8110     9.4940     8.5460    10.2990    23.4130  -999.2500   -31.9580 
  108.1250    64.9150     9.7730     8.7270    10.7290    23.4850  -999.2500   -32.5960 
  108.2500    63.2100     9.9250     8.8710    10.9050    23.6710  -999.2500   -33.0540 
  108.3750    64.7140     9.9260     8.9240    10.7160    23.7880  -999.2500   -33.5110 
  108.5000    69.2430     9.8290     8.8920    10.4660    23.7920  -999.2500   -33.8260 
  108.6250    71.0620     9.7110     8.8190    10.3020    23.7200  -999.2500   -34.0410 
  108.7500    68.2740     9.6310     8.7580    10.3190    23.6420  -999.2500   -34.1400 
  108.8750    65.2390     9.5950     8.7250    10.3700    23.5780  -999.2500   -34.0930 
  109.0000    65.8600     9.5950     8.7170    10.4310    23.5180  -999.2500   -33.9900 
  109.1250    68.5920     9.6240     8.7250    10.3310    23.4630  -999.2500   -33.6620 
  109.2500    69.2460     9.6780     8.7440    10.1060    23.4200  -999.2500   -33.4080 
  109.3750    67.6980     9.7650     8.7810     9.9490    23.3530  -999.2500   -33.1710 
  109.5000    66.9480     9.8880     8.8440     9.9740    23.2530  -999.2500   -32.9710 
  109.6250    68.8740    10.0360     8.9370     9.9130    23.2090  -999.2500   -32.9100 
  109.7500    71.1550    10.1760     9.0400     9.8650    23.2130  -999.2500   -32.8460 
  109.8750    72.1810    10.2730     9.1240     9.9690    23.2760  -999.2500   -32.8870 
  110.0000    71.9110    10.2990     9.1610    10.3230    23.4160  -999.2500   -33.0260 
  110.1250    68.8050    10.2280     9.1290    10.7390    23.6800  -999.2500   -33.2790 
  110.2500    65.9300    10.0910     9.0480    10.7660    23.9460  -999.2500   -33.5330 
  110.3750    67.4130     9.9230     8.9410    10.6740    24.1040  -999.2500   -33.7910 
  110.5000    72.8590     9.7700     8.8330    10.5640    24.1680  -999.2500   -33.9780 
  110.6250    73.7000     9.6930     8.7480    10.5650    24.2460  -999.2500   -34.0990 
  110.7500    68.3480     9.6940     8.6910    10.5980    24.3500  -999.2500   -34.2380 
  110.8750    63.6470     9.7530     8.6630    10.5640    24.3540  -999.2500   -34.3440 
  111.0000    64.5040     9.8290     8.6600    10.3790    24.2030  -999.2500   -34.3380 
  111.1250    66.6810     9.8880     8.6880    10.3520    24.0550  -999.2500   -34.2250 
  111.2500    65.9190     9.9370     8.7450    10.5630    23.9580  -999.2500   -34.1030 
  111.3750    65.3250    10.0010     8.8340    10.7120    23.8500  -999.2500   -33.8440 
  111.5000    69.3170    10.0970     8.9470    10.7180    23.7320  -999.2500   -33.6180 
  111.6250    74.4820    10.2020     9.0490    10.6550    23.7240  -999.2500   -33.3010 
  111.7500    76.0230    10.2530     9.0880    10.5970    23.8520  -999.2500   -32.9440 
  111.8750    72.7700    10.1970     9.0250    10.5810    24.0420  -999.2500   -32.6000 
  112.0000    68.2690    10.0180     8.8530    10.6910    24.0590  -999.2500   -32.2200 
  112.1250    68.5310     9.7540     8.6030    10.6730    23.8110  -999.2500   -32.0430 
