~V
VERS. 2.00: Ver 2.00
~W
STRT.M 115.0000:
STOP.M 288.0000:
STEP.M 0.1250:
NULL. -999.2500:
UWI. DF3049:
~C
DEPT.M :
GR.API :
CALI.CM :
RXO.OHMM :
RI. :
RML.OHMM :
SP.MV :
DEN.GM/CC :
AC.US/MT :
~A
# ...
  265.0000    69.6230    23.8800    16.7020    13.6300    14.2840   -11.3280     2.4670   288.8350 
  265.1250    69.2410    23.8300    15.5240    13.2260    13.8690   -11.3920     2.4860   291.0550 
  265.2500    69.7890    23.7120    13.8260    12.7730    13.4080   -11.4710     2.4990   296.6680 
  265.3750    69.7760    23.5940    12.3620    12.3240    12.9610   -11.5590     2.5020   303.9360 
  265.5000    69.1990    23.4710    11.1580    11.9210    12.5670   -11.6270     2.4900   308.2220 
  265.6250    66.9870    23.3480    10.0030    11.5950    12.2570   -11.6360     2.4710   307.2030 
  265.7500    64.3330    23.2330     9.1900    11.3890    12.0720   -11.6140     2.4610   301.8230 
  265.8750    63.5080    23.0950     8.8880    11.2910    12.0020   -11.5840     2.4700   294.9090 
  266.0000    64.4750    22.9560     9.0340    11.2910    12.0350   -11.5530     2.4890   288.8930 
  266.1250    65.1750    22.8070     9.7100    11.3650    12.1450   -11.5050     2.5040   284.7310 
  266.2500    65.2930    22.6990    10.6580    11.4840    12.2930   -11.4440     2.5060   283.2100 
  266.3750    66.5310    22.6320    11.3460    11.5940    12.4230   -11.3960     2.4900   285.1380 
  266.5000    67.6170    22.5530    11.5780    11.6640    12.5020   -11.3890     2.4600   289.0380 
  266.6250    66.9520    22.4750    11.5540    11.6750    12.5130   -11.3950     2.4250   293.4760 
  266.7500    67.2850    22.4020    11.4250    11.6170    12.4440   -11.3860     2.3930   297.5580 
  266.8750    70.2790    22.3570    10.9270    11.5160    12.3230   -11.3440     2.3760   301.0240 
  267.0000    73.1790    22.2880     9.7740    11.3870    12.1750   -11.2850     2.3720   303.8830 
  267.1250    72.0340    22.1740     8.4050    11.2500    12.0260   -11.2070     2.3770   305.5890 
  267.2500    67.2060    22.0490     7.8960    11.1250    11.9030   -11.1230     2.3840   305.5100 
  267.3750    64.1410    21.9050     8.4670    11.0240    11.8110   -11.0210     2.3890   303.6940 
  267.5000    65.5370    21.6790     9.6460    10.9480    11.7490   -10.8820     2.3950   301.8090 
  267.6250    69.8040    21.2530    10.7270    10.8860    11.6990   -10.7540     2.4040   301.1040 
  267.7500    72.0120    20.4250    11.0140    10.8100    11.6280   -10.6320     2.4180   302.3470 
  267.8750    71.0650    18.7200    10.6470    10.6880    11.5000   -10.5240     2.4310   306.4710 
  268.0000    68.7240    16.1240     9.9630    10.5020    11.2980   -10.4310     2.4350   312.6790 
  268.1250    68.5020    14.0230     9.2210    10.2610    11.0360   -10.3560     2.4290   318.9920 
  268.2500    71.6860    13.2920     8.4630    10.0110    10.7710   -10.2880     2.4240   322.5560 
  268.3750    73.2320    13.1930     7.7110     9.8090    10.5710   -10.2240     2.4310   320.7880 
  268.5000    70.2080    13.1930     7.0530     9.6950    10.4810   -10.1570     2.4380   315.2750 
  268.6250    65.1690    13.1930     6.7160     9.6870    10.5160   -10.0760     2.4380   307.9490 
  268.7500    65.1690    13.1930     6.8290     9.7900    10.6750   -10.0130     2.4360   300.3430 
  268.8750    65.1690    13.1930     7.1780     9.9520    10.8990    -9.9550     2.4380   293.5160 
  269.0000    65.1690    13.1930     7.6560    10.1370    11.1440    -9.8820     2.4370   288.3390 
  269.1250    65.1690    13.1930     8.1580    10.3100    11.3690    -9.8120     2.4300   285.7850 
  269.2500    65.1690    13.1930     8.5170    10.4340    11.5340    -9.7750     2.4230   286.0110 
  269.3750    65.1690    13.1930     8.8350    10.5050    11.6410    -9.7570     2.4320   287.7660 
  269.5000    65.1690    13.1930     9.5870    10.5290    11.7000    -9.7660     2.4540   288.8310 
  269.6250    65.1690    13.1840    11.0080    10.5200    11.7320    -9.8190     2.4750   288.4970 
  269.7500    65.1690    13.1550    12.8610    10.5060    11.7680    -9.8670     2.4840   287.1850 
  269.8750    65.1690    13.1120    14.3590    10.5170    11.8400    -9.9000     2.4810   285.4720 
  270.0000    65.1690    13.0900    14.9070    10.5770    11.9780    -9.9430     2.4740   283.6260 
  270.1250    65.1690    13.0840    14.5560    10.6950    12.1930    -9.9920     2.4690   281.8420 
  270.2500    65.1690    13.0840    14.1580    10.8680    12.4780   -10.0100     2.4690   280.4870 
  270.3750    65.1690    13.0840    14.0010    11.0600    12.7870   -10.0010     2.4720   279.7420 
  270.5000    65.1690    13.0840    14.2890    11.2450    13.0780    -9.9860     2.4790   279.0660 
  270.6250    65.1690    13.0840    15.1500    11.4010    13.3200    -9.9610     2.4890   278.0730 
  270.7500    65.1690  -999.2500    15.9760    11.5120    13.4840    -9.9310     2.5010   276.7900 
  270.8750    65.1690  -999.2500    16.4480    11.5770    13.5800    -9.8910     2.5090   276.1600 
  271.0000    65.1690  -999.2500    16.5160    11.5890    13.6030    -9.8330     2.5150   277.5210 
  271.1250    65.1690  -999.2500    16.3820    11.5320    13.5410    -9.7660     2.5230   281.4760 
  271.2500    65.1690  -999.2500    15.8290    11.3940    13.3870    -9.7080     2.5280   286.8350 
  271.3750    65.1690  -999.2500    15.6110    11.2160    13.1950    -9.6690     2.5250   290.4220 
  271.5000    65.1690  -999.2500    15.3310    11.0440    13.0200    -9.6380     2.5170   290.9850 
  271.6250    65.1690  -999.2500    14.7230    10.9170    12.9140    -9.5750     2.5160   289.9500 
  271.7500    65.1690  -999.2500    14.1540    10.8680    12.9160    -9.5010     2.5230   289.7850 
  271.8750    65.1690  -999.2500    14.0950    10.8740    12.9920    -9.4260     2.5270   292.1060 
  272.0000    65.1690  -999.2500    14.2010    10.9110    13.1010    -9.3640     2.5210   295.7540 
  272.1250    65.1690  -999.2500    14.2410    10.9530    13.2060    -9.2770     2.5110   299.2250 
  272.2500    65.1690  -999.2500    13.8250    10.9860    13.2740    -9.1810     2.5070   300.9680 
  272.3750    65.1690  -999.2500    12.9380    11.0060    13.3070    -9.0940     2.5130   298.8760 
  272.5000    65.1690  -999.2500    11.7100    11.0150    13.3150    -9.0220     2.5190   293.0850 
  272.6250    65.1690  -999.2500    10.4820    11.0170    13.3110    -8.9780     2.5220   285.0630 
  272.7500    65.1690  -999.2500    10.1910    11.0160    13.3070    -8.9430     2.5240   277.6230 
  272.8750    65.1690  -999.2500    11.5520    11.0140    13.3050    -8.9080     2.5300   274.8020 
  273.0000    65.1690  -999.2500    13.7190    11.0110    13.3060    -8.8760     2.5380   277.9790 
  273.1250    65.1690  -999.2500    15.1220    11.0110    13.3100    -8.8800     2.5440   286.6720 
  273.2500    65.1690  -999.2500    15.2970    11.0110    13.3180    -8.9030     2.5430   298.1410 
  273.3750    65.1690  -999.2500    14.9270    11.0110    13.3270    -8.9120     2.5380   307.6580 
  273.5000    65.1690  -999.2500    14.1760    11.0110    13.3330    -8.9060     2.5350   312.5790 
  273.6250    65.1690  -999.2500    13.3590    11.0100    13.3340    -8.8970     2.5370   313.5220 
  273.7500    65.1690  -999.2500    13.1390    11.0080    13.3310    -8.8880     2.5430   312.9220 
  273.8750    65.1690  -999.2500    13.5810    11.0040    13.3280    -8.9010     2.5430   312.7220 
  274.0000    65.1690  -999.2500    13.6940    11.0000    13.3270    -8.9300     2.5360   312.5610 
  274.1250    65.1690  -999.2500    12.7880    10.9970    13.3270    -8.9410     2.5290   311.5560 
  274.2500    65.1690  -999.2500    11.0640    10.9980    13.3210    -8.9400     2.5300   309.8950 
  274.3750    65.1690  -999.2500     9.6350    11.0040    13.3120    -8.9650     2.5320   309.4280 
  274.5000    65.1690  -999.2500     9.0030    11.0120    13.3030    -8.9850     2.5190   311.8380 
  274.6250    65.1690  -999.2500     9.0300    11.0190    13.2980    -8.9970     2.4980   317.4270 
  274.7500    65.1690  -999.2500     9.0940    11.0190    13.2980    -9.0250     2.4870   324.5050 
  274.8750    65.1690  -999.2500     8.8400    11.0190    13.2980    -9.0390     2.4930   329.2500 
