~V
VERS. 2.00: Ver 2.00
~W
STRT.M 64.0000:
STOP.M 259.0000:
STEP.M 0.1250:
NULL. -999.2500:
UWI. DF3067:
~C
DEPT.M :
DEN.GM/CC :
GR.API :
CALI.CM :
RXO.OHMM :
RI. :
RML.OHMM :
SP.MV :
~A
# ...
  165.2500     2.3090    74.8880    24.4990    28.8000    30.0450    37.3590   -36.1910 
  165.3750     2.3120    83.2150    24.5010    17.3820    22.4360    27.0010   -36.0130 
  165.5000     2.3070    88.2170    24.5320    16.3320    19.0310    22.1360   -35.8350 
  165.6250     2.3080    88.5360    24.5490    16.7640    18.6160    20.9240   -35.6760 
  165.7500     2.3150    89.1350    24.5470    17.4030    19.8660    21.7780   -35.5550 
  165.8750     2.3200    91.2040    24.5470    18.7270    22.2640    24.2470   -35.4760 
  166.0000     2.3210    91.4920    24.5410    22.0850    25.3210    27.8500   -35.4310 
  166.1250     2.3190    88.8860    24.4710    27.9530    28.4720    31.8940   -35.4200 
  166.2500     2.3160    85.1490    24.3460    32.1300    31.1760    35.5140   -35.4240 
  166.3750     2.3110    80.8010    24.2220    33.3860    33.1320    38.1880   -35.4360 
  166.5000     2.3070    77.5950    24.1480    33.6760    34.2280    39.6650   -35.4520 
  166.6250     2.3070    78.7950    24.1220    32.9740    34.3720    39.7480   -35.4680 
  166.7500     2.3100    82.2220    24.1050    33.8560    33.7890    38.7410   -35.4890 
  166.8750     2.3160    84.6280    24.0920    35.2450    32.6270    36.8180   -35.5170 
  167.0000     2.3220    86.4690    24.0880    34.9970    31.2440    34.4050   -35.5490 
  167.1250     2.3280    87.9760    24.0890    31.7310    30.4050    32.3520   -35.5920 
  167.2500     2.3310    87.9750    24.0890    27.6050    30.8010    31.4260   -35.6450 
  167.3750     2.3230    88.3860    24.0890    25.0820    33.0400    32.2700   -35.7160 
  167.5000     2.3000    89.3990    24.0890    30.7230    37.6040    35.4820   -35.8050 
  167.6250     2.2680    85.6570    24.0890    46.1940    45.1910    42.0320   -35.9220 
  167.7500     2.2450    79.1060    24.0890    57.7770    55.1920    51.4260   -36.0660 
  167.8750     2.2380    77.0370    24.0890    61.0530    66.8540    62.9350   -36.2400 
  168.0000     2.2460    80.2270    24.0890    64.1710    78.7520    75.1220   -36.4310 
  168.1250     2.2570    81.6210    24.0900    73.2130    88.0220    85.2790   -36.6240 
  168.2500     2.2640    78.1310    24.0910    82.1920    92.1830    90.9960   -36.8000 
  168.3750     2.2660    74.3990    24.0940    83.6860    89.4490    90.4230   -36.9610 
  168.5000     2.2700    74.7180    24.0950    78.5380    79.9790    83.1140   -37.1110 
  168.6250     2.2830    77.3890    24.0770    68.5970    66.7150    70.7750   -37.2540 
  168.7500     2.3030    78.9200    24.0420    51.6830    54.8500    58.4490   -37.3850 
  168.8750     2.3190    79.3330    24.0090    35.3770    46.9070    49.1580   -37.4950 
  169.0000     2.3220    80.3300    23.9930    29.3880    43.6650    44.2150   -37.5780 
  169.1250     2.3100    80.9920    23.9940    28.5600    45.8290    44.6680   -37.6400 
  169.2500     2.2990    78.9270    24.0050    34.9150    52.3780    49.7830   -37.6970 
  169.3750     2.3010    76.1660    24.0300    50.7420    62.8210    59.3140   -37.7650 
  169.5000     2.3200    75.7700    24.0600    69.0190    75.8420    72.0600   -37.8460 
  169.6250     2.3390    77.2210    24.0700    89.2400    88.3270    84.9390   -37.9400 
  169.7500     2.3410    77.1050    24.0600   105.8040    97.0420    94.4450   -38.0440 
  169.8750     2.3250    73.7160    24.0460   107.4340   101.1130    99.3730   -38.1620 
  170.0000     2.3030    69.8150    24.0390    93.3920   101.9910   100.7450   -38.3000 
  170.1250     2.2840    69.4220    24.0450    83.2120   101.9980   100.5740   -38.4480 
  170.2500     2.2660    73.1340    24.0680    80.8590   102.7330   100.6530   -38.5860 
  170.3750     2.2490    77.7820    24.1110    80.1820   104.7320   101.6360   -38.6910 
  170.5000     2.2420    78.4790    24.1550    79.7090   108.4180   104.0440   -38.7630 
  170.6250     2.2540    74.8440    24.1700    81.8670   114.4670   108.6940   -38.8170 
  170.7500     2.2740    72.5510    24.1640    87.7100   122.1130   115.1100   -38.8880 
  170.8750     2.2880    72.5910    24.1560   100.6920   129.7350   122.0490   -38.9920 
  171.0000     2.2890    71.9760    24.1560   122.1480   134.6640   127.3250   -39.1290 
  171.1250     2.2810    69.1670    24.1560   140.1760   133.3260   127.7940   -39.2780 
  171.2500     2.2740    66.9080    24.1560   136.9330   126.6510   123.5130   -39.4050 
  171.3750     2.2700    66.2240    24.1560   114.2800   117.3570   116.1770   -39.4730 
  171.5000     2.2690    67.2260    24.1560    88.8340   108.8180   108.5950   -39.4760 
  171.6250     2.2690    68.9190    24.1560    80.6880   104.0710   103.9660   -39.4250 
  171.7500     2.2710    71.2720    24.1570    81.5380   102.9070   102.9140   -39.3720 
  171.8750     2.2750    72.8750    24.1640    83.5630   103.7360   104.3450   -39.3470 
  172.0000     2.2770    73.6300    24.1730    89.7650   103.7770   105.6930   -39.3560 
  172.1250     2.2770    73.5720    24.1640   109.8520    99.7180   103.4610   -39.3880 
  172.2500     2.2800    74.4160    24.1360   116.5400    92.1020    97.3560   -39.4240 
  172.3750     2.2910    75.7910    24.0920    90.7370    83.1650    89.0460   -39.4540 
  172.5000     2.3110    75.1320    24.0450    57.7950    75.2140    80.8780   -39.4870 
  172.6250     2.3300    73.4350    23.9340    48.1960    69.6840    74.7460   -39.5290 
  172.7500     2.3410    73.6730    23.7290    56.2250    66.0420    70.5500   -39.5810 
  172.8750     2.3450    75.4170    23.4960    64.2690    63.7980    67.8750   -39.6420 
  173.0000     2.3430    76.9150    23.3450    58.9960    62.6560    66.3780   -39.7150 
  173.1250     2.3370    77.0780    23.3460    47.5850    62.9730    66.2800   -39.8130 
  173.2500     2.3290    76.4810    23.4640    48.5970    65.1510    67.9020   -39.9390 
  173.3750     2.3180    74.0750    23.6830    60.0560    69.9740    72.0970   -40.0980 
  173.5000     2.3050    72.6060    23.9310    71.0880    78.2240    79.8500   -40.2940 
  173.6250     2.2910    75.8630    24.0720    75.6500    91.1920    92.6970   -40.5290 
  173.7500     2.2830    80.7050    24.1390    77.0040   108.2750   109.9680   -40.7870 
  173.8750     2.2820    82.1440    24.2180    91.1630   128.7880   130.8010   -41.0500 
  174.0000     2.2800    77.6530    24.3210   115.6740   151.1360   153.3690   -41.2940 
  174.1250     2.2670    72.2490    24.3970   135.9590   172.3510   174.4870   -41.5030 
  174.2500     2.2490    69.6920    24.3220   127.5940   190.0930   191.8690   -41.6800 
  174.3750     2.2360    69.0860    23.9160    94.7750   204.2620   205.5460   -41.8390 
  174.5000     2.2310    68.5990    23.2610    68.7530   217.1460   217.9880   -41.9800 
  174.6250     2.2340    68.3010    22.8940    81.0480   232.6710   233.5610   -42.0990 
  174.7500     2.2370    67.5300    23.0260   107.5360   252.0120   253.9790   -42.1900 
  174.8750     2.2380    65.7120    23.3850   157.0230   272.6000   277.5070   -42.2520 
  175.0000     2.2340    63.7610    23.6540   198.9790   287.4120   298.2800   -42.2870 
  175.1250     2.2280    62.2020    23.7720   210.7310   283.2510   304.1890   -42.2770 
  175.2500     2.2270    59.7710    23.8290   185.0120   258.0930   289.9890   -42.2150 
  175.3750     2.2380    58.1870    23.8270   144.8370   217.5050   256.8210   -42.1020 
  175.5000     2.2580    59.6980    23.7330   119.5060   171.8930   212.3740   -41.9490 
  175.6250     2.2740    63.8390    23.5310   106.5940   131.7290   167.3490   -41.7740 
  175.7500     2.2790    67.0860    23.3140    78.9180   100.7890   129.4640   -41.6040 
  175.8750     2.2760    68.9150    23.1560    57.1900    79.5830   101.5140   -41.4540 
  176.0000     2.2770    70.2850    23.0560    47.5750    67.1920    83.8480   -41.3350 
  176.1250     2.2830    71.9010    22.9880    39.0250    63.7470    77.5810   -41.2520 
  176.2500     2.2850    73.0250    22.9730    37.3650    67.6540    81.4370   -41.1990 
  176.3750     2.2730    73.4970    23.0610    55.7670    79.8360    97.2090   -41.1650 
