~V
VERS. 2.00: Ver 2.00
~W
STRT.M 56.0000:
STOP.M 260.0000:
STEP.M 0.1250:
NULL. -999.2500:
UWI. DF3033:
~C
DEPT.M :
GR.API :
RML.OHMM :
RI. :
RXO.OHMM :
CALI.CM :
DEN.GM/CC :
SP.MV :
~A
# ...
   78.5000    71.9880    10.4630    10.1640    10.2290    23.3700  -999.2500   -32.7510 
   78.6250    68.3620    10.5830    10.3120    10.4390    23.3700  -999.2500   -32.5040 
   78.7500    67.5790    10.7150    10.4690    10.6480    23.3720  -999.2500   -32.2110 
   78.8750    68.9670    10.7890    10.5760    10.7620    23.3760  -999.2500   -31.9780 
   79.0000    70.7750    10.7320    10.5650    10.8090    23.3700  -999.2500   -31.6650 
   79.1250    71.7650    10.4640    10.3530    10.7450    23.3510  -999.2500   -31.3800 
   79.2500    72.3750    10.0420     9.9810    10.5270    23.3030  -999.2500   -31.0520 
   79.3750    75.7450     9.5670     9.5310     9.9940    23.2260  -999.2500   -30.6320 
   79.5000    83.3280     9.1720     9.1180     9.3260    23.1470  -999.2500   -30.2920 
   79.6250    91.6770     9.0100     8.8700     8.5710    23.0910  -999.2500   -29.9160 
   79.7500    93.6460     9.0660     8.7900     8.3380    23.0450  -999.2500   -29.5990 
   79.8750    88.9210     9.2490     8.8210     8.6180    23.0290  -999.2500   -29.2910 
   80.0000    83.4170     9.3990     8.8530     9.2410    23.0360  -999.2500   -28.9490 
   80.1250    82.7080     9.3140     8.7430     9.6600    23.0640  -999.2500   -28.6270 
   80.2500    83.5470     8.9780     8.4690     9.6860    23.1300  -999.2500   -28.2230 
   80.3750    83.3780     8.5010     8.1010     9.4060    23.2400  -999.2500   -27.7770 
   80.5000    82.2760     8.1120     7.7850     9.0610    23.3710  -999.2500   -27.2580 
   80.6250    83.0390     8.2800     7.8630     9.2270    23.5400  -999.2500   -26.6510 
   80.7500    84.9040     9.4800     8.7820    10.3270    23.7550  -999.2500   -25.8910 
   80.8750    86.0050    12.2490    11.1520    12.9390    24.0470  -999.2500   -25.1130 
   81.0000    86.5120    16.8440    15.4320    17.8930    24.3460  -999.2500   -24.3830 
   81.1250    83.8790    22.8660    21.5870    25.3440    24.5840  -999.2500   -23.6710 
   81.2500    77.2700    28.3560    27.7580    32.5810    24.6750  -999.2500   -23.1080 
   81.3750    69.4800    31.1710    31.6640    45.3460    24.6880  -999.2500   -22.6270 
   81.5000    66.0860    29.6450    31.2360    59.2060    24.6750  -999.2500   -22.2410 
   81.6250    73.2970    23.6600    25.7850    60.9950    24.6720  -999.2500   -22.0120 
   81.7500    87.3260    16.8070    18.8530    42.3890    24.7190  -999.2500   -21.9700 
   81.8750   103.0150    11.3980    12.9680    20.4970    24.7690  -999.2500   -22.0500 
   82.0000   116.0730     8.0640     9.0250     8.1160    24.7970  -999.2500   -22.2350 
   82.1250   120.8800     6.5760     6.9720     5.5340    24.8190  -999.2500   -22.6380 
   82.2500   119.8050     6.0200     5.9690     4.9860    24.8520  -999.2500   -23.1260 
   82.3750   116.4890     6.0080     5.6640     5.0380    24.8770  -999.2500   -23.7880 
   82.5000   113.7350     6.3090     5.8370     5.1370    24.9030  -999.2500   -24.6640 
   82.6250   111.1680     6.8250     6.3770     5.3030    24.9580  -999.2500   -25.6580 
   82.7500   107.3600     7.4610     7.1100     5.6580    25.0270  -999.2500   -26.7820 
   82.8750   101.9240     8.1580     7.9430     6.3570    25.0690  -999.2500   -27.9620 
   83.0000    92.5350     8.8220     8.7640     7.5390    25.1060  -999.2500   -29.1870 
   83.1250    81.0600     9.2890     9.4040     8.8600    25.1780  -999.2500   -30.3890 
   83.2500    73.6940     9.5080     9.7720     9.4080    25.2690  -999.2500   -31.5030 
   83.3750    72.2640     9.5030     9.8490     9.4700    25.3740  -999.2500   -32.5300 
   83.5000    73.2520     9.3700     9.6950     9.4030    25.5090  -999.2500   -33.3860 
   83.6250    72.9150     9.2290     9.4090     9.2780    25.6260  -999.2500   -34.0540 
   83.7500    72.8490     9.1460     9.1120     9.0420    25.6200  -999.2500   -34.5400 
   83.8750    73.9850     9.1190     8.8560     8.9620    25.4160  -999.2500   -34.9380 
   84.0000    75.7660     9.1280     8.6610     9.2630    25.0530  -999.2500   -35.2050 
   84.1250    78.7110     9.1810     8.5540     9.3820    24.6540  -999.2500   -35.2980 
   84.2500    80.0870     9.3030     8.5370     9.3780    24.3520  -999.2500   -35.3640 
   84.3750    77.4890     9.5210     8.6180     9.4590    24.2010  -999.2500   -35.3010 
   84.5000    70.6340     9.8240     8.7870     9.7220    24.2180  -999.2500   -35.1440 
   84.6250    66.2520    10.1350     8.9980    10.1980    24.4160  -999.2500   -34.8880 
   84.7500    68.6490    10.3370     9.1590    10.5780    24.5870  -999.2500   -34.6070 
   84.8750    72.9820    10.3600     9.2050    10.8900    24.6240  -999.2500   -34.2710 
   85.0000    74.3720    10.2130     9.1240    11.2140    24.4590  -999.2500   -34.0090 
   85.1250    73.5400    10.0300     8.9840    11.4000    24.3040  -999.2500   -33.8520 
   85.2500    73.1300    10.0050     8.9270    11.3880    24.2040  -999.2500   -33.6610 
   85.3750    71.9550    10.2370     9.0440    11.9010    24.2010  -999.2500   -33.6490 
   85.5000    69.1590    10.6980     9.3450    13.4730    24.3040  -999.2500   -33.6420 
   85.6250    67.0890    11.2330     9.7580    17.2720    24.5000  -999.2500   -33.7260 
   85.7500    65.4040    11.6190    10.1230    23.0530    24.4880  -999.2500   -33.8990 
   85.8750    64.3120    11.7340    10.3230    24.5460    24.1700  -999.2500   -34.0670 
   86.0000    65.1720    11.5730    10.3120    17.3030    23.8130  -999.2500   -34.2650 
   86.1250    68.1430    11.2290    10.1080    13.0270    23.6710  -999.2500   -34.2850 
   86.2500    69.5730    10.8820     9.8450    11.5600    23.6410  -999.2500   -34.3690 
   86.3750    68.9190    10.6210     9.6030    11.2730    23.6010  -999.2500   -34.3840 
   86.5000    68.9140    10.4770     9.4270    11.2390    23.5100  -999.2500   -34.3690 
   86.6250    72.7950    10.4530     9.3380    11.2070    23.4090  -999.2500   -34.4480 
   86.7500    75.4920    10.4980     9.3040    11.1240    23.3700  -999.2500   -34.4970 
   86.8750    72.0060    10.5820     9.3050    11.0290    23.3670  -999.2500   -34.6190 
   87.0000    67.3880    10.6720     9.3220    10.9710    23.3780  -999.2500   -34.7780 
   87.1250    69.6960    10.7310     9.3440    10.9330    23.3820  -999.2500   -34.9850 
   87.2500    73.1170    10.7550     9.3690    10.8280    23.3900  -999.2500   -35.2050 
   87.3750    71.7440    10.7630     9.4030    10.8140    23.4320  -999.2500   -35.4570 
   87.5000    68.4190    10.7810     9.4540    10.8140    23.5320  -999.2500   -35.6990 
   87.6250    68.0330    10.8170     9.5090    10.8930    23.6450  -999.2500   -35.8790 
   87.7500    69.1300    10.8370     9.5380    10.9700    23.7150  -999.2500   -35.9920 
   87.8750    70.2990    10.8000     9.5090    11.1250    23.7550  -999.2500   -36.0230 
   88.0000    71.0910    10.6970     9.4130    11.3360    23.8130  -999.2500   -35.9190 
   88.1250    71.6180    10.5730     9.2910    11.0040    23.8500  -999.2500   -35.7970 
   88.2500    72.7850    10.5270     9.2310    10.6020    23.7900  -999.2500   -35.6540 
   88.3750    75.6830    10.6330     9.3070    10.3910    23.6210  -999.2500   -35.4280 
   88.5000    78.0310    10.8990     9.5440    10.3030    23.5160  -999.2500   -35.3030 
   88.6250    75.5810    11.2480     9.9000    10.4360    23.4940  -999.2500   -35.1260 
   88.7500    70.1490    11.5190    10.2310    10.8490    23.4560  -999.2500   -34.9670 
   88.8750    66.7660    11.6040    10.4160    11.1920    23.3480  -999.2500   -34.7670 
   89.0000    67.6380    11.4700    10.3850    11.2020    23.1740  -999.2500   -34.5760 
   89.1250    69.7570    11.1650    10.1340    11.0230    23.0260  -999.2500   -34.4940 
   89.2500    70.2950    10.8400     9.8040    10.8020    22.9690  -999.2500   -34.3020 
   89.3750    72.5240    10.5880     9.5050    10.6650    22.9610  -999.2500   -34.1920 
   89.5000    77.2270    10.4490     9.3040    10.5460    22.9710  -999.2500   -34.0390 
   89.6250    81.1400    10.4260     9.2290    10.4560    22.9970  -999.2500   -33.9030 
