~V
VERS. 2.00: Ver 2.00
~W
STRT.M 70.0000:
STOP.M 278.0000:
STEP.M 0.1250:
NULL. -999.2500:
UWI. DF3060:
~C
DEPT.M :
SP.MV :
GR.API :
RML.OHMM :
RI. :
RXO.OHMM :
CALI.CM :
DEN.GM/CC :
~A
# ...
  126.2500   -23.1160    99.9270     6.1240     4.6180     4.7990    23.1510     2.2870 
  126.3750   -23.0670    96.1490     6.2650     4.8520     5.3630    23.1410     2.2710 
  126.5000   -23.0550    91.8700     6.2960     4.9580     6.3200    23.1210     2.2570 
  126.6250   -23.0760    87.6730     6.2840     4.9700     7.3830    23.0880     2.2480 
  126.7500   -23.0850    85.8730     6.2930     4.9590     7.9830    23.0560     2.2430 
  126.8750   -23.0710    86.3450     6.3280     4.9440     7.8100    23.0280     2.2390 
  127.0000   -23.0180    86.6940     6.3550     4.9190     7.0220    23.0120     2.2360 
  127.1250   -22.9220    84.5470     6.3060     4.8470     6.2330    23.0080     2.2340 
  127.2500   -22.7920    82.9290     6.1640     4.7140     6.2290    23.0060     2.2320 
  127.3750   -22.6030    84.4170     5.9570     4.5360     6.1910    22.9960     2.2310 
  127.5000   -22.3650    88.7110     5.7550     4.3530     5.4750    22.9650     2.2300 
  127.6250   -22.0930    94.7660     5.6600     4.2320     4.2890    22.8850     2.2300 
  127.7500   -21.8460    98.7780     5.6990     4.2040     3.5260    22.7170     2.2320 
  127.8750   -21.6310    98.6140     5.8430     4.2670     3.5700    22.4490     2.2400 
  128.0000   -21.4370    94.7960     6.0180     4.3850     3.9260    22.1900     2.2550 
  128.1250   -21.2630    90.3990     6.1180     4.5000     4.0930    22.0980     2.2750 
  128.2500   -21.0590    89.1350     6.1000     4.5600     4.1140    22.0990     2.2940 
  128.3750   -20.8450    90.9010     5.9820     4.5540     4.0710    22.1550     2.3040 
  128.5000   -20.6320    93.2260     5.8350     4.5020     3.9650    22.2630     2.3000 
  128.6250   -20.4300    93.1100     5.7540     4.4540     3.9800    22.4340     2.2790 
  128.7500   -20.2470    92.4880     5.7780     4.4500     3.9980    22.6740     2.2510 
  128.8750   -20.0730    93.5430     5.9050     4.5030     3.9590    22.9950     2.2230 
  129.0000   -19.9360    94.7740     6.0990     4.6030     4.0040    23.2710     2.2050 
  129.1250   -19.8330    94.3600     6.2910     4.7110     4.1440    23.3410     2.2030 
  129.2500   -19.7950    93.4060     6.3970     4.7640     4.2060    23.2880     2.2160 
  129.3750   -19.8120    94.6100     6.3450     4.6990     4.1660    23.2000     2.2380 
  129.5000   -19.8690    97.7070     6.0860     4.4770     4.0060    23.1390     2.2640 
  129.6250   -19.9490    99.4220     5.6050     4.0810     3.6850    23.1320     2.2870 
  129.7500   -20.0180    99.2210     5.0460     3.6230     3.4130    23.1430     2.3030 
  129.8750   -20.0820    99.0250     4.5940     3.2370     3.2840    23.1490     2.3110 
  130.0000   -20.1490    99.8490     4.4830     3.0940     3.3090    23.1520     2.3130 
  130.1250   -20.2870    98.3390     5.0560     3.4600     3.9360    23.1510     2.3180 
  130.2500   -20.4880    94.0050     6.2950     4.3690     5.5820    23.1490     2.3310 
  130.3750   -20.7630    89.7270     8.0330     5.7600     8.3320    23.1380     2.3520 
  130.5000   -21.0830    86.5900     9.8750     7.3870    11.7700    23.1030     2.3680 
  130.6250   -21.4540    82.7370    11.1260     8.7350    14.5860    23.0080     2.3630 
  130.7500   -21.8460    77.5500    11.4030     9.3790    15.1580    22.8140     2.3350 
  130.8750   -22.2340    73.6300    10.7170     9.1860    12.2570    22.4940     2.2960 
  131.0000   -22.5910    72.7200     9.4820     8.3900     9.1230    22.1200     2.2610 
  131.1250   -22.7830    73.0080     8.2740     7.4240     7.8680    21.9790     2.2410 
  131.2500   -22.8200    73.1810     7.3970     6.6270     7.1260    21.9750     2.2320 
  131.3750   -22.6590    74.9660     6.8720     6.0710     6.2850    22.0480     2.2270 
  131.5000   -22.3340    79.4720     6.6210     5.7230     5.3120    22.1640     2.2240 
  131.6250   -21.8800    83.2410     6.5790     5.5410     4.5470    22.2300     2.2220 
  131.7500   -21.4130    84.1210     6.6430     5.4520     4.3440    22.2720     2.2240 
  131.8750   -20.9780    84.5720     6.7530     5.4180     4.3860    22.3290     2.2310 
  132.0000   -20.5640    86.9070     6.8440     5.3930     4.4170    22.4480     2.2420 
  132.1250   -20.2300    89.5660     6.8330     5.3120     4.2860    22.7060     2.2570 
  132.2500   -19.9600    91.5330     6.6950     5.1430     4.0770    23.0630     2.2710 
  132.3750   -19.7820    94.4340     6.4240     4.8820     3.9010    23.3550     2.2830 
  132.5000   -19.7040    97.3190     6.0360     4.5440     3.8060    23.4710     2.2940 
  132.6250   -19.6960    96.7250     5.5610     4.1680     3.8510    23.4560     2.3070 
  132.7500   -19.6700    94.2350     5.1040     3.8290     3.7600    23.4050     2.3230 
  132.8750   -19.5890    93.7950     4.8060     3.6150     3.5260    23.3470     2.3450 
  133.0000   -19.4780    95.2110     4.8140     3.6210     3.5530    23.3150     2.3730 
  133.1250   -19.3420    94.1020     5.2600     3.9410     4.3320    23.3060     2.4050 
  133.2500   -19.1850    90.1720     5.9870     4.4790     5.7580    23.3050     2.4300 
  133.3750   -19.0640    85.6510     6.7790     5.1020     7.3550    23.3020     2.4360 
  133.5000   -19.0020    81.5570     7.3770     5.6330     8.5560    23.2900     2.4170 
  133.6250   -18.9620    78.3280     7.5310     5.8760     7.9130    23.2570     2.3740 
  133.7500   -18.9620    77.7000     7.3450     5.8530     6.2120    23.1860     2.3290 
  133.8750   -19.0030    80.0320     7.0110     5.6700     5.0920    23.0420     2.2920 
  134.0000   -19.1120    82.5620     6.7170     5.4580     4.9930    22.8130     2.2710 
  134.1250   -19.2540    82.9590     6.5840     5.3240     5.3100    22.6030     2.2650 
  134.2500   -19.4110    83.0670     6.5830     5.2830     5.3920    22.5180     2.2660 
  134.3750   -19.5730    83.2850     6.6910     5.3300     5.3280    22.5000     2.2680 
  134.5000   -19.7830    81.0350     6.9250     5.4770     5.4760    22.4980     2.2650 
  134.6250   -20.0560    75.8930     7.3720     5.7930     6.3600    22.4950     2.2550 
  134.7500   -20.3480    72.0080     8.0240     6.2830     7.7710    22.4950     2.2420 
  134.8750   -20.6300    71.6140     8.8190     6.9180     9.3340    22.4980     2.2310 
  135.0000   -20.8760    72.4910     9.6190     7.6070    10.5700    22.5080     2.2250 
  135.1250   -21.1210    70.8270    10.2090     8.1840    10.8980    22.5330     2.2220 
  135.2500   -21.3490    68.2840    10.4960     8.5420    10.1440    22.5800     2.2190 
  135.3750   -21.5710    67.4490    10.4850     8.6520     9.4620    22.6570     2.2130 
  135.5000   -21.7480    68.7950    10.2770     8.5600     8.9120    22.7490     2.2040 
  135.6250   -21.8740    69.6150    10.0220     8.3590     8.6310    22.7860     2.1920 
  135.7500   -21.9740    69.0510     9.8260     8.1540     8.6800    22.7760     2.1830 
  135.8750   -22.0430    69.3990     9.7040     7.9870     8.7990    22.7110     2.1810 
  136.0000   -22.0840    72.5930     9.6260     7.8680     8.8890    22.5910     2.1870 
  136.1250   -22.0950    76.5560     9.5530     7.7930     8.8800    22.5140     2.1980 
  136.2500   -22.1090    77.3090     9.4790     7.7480     8.7450    22.4730     2.2080 
  136.3750   -22.0990    75.3760     9.4180     7.7290     8.5300    22.4360     2.2160 
  136.5000   -22.0900    73.7820     9.3850     7.7310     8.3260    22.3660     2.2200 
  136.6250   -22.0770    73.3710     9.3800     7.7420     8.2720    22.2600     2.2200 
  136.7500   -22.0840    72.3740     9.3780     7.7430     8.4820    22.1800     2.2190 
  136.8750   -22.1380    71.7930     9.3610     7.7200     8.9180    22.1700     2.2160 
  137.0000   -22.2550    72.6380     9.3150     7.6620     9.4840    22.2260     2.2120 
  137.1250   -22.4140    72.5340     9.2290     7.5610     9.7820    22.3610     2.2070 
  137.2500   -22.5970    70.3550     9.1130     7.4340     9.5250    22.5900     2.2040 
  137.3750   -22.7890    68.0860     8.9770     7.3000     8.7500    22.8590     2.2050 
