~V
VERS. 2.00: Ver 2.00
~W
STRT.M 125.0000:
STOP.M 256.0000:
STEP.M 0.1250:
NULL. -999.2500:
UWI. DF3030:
~C
DEPT.M :
GR.API :
RML.OHMM :
RI. :
RXO.OHMM :
CALI.CM :
DEN.GM/CC :
SP.MV :
~A
# ...
  203.7500    85.6030     8.2880     6.9400     6.1900    25.0770     2.3960   -17.2940 
  203.8750    85.4000     8.6630     7.2150     6.5350    25.1560     2.4080   -17.6100 
  204.0000    88.4150     9.0470     7.5020     7.1460    24.9350     2.4190   -17.9200 
  204.1250    90.1770     9.4400     7.7940     7.8860    24.7070     2.4190   -18.2880 
  204.2500    90.6540     9.8490     8.0980     8.4920    24.4580     2.4080   -18.6190 
  204.3750    91.0350    10.2970     8.4300     8.7910    24.1410     2.3900   -19.0140 
  204.5000    90.2570    10.8300     8.8260     9.3020    23.8580     2.3730   -19.3050 
  204.6250    88.1220    11.5770     9.3750    10.6410    23.9280     2.3640   -19.6610 
  204.7500    85.1770    12.6290    10.1430    11.9110    24.4460     2.3590   -19.9550 
  204.8750    83.2360    14.0650    11.2070    13.1890    25.1730     2.3530   -20.3050 
  205.0000    83.9440    15.8980    12.6060    13.7040    25.7940     2.3400   -20.6540 
  205.1250    84.8360    18.1090    14.3820    15.9360    26.1720     2.3190   -21.0390 
  205.2500    82.8400    20.5660    16.4400    19.4210    26.3020     2.2960   -21.5090 
  205.3750    79.5370    23.2940    18.7800    23.3430    26.2790     2.2740   -21.8780 
  205.5000    78.1450    26.4490    21.4860    26.4660    26.1940     2.2600   -22.3330 
  205.6250    77.5300    30.4100    24.8410    27.9260    26.0760     2.2560   -22.7070 
  205.7500    75.2970    35.2250    28.9240    30.5850    25.8400     2.2620   -23.0740 
  205.8750    71.9640    40.7640    33.7070    35.7540    25.5040     2.2710   -23.4470 
  206.0000    69.4590    46.5800    38.9060    43.8740    25.1980     2.2790   -23.7490 
  206.1250    69.8720    51.8120    43.8720    56.7230    25.0510     2.2780   -23.9500 
  206.2500    73.7070    55.8400    47.9920    59.5820    25.0150     2.2680   -24.1030 
  206.3750    76.6470    58.4440    50.9740    58.1120    25.0100     2.2550   -24.2920 
  206.5000    75.4490    59.8780    52.9270    58.4350    25.0100     2.2410   -24.4380 
  206.6250    71.7000    60.8100    54.3330    59.4120    25.0100     2.2310   -24.5850 
  206.7500    69.8460    62.1910    56.0280    60.7790    25.0100     2.2250   -24.7710 
  206.8750    70.2550    64.7040    58.6490    62.3720    25.0100     2.2220   -24.8200 
  207.0000    70.7420    68.7980    62.6470    64.2150    25.0100     2.2220   -24.9450 
  207.1250    70.6160    74.5980    68.2420    67.7260    25.0090     2.2270   -25.0240 
  207.2500    69.1780    80.7500    74.3410    72.3190    24.9970     2.2330   -25.0760 
  207.3750    65.8170    85.4030    79.3780    78.1280    24.9740     2.2370   -25.0690 
  207.5000    62.0520    86.4890    81.4670    86.3220    24.9690     2.2340   -25.0060 
  207.6250    61.0490    81.7730    78.4510    90.5240    24.9930     2.2260   -24.9180 
  207.7500    63.5190    72.8840    71.4890    86.0420    25.0070     2.2210   -24.7650 
  207.8750    68.4130    62.9050    62.7980    72.7670    25.0100     2.2240   -24.6670 
  208.0000    74.6810    55.1070    55.3650    58.5160    25.0100     2.2370   -24.4380 
  208.1250    80.2870    54.2540    52.8490    48.3160    25.0120     2.2520   -24.3220 
  208.2500    80.6660    60.7250    56.4810    47.1360    25.0260     2.2570   -24.2190 
  208.3750    73.5720    75.5490    66.9290    56.8560    25.0510     2.2450   -24.1970 
  208.5000    63.2380    97.9510    83.5700    83.5250    25.0650     2.2180   -24.1760 
  208.6250    58.4100   121.5130   104.1290   116.9520    25.0630     2.1880   -24.1030 
  208.7500    60.0810   143.6470   123.5300   128.9400    25.0820     2.1650   -24.1090 
  208.8750    62.9230   159.7810   137.8880   119.6510    25.0940     2.1570   -24.0550 
  209.0000    63.9040   167.5910   145.2820   113.3310    25.0870     2.1630   -24.0840 
  209.1250    63.4540   167.7560   146.0000   113.5030    25.0600     2.1770   -24.1070 
  209.2500    65.0240   165.3090   143.9930   116.4450    25.0260     2.1900   -24.0420 
  209.3750    68.3560   162.6640   141.3080   116.9840    25.0120     2.1990   -23.9530 
  209.5000    69.6120   160.7840   138.9350   113.2170    25.0100     2.2010   -23.8460 
  209.6250    66.6360   160.3620   137.5980   108.4710    25.0100     2.1970   -23.8970 
  209.7500    65.0920   161.7390   137.7450   106.9360    25.0060     2.1900   -23.8920 
  209.8750    67.0880   165.4850   139.9650   111.4220    24.9830     2.1820   -23.9970 
  210.0000    69.4790   172.1820   144.8120   120.5550    24.9130     2.1740   -24.1580 
  210.1250    69.3610   182.9440   153.2450   124.5410    24.7710     2.1700   -24.2370 
  210.2500    68.7550   197.2960   164.7950   127.0750    24.5620     2.1690   -24.4840 
  210.3750    68.6210   214.5720   178.8840   128.4960    24.3180     2.1690   -24.7270 
  210.5000    68.7840   233.1050   194.1860   132.9040    24.1290     2.1680   -25.0670 
  210.6250    68.2260   249.3860   208.0390   141.0230    24.1770     2.1640   -25.2790 
  210.7500    66.2040   259.9490   217.7360   153.6000    24.4780     2.1590   -25.5520 
  210.8750    63.3200   262.0910   221.1020   162.1840    24.8820     2.1560   -25.7570 
  211.0000    61.9640   254.7940   217.1130   161.7520    25.0920     2.1570   -25.9220 
  211.1250    63.8170   238.4370   205.6070   154.5750    25.0830     2.1620   -26.1350 
  211.2500    67.0690   218.2300   190.4000   144.8600    25.0200     2.1660   -26.2630 
  211.3750    67.6560   198.2010   174.6280   132.2660    24.9680     2.1700   -26.4190 
  211.5000    64.1920   181.5960   161.1020   121.0990    24.9400     2.1740   -26.4650 
  211.6250    61.7890   171.0880   152.4000   111.6590    24.9320     2.1810   -26.6460 
  211.7500    63.0950   165.6360   148.0940   103.9910    24.9320     2.1910   -26.7580 
  211.8750    65.5520   163.7720   147.1700   103.0910    24.9330     2.2020   -26.9060 
  212.0000    67.1230   163.3860   147.9170   109.7170    24.9340     2.2120   -27.1120 
  212.1250    68.1740   161.8750   148.0570   119.0190    24.9350     2.2180   -27.2490 
  212.2500    67.4360   157.5350   145.9210   124.2590    24.9340     2.2200   -27.4230 
  212.3750    64.9400   149.8000   140.7740   120.6490    24.9320     2.2210   -27.5920 
  212.5000    64.0300   139.1940   132.7140   110.2390    24.9320     2.2210   -27.7470 
  212.6250    66.3860   126.7680   122.3510   100.0960    24.9320     2.2240   -27.8500 
  212.7500    67.9330   114.6930   111.3270    93.2070    24.9320     2.2290   -27.8690 
  212.8750    67.2680   104.0730   100.7360    87.1550    24.9320     2.2310   -27.8910 
  213.0000    66.1370    95.4360    91.4040    79.7070    24.9320     2.2340   -27.8440 
  213.1250    67.0670    89.1080    84.0890    70.3730    24.9340     2.2300   -27.8320 
  213.2500    69.1620    82.7740    78.4790    64.6670    24.9480     2.2240   -27.7980 
  213.3750    69.7950    77.9770    74.2420    61.9920    24.9790     2.2220   -27.7280 
  213.5000    68.2530    74.2180    70.9660    61.4160    25.0020     2.2260   -27.6980 
  213.6250    67.7440    71.2120    68.3920    61.4870    25.0170     2.2370   -27.5740 
  213.7500    70.3690    68.7310    66.2740    61.1750    25.0380     2.2480   -27.6090 
  213.8750    73.8480    66.8620    64.6640    58.0300    25.0670     2.2540   -27.5620 
  214.0000    75.7340    65.7250    63.6650    53.7670    25.0840     2.2510   -27.5510 
  214.1250    74.2410    65.3990    63.3570    53.8830    25.0880     2.2400   -27.5340 
  214.2500    71.2860    65.4400    63.3580    57.0060    25.0840     2.2280   -27.5080 
  214.3750    68.4660    65.3900    63.2510    59.3650    25.0690     2.2190   -27.5010 
  214.5000    68.0660    64.8380    62.6420    59.8630    25.0340     2.2160   -27.4230 
  214.6250    71.2460    63.5290    61.2650    60.2670    25.0160     2.2160   -27.4470 
  214.7500    74.9310    61.8620    59.4760    58.5680    25.0100     2.2190   -27.3990 
  214.8750    76.3900    60.3410    57.7390    53.3200    25.0100     2.2200   -27.4690 
