~V
VERS. 2.00: Ver 2.00
~W
STRT.M 61.0000:
STOP.M 318.0000:
STEP.M 0.1250:
NULL. -999.2500:
UWI. DF302:
~C
DEPT.M :
DEN.GM/CC :
SP.MV :
AC.US/MT :
GR.API :
CALI.CM :
RXO.OHMM :
RI. :
RML.OHMM :
~A
   61.0000  -999.2500    39.2290  -999.2500  -999.2500  -999.2500  -999.2500  -999.2500  -999.2500 
   61.1250  -999.2500    37.6390  -999.2500  -999.2500  -999.2500  -999.2500  -999.2500  -999.2500 
   61.2500  -999.2500    36.5760  -999.2500  -999.2500  -999.2500  -999.2500  -999.2500  -999.2500 
   61.3750  -999.2500    36.1660  -999.2500  -999.2500  -999.2500  -999.2500  -999.2500  -999.2500 
   61.5000  -999.2500    36.4110  -999.2500  -999.2500  -999.2500  -999.2500  -999.2500  -999.2500 
   61.6250  -999.2500    37.2520  -999.2500  -999.2500  -999.2500  -999.2500  -999.2500  -999.2500 
   61.7500  -999.2500    38.3880  -999.2500  -999.2500  -999.2500  -999.2500  -999.2500  -999.2500 
   61.8750  -999.2500    39.6750  -999.2500  -999.2500  -999.2500  -999.2500  -999.2500  -999.2500 
   62.0000  -999.2500    40.9840  -999.2500  -999.2500  -999.2500  -999.2500  -999.2500  -999.2500 
   62.1250  -999.2500    42.1450  -999.2500  -999.2500  -999.2500  -999.2500  -999.2500  -999.2500 
   62.2500  -999.2500    42.9720  -999.2500  -999.2500  -999.2500  -999.2500  -999.2500  -999.2500 
   62.3750  -999.2500    43.3060  -999.2500  -999.2500  -999.2500  -999.2500  -999.2500  -999.2500 
   62.5000  -999.2500    43.1190  -999.2500  -999.2500  -999.2500  -999.2500  -999.2500  -999.2500 
   62.6250  -999.2500    42.4090  -999.2500  -999.2500  -999.2500  -999.2500  -999.2500  -999.2500 
   62.7500  -999.2500    41.4160  -999.2500  -999.2500  -999.2500  -999.2500  -999.2500  -999.2500 
   62.8750  -999.2500    40.2630  -999.2500  -999.2500  -999.2500  -999.2500  -999.2500  -999.2500 
   63.0000  -999.2500    39.0120  -999.2500  -999.2500  -999.2500  -999.2500  -999.2500  -999.2500 
   63.1250  -999.2500    37.7860  -999.2500  -999.2500  -999.2500  -999.2500  -999.2500  -999.2500 
   63.2500  -999.2500    36.7290  -999.2500  -999.2500  -999.2500  -999.2500  -999.2500  -999.2500 
   63.3750  -999.2500    35.9220  -999.2500    43.0510    25.9280     7.3780     4.1110  7594.3450 
   63.5000  -999.2500    35.3740  -999.2500    43.0510    25.9280     7.3780     4.1110  7594.3450 
   63.6250  -999.2500    35.1210  -999.2500    46.7140    26.0050    11.3160     4.7060 534463.0630 
   63.7500  -999.2500    35.1390  -999.2500    50.2360    25.9900    13.2290     5.8820 534463.0630 
   63.8750  -999.2500    35.4070  -999.2500    50.1450    25.9870    13.3690     7.2800 146420.6090 
   64.0000  -999.2500    35.8950  -999.2500    48.1220    25.9880    13.4420     7.9260  2368.7730 
   64.1250  -999.2500    36.5300  -999.2500    46.1180    25.9880    13.8270     7.4910   555.7680 
   64.2500  -999.2500    37.1800  -999.2500    43.9350    25.9870    16.0890     6.4100   174.6480 
   64.3750  -999.2500    37.7790  -999.2500    42.7080    25.9790    25.7760     4.8880    60.4540 
   64.5000  -999.2500    38.2560  -999.2500    43.7690    25.9620    28.6040     3.4460    23.1120 
   64.6250  -999.2500    38.4140  -999.2500    45.9130    25.9470    18.4560     2.4770    11.2790 
   64.7500  -999.2500    38.0190  -999.2500    47.0630    25.9060     4.9150     1.8220     5.6100 
   64.8750  -999.2500    36.7080  -999.2500    50.0360    25.8010     1.4250     1.3790     2.7600 
   65.0000  -999.2500    34.0840  -999.2500    56.5850    25.6280     0.8830     1.1520     1.4070 
   65.1250  -999.2500    29.8180  -999.2500    62.0330    25.5530     1.5030     1.1450     0.9680 
   65.2500  -999.2500    24.5340  -999.2500    63.8940    26.0470     2.7560     1.2570     0.9920 
   65.3750  -999.2500    18.6930  -999.2500    65.6760    27.5920     4.0860     1.4700     1.3970 
   65.5000  -999.2500    12.6020  -999.2500    71.0260    29.6110     4.8870     1.8160     2.1790 
   65.6250  -999.2500     6.4210  -999.2500    77.2810    29.9150     5.1110     2.3850     3.2950 
   65.7500  -999.2500     0.3830  -999.2500    78.1490    28.0900     5.5630     3.1530     4.3790 
   65.8750  -999.2500    -5.1770  -999.2500    72.9080    25.5830     7.0240     4.0480     5.2440 
   66.0000  -999.2500    -9.8540  -999.2500    66.9520    23.9220    10.3070     4.9970     5.9890 
   66.1250  -999.2500   -13.2870  -999.2500    65.0270    23.4270    15.0660     5.9160     6.7540 
   66.2500  -999.2500   -15.9180  -999.2500    65.3070    23.3490    17.3300     6.6730     7.4400 
   66.3750  -999.2500   -18.1190  -999.2500    64.7610    23.4440    15.3030     7.1230     7.8170 
   66.5000  -999.2500   -20.0810  -999.2500    62.6910    23.5220    11.4590     7.2070     7.7620 
   66.6250  -999.2500   -21.7670  -999.2500    62.3870    23.5060     9.4330     7.0010     7.3770 
   66.7500  -999.2500   -23.1920  -999.2500    65.4610    23.4750     8.8060     6.7410     6.9790 
   66.8750  -999.2500   -24.3500  -999.2500    69.1520    23.4340     8.5870     6.5480     6.7150 
   67.0000  -999.2500   -25.2770  -999.2500    70.4370    23.3670     8.4780     6.4670     6.6120 
   67.1250  -999.2500   -26.0070  -999.2500    68.9980    23.2890     8.5900     6.4880     6.6220 
   67.2500  -999.2500   -26.6310  -999.2500    68.2310    23.2280     8.7690     6.5400     6.6330 
   67.3750  -999.2500   -27.1720  -999.2500    68.8840    23.1960     8.8480     6.5710     6.5980 
   67.5000  -999.2500   -27.6520  -999.2500    69.6650    23.1710     8.7460     6.5440     6.5360 
   67.6250  -999.2500   -28.0420  -999.2500    68.5490    23.1040     8.3520     6.4320     6.4840 
   67.7500  -999.2500   -28.3430  -999.2500    66.4180    23.0770     7.7220     6.2680     6.4440 
   67.8750  -999.2500   -28.5420  -999.2500    64.8560    23.2010     7.0600     6.1020     6.4100 
   68.0000  -999.2500   -28.6040  -999.2500    63.5560    23.4370     6.5820     5.9980     6.4110 
   68.1250  -999.2500   -28.5350  -999.2500    61.6010    23.5970     6.3670     6.0320     6.5470 
   68.2500  -999.2500   -28.3820  -999.2500    62.4670    23.6390     6.4300     6.2060     6.8870 
   68.3750  -999.2500   -28.1740  -999.2500    65.8940    23.6330     7.0110     6.5030     7.4410 
   68.5000  -999.2500   -27.9720  -999.2500    67.0790    23.5560     8.2660     6.8670     8.0980 
   68.6250  -999.2500   -27.8450  -999.2500    63.7870    23.3560     9.8350     7.1930     8.5800 
   68.7500  -999.2500   -27.8270  -999.2500    61.0840    23.1630    10.9450     7.4000     8.7470 
   68.8750  -999.2500   -27.9240  -999.2500    61.2840    23.0820    11.3820     7.4650     8.6270 
   69.0000  -999.2500   -28.1380  -999.2500    62.4930    23.0930    11.3840     7.4140     8.3490 
   69.1250  -999.2500   -28.4610  -999.2500    64.4400    23.1080    11.2370     7.2990     8.0630 
   69.2500  -999.2500   -28.8600  -999.2500    66.3620    23.1120    11.1610     7.1780     7.8650 
   69.3750  -999.2500   -29.3200  -999.2500    65.9520    23.1280    11.2630     7.0710     7.7720 
   69.5000  -999.2500   -29.7990  -999.2500    61.9580    23.1550    11.4400     6.9700     7.7580 
   69.6250  -999.2500   -30.2500  -999.2500    58.6160    23.1990    11.4320     6.8660     7.7810 
   69.7500  -999.2500   -30.6470  -999.2500    59.0720    23.2770    11.2180     6.7570     7.8150 
   69.8750  -999.2500   -30.9900  -999.2500    60.9990    23.3820    10.9360     6.6490     7.8690 
   70.0000  -999.2500   -31.2680  -999.2500    62.0230    23.4730    10.7100     6.5480     7.9470 
   70.1250  -999.2500   -31.4630  -999.2500    62.0850    23.4990    10.6230     6.4590     8.0100 
   70.2500  -999.2500   -31.5690  -999.2500    61.6530    23.4860    10.6810     6.3860     8.0320 
   70.3750  -999.2500   -31.5800  -999.2500    60.1670    23.4800    10.8350     6.3500     8.0340 
   70.5000  -999.2500   -31.4860  -999.2500    57.9610    23.4890    10.9630     6.3860     8.0910 
   70.6250  -999.2500   -31.2910  -999.2500    57.4830    23.4940    10.8860     6.5520     8.3590 
   70.7500  -999.2500   -31.0480  -999.2500    57.2050    23.4780    10.6140     6.8500     8.8930 
   70.8750  -999.2500   -30.7770  -999.2500    57.2610    23.4360    10.2990     7.2750     9.6350 
