~V
VERS. 2.00: Ver 2.00
~W
STRT.M 120.0000:
STOP.M 233.0000:
STEP.M 0.1250:
NULL. -999.2500:
UWI. DF3066:
~C
DEPT.M :
GR.API :
RML.OHMM :
RI. :
RXO.OHMM :
CALI.CM :
DEN.GM/CC :
SP.MV :
~A
# ...
  187.5000    60.0280     8.3890     6.8620     5.9610    23.4310     2.3770    -8.2340 
  187.6250    65.4390     8.3860     6.8670     5.9030    23.4300     2.3750    -8.1020 
  187.7500    72.2720     8.3950     6.8580     5.9820    23.4320     2.3780    -8.0470 
  187.8750    78.3400     8.3790     6.8250     6.1500    23.4330     2.3850    -8.0150 
  188.0000    82.2500     8.3220     6.7680     6.2820    23.4330     2.3920    -8.0630 
  188.1250    83.2710     8.2390     6.6910     6.3400    23.4380     2.3960    -8.1510 
  188.2500    83.7800     8.1710     6.6070     6.4350    23.4830     2.3980    -8.2920 
  188.3750    85.2990     8.1370     6.5230     6.4910    23.6110     2.3980    -8.4460 
  188.5000    87.7250     8.1270     6.4450     6.5300    23.7760     2.3980    -8.6180 
  188.6250    89.6950     8.1140     6.3760     6.4630    23.8640     2.3980    -8.7780 
  188.7500    90.6310     8.0880     6.3220     6.2560    23.9060     2.3970    -8.9170 
  188.8750    90.7010     8.0700     6.2960     6.0790    23.9560     2.3940    -9.0840 
  189.0000    89.9820     8.0910     6.3140     6.0540    24.0000     2.3890    -9.2280 
  189.1250    88.3900     8.1740     6.3920     6.1920    24.0010     2.3860    -9.3890 
  189.2500    86.8910     8.2800     6.5120     6.4670    24.0040     2.3840    -9.5370 
  189.3750    86.1290     8.3530     6.6460     7.0000    24.0050     2.3810    -9.6940 
  189.5000    86.2410     8.3470     6.7590     7.6130    24.1250     2.3770    -9.8690 
  189.6250    86.9140     8.2590     6.8260     7.8990    24.1970     2.3700   -10.1040 
  189.7500    88.7090     8.1950     6.8840     7.6310    24.0270     2.3610   -10.3520 
  189.8750    91.3470     8.2890     7.0070     7.5630    23.6440     2.3540   -10.6540 
  190.0000    92.5460     8.6780     7.3010     7.8250    23.4330     2.3520   -10.9190 
  190.1250    90.5950     9.5220     7.9330     8.6030    23.4330     2.3540   -11.2060 
  190.2500    88.0230    10.7380     8.9120     9.9660    23.4560     2.3590   -11.4780 
  190.3750    85.5340    12.1940    10.1850    11.8720    23.5440     2.3620   -11.7680 
  190.5000    82.5980    13.6660    11.5950    14.3620    23.7530     2.3590   -12.0120 
  190.6250    81.6170    14.8340    12.8650    16.7710    24.0140     2.3500   -12.2560 
  190.7500    84.6030    15.5650    13.7910    18.0390    24.2420     2.3370   -12.4540 
  190.8750    87.1100    15.8790    14.3150    17.7870    24.0760     2.3240   -12.5980 
  191.0000    85.4980    15.9180    14.5130    16.2200    23.7790     2.3160   -12.7260 
  191.1250    82.4970    15.8210    14.5040    14.8470    23.6080     2.3170   -12.8040 
  191.2500    82.1590    15.6510    14.4050    14.4890    23.6900     2.3260   -12.8690 
  191.3750    84.5070    15.3520    14.2040    14.7010    23.7850     2.3390   -12.8620 
  191.5000    88.0640    14.8700    13.8680    15.3300    23.8540     2.3510   -12.8360 
  191.6250    88.2270    14.2180    13.3950    15.4200    23.8940     2.3570   -12.7440 
  191.7500    86.1160    13.5810    12.9200    14.8560    23.9290     2.3580   -12.6070 
  191.8750    85.7780    13.1400    12.5920    12.8720    23.9580     2.3580   -12.4600 
  192.0000    88.6590    13.0130    12.5310    11.3220    23.9700     2.3610   -12.2620 
  192.1250    91.1690    13.1870    12.8010    10.3780    23.9700     2.3680   -12.1350 
  192.2500    91.0870    13.4960    13.2190    10.6050    23.9680     2.3750   -11.9660 
  192.3750    90.0540    13.7040    13.5660    11.5650    23.9610     2.3770   -11.8510 
  192.5000    89.1480    13.7510    13.6280    12.5610    23.9470     2.3750   -11.7980 
  192.6250    89.4960    13.3740    13.2270    12.7520    23.9500     2.3700   -11.6970 
  192.7500    89.7310    12.9410    12.5370    12.0030    23.9610     2.3660   -11.6700 
  192.8750    87.1690    12.6070    11.7980    10.4220    23.9660     2.3660   -11.7070 
  193.0000    85.5480    12.1560    11.2800     9.4570    23.9670     2.3690   -11.7680 
  193.1250    88.3040    12.3390    11.2660     9.3040    23.9710     2.3690   -11.8510 
  193.2500    91.8260    13.1640    11.7470     9.5190    23.9880     2.3640   -12.0700 
  193.3750    92.9630    14.3520    12.6060     9.8790    24.0240     2.3530   -12.2330 
  193.5000    90.7860    15.4990    13.5830    10.8270    24.0500     2.3370   -12.4020 
  193.6250    86.1260    16.0750    14.2800    12.2070    24.0580     2.3220   -12.7750 
  193.7500    81.4560    15.9960    14.5500    14.6110    24.0580     2.3120   -13.1350 
  193.8750    81.5230    15.7080    14.5870    17.6180    24.0580     2.3070   -13.5770 
  194.0000    86.2020    15.8630    15.0370    17.2370    24.0390     2.3070   -14.1540 
  194.1250    88.9590    18.5800    17.6330    17.3900    23.9690     2.3090   -14.7860 
  194.2500    87.2250    25.3950    24.0620    20.2580    23.8840     2.3150   -15.4910 
  194.3750    82.6960    38.5960    35.9680    29.4200    23.8900     2.3300   -16.2730 
  194.5000    77.8190    59.4780    53.9030    48.5890    23.8920     2.3530   -17.1510 
  194.6250    73.5300    85.9690    76.5590    77.3390    23.9820     2.3750   -17.9820 
  194.7500    68.9240   113.6590    98.6200    92.0140    24.0390     2.3770   -18.8380 
  194.8750    65.0680   136.3630   115.4780    87.9340    24.1520     2.3510   -19.6990 
  195.0000    63.0180   149.7670   124.9890    91.1880    24.2500     2.3000   -20.4770 
  195.1250    65.2940   155.1600   128.7640    96.5750    24.1230     2.2460   -21.1820 
  195.2500    68.7030   160.2510   132.1110    93.8510    24.0460     2.2060   -21.8320 
  195.3750    69.3850   168.3290   137.4950    90.6040    24.0270     2.1840   -22.4270 
  195.5000    67.1270   179.5930   145.3000    92.6800    24.0430     2.1760   -22.9060 
  195.6250    66.5120   192.4000   154.4540    99.9900    24.0540     2.1760   -23.4340 
  195.7500    68.0870   203.8350   162.8640   105.1030    24.0610     2.1750   -23.8830 
  195.8750    67.6090   211.7420   169.0720   106.5940    24.0740     2.1740   -24.1710 
  196.0000    64.4180   214.8910   172.2620   105.9300    24.1030     2.1730   -24.5240 
  196.1250    63.6490   212.6560   171.9360   104.6340    24.1240     2.1710   -24.7530 
  196.2500    65.4030   207.2620   169.3540   102.7250    24.1340     2.1690   -24.8500 
  196.3750    67.2820   200.6510   165.6210   101.4240    24.1410     2.1660   -25.0720 
  196.5000    68.2420   194.8080   162.0390   101.4290    24.1520     2.1630   -25.2810 
  196.6250    67.6390   191.7250   160.2310   101.1100    24.1670     2.1610   -25.3010 
  196.7500    65.5950   191.4470   160.6810    98.8780    24.1750     2.1610   -25.4180 
  196.8750    63.2770   193.2740   163.1320    96.9400    24.1820     2.1620   -25.5310 
  197.0000    61.2300   195.7360   166.5260    98.5360    24.1950     2.1650   -25.5550 
  197.1250    61.1940   196.5290   169.0010   100.1050    24.2640     2.1670   -25.7000 
  197.2500    64.7630   194.2280   169.1590   100.9010    24.3990     2.1690   -25.7990 
  197.3750    69.3290   188.2800   166.3640   100.6080    24.5320     2.1700   -25.8120 
  197.5000    69.1940   179.1130   160.7790    98.2770    24.5920     2.1720   -25.7990 
  197.6250    63.6830   167.9190   153.1310    95.5990    24.5950     2.1770   -25.8100 
  197.7500    60.9760   156.7740   145.0460    93.1830    24.5980     2.1840   -25.7750 
  197.8750    63.0250   146.8970   137.4750    90.6320    24.6160     2.1910   -25.6670 
  198.0000    66.6280   139.0240   131.0160    85.5980    24.6640     2.1940   -25.6040 
  198.1250    67.2920   133.9880   126.3410    81.2790    24.7540     2.1900   -25.4230 
  198.2500    66.0320   131.6630   123.5900    81.2620    24.8370     2.1820   -25.2590 
  198.3750    66.9510   132.3230   123.1840    84.7120    24.8470     2.1750   -25.1780 
  198.5000    70.0330   136.2490   125.5610    88.5520    24.6860     2.1730   -25.1220 
  198.6250    69.4800   144.0260   131.4750    88.8070    24.4680     2.1800   -25.0060 
