~V
VERS. 2.00: Ver 2.00
~W
STRT.M 60.0000:
STOP.M 266.0000:
STEP.M 0.1250:
NULL. -999.2500:
UWI. DF3052:
~C
DEPT.M :
GR.API :
CALI.CM :
RXO.OHMM :
RI. :
RML.OHMM :
DEN.GM/CC :
SP.MV :
~A
# ...
  183.7500    62.8270    23.4170    82.1500   180.8760   202.1500     2.2730   -27.9580 
  183.8750    61.3630    23.4790    87.8250   173.0350   191.9270     2.2560   -27.8590 
  184.0000    61.1340    23.6120    95.3510   159.6450   176.1100     2.2480   -27.7040 
  184.1250    61.5050    23.7910   100.7030   143.2520   157.4250     2.2470   -27.4870 
  184.2500    62.1300    23.9800    98.5820   126.2960   138.6630     2.2510   -27.2530 
  184.3750    64.2590    24.1350    87.5640   110.8830   122.1010     2.2670   -27.0010 
  184.5000    67.9680    24.2190    73.1370    98.6570   109.3320     2.2930   -26.7080 
  184.6250    70.3420    24.2630    62.9330    91.1710   101.7750     2.3160   -26.3460 
  184.7500    69.7450    24.3050    59.3160    87.5430    98.2970     2.3190   -25.9620 
  184.8750    68.3870    24.3180    60.0340    87.0410    97.9500     2.3100   -25.5740 
  185.0000    69.0740    24.2920    64.1410    88.3290    99.1660     2.3040   -25.2300 
  185.1250    71.0280    24.2950    70.6460    89.9960   100.5050     2.3140   -24.9280 
  185.2500    71.1100    24.3410    76.3880    91.1580   101.2590     2.3240   -24.6270 
  185.3750    69.3760    24.3630    77.1290    91.4070   101.2320     2.3230   -24.3260 
  185.5000    68.3190    24.3380    70.3360    91.0890   101.3840     2.3150   -24.0430 
  185.6250    69.6690    24.3360    59.0200    92.8700   104.7050     2.3070   -23.8510 
  185.7500    70.8730    24.3690    57.1870    98.5660   112.4400     2.2960   -23.7480 
  185.8750    69.8460    24.3730    74.5530   108.3860   124.8470     2.2770   -23.7120 
  186.0000    67.5740    24.3450   107.9560   121.9950   141.6000     2.2540   -23.6750 
  186.1250    67.2210    24.3510   139.9010   138.0120   160.8890     2.2440   -23.6820 
  186.2500    68.9120    24.3630   157.8050   152.6070   178.2960     2.2490   -23.7710 
  186.3750    70.2960    24.3540   156.7810   163.3260   191.0240     2.2600   -23.9160 
  186.5000    69.5080    24.3550   142.5160   169.0240   197.3490     2.2680   -24.0810 
  186.6250    67.0820    24.3710   128.7450   168.9180   196.2900     2.2670   -24.1990 
  186.7500    65.3760    24.3630   123.3720   166.6410   192.9660     2.2640   -24.2590 
  186.8750    65.1210    24.3050   124.8140   166.6420   191.9340     2.2640   -24.2860 
  187.0000    65.0320    24.1950   131.3380   170.3670   193.9190     2.2670   -24.3030 
  187.1250    63.2810    24.0520   143.4320   176.7120   197.3350     2.2670   -24.2320 
  187.2500    60.6360    23.9500   154.0760   183.4640   199.9560     2.2710   -24.0660 
  187.3750    58.8650    23.9310   156.7130   188.1990   199.5830     2.2950   -23.8180 
  187.5000    58.8420    23.9430   151.7540   188.3610   194.5210     2.3470   -23.5290 
  187.6250    60.1050    23.9020   142.8850   181.7280   183.6680     2.4080   -23.2490 
  187.7500    61.4630    23.8500   132.9280   168.2900   167.3750     2.4430   -22.9970 
  187.8750    62.5590    23.8330   123.8630   148.5910   146.6380     2.4380   -22.7680 
  188.0000    63.4260    23.8290   117.5140   124.5010   123.1990     2.4010   -22.5780 
  188.1250    63.9510    23.7820   108.5640    99.7780    99.6270     2.3530   -22.4830 
  188.2500    64.8780    23.7430    94.0520    77.4730    78.1580     2.3180   -22.4950 
  188.3750    67.9030    23.7500    72.3570    59.3650    60.4020     2.3050   -22.6560 
  188.5000    73.6000    23.7460    47.6220    46.2690    47.4260     2.3120   -22.9770 
  188.6250    78.7460    23.6980    29.6440    39.5030    41.1680     2.3320   -23.4440 
  188.7500    79.3820    23.6940    23.0730    38.4430    41.2310     2.3540   -23.9990 
  188.8750    75.6680    23.7410    29.7280    43.1840    47.4140     2.3690   -24.6400 
  189.0000    70.8240    23.7590    50.0690    54.0440    59.6940     2.3690   -25.3440 
  189.1250    67.8490    23.7440    79.8960    73.0250    79.2950     2.3510   -26.1260 
  189.2500    66.7480    23.7720   107.7790    99.2350   104.7940     2.3310   -26.9170 
  189.3750    66.8930    23.8130   127.8820   130.7520   134.4570     2.3180   -27.6510 
  189.5000    67.0560    23.7930   140.0970   161.9230   163.9260     2.3070   -28.2940 
  189.6250    65.5460    23.7500   147.5760   182.9430   185.3840     2.2870   -28.8580 
  189.7500    63.2030    23.7770   158.9760   190.4530   194.9310     2.2640   -29.3310 
  189.8750    62.3490    23.8790   170.9850   187.3490   194.3230     2.2490   -29.7180 
  190.0000    63.9100    24.0170   173.2790   177.9230   187.5170     2.2440   -30.0260 
  190.1250    65.6510    24.1120   160.1270   165.2690   176.9570     2.2360   -30.2190 
  190.2500    65.6500    24.1130   143.1810   152.1700   165.5170     2.2230   -30.3430 
  190.3750    64.4770    24.0510   128.4840   140.5030   155.2040     2.2200   -30.4290 
  190.5000    63.5080    24.0150   115.3550   131.6720   147.8860     2.2350   -30.4890 
  190.6250    63.7400    24.0270   102.6160   127.5720   145.9680     2.2560   -30.4940 
  190.7500    65.1590    24.0180    95.4640   129.3320   150.3820     2.2650   -30.4860 
  190.8750    66.9180    24.0120   101.2620   137.9610   162.0700     2.2580   -30.4630 
  191.0000    67.1510    24.0930   123.1110   153.5170   180.9390     2.2450   -30.4190 
  191.1250    64.9370    24.2750   156.9240   175.6860   207.1110     2.2380   -30.3700 
  191.2500    62.6630    24.4380   187.7470   200.9630   237.3050     2.2380   -30.3080 
  191.3750    61.4560    24.5230   205.4660   226.5310   268.6030     2.2420   -30.2370 
  191.5000    60.2880    24.5520   207.7480   249.5510   297.5760     2.2390   -30.1780 
  191.6250    58.5770    24.5600   202.2370   266.8540   320.2230     2.2190   -30.1370 
  191.7500    57.9100    24.5590   200.2670   277.9120   335.8110     2.1960   -30.1370 
  191.8750    58.7080    24.5520   203.3400   284.3780   346.2800     2.1860   -30.1750 
  192.0000    59.3400    24.5530   208.9220   289.0630   354.8110     2.1910   -30.2480 
  192.1250    58.2920    24.5990   212.5460   293.8030   363.0320     2.1990   -30.3480 
  192.2500    56.7690    24.6650   214.6680   297.9810   369.4200     2.2020   -30.4820 
  192.3750    55.7200    24.6780   213.0910   300.3620   372.3810     2.2030   -30.6460 
  192.5000    54.6990    24.5810   209.2490   299.6540   370.6510     2.2090   -30.8060 
  192.6250    53.2320    24.4300   207.9070   295.2050   363.8480     2.2130   -30.9300 
  192.7500    52.6180    24.3580   208.6680   288.5660   354.4570     2.2100   -30.9770 
  192.8750    53.6710    24.3650   208.8800   281.0870   344.1380     2.2050   -30.9580 
  193.0000    55.7100    24.3640   206.2570   273.6970   334.0070     2.2040   -30.9200 
  193.1250    57.6890    24.3120   202.0930   267.7080   325.0060     2.2050   -30.8570 
  193.2500    59.2780    24.2890   200.3890   262.6920   316.7470     2.2050   -30.7810 
  193.3750    60.1420    24.3090   199.6630   257.8180   308.3940     2.2080   -30.6710 
  193.5000    60.0640    24.2900   194.6560   252.4400   299.3720     2.2150   -30.5520 
  193.6250    59.8970    24.1550   180.5450   245.8650   289.2830     2.2210   -30.4650 
  193.7500    60.0190    23.9110   157.3900   238.3540   278.4870     2.2190   -30.4320 
  193.8750    59.9320    23.5770   128.9280   230.1870   267.2290     2.2090   -30.4410 
  194.0000    59.6070    23.2080   101.5870   221.4510   255.3660     2.2010   -30.4380 
  194.1250    59.6120    22.9210    82.3830   212.4620   243.0160     2.2000   -30.4190 
  194.2500    59.7540    22.7650    69.4080   204.1450   231.4240     2.2030   -30.3970 
  194.3750    59.2860    22.7030    60.9310   196.9530   221.0430     2.2050   -30.4220 
  194.5000    58.3280    22.6880    56.4610   191.0200   212.0740     2.2090   -30.4820 
  194.6250    58.3100    22.6870    56.2170   186.3050   204.5890     2.2160   -30.5400 
  194.7500    59.7430    22.6860    59.2720   181.8580   197.4400     2.2210   -30.5900 
  194.8750    61.7060    22.6940    65.1080   176.1070   189.1410     2.2240   -30.5930 
