~V
VERS. 2.00: Ver 2.00
~W
STRT.M 125.0000:
STOP.M 275.0000:
STEP.M 0.1250:
NULL. -999.2500:
UWI. DF3046:
~C
DEPT.M :
GR.API :
CALI.CM :
RXO.OHMM :
RI. :
RML.OHMM :
DEN.GM/CC :
SP.MV :
~A
# ...
  260.0000    55.0600    24.3920    11.2860     8.8120    10.2760     2.4380    -8.3080 
  260.1250    58.8580    24.3760    11.8630     8.8450    10.3220     2.4390    -8.2790 
  260.2500    63.3150    24.3690    11.9730     8.9260    10.4130     2.4440    -8.2110 
  260.3750    63.7250    24.3590    11.2170     9.0590    10.5500     2.4520    -8.1150 
  260.5000    62.2010    24.3330     9.9150     9.2160    10.7030     2.4580    -7.9880 
  260.6250    64.1430    24.3160     9.2410     9.3270    10.8050     2.4640    -7.8400 
  260.7500    66.2050    24.3390     9.3950     9.3370    10.8110     2.4640    -7.7080 
  260.8750    64.1530    24.3600     9.8000     9.2320    10.7040     2.4540    -7.6090 
  261.0000    60.0400    24.3540     9.9890     9.0370    10.5080     2.4420    -7.5170 
  261.1250    57.9390    24.3270    10.1340     8.8040    10.2680     2.4420    -7.4520 
  261.2500    58.7020    24.2720    10.5850     8.5930    10.0430     2.4550    -7.4570 
  261.3750    60.4880    24.1830    11.3920     8.4250     9.8540     2.4670    -7.4810 
  261.5000    61.1050    24.1030    12.0250     8.2910     9.7000     2.4630    -7.4980 
  261.6250    59.3480    24.0590    11.5460     8.1750     9.5650     2.4560    -7.4960 
  261.7500    57.1430    24.0380    10.4520     8.0540     9.4320     2.4530    -7.4790 
  261.8750    56.2010    24.0510     9.5830     7.9280     9.2950     2.4530    -7.4290 
  262.0000    56.4690    24.1630     9.2590     7.8020     9.1610     2.4490    -7.3850 
  262.1250    57.3770    24.3100     9.3010     7.6930     9.0400     2.4420    -7.3390 
  262.2500    59.2600    24.4050     9.2430     7.5970     8.9320     2.4370    -7.2250 
  262.3750    62.0520    24.4500     8.9100     7.5090     8.8330     2.4330    -7.0960 
  262.5000    64.9110    24.4740     8.4460     7.4230     8.7420     2.4260    -6.9950 
  262.6250    65.4100    24.4700     8.0710     7.3530     8.6720     2.4180    -6.9310 
  262.7500    64.0750    24.4800     7.8520     7.3190     8.6400     2.4130    -6.8600 
  262.8750    62.9400    24.4850     7.8070     7.3360     8.6600     2.4080    -6.8040 
  263.0000    63.1630    24.4640     7.9950     7.4090     8.7360     2.4000    -6.7250 
  263.1250    62.6550    24.4150     8.4410     7.5300     8.8610     2.3930    -6.6100 
  263.2500    61.5280    24.3520     8.9630     7.6650     9.0000     2.3910    -6.5740 
  263.3750    61.6290    24.3260     9.2250     7.7850     9.1230     2.3980    -6.6230 
  263.5000    62.7070    24.2950     9.0830     7.8620     9.2020     2.4090    -6.6810 
  263.6250    62.5880    24.2460     9.0150     7.8680     9.2080     2.4210    -6.6720 
  263.7500    62.0860    24.2640     9.2420     7.8100     9.1500     2.4320    -6.6030 
  263.8750    62.0860    24.3770     9.5970     7.7050     9.0420     2.4420    -6.4770 
  264.0000    62.0860    24.4770     9.9060     7.5760     8.9090     2.4470    -6.3800 
  264.1250    62.0860    24.5070    10.0230     7.4510     8.7740     2.4400    -6.3640 
  264.2500    62.0860    24.5180     9.9840     7.3410     8.6540     2.4200    -6.3170 
  264.3750    62.0860    24.5290     9.9210     7.2510     8.5540     2.4000    -6.1750 
  264.5000    62.0860    24.5230     9.9320     7.1780     8.4720     2.3980    -6.0150 
  264.6250    62.0860    24.5250     9.8890     7.1190     8.4050     2.4140    -5.9410 
  264.7500    62.0860    24.5460     9.4780     7.0670     8.3470     2.4320    -5.9330 
  264.8750    62.0860    24.5620     8.8130     7.0210     8.2980     2.4380    -5.9440 
  265.0000    62.0860    24.5180     8.3210     6.9870     8.2630     2.4260    -5.9270 
  265.1250    62.0860    24.4690     8.1170     6.9750     8.2520     2.4070    -5.9330 
  265.2500    62.0860    24.4490     7.8660     6.9880     8.2660     2.3960    -5.9840 
  265.3750    62.0860    24.4550     7.5320     7.0240     8.3040     2.3930    -6.0950 
  265.5000    62.0860    24.4820     7.2590     7.0780     8.3590     2.3860    -6.2160 
  265.6250    62.0860    24.5230     6.9310     7.1360     8.4200     2.3780    -6.2820 
  265.7500    62.0860    24.4970     6.5810     7.1860     8.4730     2.3850    -6.2730 
  265.8750    62.0860    24.4140     6.4190     7.2230     8.5130     2.4100    -6.2400 
  266.0000    62.0860    24.3380     6.4860     7.2450     8.5370     2.4270    -6.2480 
  266.1250    62.0860    24.3200     6.7010     7.2480     8.5410     2.4190    -6.2180 
  266.2500    62.0860    24.3300     6.8880     7.2370     8.5280     2.4000    -6.1500 
  266.3750    62.0860    24.3410     7.0170     7.2100     8.5010     2.3810    -6.0310 
  266.5000    62.0860    24.3440     7.0550     7.1730     8.4610     2.3590    -5.8960 
  266.6250    62.0860    24.3570     7.0440     7.1300     8.4140     2.3240    -5.8030 
  266.7500    62.0860    24.3150     7.0860     7.0830     8.3630     2.2880    -5.7730 
  266.8750    62.0860    24.2010     7.1550     7.0350     8.3130     2.2730    -5.7860 
  267.0000    62.0860    24.1060     7.1380     6.9940     8.2720     2.3020    -5.7950 
  267.1250    62.0860    24.2210     6.9870     6.9730     8.2480     2.3510    -5.7610 
  267.2500    62.0860    24.3300     6.8570     6.9690     8.2380     2.3840    -5.7390 
  267.3750    62.0860    24.3620     6.8020     6.9670     8.2310     2.3860    -5.7680 
  267.5000    62.0860    24.3410     6.8070     6.9540     8.2160     2.3790    -5.7950 
  267.6250    62.0860    24.3170     6.8260     6.9250     8.1890     2.3850    -5.8030 
  267.7500    62.0860    24.3080     6.8200     6.8950     8.1620     2.3950    -5.7980 
  267.8750    62.0860    24.2640     6.7890     6.8820     8.1500     2.3930    -5.7700 
  268.0000    62.0860    24.1300     6.7670     6.8930     8.1600     2.3810    -5.7510 
  268.1250    62.0860    23.9420     6.7130     6.9260     8.1930     2.3690    -5.7500 
  268.2500    62.0860    23.9090     6.6680     6.9680     8.2370     2.3630    -5.7760 
  268.3750    62.0860    23.9860     6.6660     7.0120     8.2840     2.3630    -5.7940 
  268.5000    62.0860    24.0380     6.7270     7.0540     8.3300     2.3660    -5.7830 
  268.6250    62.0860    24.0080     6.8370     7.0880     8.3670     2.3680    -5.8190 
  268.7500    62.0860    23.9770     6.9380     7.1130     8.3930     2.3690    -5.8610 
  268.8750    62.0860    23.9770     7.0220     7.1270     8.4090     2.3710    -5.8710 
  269.0000    62.0860    23.9880     7.1390     7.1300     8.4130     2.3720    -5.8640 
  269.1250    62.0860    24.0020     7.3010     7.1250     8.4090     2.3700    -5.8780 
  269.2500    62.0860    24.0370     7.4630     7.1170     8.4020     2.3650    -5.8270 
  269.3750    62.0860    24.1220     7.6540     7.1130     8.3970     2.3650    -5.7650 
  269.5000    62.0860    24.2570     8.0040     7.1110     8.3950     2.3720    -5.7760 
  269.6250    62.0860    24.3090     8.4930     7.1110     8.3940     2.3850    -5.7580 
  269.7500    62.0860    24.3310     8.8130     7.1110     8.3940     2.3980    -5.7480 
  269.8750    62.0860    24.2840     8.8700     7.1110     8.3940     2.4070    -5.7480 
  270.0000    62.0860    24.1680     8.7940     7.1110     8.3940     2.4130    -5.6700 
  270.1250    62.0860    24.2290     8.7370     7.1110     8.3940     2.4180    -5.5550 
  270.2500    62.0860    24.2720     8.7120     7.1110     8.3940     2.4220    -5.4650 
  270.3750    62.0860    24.2800     8.7040     7.1110     8.3940     2.4260    -5.3900 
  270.5000    62.0860    24.2690     8.6760     7.1110     8.3940     2.4300    -5.2800 
  270.6250    62.0860    24.2800     8.6410     7.1110     8.3940     2.4300    -5.1320 
  270.7500    62.0860    24.2770     8.6480     7.1110     8.3940     2.4280    -4.9530 
  270.8750    62.0860    24.2750     8.6640     7.1110     8.3940     2.4320    -4.8020 
  271.0000    62.0860    24.2600     8.8280     7.1110     8.3940     2.4500    -4.7270 
  271.1250    62.0860    24.2740     8.9060     7.1110     8.3940     2.4670    -4.6830 
