~V
VERS. 2.00: Ver 2.00
~W
STRT.M 70.0000:
STOP.M 278.0000:
STEP.M 0.1250:
NULL. -999.2500:
UWI. DF3060:
~C
DEPT.M :
SP.MV :
GR.API :
RML.OHMM :
RI. :
RXO.OHMM :
CALI.CM :
DEN.GM/CC :
~A
# ...
   81.2500  -999.2500    66.9010     8.9180     7.2290     8.1350    23.0210  -999.2500 
   81.3750  -999.2500    65.9060     9.1160     7.4020     8.4320    23.0180  -999.2500 
   81.5000  -999.2500    66.8490     9.2470     7.5450     8.7890    23.0100  -999.2500 
   81.6250  -999.2500    69.1110     9.2690     7.6080     9.0470    22.9990  -999.2500 
   81.7500  -999.2500    69.4740     9.2170     7.5940     8.9990    22.9970  -999.2500 
   81.8750  -999.2500    67.0640     9.1240     7.5200     8.7110    23.0080  -999.2500 
   82.0000  -999.2500    64.1720     9.0160     7.4040     8.3160    23.0220  -999.2500 
   82.1250  -999.2500    62.5810     8.9030     7.2640     8.1200    23.0490  -999.2500 
   82.2500  -999.2500    61.9080     8.7830     7.1140     8.0040    23.0950  -999.2500 
   82.3750  -999.2500    62.1960     8.6530     6.9610     8.0260    23.1430  -999.2500 
   82.5000  -999.2500    63.4450     8.5190     6.8190     8.0950    23.1730  -999.2500 
   82.6250  -999.2500    64.1270     8.4270     6.7250     8.0490    23.1900  -999.2500 
   82.7500  -999.2500    63.6110     8.4440     6.7260     7.9480    23.2180  -999.2500 
   82.8750  -999.2500    63.0990     8.6490     6.8780     7.9270    23.2610  -999.2500 
   83.0000  -999.2500    63.5850     9.0990     7.2240     8.2320    23.2980  -999.2500 
   83.1250  -999.2500    64.8880     9.7840     7.7700     8.7200    23.3050  -999.2500 
   83.2500  -999.2500    67.0890    10.4850     8.3630     9.1490    23.2860  -999.2500 
   83.3750  -999.2500    67.4490    10.9690     8.8320     9.4370    23.2150  -999.2500 
   83.5000  -999.2500    63.2090    11.0380     9.0160     9.4890    23.0230  -999.2500 
   83.6250  -999.2500    57.2020    10.5810     8.7840     9.3830    22.7010  -999.2500 
   83.7500  -999.2500    54.9840     9.8640     8.2910     9.3000    22.4720  -999.2500 
   83.8750  -999.2500    57.0000     9.1580     7.7250     9.4350    22.3880  -999.2500 
   84.0000  -999.2500    58.9460     8.6750     7.2610     9.6860    22.3810  -999.2500 
   84.1250  -999.2500    59.0220     8.5330     7.0320     9.8400    22.3970  -999.2500 
   84.2500  -999.2500    59.1740     8.6130     6.9950     9.8360    22.4260  -999.2500 
   84.3750  -999.2500    59.9610     8.8020     7.0820     9.6240    22.4630  -999.2500 
   84.5000  -999.2500    61.2270     8.9970     7.2080     9.3440    22.5100  -999.2500 
   84.6250  -999.2500    63.0210     9.1020     7.2800     9.2090    22.5960  -999.2500 
   84.7500  -999.2500    64.4040     9.0770     7.2510     9.1410    22.7160  -999.2500 
   84.8750  -999.2500    64.4630     8.8870     7.0980     9.0420    22.8260  -999.2500 
   85.0000  -999.2500    63.3480     8.5340     6.8250     8.8720    22.9040  -999.2500 
   85.1250  -999.2500    61.8680     8.1240     6.5040     8.7280    22.9290  -999.2500 
   85.2500  -999.2500    59.8620     7.9160     6.3120     8.7180    22.8940  -999.2500 
   85.3750  -999.2500    59.0220     8.1610     6.4310     9.1640    22.8470  -999.2500 
   85.5000  -999.2500    61.0120     8.9800     6.9800    11.0790    22.8360  -999.2500 
   85.6250  -999.2500    64.5080    10.2700     7.9560    15.7180    22.8700  -999.2500 
   85.7500  -999.2500    65.5930    11.5130     9.0140    21.7230    22.9410  -999.2500 
   85.8750  -999.2500    63.9760    12.2290     9.7820    27.3510    23.0440  -999.2500 
   86.0000  -999.2500    62.5290    12.0970     9.9340    29.1300    23.1380  -999.2500 
   86.1250  -999.2500    63.6550    11.0800     9.2940    22.0420    23.1270  -999.2500 
   86.2500  -999.2500    64.9910     9.8080     8.2870    13.5260    23.0770  -999.2500 
   86.3750  -999.2500    64.0520     8.7520     7.2940     9.4310    23.0440  -999.2500 
   86.5000  -999.2500    61.8400     8.1380     6.5660     8.3820    23.0360  -999.2500 
   86.6250  -999.2500    62.4810     7.9700     6.2060     8.2660    23.0350  -999.2500 
   86.7500  -999.2500    64.3720     7.9720     6.0740     8.0800    23.0330  -999.2500 
   86.8750  -999.2500    65.2500     7.9900     6.0690     7.8190    23.0260  -999.2500 
   87.0000  -999.2500    65.1670     7.9790     6.1300     7.5290    23.0100  -999.2500 
   87.1250  -999.2500    67.2690     8.0130     6.2660     7.2570    22.9670  -999.2500 
   87.2500  -999.2500    71.7750     8.1730     6.4950     7.1280    22.8860  -999.2500 
   87.3750  -999.2500    75.1670     8.4770     6.8280     7.4100    22.7590  -999.2500 
   87.5000  -999.2500    75.2240     8.8990     7.2490     8.3780    22.6100  -999.2500 
   87.6250  -999.2500    72.0830     9.4110     7.7360     9.3680    22.5230  -999.2500 
   87.7500  -999.2500    68.3020     9.9680     8.2350     9.7610    22.6110  -999.2500 
   87.8750  -999.2500    65.5900    10.5280     8.6900     9.7690    22.8610  -999.2500 
   88.0000  -999.2500    63.9120    10.9920     9.0140     9.7540    23.1620  -999.2500 
   88.1250  -999.2500    62.7790    11.1170     9.0270     9.6500    23.2970  -999.2500 
   88.2500  -999.2500    62.0520    10.7380     8.6460     9.2770    23.3530  -999.2500 
   88.3750  -999.2500    64.3930     9.7800     7.8450     8.5430    23.3950  -999.2500 
   88.5000  -999.2500    71.5270     8.3790     6.7350     7.5350    23.4520  -999.2500 
   88.6250  -999.2500    81.6650     6.9870     5.6180     6.4790    23.4800  -999.2500 
   88.7500  -999.2500    90.2330     6.2000     4.8820     5.6780    23.4650  -999.2500 
   88.8750  -999.2500    94.7240     6.4660     4.8450     5.7240    23.4040  -999.2500 
   89.0000  -999.2500    93.6980     7.9950     5.7300     7.6440    23.3020  -999.2500 
   89.1250  -999.2500    87.8110    10.7400     7.6790    11.9950    23.2410  -999.2500 
   89.2500  -999.2500    81.8500    13.7760    10.1240    17.5850    23.2050  -999.2500 
   89.3750  -999.2500    77.5730    16.0650    12.3410    22.6740    23.1710  -999.2500 
   89.5000  -999.2500    74.3270    16.6840    13.4880    24.0520    23.1320  -999.2500 
   89.6250  -999.2500    72.4110    14.9650    12.8180    20.9930    23.0690  -999.2500 
   89.7500  -999.2500    72.3540    12.2090    11.0560    15.6470    22.9760  -999.2500 
   89.8750  -999.2500    73.6290     9.5210     9.1000    11.6620    22.8820  -999.2500 
   90.0000  -999.2500    74.3110     7.5970     7.5920     9.2980    22.8260  -999.2500 
   90.1250  -999.2500    73.6060     7.0960     6.8180     8.5160    22.8150  -999.2500 
   90.2500  -999.2500    72.0340     7.1460     6.5610     8.2020    22.8190  -999.2500 
   90.3750  -999.2500    70.5900     7.4540     6.6380     8.1800    22.8310  -999.2500 
   90.5000  -999.2500    69.9990     7.7850     6.8620     8.3010    22.8570  -999.2500 
   90.6250  -999.2500    68.6880     7.9810     7.0730     8.3640    22.9000  -999.2500 
   90.7500  -999.2500    64.9510     8.0500     7.2000     8.2530    22.9370  -999.2500 
   90.8750  -999.2500    61.2170     8.0410     7.2450     8.0710    22.9360  -999.2500 
   91.0000  -999.2500    60.4960     7.9960     7.2310     8.0110    22.9040  -999.2500 
   91.1250  -999.2500    61.4120     7.9300     7.1680     8.1000    22.8520  -999.2500 
   91.2500  -999.2500    61.7680     7.8580     7.0750     8.3010    22.7790  -999.2500 
   91.3750  -999.2500    62.2010     7.8040     6.9630     8.5240    22.6540  -999.2500 
   91.5000  -999.2500    63.2880     7.7940     6.8490     8.7490    22.4650  -999.2500 
   91.6250  -999.2500    64.0520     7.8390     6.7520     8.9570    22.2360  -999.2500 
   91.7500  -999.2500    65.7660     7.8850     6.6680     9.0950    21.9950  -999.2500 
   91.8750  -999.2500    69.4550     7.8760     6.5800     9.0930    21.8230  -999.2500 
   92.0000  -999.2500    73.0760     7.7830     6.4720     9.0650    21.7760  -999.2500 
   92.1250  -999.2500    73.6900     7.6220     6.3400     8.9890    21.8600  -999.2500 
   92.2500  -999.2500    73.1730     7.4730     6.2150     8.8610    22.0440  -999.2500 
   92.3750  -999.2500    72.6620     7.4020     6.1320     8.9330    22.3050  -999.2500 
