~V
VERS. 2.00: Ver 2.00
~W
STRT.M 140.0000:
STOP.M 286.0000:
STEP.M 0.1250:
NULL. -999.2500:
UWI. DF3059:
~C
DEPT.M :
SP.MV :
GR.API :
RML.OHMM :
RI. :
RXO.OHMM :
CALI.CM :
DEN.GM/CC :
~A
# ...
  252.5000   -20.1780    85.0730    92.3790    86.0780    87.0720    24.0260     2.5180 
  252.6250   -20.1520    86.3870    94.8840    87.7370    95.1500    23.9760     2.5070 
  252.7500   -20.2000    83.4190    97.3080    89.2760    88.4060    23.9580     2.4740 
  252.8750   -20.1640    81.3230    99.6810    90.7580    83.0050    23.9840     2.4450 
  253.0000   -20.1540    83.2150   102.0220    92.2300    82.9700    24.0500     2.4410 
  253.1250   -20.0350    84.7600   104.2020    93.6500    86.6190    24.1380     2.4610 
  253.2500   -19.9400    82.4570   105.9280    94.8170    86.9070    24.1940     2.4910 
  253.3750   -19.7360    79.0340   106.8130    95.4330    90.7650    24.0950     2.5070 
  253.5000   -19.5560    77.7810   106.6370    95.2900    94.6360    23.9640     2.5030 
  253.6250   -19.2920    79.1760   105.5570    94.4460    95.3880    23.9610     2.4840 
  253.7500   -18.9940    82.0910   104.4830    93.5710   102.1690    24.1290     2.4620 
  253.8750   -18.7100    86.0000   104.1970    93.2920   108.3170    24.2820     2.4470 
  254.0000   -18.3780    88.7190   105.1510    94.0270   101.3890    24.3440     2.4430 
  254.1250   -18.0950    87.9140   107.2690    95.7930    95.2270    24.3280     2.4520 
  254.2500   -17.7730    85.1740   109.4820    97.7310    90.2040    24.2620     2.4740 
  254.3750   -17.5610    82.3200   110.9060    99.0770    83.3990    24.1590     2.5010 
  254.5000   -17.3160    81.3730   111.0490    99.3630    78.2290    24.0260     2.5190 
  254.6250   -17.1710    82.6660   109.9200    98.5070    67.5710    23.8840     2.5180 
  254.7500   -16.9460    84.8330   108.3540    97.1810    59.1090    23.8330     2.5010 
  254.8750   -16.7680    86.8050   106.8260    95.8110    56.8440    23.8710     2.4820 
  255.0000   -16.5770    87.4470   105.4690    94.5540    65.5400    23.9850     2.4740 
  255.1250   -16.4210    86.6360   104.2790    93.3900    83.2120    24.0800     2.4780 
  255.2500   -16.2660    85.7070   103.3370    92.3490   101.6940    24.1190     2.4850 
  255.3750   -16.0870    85.1430   102.6420    91.4610   110.1390    24.1150     2.4870 
  255.5000   -15.9480    84.8000   101.5310    90.3120   103.1860    24.1350     2.4890 
  255.6250   -15.7090    83.8320    97.7060    87.2160   109.2140    24.0600     2.5100 
  255.7500   -15.6010    80.1580    89.4240    80.6780   115.1200    23.9160     2.5600 
  255.8750   -15.4690    72.7250    76.2430    70.0500   127.2970    23.9170     2.6280 
  256.0000   -15.3500    63.4730    59.9880    56.4060   143.3400    24.0260     2.6760 
  256.1250   -15.2710    55.3640    44.5080    42.6310   147.6360    24.1280     2.6750 
  256.2500   -15.1980    49.7500    32.3390    31.3060   104.4710    24.1460     2.6210 
  256.3750   -15.1520    45.7000    23.7750    23.0830    70.0330    24.1420     2.5360 
  256.5000   -15.0700    42.2340    18.0470    17.4790    63.2710    24.1150     2.4580 
  256.6250   -15.0330    38.9880    14.3940    13.8620    73.6450    24.0350     2.4040 
  256.7500   -14.9600    37.5180    11.7720    11.2600    72.1960    23.9890     2.3820 
  256.8750   -14.8770    38.9360     9.8440     9.3540    42.4910    23.9890     2.3880 
  257.0000   -14.8800    41.7650     8.4630     7.9950    19.4250    23.9370     2.4040 
  257.1250   -14.7950    44.2360     7.6490     7.1820     9.0830    23.7000     2.4180 
  257.2500   -14.7490    46.6450     7.2480     6.7680     6.0840    23.5820     2.4230 
  257.3750   -14.6030    49.4000     7.1540     6.6670     5.4540    23.5780     2.4200 
  257.5000   -14.5020    52.3220     7.2370     6.7690     5.4850    23.6550     2.4140 
  257.6250   -14.4060    52.4640     7.3650     6.9500     5.4750    23.7410     2.4050 
  257.7500   -14.3130    50.3420     7.4460     7.0870     5.3090    23.8390     2.3960 
  257.8750   -14.2650    48.6940     7.4560     7.1260     5.1300    23.9500     2.3880 
  258.0000   -14.2090    48.4260     7.4030     7.0590     5.0060    23.9320     2.3850 
  258.1250   -14.2850    49.0000     7.2960     6.8870     4.8650    23.8920     2.3900 
  258.2500   -14.3980    49.8860     7.1510     6.6540     4.7450    23.8710     2.4060 
  258.3750   -14.7080    50.7500     6.9800     6.3880     4.6880    23.9020     2.4280 
  258.5000   -15.0570    51.1620     6.8120     6.1190     4.6990    23.9500     2.4470 
  258.6250   -15.6390    52.0100     6.7690     5.9130     4.8310    23.9960     2.4540 
  258.7500   -16.3330    54.3980     6.8970     5.8340     5.0890    24.0280     2.4410 
  258.8750   -17.1000    58.7650     7.2800     5.9530     5.4550    24.0400     2.4060 
  259.0000   -17.9930    65.3420     7.8330     6.3290     6.0250    24.0410     2.3650 
  259.1250   -18.7960    73.7880     8.6540     7.0370     6.8130    24.0410     2.3360 
  259.2500   -19.6260    81.4260     9.5040     8.0090     8.2880    24.0410     2.3340 
  259.3750   -20.3640    86.4620    10.3970     9.1860    10.4830    24.0410     2.3620 
  259.5000   -21.0630    89.3350    11.6860    10.4710    12.6790    24.0200     2.4000 
  259.6250   -21.6570    91.8570    12.9910    11.7180    13.8200    23.9630     2.4300 
  259.7500   -22.0700    93.8390    14.0750    12.7720    14.5370    23.9180     2.4380 
  259.8750   -22.3970    95.1280    14.8070    13.4960    15.8970    23.9650     2.4250 
  260.0000   -22.5340    95.9060    15.0820    13.7850    17.9230    24.0210     2.4040 
  260.1250   -22.6850    95.1820    14.8040    13.5390    18.3960    24.0410     2.3810 
  260.2500   -22.7780    93.5350    14.1630    12.9330    17.1930    24.0410     2.3600 
  260.3750   -22.8480    90.8380    13.3430    12.1370    15.3610    24.0410     2.3430 
  260.5000   -22.9000    88.4220    12.5490    11.3390    13.4120    24.0430     2.3310 
  260.6250   -22.8290    87.4320    11.9790    10.7340    11.6350    24.0600     2.3240 
  260.7500   -22.8150    87.6560    11.6660    10.3710    10.9990    24.0870     2.3220 
  260.8750   -22.7420    88.8020    11.5990    10.2550    11.1950    24.0950     2.3230 
  261.0000   -22.6930    87.9640    11.7390    10.3580    11.2070    24.0740     2.3240 
  261.1250   -22.5480    85.3050    12.0330    10.6400    11.7180    24.0570     2.3240 
  261.2500   -22.3940    82.9820    12.3490    10.9710    11.9590    24.0540     2.3220 
  261.3750   -22.1440    83.1810    12.5520    11.2300    11.2780    24.0480     2.3210 
  261.5000   -21.8810    85.9380    12.5030    11.2850    10.4920    24.0430     2.3220 
  261.6250   -21.5560    89.6500    12.0600    10.9950    10.8530    24.0320     2.3260 
  261.7500   -21.2160    92.9160    11.3350    10.4330    11.7880    24.0010     2.3310 
  261.8750   -20.9810    94.2020    10.5060     9.7340    11.3320    23.9580     2.3340 
  262.0000   -20.7580    93.9850     9.7910     9.0790     8.3460    23.9390     2.3350 
  262.1250   -20.7490    93.4190     9.4130     8.6710     7.2170    23.9540     2.3320 
  262.2500   -20.7820    91.5540     9.3520     8.5320     7.2070    23.9560     2.3280 
  262.3750   -20.9350    88.8910     9.5170     8.6190     7.7910    23.9540     2.3270 
  262.5000   -21.1730    90.9570     9.7680     8.8310     8.4750    23.9530     2.3290 
  262.6250   -21.4950    98.5900     9.9560     9.0410     9.1610    23.9580     2.3340 
  262.7500   -21.8930   101.7750    10.0260     9.1640     9.3700    23.9700     2.3410 
  262.8750   -22.2270    95.9760    10.0030     9.1900     9.2010    23.9840     2.3460 
  263.0000   -22.6010    87.0790     9.9410     9.1530     8.9260    23.9930     2.3440 
  263.1250   -22.8270    81.8170     9.8940     9.0960     8.8010    24.0030     2.3340 
  263.2500   -23.0070    80.3510     9.8730     9.0400     8.8880    24.0150     2.3190 
  263.3750   -23.1370    81.3650     9.8630     8.9810     8.9820    24.0130     2.3050 
  263.5000   -23.1440    83.4880     9.8460     8.9090     8.9000    24.0070     2.2970 
  263.6250   -23.1600    83.2340     9.8230     8.8280     9.0410    24.0100     2.2960 
