~V
VERS. 2.00: Ver 2.00
~W
STRT.M 60.0000:
STOP.M 254.0000:
STEP.M 0.1250:
NULL. -999.2500:
UWI. DF3029:
~C
DEPT.M :
SP.MV :
GR.API :
RML.OHMM :
RI. :
RXO.OHMM :
CALI.CM :
DEN.GM/CC :
~A
# ...
  183.7500   -29.5780    63.3200   243.8480   209.8680   145.8700    24.5230     2.2130 
  183.8750   -29.5960    62.1830   244.2480   210.5400   147.3970    24.4990     2.2130 
  184.0000   -29.6390    61.3200   238.0400   206.9650   160.5440    24.4960     2.2150 
  184.1250   -29.6810    62.6080   219.3580   193.8810   163.8480    24.5070     2.2210 
  184.2500   -29.8000    65.1620   191.3710   172.6490   158.0300    24.4750     2.2300 
  184.3750   -29.9100    68.3180   159.7330   147.0030   138.4630    24.3940     2.2390 
  184.5000   -30.0720    71.5710   130.7160   121.9710   105.2910    24.2980     2.2470 
  184.6250   -30.2050    72.3940   109.5630   102.5540    82.1490    24.2070     2.2540 
  184.7500   -30.3340    70.2040    96.0530    89.5550    73.0420    24.1580     2.2650 
  184.8750   -30.4230    68.6500    89.8240    83.0390    69.9810    24.1640     2.2790 
  185.0000   -30.4870    69.8430    90.7000    82.9940    66.3440    24.2030     2.2920 
  185.1250   -30.4790    71.5070   100.2920    90.9600    67.8650    24.2830     2.2940 
  185.2500   -30.4380    69.6580   117.7030   106.1280    74.5380    24.3890     2.2830 
  185.3750   -30.3650    64.5110   142.2270   127.8090    84.4630    24.4720     2.2600 
  185.5000   -30.2550    59.7750   171.4270   153.6630   106.0220    24.5530     2.2330 
  185.6250   -30.1790    58.3050   200.3140   178.9680   136.5130    24.6200     2.2110 
  185.7500   -30.0290    58.6110   223.6080   198.9430   151.7580    24.6460     2.1990 
  185.8750   -29.9710    59.1970   238.9340   211.5130   146.4290    24.6280     2.1960 
  186.0000   -29.8340    59.6950   247.5960   217.8710   133.3720    24.5960     2.2000 
  186.1250   -29.8280    60.5110   253.6140   221.5510   131.5410    24.5590     2.2060 
  186.2500   -29.8830    60.4330   260.1340   225.6110   134.2490    24.5420     2.2100 
  186.3750   -30.0480    58.7520   265.6260   229.0870   140.0020    24.5390     2.2120 
  186.5000   -30.2490    56.5190   265.9430   228.7030   145.3540    24.5310     2.2140 
  186.6250   -30.5330    56.2830   255.2020   219.6210   151.4700    24.5070     2.2170 
  186.7500   -30.9170    59.1160   234.5810   202.5140   160.2860    24.4710     2.2240 
  186.8750   -31.2930    61.7380   208.0320   180.2700   155.2430    24.4290     2.2330 
  187.0000   -31.7260    62.9500   181.3980   157.4080   131.4920    24.3490     2.2430 
  187.1250   -32.0830    65.1840   160.8430   139.0010   103.6280    24.2360     2.2550 
  187.2500   -32.3490    67.8630   147.8670   126.7250    86.2470    24.1150     2.2640 
  187.3750   -32.5130    67.8500   142.6140   120.9890    75.3160    24.0160     2.2700 
  187.5000   -32.5440    64.8100   144.4030   121.3810    72.9840    23.9430     2.2710 
  187.6250   -32.4740    62.2610   152.9790   127.7880    76.8640    23.9200     2.2680 
  187.7500   -32.2720    61.6680   165.9100   138.1410    85.3700    23.9180     2.2620 
  187.8750   -31.9520    61.5750   181.7620   151.2730    98.0340    23.9350     2.2550 
  188.0000   -31.5060    60.8100   198.9590   165.9310   112.7890    23.9750     2.2470 
  188.1250   -30.9860    58.7490   215.2430   180.4590   122.2190    23.9970     2.2380 
  188.2500   -30.3860    56.4570   228.0200   192.7760   127.3350    23.9910     2.2300 
  188.3750   -29.7590    54.7080   234.2810   200.4700   135.4000    23.9440     2.2250 
  188.5000   -29.1320    53.5470   230.8950   200.8420   140.5420    23.8950     2.2270 
  188.6250   -28.5990    53.4450   213.8230   190.0580   136.4190    23.8880     2.2370 
  188.7500   -28.1890    55.7060   186.4390   169.9510   128.2150    23.8700     2.2490 
  188.8750   -27.8930    59.9450   153.5280   143.5930   117.3290    23.8390     2.2550 
  189.0000   -27.7830    63.9120   121.0900   115.6200   103.5370    23.7680     2.2460 
  189.1250   -27.7140    65.2040    94.7230    91.1570    80.1910    23.6150     2.2200 
  189.2500   -27.8960    64.0990    75.0390    72.0410    55.9800    23.4650     2.1930 
  189.3750   -28.1920    64.8830    61.6020    58.5240    40.5520    23.4320     2.1800 
  189.5000   -28.6620    68.4740    53.6030    50.0990    33.7580    23.4550     2.1870 
  189.6250   -29.0740    70.4220    51.1250    46.8270    30.9420    23.4650     2.2120 
  189.7500   -29.5100    68.7230    53.0450    47.6090    28.3370    23.3690     2.2400 
  189.8750   -29.8920    66.9390    59.3280    52.3970    27.3400    23.1580     2.2610 
  190.0000   -30.2790    66.0210    70.0710    61.2730    31.7430    22.9590     2.2720 
  190.1250   -30.7070    63.5470    86.3310    75.1510    40.3650    22.9670     2.2770 
  190.2500   -31.0060    61.3850   107.8810    93.7450    50.3450    23.1040     2.2770 
  190.3750   -31.2320    61.4460   135.6120   117.7930    59.4210    23.1840     2.2770 
  190.5000   -31.3720    60.8330   170.9470   148.4840    68.9190    23.2280     2.2820 
  190.6250   -31.3750    57.0990   218.4420   188.9720    96.0600    23.3700     2.3050 
  190.7500   -31.3540    54.6990   278.9880   238.6900   156.8730    23.6540     2.3440 
  190.8750   -31.2870    55.2730   349.9640   294.8270   259.1000    24.0040     2.3810 
  191.0000   -31.1220    55.4350   420.4900   349.1060   390.5830    24.3340     2.3910 
  191.1250   -30.8780    52.3700   464.1170   382.8530   478.2670    24.4430     2.3620 
  191.2500   -30.5600    49.1100   460.3540   382.1010   468.5620    24.5070     2.3280 
  191.3750   -30.1600    47.0950   397.4690   338.6640   402.4490    24.5070     2.3270 
  191.5000   -29.7180    46.5020   286.6540   258.0150   323.8760    24.4470     2.3820 
  191.6250   -29.3060    47.4430   171.8890   164.9710   295.1940    24.3530     2.4840 
  191.7500   -28.7870    49.0660    91.4190    91.3520   274.9650    24.2690     2.5800 
  191.8750   -28.2590    51.3080    44.9800    45.9820   160.7110    24.1990     2.6290 
  192.0000   -27.7710    53.5940    20.5570    22.7240    48.3900    24.1120     2.6160 
  192.1250   -27.3990    55.3080    11.3410    13.2200    18.2920    23.9500     2.5580 
  192.2500   -27.0690    55.1410     7.9090     8.8600     8.7370    23.7670     2.4900 
  192.3750   -26.8950    53.5940     6.4570     6.9330     6.2940    23.6590     2.4330 
  192.5000   -26.7580    52.1370     6.0410     6.2220     6.1120    23.7000     2.3960 
  192.6250   -26.7750    51.7520     6.1920     6.2450     6.8200    23.7920     2.3850 
  192.7500   -26.8800    51.4020     6.5330     6.5830     7.4020    23.8050     2.3870 
  192.8750   -27.0810    50.1440     6.9220     7.0520     7.0890    23.8360     2.3910 
  193.0000   -27.2160    50.3210     7.2700     7.5200     6.5390    23.8870     2.3910 
  193.1250   -27.3040    52.7450     7.4990     7.8710     6.6290    23.8810     2.3860 
  193.2500   -27.3250    53.6620     7.5910     8.0710     7.0590    23.7980     2.3830 
  193.3750   -27.1870    51.3450     7.5460     8.1130     7.1790    23.7350     2.3850 
  193.5000   -26.8680    48.1190     7.4080     8.0230     6.8800    23.6860     2.3920 
  193.6250   -26.3350    46.1600     7.2710     7.8650     6.2890    23.6090     2.4040 
  193.7500   -25.6410    44.4690     7.2300     7.7350     5.9480    23.5510     2.4150 
  193.8750   -24.8230    44.5430     7.3340     7.6850     5.8240    23.5360     2.4250 
  194.0000   -23.9380    46.6680     7.5850     7.7320     5.9360    23.5670     2.4350 
  194.1250   -22.9930    49.3370     7.9400     7.8600     6.2420    23.6690     2.4470 
  194.2500   -22.0370    53.5110     8.2950     8.0010     6.4840    23.8030     2.4610 
  194.3750   -21.0890    59.5320     8.5650     8.0980     6.6260    23.9010     2.4730 
  194.5000   -20.1540    64.1370     8.6850     8.1030     6.6170    23.8650     2.4820 
  194.6250   -19.1860    63.0590     8.6060     7.9700     6.4190    23.7270     2.4840 
  194.7500   -18.1520    60.7010     8.3950     7.7370     6.2750    23.5890     2.4800 
  194.8750   -17.1080    61.3100     8.1310     7.4510     6.4530    23.5390     2.4670 
