~V
VERS. 2.00: Ver 2.00
~W
STRT.M 100.0000:
STOP.M 258.0000:
STEP.M 0.1250:
NULL. -999.2500:
UWI. DF3025:
~C
DEPT.M :
AC.US/MT :
DEN.GM/CC :
GR.API :
CALI.CM :
RXO.OHMM :
RI. :
RML.OHMM :
SP.MV :
~A
# ...
  230.0000   336.0400     2.3440    72.0290    24.2960     8.3760     6.7040     7.8240   -16.4630 
  230.1250   338.7400     2.3240    67.9800    24.4120     9.6150     6.4880     7.6470   -16.4360 
  230.2500   345.3390     2.3300    65.8910    24.4200     8.8270     6.2660     7.4920   -16.4250 
  230.3750   350.6350     2.3610    66.8340    24.4040     6.7140     6.0750     7.3910   -16.4500 
  230.5000   350.3270     2.3950    66.5370    24.3830     5.5060     5.9520     7.3710   -16.5090 
  230.6250   344.4500     2.4180    62.4520    24.3640     5.4610     5.9440     7.4640   -16.5620 
  230.7500   335.9150     2.4200    60.7200    24.3510     5.6820     6.0490     7.6520   -16.5660 
  230.8750   328.6930     2.4090    64.3940    24.3420     6.2190     6.2650     7.9270   -16.5030 
  231.0000   324.1680     2.4070    70.6150    24.3420     7.0580     6.5690     8.2660   -16.3850 
  231.1250   320.9760     2.4180    72.9900    24.3550     8.1850     6.9190     8.6310   -16.2570 
  231.2500   316.7610     2.4290    72.1160    24.3830     9.4730     7.2470     8.9680   -16.1590 
  231.3750   311.7320     2.4250    71.2080    24.4210    10.1600     7.5050     9.2360   -16.0930 
  231.5000   308.4130     2.4090    71.1470    24.4590     9.7100     7.6550     9.4070   -16.0470 
  231.6250   307.6830     2.3840    70.0970    24.4740     9.1530     7.6630     9.4450   -16.0050 
  231.7500   309.2260     2.3630    69.2490    24.4490     9.2380     7.5600     9.3670   -15.9580 
  231.8750   311.6490     2.3670    71.0990    24.3950    10.0240     7.3700     9.1830   -15.8950 
  232.0000   312.3790     2.3910    74.1870    24.3530    11.2720     7.1220     8.9060   -15.8030 
  232.1250   309.1740     2.4180    73.5130    24.3330    10.4510     6.8390     8.5620   -15.6800 
  232.2500   303.0920     2.4330    70.6010    24.2700     7.9110     6.5560     8.2120   -15.5500 
  232.3750   301.7990     2.4360    68.2360    24.1540     6.5210     6.3010     7.9170   -15.4470 
  232.5000   309.1810     2.4360    68.4160    24.0610     6.2880     6.1150     7.7490   -15.4010 
  232.6250   320.9630     2.4390    69.4850    24.0800     5.6840     6.0750     7.8150   -15.4310 
  232.7500   328.6790     2.4510    68.6570    24.1600     5.1510     6.2070     8.1230   -15.5020 
  232.8750   324.3750     2.4710    66.2190    24.2360     5.0750     6.5310     8.6620   -15.5810 
  233.0000   310.3640     2.4910    65.1710    24.2930     5.1960     7.0330     9.3710   -15.6350 
  233.1250   291.1810     2.5000    67.0090    24.3190     5.4370     7.6580    10.1180   -15.6360 
  233.2500   274.3680     2.4960    68.8850    24.2880     5.9470     8.2580    10.7150   -15.5880 
  233.3750   269.3000     2.4760    69.9690    24.2340     7.0050     8.6970    11.0230   -15.5090 
  233.5000   275.5770     2.4500    70.0550    24.2290     9.2500     8.8830    10.9870   -15.4180 
  233.6250   288.3330     2.4350    68.7980    24.3160    12.7950     8.7760    10.6370   -15.3330 
  233.7500   300.5560     2.4400    68.0790    24.4370    17.1330     8.5140    10.1860   -15.2550 
  233.8750   305.4090     2.4600    68.7780    24.5470    19.3820     8.2050     9.7660   -15.1760 
  234.0000   303.4730     2.4770    70.0970    24.6110    16.6160     7.9370     9.4550   -15.0920 
  234.1250   298.9110     2.4880    69.0640    24.5770    11.6280     7.7730     9.2860   -15.0010 
  234.2500   296.6280     2.4960    67.8280    24.4830     8.6250     7.7070     9.2080   -14.9050 
  234.3750   298.2710     2.5030    68.1920    24.3970     7.5560     7.7130     9.1830   -14.8090 
  234.5000   300.8020     2.5080    68.0870    24.3520     6.9480     7.7560     9.1730   -14.7270 
  234.6250   303.2330     2.5110    66.3810    24.3440     6.3310     7.8020     9.1490   -14.6890 
  234.7500   306.6380     2.5120    66.1400    24.3410     5.9240     7.8360     9.1060   -14.7090 
  234.8750   312.4680     2.5080    68.0500    24.3400     5.7540     7.8570     9.0470   -14.7800 
  235.0000   318.1470     2.4980    69.2790    24.3400     5.8370     7.8680     8.9840   -14.8790 
  235.1250   320.4210     2.4890    67.1100    24.3390     6.0940     7.8730     8.9320   -14.9660 
  235.2500   311.0820     2.4870    65.5660    24.3380     6.4220     7.8720     8.9070   -15.0220 
  235.3750   285.2870     2.4950    66.9400    24.3430     6.9360     7.8720     8.9200   -15.0580 
  235.5000   258.3420     2.4990    69.8310    24.3620     7.8210     7.8860     8.9770   -15.0970 
  235.6250   242.3200     2.4910    71.8540    24.3890     8.7780     7.9380     9.0890   -15.1600 
  235.7500   236.6230     2.4670    72.6670    24.4040     9.1380     8.0200     9.2210   -15.2470 
  235.8750   231.4900     2.4270    72.8090    24.4060     9.4890     8.1090     9.3420   -15.3460 
  236.0000   224.6090     2.3810    73.2900    24.4060    11.0730     8.1770     9.4240   -15.4320 
  236.1250   218.0590     2.3400    74.0740    24.4060    13.2530     8.2100     9.4770   -15.4670 
  236.2500   219.6840     2.3210    73.4020    24.4110    14.3780     8.2620     9.5790   -15.4530 
  236.3750   234.8840     2.3380    71.2480    24.4300    14.2570     8.4170     9.8240   -15.4100 
  236.5000   248.5610     2.3850    69.8070    24.4590    14.3590     8.7650    10.2970   -15.3610 
  236.6250   248.9580     2.4460    71.6890    24.4560    15.0340     9.4040    11.0780   -15.3290 
  236.7500   240.2230     2.5010    73.6780    24.3940    15.2930    10.2630    12.0640   -15.3300 
  236.8750   236.8640     2.5360    75.6490    24.2930    15.6320    11.2350    13.1330   -15.3620 
  237.0000   239.6330     2.5600    78.1690    24.1970    16.8550    12.1800    14.1350   -15.4220 
  237.1250   243.8190     2.5780    79.3840    24.1760    20.2950    12.9420    14.9080   -15.5130 
  237.2500   247.3830     2.5870    78.0600    24.2250    24.9760    13.5030    15.4510   -15.6000 
  237.3750   249.1840     2.5820    75.7010    24.2760    27.5340    13.8900    15.8070   -15.6490 
  237.5000   250.2470     2.5680    74.6690    24.2470    27.8050    14.1440    16.0460   -15.6450 
  237.6250   252.5430     2.5570    73.6690    24.1530    26.3550    14.2910    16.2010   -15.6010 
  237.7500   256.4470     2.5530    72.2200    24.1300    25.8180    14.3790    16.3090   -15.5700 
  237.8750   259.7140     2.5460    71.6260    24.2010    27.2070    14.4360    16.3840   -15.5800 
  238.0000   261.0690     2.5220    72.6250    24.2960    29.2440    14.4900    16.4400   -15.6410 
  238.1250   261.0610     2.4920    72.9580    24.3320    33.9140    14.5510    16.4870   -15.7440 
  238.2500   260.6110     2.4770    71.5390    24.3160    35.7410    14.6130    16.5150   -15.8510 
  238.3750   259.4500     2.4880    71.9490    24.2880    33.6610    14.6650    16.5080   -15.9480 
  238.5000   258.1390     2.5100    74.9720    24.2730    27.3700    14.6990    16.4520   -16.0320 
  238.6250   257.8990     2.5290    76.4910    24.2940    26.9840    14.7260    16.3620   -16.0900 
  238.7500   258.9590     2.5400    75.7380    24.3360    24.4560    14.7830    16.3100   -16.1180 
  238.8750   259.6740     2.5400    76.1550    24.3430    22.9110    14.9190    16.3700   -16.1110 
  239.0000   259.8910     2.5350    79.1670    24.3010    22.2230    15.1660    16.5820   -16.0750 
  239.1250   261.4530     2.5330    81.5850    24.2820    22.6180    15.5290    16.9300   -16.0340 
  239.2500   263.5890     2.5340    82.5500    24.3150    26.7710    15.9180    17.2830   -16.0140 
  239.3750   260.6500     2.5440    81.7850    24.3250    36.0140    16.2400    17.5250   -16.0120 
  239.5000   253.7540     2.5610    78.0520    24.2680    49.7130    16.4120    17.5750   -16.0050 
  239.6250   249.3530     2.5650    73.6820    24.2320    50.8470    16.3750    17.4160   -15.9620 
  239.7500   250.5840     2.5390    72.9760    24.2460    48.8050    16.2270    17.1780   -15.8870 
  239.8750   252.5000     2.4950    75.1110    24.2550    42.8160    16.0470    16.9530   -15.8020 
