~V
VERS. 2.00: Ver 2.00
~W
STRT.M 115.0000:
STOP.M 288.0000:
STEP.M 0.1250:
NULL. -999.2500:
UWI. DF3049:
~C
DEPT.M :
GR.API :
CALI.CM :
RXO.OHMM :
RI. :
RML.OHMM :
SP.MV :
DEN.GM/CC :
AC.US/MT :
~A
# ...
  255.0000    62.9130    24.6770    15.4640    10.1970    12.2950   -14.5420     2.5170   295.2300 
  255.1250    62.5870    24.6760    15.1460    10.2430    12.2970   -14.6130     2.5010   297.6320 
  255.2500    63.9590    24.6710    14.4880    10.2190    12.1970   -14.6890     2.4970   301.7660 
  255.3750    64.2790    24.6560    13.7080    10.1520    12.0310   -14.7510     2.4990   305.8050 
  255.5000    63.3420    24.6310    12.7090    10.0950    11.8700   -14.7990     2.5010   306.8830 
  255.6250    63.5480    24.6040    11.6270    10.1080    11.8060   -14.8470     2.5080   303.3590 
  255.7500    66.8700    24.5930    10.7650    10.2780    11.9540   -14.8630     2.5250   295.9290 
  255.8750    68.5470    24.5890    10.5650    10.6050    12.3070   -14.8410     2.5420   287.6910 
  256.0000    69.8050    24.5890    11.7140    11.0660    12.8230   -14.8110     2.5380   281.7440 
  256.1250    74.1290    24.5800    14.3080    11.6020    13.4130   -14.7510     2.5120   278.7430 
  256.2500    78.9320    24.5500    16.9150    12.1330    13.9600   -14.6710     2.4880   277.7760 
  256.3750    77.6290    24.5110    18.6380    12.5900    14.3870   -14.6080     2.4880   277.9240 
  256.5000    71.9200    24.4940    19.5020    12.9440    14.6720   -14.5360     2.4980   278.9040 
  256.6250    69.8060    24.5000    19.3350    13.2030    14.8420   -14.4360     2.4980   280.7380 
  256.7500    72.5750    24.5260    18.2470    13.3960    14.9550   -14.3750     2.4850   282.3140 
  256.8750    73.8370    24.5610    16.8070    13.5490    15.0500   -14.3270     2.4720   281.3210 
  257.0000    72.3880    24.5760    16.3440    13.6400    15.0960   -14.2620     2.4690   278.6050 
  257.1250    69.8270    24.5790    17.1800    13.6340    15.0430   -14.2110     2.4750   277.3010 
  257.2500    68.4660    24.5790    18.6760    13.4900    14.8350   -14.1730     2.4850   279.7140 
  257.3750    72.4140    24.5790    19.1440    13.2600    14.5180   -14.1400     2.4940   283.9260 
  257.5000    79.4060    24.5790    17.4190    13.0210    14.1800   -14.1340     2.4980   285.6300 
  257.6250    81.9290    24.5790    14.9750    12.8670    13.9420   -14.1540     2.5020   284.4800 
  257.7500    76.2720    24.5790    14.2360    12.8890    13.9270   -14.1550     2.5100   282.9980 
  257.8750    72.0930    24.5790    14.8930    13.0430    14.0840   -14.1610     2.5150   283.2290 
  258.0000    72.1990    24.5790    16.0910    13.2520    14.3040   -14.1890     2.5110   283.9660 
  258.1250    72.7810    24.5700    17.2590    13.4110    14.4490   -14.2190     2.5000   284.3480 
  258.2500    70.1620    24.5320    17.7620    13.4060    14.3750   -14.2530     2.4940   284.8550 
  258.3750    70.4420    24.4650    17.7590    13.2570    14.1250   -14.2860     2.5010   286.2680 
  258.5000    75.3660    24.4020    17.2540    13.0470    13.8120   -14.3050     2.5130   287.9290 
  258.6250    80.4500    24.3570    16.0350    12.8680    13.5600   -14.3120     2.5190   288.9290 
  258.7500    78.1620    24.3000    14.2640    12.7910    13.4510   -14.3200     2.5160   289.2820 
  258.8750    73.7280    24.2410    13.2540    12.7920    13.4450   -14.3230     2.5080   290.4200 
  259.0000    74.4340    24.1650    13.2310    12.8300    13.4860   -14.3230     2.5010   293.0090 
  259.1250    77.8480    24.1090    13.6710    12.8640    13.5170   -14.3200     2.5010   295.7340 
  259.2500    76.3680    24.0910    13.4430    12.8860    13.5200   -14.2980     2.5110   295.9900 
  259.3750    72.4250    24.0820    12.7410    12.9460    13.5570   -14.2630     2.5240   291.6780 
  259.5000    70.2120    24.0480    12.7220    13.1060    13.7070   -14.2250     2.5280   285.2080 
  259.6250    70.0060    23.9710    14.3510    13.4070    14.0200   -14.2050     2.5200   279.5560 
  259.7500    69.7900    23.9200    18.3130    13.8590    14.5070   -14.2040     2.5100   276.4590 
  259.8750    71.1210    23.9030    21.5120    14.3780    15.0670   -14.2160     2.5140   275.7480 
  260.0000    73.7990    23.8980    22.6490    14.8850    15.6060   -14.2250     2.5280   275.7220 
  260.1250    75.5540    23.8950    23.0110    15.3120    16.0410   -14.2300     2.5440   275.6880 
  260.2500    75.0070    23.8940    23.6980    15.6070    16.3100   -14.2650     2.5500   275.4910 
  260.3750    72.8960    23.8940    23.5570    15.8040    16.4590   -14.3320     2.5390   275.5050 
  260.5000    71.2540    23.8940    21.3530    15.9350    16.5380   -14.4200     2.5170   276.1900 
  260.6250    72.8550    23.8940    18.5880    16.0290    16.5970   -14.5210     2.4970   277.3570 
  260.7500    76.1760    23.8940    17.1880    16.1040    16.6690   -14.6310     2.4880   278.1230 
  260.8750    76.4390    23.8940    16.5990    16.1650    16.7460   -14.7500     2.4930   277.5700 
  261.0000    72.2670    23.8940    16.5680    16.1840    16.7830   -14.8780     2.5020   276.5520 
  261.1250    67.8540    23.8940    17.2510    16.1100    16.7120   -15.0400     2.5090   276.4270 
  261.2500    67.5890    23.8940    18.2110    15.8750    16.4570   -15.1950     2.5100   278.1370 
  261.3750    70.1850    23.8940    18.7110    15.5210    16.0680   -15.3280     2.5090   281.4310 
  261.5000    74.9030    23.8940    18.3680    15.1220    15.6330   -15.4630     2.5150   283.9660 
  261.6250    79.0100    23.8940    17.3700    14.7720    15.2590   -15.5730     2.5310   283.8140 
  261.7500    78.6810    23.8920    15.8250    14.5780    15.0680   -15.6500     2.5540   280.8460 
  261.8750    74.3530    23.8770    14.8160    14.5510    15.0710   -15.6850     2.5710   277.3980 
  262.0000    70.8230    23.8420    14.5520    14.6680    15.2350   -15.7070     2.5750   276.1070 
  262.1250    71.0040    23.8160    14.5260    14.8830    15.4980   -15.6890     2.5650   277.1840 
  262.2500    71.8150    23.8070    14.1330    15.1480    15.7900   -15.6710     2.5470   279.1390 
  262.3750    70.5990    23.8070    13.5720    15.4100    16.0590   -15.6660     2.5260   280.1260 
  262.5000    69.1780    23.8070    13.7050    15.6380    16.2820   -15.6340     2.5110   280.0550 
  262.6250    69.7770    23.8070    14.8710    15.8110    16.4470   -15.6180     2.5070   279.6450 
  262.7500    71.0280    23.8070    16.0210    15.8870    16.5150   -15.6370     2.5140   279.3910 
  262.8750    72.1960    23.8060    15.9450    15.8570    16.4690   -15.6800     2.5220   279.0310 
  263.0000    74.2740    23.8030    14.6790    15.7220    16.3050   -15.7200     2.5230   278.5320 
  263.1250    75.9500    23.7950    13.4790    15.5140    16.0660   -15.7730     2.5240   278.5560 
  263.2500    74.2000    23.7590    13.7340    15.2850    15.8190   -15.8170     2.5360   279.7450 
  263.3750    70.7550    23.7020    14.8610    15.0810    15.6180   -15.8300     2.5450   281.6730 
  263.5000    68.5150    23.6650    15.8570    14.9200    15.4730   -15.7990     2.5310   283.0180 
  263.6250    69.0280    23.6590    16.0430    14.8030    15.3730   -15.6740     2.4990   283.3650 
  263.7500    69.2260    23.7030    15.5850    14.7170    15.3010   -15.4360     2.4720   283.0940 
  263.8750    67.9210    23.7930    15.4200    14.6440    15.2400   -15.0700     2.4630   282.5670 
  264.0000    67.5360    23.8660    15.6470    14.5800    15.1880   -14.5730     2.4590   281.7980 
  264.1250    68.8220    23.8940    15.9350    14.5240    15.1420   -14.0060     2.4580   280.9740 
  264.2500    70.3290    23.8940    15.9150    14.4800    15.0970   -13.4200     2.4610   280.7360 
  264.3750    70.2720    23.8940    15.7150    14.4410    15.0560   -12.8300     2.4630   281.9110 
  264.5000    70.4290    23.8940    15.6110    14.3980    15.0160   -12.2790     2.4550   284.0730 
  264.6250    71.8570    23.8940    15.9810    14.3260    14.9570   -11.8400     2.4410   286.4460 
  264.7500    72.1410    23.8940    16.6760    14.1830    14.8320   -11.5200     2.4340   288.1760 
  264.8750    71.0700    23.8940    17.0420    13.9530    14.6110   -11.3510     2.4460   288.5870 
