~V
VERS. 2.00: Ver 2.00
~W
STRT.M 125.0000:
STOP.M 269.0000:
STEP.M 0.1250:
NULL. -999.2500:
UWI. DF3004:
~C
DEPT.M :
GR.API :
RML.OHMM :
RI. :
RXO.OHMM :
CALI.CM :
DEN.GM/CC :
SP.MV :
~A
# ...
  203.7500    84.5210     8.2730     7.6160     8.0800    24.3570     2.2820   -16.4580 
  203.8750    90.8040     8.5940     7.8350     8.8920    24.3760     2.3320   -16.7160 
  204.0000    92.6330     9.0820     8.1650     9.9520    24.2590     2.3680   -17.0100 
  204.1250    88.7560     9.7420     8.6910    11.7060    23.9680     2.3840   -17.2440 
  204.2500    82.2510    10.7450     9.4970    13.4290    23.9930     2.3860   -17.5080 
  204.3750    76.0260    12.2650    10.7420    13.4810    24.1930     2.3810   -17.7760 
  204.5000    72.5330    14.7900    12.6120    14.3540    24.3280     2.3770   -17.9140 
  204.6250    72.6120    18.5010    15.4120    17.5530    24.3570     2.3830   -18.1290 
  204.7500    70.6660    23.5470    19.0630    23.6250    24.3840     2.4000   -18.3010 
  204.8750    64.9130    29.5420    23.4570    33.4090    24.4100     2.4210   -18.5240 
  205.0000    59.5790    35.1960    28.3520    45.4590    24.4280     2.4340   -18.7190 
  205.1250    57.1400    40.7860    33.4830    50.5180    24.4560     2.4220   -18.8630 
  205.2500    56.1790    46.5040    38.6940    50.4770    24.4290     2.3880   -19.0490 
  205.3750    57.4490    52.5420    44.0740    53.1880    24.2230     2.3430   -19.1800 
  205.5000    62.6100    59.0410    49.7340    61.1190    23.9050     2.3000   -19.4150 
  205.6250    68.5310    65.7200    55.5070    69.2080    23.7390     2.2710   -19.5540 
  205.7500    71.4970    71.5710    60.6730    72.0830    23.6660     2.2560   -19.7390 
  205.8750    71.8860    75.2970    64.2390    73.5390    23.6940     2.2540   -19.8960 
  206.0000    71.2990    75.7190    65.2370    76.8940    23.8610     2.2620   -20.0190 
  206.1250    69.4400    71.9960    62.8340    77.2570    24.1280     2.2770   -20.2320 
  206.2500    67.3340    66.1270    58.4200    70.9140    24.1400     2.2930   -20.3340 
  206.3750    67.4900    60.3240    53.6640    61.5180    24.0350     2.3050   -20.4590 
  206.5000    69.7980    56.6530    50.3510    55.1750    24.0660     2.3110   -20.6300 
  206.6250    70.3310    57.0200    50.3560    47.8990    24.1970     2.3060   -20.7900 
  206.7500    68.8750    61.0090    53.6440    46.7920    24.3010     2.2920   -20.9140 
  206.8750    68.0400    67.8910    59.7320    57.0490    24.3510     2.2720   -21.0420 
  207.0000    67.9900    76.3780    67.5220    68.6850    24.3670     2.2490   -21.2160 
  207.1250    67.0890    84.6610    75.3880    79.5150    24.3810     2.2300   -21.3490 
  207.2500    65.8600    91.2920    81.8750    81.2960    24.3190     2.2180   -21.5150 
  207.3750    66.1020    95.7790    86.3980    82.3430    24.0990     2.2140   -21.7130 
  207.5000    67.8280    98.4900    89.1460    85.0390    23.9020     2.2170   -21.7590 
  207.6250    66.9900   100.1940    90.6890    87.3930    23.8320     2.2240   -21.9160 
  207.7500    63.6230   101.6930    91.8360    88.3450    23.8900     2.2290   -22.0430 
  207.8750    60.8530   103.2300    92.8910    90.7720    24.0850     2.2310   -22.1600 
  208.0000    60.9890   105.0300    94.1140    96.5150    24.2980     2.2310   -22.2780 
  208.1250    62.5180   107.6890    96.0460   100.4960    24.4310     2.2310   -22.3140 
  208.2500    62.5860   111.7910    99.2190   104.4420    24.5120     2.2360   -22.4400 
  208.3750    61.1530   118.1150   104.3440   106.0180    24.5100     2.2450   -22.4820 
  208.5000    60.1240   127.4940   112.1900   107.7060    24.4690     2.2560   -22.6260 
  208.6250    61.8220   141.3700   124.0280   113.7050    24.3750     2.2610   -22.7170 
  208.7500    64.9550   159.3430   139.4440   127.9470    24.1470     2.2580   -22.8090 
  208.8750    66.1130   180.6610   157.7260   146.7940    23.8630     2.2500   -22.9600 
  209.0000    65.3320   203.3600   177.1830   170.0140    23.7640     2.2440   -23.0410 
  209.1250    64.4230   223.3610   194.5080   193.4380    23.9520     2.2480   -23.2270 
  209.2500    63.1980   236.9350   206.7410   208.9180    24.1870     2.2620   -23.3210 
  209.3750    60.8840   241.7010   211.9420   209.7520    24.2420     2.2790   -23.3980 
  209.5000    58.4600   237.6150   209.8940   199.8790    24.1870     2.2910   -23.5170 
  209.6250    59.1700   226.6970   201.8080   193.1430    24.0900     2.2890   -23.5610 
  209.7500    60.0150   214.2640   191.8910   182.5370    24.1330     2.2750   -23.5660 
  209.8750    58.8880   203.4360   182.8500   167.7510    23.9690     2.2540   -23.5700 
  210.0000    57.2320   195.8750   176.3600   153.6500    23.7870     2.2330   -23.5350 
  210.1250    58.3370   192.1280   173.1920   153.1340    23.8110     2.2180   -23.4630 
  210.2500    61.8770   190.1960   171.7980   154.2480    24.0590     2.2100   -23.4130 
  210.3750    64.7500   188.2350   170.6190   156.4820    24.2940     2.2080   -23.3810 
  210.5000    65.0260   184.8430   168.3590   162.3420    24.2610     2.2090   -23.3280 
  210.6250    63.5190   179.9190   164.6900   168.6150    23.8870     2.2110   -23.2530 
  210.7500    63.5800   175.6430   161.2950   169.6750    23.7070     2.2120   -23.2670 
  210.8750    66.1080   174.4060   160.2280   159.9630    23.7900     2.2150   -23.1980 
  211.0000    68.6980   178.0030   163.2270   136.9430    24.1480     2.2180   -23.1930 
  211.1250    68.7850   187.4790   171.5380   125.6480    24.2330     2.2190   -23.1860 
  211.2500    67.4900   199.9510   182.8590   136.2680    24.0140     2.2170   -23.1570 
  211.3750    67.4010   211.9230   194.2170   164.1230    23.7520     2.2130   -23.2510 
  211.5000    67.7360   219.2930   201.9840   187.4120    23.6730     2.2090   -23.2240 
  211.6250    65.3890   217.2610   201.7690   190.0770    23.7700     2.2080   -23.2960 
  211.7500    63.2380   206.8760   194.0120   189.4390    23.7350     2.2080   -23.3490 
  211.8750    64.3000   190.9410   180.7420   190.5660    23.8010     2.2100   -23.3890 
  212.0000    68.2950   173.4180   165.2690   189.1210    24.0360     2.2090   -23.5470 
  212.1250    70.6860   158.1850   151.1500   167.0230    24.2360     2.2070   -23.6430 
  212.2500    70.6260   146.5410   140.0220   140.3480    24.2520     2.2040   -23.8400 
  212.3750    70.0570   138.4560   132.1320   125.5940    24.0720     2.2030   -23.9960 
  212.5000    68.1880   133.0550   126.8590   121.7820    23.7360     2.2020   -24.0910 
  212.6250    64.6180   128.9800   123.0770   121.3320    23.6100     2.1990   -24.2230 
  212.7500    60.7170   124.4690   119.1030   121.5950    23.5960     2.1960   -24.3680 
  212.8750    59.1460   118.6710   114.0500   122.0410    23.6110     2.1930   -24.4580 
  213.0000    60.0380   111.6110   107.7880   119.9470    23.6080     2.1920   -24.4930 
  213.1250    60.9280   104.3780   101.1420   111.2630    23.6150     2.1970   -24.5040 
  213.2500    61.8760    98.5360    95.5450   101.2380    23.5990     2.2050   -24.4200 
  213.3750    62.9090    95.1470    92.0500    90.9440    23.5740     2.2130   -24.3220 
  213.5000    62.4860    94.6910    91.2240    81.8280    23.5600     2.2170   -24.2920 
  213.6250    61.9470    97.3720    93.4130    82.2180    23.6470     2.2160   -24.2610 
  213.7500    62.9950   101.8340    97.4270    91.2550    23.8350     2.2140   -24.1360 
  213.8750    63.9260   106.8910   102.1830   100.3620    24.0680     2.2110   -24.1390 
  214.0000    63.8230   111.2480   106.4580   106.0700    24.1590     2.2100   -24.0780 
  214.1250    63.1970   113.3840   108.7910   107.8550    24.0540     2.2080   -24.0450 
  214.2500    62.4480   113.0870   108.8740   108.1250    23.7610     2.2040   -24.0480 
  214.3750    60.0040   110.5930   106.8340   106.3970    23.6380     2.1980   -23.9320 
  214.5000    58.0350   106.5760   103.2250   102.8190    23.6500     2.1910   -23.9200 
  214.6250    59.0990   101.9140    98.7990    97.1510    23.6820     2.1870   -23.8230 
  214.7500    61.5940    97.5780    94.5270    93.8100    23.6870     2.1890   -23.7760 
  214.8750    64.3730    94.0760    90.9570    92.3330    23.7210     2.1950   -23.6880 
