~V
VERS. 2.00: Ver 2.00
~W
STRT.M 120.0000:
STOP.M 268.0000:
STEP.M 0.1250:
NULL. -999.2500:
UWI. DF3028:
~C
DEPT.M :
DEN.GM/CC :
GR.API :
CALI.CM :
RXO.OHMM :
RI. :
RML.OHMM :
SP.MV :
~A
# ...
  187.5000     2.2620    68.8070    28.7130    81.4930   119.3260   132.7010   -40.9190 
  187.6250     2.2480    70.7870    28.6830    83.4970   118.5950   133.9810   -40.3440 
  187.7500     2.2340    69.6240    28.6550    98.3160   127.5630   145.1500   -39.7090 
  187.8750     2.2200    65.5660    28.6420   121.1700   144.3060   164.8960   -39.0380 
  188.0000     2.2120    61.3840    28.6510   144.8000   165.3280   189.9830   -38.3660 
  188.1250     2.2190    60.2120    28.6890   158.0950   182.9810   211.0370   -37.7050 
  188.2500     2.2250    59.8420    28.7250   160.9910   189.6470   217.4720   -37.0810 
  188.3750     2.2210    58.4260    28.7060   158.3150   182.4230   206.1060   -36.4820 
  188.5000     2.2080    56.9820    28.6100   150.5460   164.5150   182.9510   -35.9020 
  188.6250     2.1990    58.6180    28.4970   133.4100   142.5690   157.4920   -35.3610 
  188.7500     2.1940    61.2590    28.4290   113.3490   122.6800   135.8030   -34.8430 
  188.8750     2.1890    62.8960    28.3960    97.3230   106.8610   119.2540   -34.3350 
  189.0000     2.1890    64.3980    28.3690    86.4480    95.3300   107.5070   -33.8100 
  189.1250     2.2040    67.0510    28.3600    79.0030    87.8040    99.8860   -33.2850 
  189.2500     2.2250    69.1750    28.3560    74.4690    82.5190    94.3530   -32.7590 
  189.3750     2.2390    69.6110    28.3410    73.0140    78.4400    89.7260   -32.2570 
  189.5000     2.2350    68.6870    28.3150    72.4170    74.5600    84.9050   -31.7520 
  189.6250     2.2240    65.0450    28.2910    70.3650    69.8560    78.9050   -31.2120 
  189.7500     2.2370    60.8210    28.2620    68.8060    64.2460    72.0390   -30.6310 
  189.8750     2.2870    60.5600    28.1900    67.3200    58.3100    65.1810   -29.9990 
  190.0000     2.3610    65.7190    28.0370    61.1800    52.7190    59.0070   -29.3220 
  190.1250     2.4330    69.8520    27.8400    49.7230    47.4800    53.2310   -28.5890 
  190.2500     2.4890    69.1370    27.7090    42.0190    41.6650    46.6550   -27.8170 
  190.3750     2.5230    68.0330    27.6330    41.3070    34.6600    38.6610   -27.0160 
  190.5000     2.5390    68.7080    27.4860    40.2930    26.9130    29.8620   -26.2090 
  190.6250     2.5370    67.5540    27.1930    30.6540    20.0240    22.0720   -25.4300 
  190.7500     2.5240    62.8700    26.9300    18.3700    14.9000    16.3150   -24.6980 
  190.8750     2.5020    56.8940    26.8110    10.5030    11.5880    12.7100   -24.0650 
  191.0000     2.4720    52.7710    26.8060     7.4750     9.7190    10.8930   -23.5530 
  191.1250     2.4520    51.9270    26.8380     7.2360     8.9630    10.4650   -23.1780 
  191.2500     2.4520    53.4630    26.8890     7.8240     8.7340    10.5900   -22.9020 
  191.3750     2.4650    56.7320    26.9630     8.5560     8.6890    10.7300   -22.7000 
  191.5000     2.4780    58.6750    27.0440     9.0070     8.5480    10.5080   -22.5750 
  191.6250     2.4720    58.2510    27.1960     8.6790     8.1690     9.8450   -22.5070 
  191.7500     2.4470    58.8140    27.4580     7.7170     7.7100     9.1330   -22.4750 
  191.8750     2.4190    60.8780    27.7400     6.6610     7.3610     8.7010   -22.4690 
  192.0000     2.4070    60.7480    27.9200     6.0840     7.2670     8.7470   -22.4770 
  192.1250     2.4210    55.4100    27.9050     6.2860     7.5400     9.3940   -22.4980 
  192.2500     2.4410    50.1620    27.7920     7.1720     8.0550    10.3900   -22.5220 
  192.3750     2.4570    49.7100    27.6690     8.7800     8.6170    11.3960   -22.5750 
  192.5000     2.4710    53.9010    27.6300    10.7150     8.9570    11.9610   -22.6480 
  192.6250     2.4840    59.2800    27.7110    11.5050     8.7930    11.6430   -22.7260 
  192.7500     2.4840    61.5380    27.8080    10.5290     8.2680    10.7480   -22.7850 
  192.8750     2.4600    59.8960    27.8620     8.5780     7.6390     9.7610   -22.8080 
  193.0000     2.4250    56.9950    27.8340     6.9610     7.1670     9.1390   -22.8060 
  193.1250     2.4100    54.7040    27.7420     6.4400     7.0860     9.2640   -22.7890 
  193.2500     2.4210    53.2440    27.6900     6.7750     7.3920    10.0600   -22.7660 
  193.3750     2.4420    52.9620    27.7080     7.9460     8.0250    11.3720   -22.7450 
  193.5000     2.4600    53.2060    27.6980     9.9700     8.8250    12.8740   -22.7380 
  193.6250     2.4740    53.2130    27.5360    12.1850     9.4760    13.9420   -22.7570 
  193.7500     2.4880    52.9240    27.3410    13.0520     9.7070    14.1230   -22.8230 
  193.8750     2.4920    52.5920    27.2490    12.0600     9.4320    13.3470   -22.9370 
  194.0000     2.4820    52.5020    27.2860    10.1680     8.7800    11.9690   -23.0960 
  194.1250     2.4640    52.2960    27.3840     8.7160     8.0150    10.5760   -23.2900 
  194.2500     2.4470    51.8340    27.4740     7.8030     7.3900     9.5640   -23.5040 
  194.3750     2.4290    51.6860    27.5160     7.2400     7.0050     9.0330   -23.7000 
  194.5000     2.4130    52.2860    27.4540     7.2440     6.8720     8.9240   -23.8650 
  194.6250     2.4130    52.8900    27.3260     8.4670     6.9560     9.1110   -23.9870 
  194.7500     2.4330    52.5720    27.3060    10.1960     7.1260     9.3800   -24.0680 
  194.8750     2.4600    52.8700    27.4320    10.9770     7.3180     9.6380   -24.1040 
  195.0000     2.4640    53.7020    27.6190     9.9860     7.4920     9.8420   -24.0910 
  195.1250     2.4300    52.5950    27.8060     8.1160     7.5940     9.9300   -24.0250 
  195.2500     2.3920    50.7620    27.9870     7.1900     7.5560     9.8170   -23.9120 
  195.3750     2.3840    51.2820    28.0900     7.7880     7.2820     9.3650   -23.7410 
  195.5000     2.4150    54.3860    28.0480     9.0930     6.7060     8.4840   -23.5060 
  195.6250     2.4520    56.0900    27.8600     9.5030     5.8450     7.2080   -23.2170 
  195.7500     2.4630    55.7800    27.6090     8.9520     4.9140     5.8680   -22.8940 
  195.8750     2.4420    55.2150    27.4620     8.1550     4.0760     4.7160   -22.5410 
  196.0000     2.4040    55.2850    27.5810     7.1130     3.4230     3.8890   -22.1610 
  196.1250     2.3820    55.9710    27.8930     5.4250     3.0040     3.4370   -21.7650 
  196.2500     2.3930    55.7600    28.0990     3.8280     2.7470     3.2240   -21.3800 
  196.3750     2.4290    55.9270    28.1050     3.0800     2.6170     3.1810   -21.0460 
  196.5000     2.4630    58.8880    28.0220     3.1220     2.5910     3.2820   -20.7860 
  196.6250     2.4780    69.8790    27.9430     3.5830     2.6920     3.5850   -20.6700 
  196.7500     2.4820    86.7620    27.9220     4.3660     2.9260     4.1170   -20.6920 
  196.8750     2.4800   100.0850    27.9930     5.6020     3.3100     4.8950   -20.8720 
  197.0000     2.4680   104.4000    28.1380     7.1040     3.8360     5.8580   -21.2350 
  197.1250     2.4400   104.3630    28.2750     8.2600     4.4660     6.8490   -21.8430 
  197.2500     2.4070   106.7620    28.3310     8.7210     5.0920     7.6770   -22.6270 
  197.3750     2.3880   107.5190    28.3180     8.5850     5.6360     8.2600   -23.5450 
  197.5000     2.3940   103.4150    28.2340     8.3650     6.0710     8.6590   -24.5440 
  197.6250     2.4160   100.5040    27.9670     8.9540     6.4360     9.0670   -25.4970 
  197.7500     2.4240   101.4850    27.5840    10.3420     6.7970     9.6080   -26.3180 
  197.8750     2.4100   101.4970    27.2580    11.7840     7.1460    10.2310   -26.9370 
  198.0000     2.3880    98.2390    27.1090    12.5370     7.4180    10.7680   -27.3110 
  198.1250     2.3850    95.7460    27.1290    12.3960     7.4910    10.9560   -27.3770 
  198.2500     2.3980    95.5170    27.2270    11.7050     7.3620    10.7880   -27.2580 
  198.3750     2.4130    95.9310    27.3770    10.4810     7.1000    10.4170   -27.0320 
  198.5000     2.4160    96.1630    27.5220     8.9890     6.8240    10.0760   -26.8030 
  198.6250     2.4080    95.9010    27.5750     8.0870     6.6720    10.0030   -26.7230 
