~V
VERS. 2.00: Ver 2.00
~W
STRT.M 60.0000:
STOP.M 238.0000:
STEP.M 0.1250:
NULL. -999.2500:
UWI. DF308:
~C
DEPT.M :
DEN.GM/CC :
SP.MV :
AC.US/MT :
GR.API :
CALI.CM :
RXO.OHMM :
RI. :
RML.OHMM :
~A
# ...
  150.0000     2.2660   -17.7810   402.0530    76.5530    24.2470    17.4050    17.3430    19.4270 
  150.1250     2.2600   -17.8780   401.9420    77.2540    24.2750    17.8150    18.0480    20.2030 
  150.2500     2.2570   -17.9920   402.5910    76.5100    24.3080    18.4990    19.0650    21.3520 
  150.3750     2.2580   -18.1150   403.7070    73.2020    24.3360    19.9730    20.4810    22.9560 
  150.5000     2.2520   -18.2690   405.0730    69.3610    24.3630    22.4310    22.2910    24.9560 
  150.6250     2.2360   -18.4390   406.3750    68.7640    24.3770    25.8330    24.3670    27.1370 
  150.7500     2.2200   -18.6200   407.0040    70.2470    24.3920    28.5570    26.3870    29.1660 
  150.8750     2.2180   -18.8150   406.5220    71.6620    24.4130    29.6580    28.1140    30.8570 
  151.0000     2.2260   -19.0080   405.1060    72.7540    24.4110    29.7990    29.4340    32.1690 
  151.1250     2.2360   -19.2300   403.6080    73.1690    24.3820    30.5640    30.3150    33.1420 
  151.2500     2.2420   -19.4990   402.7270    72.2900    24.3480    32.2720    30.9230    33.9220 
  151.3750     2.2520   -19.7810   402.3430    70.8980    24.3160    33.6780    31.3180    34.5240 
  151.5000     2.2660   -20.0810   401.8490    69.6890    24.2860    33.2540    31.4910    34.8840 
  151.6250     2.2770   -20.4530   400.5560    70.0580    24.2320    32.2470    31.3790    34.9350 
  151.7500     2.2810   -20.8530   398.6340    71.6350    24.1740    33.1050    31.2420    35.0510 
  151.8750     2.2850   -21.2940   396.5120    73.8060    24.1150    36.5430    31.6050    35.9510 
  152.0000     2.2920   -21.8200   395.2760    75.1500    24.0820    39.9080    33.2350    38.6470 
  152.1250     2.2990   -22.3700   396.4420    73.8770    24.0640    43.6480    38.0190    45.3080 
  152.2500     2.2920   -22.9450   401.9630    71.0290    24.0460    58.8150    48.2050    57.6980 
  152.3750     2.2680   -23.5660   409.3080    66.4820    24.0570   105.1320    67.3850    78.7870 
  152.5000     2.2340   -24.1860   415.0800    60.5320    24.1090   185.7680    99.5070   112.6360 
  152.6250     2.2090   -24.7900   416.7500    56.1180    24.1580   248.9290   149.0890   166.8400 
  152.7500     2.1980   -25.3880   415.7950    53.3910    24.1350   284.7870   207.9150   236.2120 
  152.8750     2.1990   -25.9270   414.3250    50.6550    24.0730   303.6790   261.9900   303.2770 
  153.0000     2.2040   -26.3950   414.2170    47.5000    24.0230   307.2880   297.8020   345.4600 
  153.1250     2.2030   -26.8140   415.7880    48.6640    24.0370   302.7540   312.6770   358.6610 
  153.2500     2.1980   -27.1850   416.9150    54.9400    24.0950   311.5410   319.9450   363.7840 
  153.3750     2.1940   -27.5000   416.2020    62.4130    24.1300   332.3700   324.6850   366.9170 
  153.5000     2.1980   -27.7730   413.9290    65.6260    24.1170   344.5170   326.8070   366.7750 
  153.6250     2.2090   -28.0020   411.7460    62.8130    24.0390   333.4640   323.7740   359.7300 
  153.7500     2.2160   -28.2000   411.0000    59.5030    23.9450   318.6350   315.4600   346.2110 
  153.8750     2.2160   -28.3940   411.9240    58.5310    23.8390   311.6860   302.6790   327.9450 
  154.0000     2.2150   -28.5600   413.7880    58.3090    23.7030   305.6470   287.3790   307.6190 
  154.1250     2.2180   -28.7160   415.2690    57.1900    23.5610   284.5160   271.8950   287.8840 
  154.2500     2.2190   -28.8320   416.2030    56.4190    23.5500   257.9540   257.6400   269.9120 
  154.3750     2.2130   -28.9110   416.9640    56.2650    23.6470   229.4790   244.8470   253.8560 
  154.5000     2.2070   -28.9990   416.7410    57.6400    23.7410   200.8860   233.3990   239.5670 
  154.6250     2.2190   -29.0510   412.9870    61.5810    23.7130   185.3090   223.4600   227.2420 
  154.7500     2.2440   -29.0600   406.5080    67.0870    23.6330   188.7290   214.9220   216.6790 
  154.8750     2.2690   -29.0740   400.5190    70.4830    23.5670   198.5780   207.9000   207.9380 
  155.0000     2.2840   -29.0910   397.7570    68.6750    23.5700   198.9440   202.2270   200.6800 
  155.1250     2.2810   -29.0820   398.2140    65.1540    23.6940   191.4710   196.6920   193.4110 
  155.2500     2.2600   -29.1030   399.1200    63.1860    23.9080   192.6950   189.0350   183.8320 
  155.3750     2.2290   -29.1150   399.7550    63.3060    24.0520   194.8950   177.6510   170.6220 
  155.5000     2.2070   -29.1150   400.9030    64.8420    24.0860   179.2850   162.6040   154.3180 
  155.6250     2.2150   -29.1410   403.3680    67.9030    24.0110   140.4640   146.0330   137.5910 
  155.7500     2.2410   -29.1880   406.1760    72.4670    23.9770   104.0010   131.5100   123.7640 
  155.8750     2.2680   -29.2490   408.1740    77.1820    23.9910    89.3380   121.4550   114.8270 
  156.0000     2.2840   -29.3040   409.0440    81.4160    24.0490   104.0490   117.1390   111.6010 
  156.1250     2.2870   -29.3490   409.8090    83.4480    24.0950   142.6110   119.4230   114.6230 
  156.2500     2.2790   -29.3960   411.8400    81.3720    24.1130   166.0660   125.8870   121.5050 
  156.3750     2.2610   -29.4610   415.5520    74.0180    24.0870   155.2220   134.0790   129.8750 
  156.5000     2.2400   -29.5120   420.3590    64.0480    24.0610   124.0840   140.9270   136.7250 
  156.6250     2.2250   -29.5680   425.1980    58.3870    24.0130   100.0540   143.1690   138.9260 
  156.7500     2.2180   -29.6250   429.4740    59.1260    23.9300    88.9340   141.5180   137.5240 
  156.8750     2.2160   -29.6540   432.9320    61.2010    23.8070    87.5180   138.3280   135.1360 
  157.0000     2.2150   -29.7070   435.1950    59.9260    23.5990    92.3150   136.6470   134.8110 
  157.1250     2.2100   -29.8000   435.8380    59.0690    23.2610   103.3930   139.8180   139.7010 
  157.2500     2.2010   -29.8630   435.5380    60.9480    22.9750   123.2360   148.1450   149.8630 
  157.3750     2.1910   -29.9430   434.8320    62.4730    22.8860   150.6340   160.8020   164.4200 
  157.5000     2.1860   -30.0420   433.9440    61.8040    22.9160   171.0980   175.5080   180.9740 
  157.6250     2.1880   -30.0960   432.9320    61.4470    22.9550   159.5290   188.3600   195.1700 
  157.7500     2.1920   -30.1610   432.2940    61.9660    22.9140   127.3070   196.6560   204.0570 
  157.8750     2.1960   -30.2320   432.5910    63.7620    22.8100    95.0720   199.8280   207.2370 
  158.0000     2.2010   -30.2560   433.7830    67.1020    22.7090    77.2300   199.3280   206.6120 
  158.1250     2.2070   -30.2580   434.8620    67.7380    22.6940    78.0140   197.7960   205.1700 
  158.2500     2.2090   -30.2620   435.1510    63.1830    22.7470    91.6880   197.4440   204.9910 
  158.3750     2.2020   -30.2480   435.2480    55.8760    22.8470   115.3440   198.4410   205.9220 
  158.5000     2.1890   -30.2070   436.1290    51.2170    22.9680   144.7100   199.4200   206.2400 
  158.6250     2.1800   -30.1540   437.9930    52.3710    23.0870   176.7890   197.4020   202.6210 
  158.7500     2.1820   -30.0910   439.5790    58.4720    23.2120   192.6330   190.8000   193.8580 
  158.8750     2.1900   -30.0200   439.7960    65.3510    23.3410   180.5320   179.5800   180.5430 
  159.0000     2.1990   -29.9750   438.0420    68.1930    23.4910   149.7230   165.4980   165.0550 
  159.1250     2.2050   -29.9360   434.1180    66.3410    23.7620   123.6510   151.5670   150.7380 
  159.2500     2.2130   -29.8870   429.4250    66.2070    24.0660   109.7840   140.1750   139.5450 
  159.3750     2.2290   -29.8340   425.4720    67.7440    24.3430   108.5230   132.2980   132.1090 
  159.5000     2.2530   -29.8230   423.2860    67.9580    24.4410   118.3790   128.0260   128.2630 
  159.6250     2.2760   -29.8660   422.6330    65.5240    24.4200   138.3520   127.3650   127.8320 
  159.7500     2.2830   -29.8990   421.8650    64.3850    24.3970   152.7960   129.1660   129.6690 
  159.8750     2.2730   -29.9650   420.3800    64.7370    24.4130   157.5060   133.1100   133.5350 
