~V
VERS. 2.00: Ver 2.00
~W
STRT.M 64.0000:
STOP.M 268.0000:
STEP.M 0.1250:
NULL. -999.2500:
UWI. DF3073:
~C
DEPT.M :
SP.MV :
GR.API :
CALI.CM :
RXO.OHMM :
RI. :
RML.OHMM :
DEN.GM/CC :
~A
# ...
  131.5000   -27.9810    83.9150    23.7040     7.2220     6.5810     6.6550     2.2560 
  131.6250   -28.4110    80.3870    23.6060     7.5530     7.0570     7.0840     2.2450 
  131.7500   -28.7490    75.7330    23.5560     7.8630     7.6770     7.7420     2.2290 
  131.8750   -28.9780    72.4310    23.3920     8.2440     8.4990     8.6890     2.2170 
  132.0000   -29.1460    73.1290    23.4620     8.8080     9.5450     9.9250     2.2200 
  132.1250   -29.2590    75.9520    23.3710     9.6870    10.8060    11.4260     2.2350 
  132.2500   -29.3200    74.9150    23.4050    10.8140    12.1230    12.9760     2.2500 
  132.3750   -29.3580    69.9040    23.4340    12.4630    13.3390    14.3780     2.2560 
  132.5000   -29.4020    65.4290    23.4580    14.9850    14.2830    15.4650     2.2560 
  132.6250   -29.4680    65.6180    23.3470    15.7990    14.7230    15.9890     2.2610 
  132.7500   -29.6030    67.0140    23.3410    14.6330    14.7290    16.0310     2.2740 
  132.8750   -29.7800    68.2290    23.3110    12.9660    14.4360    15.7200     2.2850 
  133.0000   -29.9570    69.4440    23.3370    12.3820    14.0230    15.2530     2.2820 
  133.1250   -30.1140    71.0860    23.5380    12.8890    13.6180    14.8080     2.2600 
  133.2500   -30.2530    72.6790    23.5720    13.4810    13.3140    14.4910     2.2360 
  133.3750   -30.3600    72.7480    23.7710    13.1000    13.1390    14.3230     2.2160 
  133.5000   -30.4090    71.1640    23.8040    11.9810    13.0620    14.2500     2.1960 
  133.6250   -30.3890    70.6990    23.8690    10.8280    13.0690    14.2420     2.1790 
  133.7500   -30.3510    70.8350    23.7600    11.0170    13.1010    14.2370     2.1790 
  133.8750   -30.3120    67.8440    23.6310    12.0850    13.1040    14.1900     2.1960 
  134.0000   -30.2990    61.9670    23.6620    13.2150    13.0510    14.0900     2.2120 
  134.1250   -30.3410    62.1270    23.6470    12.7070    12.8780    13.8700     2.2090 
  134.2500   -30.4020    68.0150    23.6210    11.8700    12.5700    13.5170     2.1970 
  134.3750   -30.4680    71.9620    23.6010    11.0730    12.1570    13.0710     2.1960 
  134.5000   -30.5610    68.9490    23.6750    10.3150    11.7340    12.5970     2.2120 
  134.6250   -30.6710    64.7780    23.6690    10.1390    11.4130    12.2210     2.2310 
  134.7500   -30.7440    65.0980    23.6710    10.3310    11.2850    12.0620     2.2320 
  134.8750   -30.7440    65.0900    23.6610    10.2100    11.3990    12.1590     2.2120 
  135.0000   -30.6400    61.1840    23.6530     9.8730    11.7600    12.5270     2.1860 
  135.1250   -30.4340    57.7420    23.6630    10.2130    12.3580    13.1610     2.1710 
  135.2500   -30.2010    60.6980    23.6650    11.0230    13.0430    13.8790     2.1660 
  135.3750   -29.9720    67.4760    23.6740    11.8200    13.6200    14.4990     2.1640 
  135.5000   -29.7500    72.1500    23.6790    12.6720    13.9220    14.8560     2.1640 
  135.6250   -29.5610    69.6820    23.6780    13.2620    13.8050    14.7890     2.1720 
  135.7500   -29.3900    64.2900    23.6840    12.9610    13.3340    14.3500     2.1940 
  135.8750   -29.2780    61.7860    23.6770    11.8930    12.6280    13.6760     2.2210 
  136.0000   -29.2190    63.6500    23.6700    10.7680    11.8590    12.9490     2.2360 
  136.1250   -29.1750    65.5750    23.6880    10.1050    11.2090    12.3300     2.2320 
  136.2500   -29.1370    64.5820    23.6960     9.7170    10.7430    11.9340     2.2270 
  136.3750   -29.1030    63.5940    23.7730     9.6230    10.4740    11.7410     2.2250 
  136.5000   -29.0540    65.5140    23.8770     9.6760    10.3590    11.6820     2.2160 
  136.6250   -28.9480    67.0220    23.8470     9.6930    10.3350    11.7100     2.1960 
  136.7500   -28.8100    65.1920    23.8700     9.6630    10.3360    11.7120     2.1790 
  136.8750   -28.6320    63.1630    23.8760     9.6170    10.3120    11.6410     2.1770 
  137.0000   -28.3710    64.1690    23.8340     9.5410    10.2360    11.4840     2.1840 
  137.1250   -28.0950    63.5680    23.8520     9.4370    10.1070    11.2830     2.1820 
  137.2500   -27.8040    59.6690    23.8760     9.2860     9.9670    11.0740     2.1690 
  137.3750   -27.4850    58.7190    23.8920     9.2010     9.8430    10.8880     2.1550 
  137.5000   -27.1510    63.3100    23.8490     9.2140     9.7540    10.7500     2.1500 
  137.6250   -26.8130    67.2750    23.9140     9.2200     9.7120    10.6800     2.1560 
  137.7500   -26.4800    67.6160    23.9070     9.2020     9.7140    10.6720     2.1650 
  137.8750   -26.1430    66.6920    23.9180     9.1940     9.7470    10.7050     2.1720 
  138.0000   -25.8700    65.0720    23.9450     9.2490     9.7950    10.7560     2.1790 
  138.1250   -25.6000    64.0770    23.9270     9.2320     9.8260    10.8040     2.1880 
  138.2500   -25.3240    65.5340    23.9420     9.1230     9.7920    10.7950     2.1930 
  138.3750   -25.0620    66.6570    23.9510     9.0310     9.6380    10.6360     2.1900 
  138.5000   -24.7840    64.5890    24.0340     9.0090     9.3300    10.2780     2.1780 
  138.6250   -24.5190    62.8660    24.1160     9.0740     8.9700     9.8430     2.1700 
  138.7500   -24.2480    65.0730    24.1090     9.1600     8.7100     9.5520     2.1720 
  138.8750   -23.9580    69.4170    24.1150     9.0590     8.6030     9.4700     2.1910 
  139.0000   -23.6680    74.0450    24.1660     8.6730     8.6470     9.5730     2.2380 
  139.1250   -23.3480    76.2000    24.1820     8.0140     8.8710     9.8850     2.3280 
  139.2500   -23.0210    73.5910    24.2200     8.0260     9.1150    10.1970     2.4310 
  139.3750   -22.6860    68.0600    24.4100    11.3890     9.1960    10.3240     2.4930 
  139.5000   -22.3870    66.2090    24.5740    16.4640     8.9880    10.1610     2.4810 
  139.6250   -22.1170    72.7220    24.4300    14.9400     8.4320     9.6280     2.4100 
  139.7500   -21.8840    81.8320    24.4050     9.4340     7.6960     8.8840     2.3400 
  139.8750   -21.6960    89.8970    24.3970     6.7540     6.9680     8.1470     2.2980 
  140.0000   -21.5450    93.9270    24.4030     6.4570     6.3930     7.6050     2.2820 
  140.1250   -21.4580    93.3810    24.4000     6.4520     6.0290     7.3360     2.2830 
  140.2500   -21.3870    91.3480    24.4170     6.5250     5.8460     7.2770     2.2840 
  140.3750   -21.3150    91.0200    24.4130     6.6240     5.8130     7.3670     2.2780 
  140.5000   -21.2400    92.0150    24.4060     6.6020     5.8360     7.4510     2.2710 
  140.6250   -21.1080    91.8040    24.3830     6.4150     5.8130     7.3930     2.2730 
  140.7500   -20.9630    90.7040    24.3210     6.4420     5.7320     7.2490     2.2940 
  140.8750   -20.7950    90.0630    24.3880     6.3520     5.6320     7.0780     2.3270 
  141.0000   -20.6000    89.8530    24.6520     6.0380     5.5300     6.9230     2.3550 
  141.1250   -20.4000    88.9580    24.6810     5.9550     5.4370     6.8240     2.3530 
  141.2500   -20.2490    89.1310    24.6480     6.0540     5.3730     6.8030     2.3280 
  141.3750   -20.1480    92.0780    24.6740     6.1200     5.3240     6.8340     2.3040 
  141.5000   -20.1060    97.4940    24.8490     6.0210     5.2660     6.8650     2.3050 
  141.6250   -20.1880   102.0660    24.8900     5.9590     5.1760     6.8490     2.3350 
  141.7500   -20.3040   102.8030    24.9000     5.8480     5.0290     6.7250     2.3650 
  141.8750   -20.4470   100.6820    24.9000     5.7620     4.8310     6.4840     2.3770 
  142.0000   -20.6060   101.2290    24.8840     5.7470     4.6270     6.1880     2.3730 
  142.1250   -20.7600   106.2170    24.8650     5.7130     4.4850     5.9330     2.3660 
  142.2500   -20.8890   108.9090    24.8280     5.6050     4.4240     5.7900     2.3640 
  142.3750   -21.0370   106.0030    24.7330     5.4730     4.4780     5.8110     2.3680 
  142.5000   -21.2280   101.0000    24.7110     5.4420     4.6840     6.0220     2.3760 
  142.6250   -21.4580    95.9250    24.6710     5.8200     5.0510     6.4330     2.3800 
