~V
VERS. 2.00: Ver 2.00
~W
STRT.M 125.0000:
STOP.M 265.0000:
STEP.M 0.1250:
NULL. -999.2500:
UWI. DF3008:
~C
DEPT.M :
DEN.GM/CC :
GR.API :
CALI.CM :
RXO.OHMM :
RI. :
RML.OHMM :
SP.MV :
~A
# ...
  215.0000     2.1880    57.7600    25.1560    81.6440    82.7400    85.6040   -23.6540 
  215.1250     2.1910    58.9560    25.1030    86.4300    85.4310    88.4010   -23.6120 
  215.2500     2.1980    56.8850    25.0460    87.5530    89.2220    92.4880   -23.5500 
  215.3750     2.2070    52.9210    25.0210    91.4370    93.0590    96.7760   -23.4690 
  215.5000     2.2150    51.5260    25.0130   101.2200    95.6730    99.9680   -23.3730 
  215.6250     2.2220    53.2900    25.0120   112.4070    95.4250   100.4460   -23.2830 
  215.7500     2.2240    57.7000    25.0290   116.4410    92.4320    98.2350   -23.1960 
  215.8750     2.2210    62.5930    25.0860   109.0880    87.3580    93.8610   -23.1000 
  216.0000     2.2150    63.7400    25.1850    92.7650    81.2890    88.2810   -23.0070 
  216.1250     2.2100    60.8150    25.2320    77.2810    75.4240    82.6120   -22.9280 
  216.2500     2.2070    57.5200    25.2460    70.9960    70.4090    77.5920   -22.8790 
  216.3750     2.2080    56.3530    25.2460    69.9870    66.3380    73.3760   -22.8580 
  216.5000     2.2130    56.4580    25.2460    68.2590    63.1050    69.8980   -22.8540 
  216.6250     2.2230    57.6570    25.2460    63.4890    60.7590    67.2150   -22.8410 
  216.7500     2.2320    59.0120    25.2460    58.9940    59.1740    65.1990   -22.8300 
  216.8750     2.2390    58.8470    25.2460    56.9400    58.3090    63.7820   -22.8190 
  217.0000     2.2430    60.8420    25.2460    57.0600    58.0000    62.7920   -22.8180 
  217.1250     2.2440    65.1200    25.2460    57.7640    57.9540    61.9850   -22.8290 
  217.2500     2.2380    66.8460    25.2460    58.4650    57.8870    61.2390   -22.8510 
  217.3750     2.2330    62.8250    25.2460    59.1620    57.9980    60.8820   -22.8740 
  217.5000     2.2360    57.6080    25.2460    59.0000    59.0120    61.6820   -22.9160 
  217.6250     2.2530    55.8230    25.2460    57.8190    62.5700    65.3660   -22.9900 
  217.7500     2.2690    54.5400    25.2470    61.1550    70.9350    71.7350   -23.1080 
  217.8750     2.2720    53.8590    25.2480    77.1580    84.3010    82.7250   -23.2710 
  218.0000     2.2620    55.0500    25.2530   109.6440   101.4320   100.2190   -23.4640 
  218.1250     2.2460    56.2450    25.2480   154.0650   120.8840   122.3040   -23.6980 
  218.2500     2.2350    56.7670    25.2290   181.2940   136.3230   142.0420   -23.9560 
  218.3750     2.2310    57.0260    25.2010   181.2700   142.2010   151.1040   -24.2410 
  218.5000     2.2310    58.6040    25.1840   160.5370   137.0500   146.0470   -24.5440 
  218.6250     2.2290    60.8990    25.1800   133.7520   124.5870   132.0170   -24.8430 
  218.7500     2.2230    61.9160    25.1800   113.8290   112.1900   118.5800   -25.1110 
  218.8750     2.2120    60.4630    25.1800   100.6690   103.1750   109.2500   -25.3570 
  219.0000     2.1970    57.9450    25.1800    94.3420    98.5850   104.8410   -25.5810 
  219.1250     2.1820    57.1370    25.1770   100.1430    98.3750   105.2600   -25.7730 
  219.2500     2.1730    58.8770    25.1620   112.2870   100.1510   107.9360   -25.9350 
  219.3750     2.1720    61.5460    25.1300   123.8310   102.0080   110.6280   -26.0600 
  219.5000     2.1730    61.3610    25.1050   127.6590   102.4140   111.3850   -26.1360 
  219.6250     2.1700    57.6810    25.0960   117.6700   100.4760   109.1690   -26.1790 
  219.7500     2.1700    53.4900    25.0950   100.7050    97.0620   105.3410   -26.2000 
  219.8750     2.1850    54.7520    25.0950    88.8580    92.8130   100.8130   -26.1990 
  220.0000     2.2220    61.9880    25.0880    86.4980    87.9070    95.7050   -26.1790 
  220.1250     2.2740    66.5430    25.0650    86.1650    82.2460    89.6970   -26.1450 
  220.2500     2.3230    63.9500    25.0350    82.2450    76.5120    83.4960   -26.0940 
  220.3750     2.3580    59.0270    25.0220    72.5170    71.6340    78.2210   -26.0230 
  220.5000     2.3750    59.0490    25.0200    60.0600    68.4290    74.8530   -25.9410 
  220.6250     2.3840    58.6050    25.0190    55.3610    67.5580    74.1640   -25.8310 
  220.7500     2.4000    55.4190    25.0080    63.7640    68.1120    75.0870   -25.7000 
  220.8750     2.4250    54.2650    24.9710    75.4620    68.8410    76.0210   -25.5320 
  221.0000     2.4590    57.7150    24.9110    75.4650    68.3930    75.1130   -25.3010 
  221.1250     2.4970    59.5630    24.8360    61.6000    65.9990    71.4030   -24.9590 
  221.2500     2.5270    57.4370    24.8170    51.3980    62.9340    66.9310   -24.5350 
  221.3750     2.5470    57.3940    24.8730    51.5070    60.6870    63.7590   -24.0380 
  221.5000     2.5650    65.5060    24.9120    59.9720    60.2940    63.1680   -23.4650 
  221.6250     2.5940    73.7610    24.9070    70.4840    61.3530    64.9730   -22.8300 
  221.7500     2.6210    73.5260    24.8750    73.9280    60.4420    65.1520   -22.1500 
  221.8750     2.6320    65.0750    24.8290    68.8360    53.7580    58.6000   -21.4560 
  222.0000     2.6200    57.4880    24.7720    59.8850    41.0780    44.5360   -20.7740 
  222.1250     2.5880    54.4110    24.7010    47.0680    27.6540    29.5220   -20.1720 
  222.2500     2.5470    53.9520    24.6710    31.4070    17.7910    18.6810   -19.6670 
  222.3750     2.5030    57.6520    24.6810    16.6870    11.6870    12.0910   -19.2860 
  222.5000     2.4620    67.5970    24.7400     8.5880     8.2810     8.5670   -19.0660 
  222.6250     2.4280    77.7900    24.8380     7.1320     6.7370     7.2610   -19.0300 
  222.7500     2.4100    82.4340    24.9540     7.5070     6.1560     7.1170   -19.1210 
  222.8750     2.4100    82.0740    25.0210     8.6560     6.2370     7.6910   -19.2810 
  223.0000     2.4230    82.2280    25.0410     9.5950     6.7180     8.5650   -19.4750 
  223.1250     2.4310    85.4660    25.0430     9.4390     7.2840     9.2470   -19.7080 
  223.2500     2.4280    87.7470    25.0420     9.0430     7.6860     9.5200   -19.9690 
  223.3750     2.4190    87.7190    25.0330     8.8800     7.8840     9.4580   -20.2480 
  223.5000     2.4150    86.2990    25.0090     9.0040     7.9430     9.2600   -20.5180 
  223.6250     2.4200    89.8060    24.9960     9.3240     7.9390     9.0970   -20.7580 
  223.7500     2.4250    99.8870    24.9900     9.5840     7.9230     9.0170   -20.9820 
  223.8750     2.4190   112.4610    24.9860     9.6920     7.8990     9.0040   -21.2330 
  224.0000     2.4010   117.7790    24.9830     9.7180     7.8560     9.0320   -21.5490 
  224.1250     2.3870   115.3010    24.9820     9.7090     7.7870     9.0830   -21.9030 
  224.2500     2.3880   112.4060    24.9820     9.6680     7.7030     9.1420   -22.2630 
  224.3750     2.4020   114.5790    24.9820     9.6600     7.6200     9.2010   -22.6000 
  224.5000     2.4140   116.6590    24.9820     9.7350     7.5580     9.2490   -22.9090 
  224.6250     2.4160   116.1910    24.9820     9.6830     7.5340     9.2730   -23.1980 
  224.7500     2.4100   115.6560    24.9820     9.5760     7.5360     9.2820   -23.4740 
  224.8750     2.4010   115.5330    24.9820     9.5680     7.5510     9.2920   -23.7270 
  225.0000     2.3940   112.7250    24.9820     9.7210     7.5670     9.3160   -23.9400 
  225.1250     2.3920   109.1060    24.9820     9.8630     7.5840     9.3510   -24.0990 
  225.2500     2.3940   107.7280    24.9820     9.8560     7.6030     9.3850   -24.2060 
  225.3750     2.3960   108.7350    24.9820     9.7140     7.6190     9.4020   -24.2620 
  225.5000     2.3950   107.6770    24.9820     9.5300     7.6190     9.3870   -24.2580 
  225.6250     2.3930   105.3480    24.9820     9.3380     7.5790     9.3180   -24.1610 
  225.7500     2.3950   103.9570    24.9820     9.0900     7.5070     9.2020   -23.9950 
  225.8750     2.3980   104.9250    24.9820     8.7370     7.4430     9.0880   -23.7880 
  226.0000     2.3970   104.1480    24.9820     8.4390     7.4560     9.0770   -23.5620 
  226.1250     2.3960   100.3660    24.9820     8.3940     7.6520     9.3300   -23.3240 
