~V
VERS. 2.00: Ver 2.00
~W
STRT.M 100.0000:
STOP.M 264.0000:
STEP.M 0.1250:
NULL. -999.2500:
UWI. DF3023:
~C
DEPT.M :
GR.API :
CALI.CM :
RXO.OHMM :
RI. :
RML.OHMM :
SP.MV :
DEN.GM/CC :
AC.US/MT :
~A
# ...
  150.0000   104.4990    25.3030    10.0140     8.7810     9.0150   -17.8400     2.4260   402.0910 
  150.1250   102.2060    25.3250    10.5290     9.1050     9.5830   -18.1420     2.4100   399.5640 
  150.2500   101.9280    25.2990    11.7380     9.9860    10.9280   -18.4820     2.4200   398.1630 
  150.3750   100.8300    25.2450    13.0400    11.8370    13.4570   -18.8850     2.4290   398.5540 
  150.5000    96.2730    25.2020    16.2240    15.2130    17.5670   -19.3370     2.4160   400.7680 
  150.6250    89.6280    25.2270    34.5270    21.0320    23.7550   -19.8290     2.3820   403.1640 
  150.7500    84.1640    25.2430    59.4570    28.5520    30.9070   -20.3560     2.3380   403.7130 
  150.8750    79.5490    25.0870    73.1590    35.6070    36.6010   -20.8820     2.2950   402.5740 
  151.0000    75.4280    24.7180    61.8110    39.1080    37.9110   -21.3670     2.2750   400.7100 
  151.1250    76.0710    24.3870    39.6040    37.1560    34.0920   -21.8230     2.2980   399.3670 
  151.2500    80.4380    24.3560    28.5270    32.6770    28.9200   -22.2820     2.3310   398.4600 
  151.3750    85.1110    24.5810    25.1140    27.9520    24.4360   -22.7480     2.3250   396.9840 
  151.5000    87.4560    24.8590    22.0940    24.1560    21.2510   -23.2390     2.3070   394.0280 
  151.6250    87.8150    24.9790    20.3480    21.7640    19.5170   -23.7680     2.3150   389.8890 
  151.7500    87.7440    24.9270    19.4210    20.5950    19.0180   -24.2810     2.3380   387.1890 
  151.8750    86.9380    24.7960    18.8510    20.8710    20.0060   -24.7530     2.3430   387.4860 
  152.0000    86.2710    24.6980    19.4030    23.1800    22.9950   -25.1900     2.3400   390.4200 
  152.1250    85.5610    24.6780    25.2970    29.5550    29.5160   -25.5780     2.3390   393.1300 
  152.2500    83.0490    24.7160    46.5810    41.9220    40.8200   -25.9240     2.3250   393.6940 
  152.3750    77.3500    24.8680    95.2580    63.1380    62.2970   -26.2610     2.3020   393.2190 
  152.5000    70.1900    25.1460   167.8270    95.4120    93.5140   -26.5990     2.2740   393.0700 
  152.6250    66.8160    25.4130   228.0390   138.2430   137.9890   -26.8940     2.2460   392.7630 
  152.7500    66.1690    25.5410   240.5370   181.0380   186.1180   -27.1460     2.2390   391.4730 
  152.8750    64.3070    25.5420   226.9640   214.0590   224.0780   -27.3640     2.2560   390.3140 
  153.0000    60.2150    25.4870   232.2030   233.7360   245.9190   -27.5450     2.2770   391.1900 
  153.1250    59.0250    25.4220   260.9270   242.2920   255.7890   -27.7120     2.2710   394.3930 
  153.2500    61.9600    25.3700   263.3920   245.1050   260.2160   -27.9020     2.2390   397.7490 
  153.3750    63.9840    25.3370   249.4360   241.9790   257.8090   -28.0910     2.2100   400.1170 
  153.5000    62.6130    25.3140   237.8280   231.7670   246.3300   -28.2580     2.2010   401.3480 
  153.6250    60.5660    25.2890   226.0270   214.6070   226.4990   -28.4290     2.2110   402.0000 
  153.7500    62.2900    25.2590   199.6480   195.8100   205.5660   -28.6070     2.2280   402.6510 
  153.8750    67.2170    25.2080   157.5450   179.7880   188.4830   -28.7620     2.2450   403.0960 
  154.0000    71.9070    25.0980   122.7910   169.3530   177.6300   -28.8980     2.2550   402.9830 
  154.1250    75.5840    24.9370   121.7330   166.1890   173.9680   -29.0220     2.2540   402.4300 
  154.2500    78.5290    24.8390   139.9470   167.8810   174.6450   -29.1080     2.2380   402.4710 
  154.3750    77.8530    24.8600   189.4230   171.8640   176.8790   -29.1530     2.2150   403.3360 
  154.5000    72.6880    24.9290   262.8780   174.9230   177.4300   -29.1960     2.2060   404.2920 
  154.6250    67.6740    24.8940   260.2660   173.4680   173.0080   -29.2580     2.2210   404.2650 
  154.7500    66.9690    24.7610   214.1970   167.1670   163.9090   -29.3320     2.2460   403.7270 
  154.8750    68.4790    24.6290   168.2670   156.6410   151.0500   -29.4330     2.2610   403.9440 
  155.0000    69.5040    24.5620   138.9610   142.8800   135.4180   -29.5360     2.2670   405.2710 
  155.1250    69.8920    24.5520   126.0790   126.6370   117.9160   -29.5560     2.2700   406.1420 
  155.2500    69.2210    24.5540   111.5190   109.7040   100.6420   -29.4910     2.2680   404.3130 
  155.3750    66.6080    24.5550    89.7560    93.8490    85.5680   -29.4000     2.2710   398.2900 
  155.5000    64.3040    24.5370    64.8650    80.9130    74.2320   -29.3260     2.2850   388.2050 
  155.6250    67.0350    24.4780    51.8310    72.9290    68.0600   -29.2830     2.3070   377.1360 
  155.7500    72.4000    24.3990    47.0860    69.6040    66.2830   -29.2420     2.3220   369.5270 
  155.8750    75.8440    24.3220    48.9750    70.9150    68.7220   -29.1560     2.3270   366.9890 
  156.0000    76.5630    24.2600    57.4120    76.7400    75.2210   -29.0040     2.3220   367.6960 
  156.1250    77.0820    24.2410    80.9920    87.1900    85.9640   -28.8370     2.3130   368.3780 
  156.2500    78.6460    24.2670    99.5950    99.9260    98.9380   -28.7170     2.3070   367.3430 
  156.3750    80.9010    24.3100   101.3140   112.0920   111.3630   -28.6250     2.2980   366.5330 
  156.5000    83.4370    24.3340   108.2010   120.2540   119.5070   -28.5160     2.2890   369.8090 
  156.6250    83.3410    24.3140   115.8450   121.1220   119.8210   -28.3740     2.2870   379.6940 
  156.7500    79.4760    24.2580    98.2570   116.9460   115.2930   -28.2120     2.2810   391.5180 
  156.8750    74.4310    24.1940    67.7600   111.0900   109.9590   -28.0610     2.2580   400.1070 
  157.0000    70.8640    24.1630    55.7700   107.0280   107.3000   -27.9400     2.2280   403.1140 
  157.1250    69.7850    24.1780    66.3660   107.8370   109.9800   -27.7920     2.2140   402.3900 
  157.2500    69.9440    24.1920    88.1470   113.1170   117.2020   -27.5820     2.2240   401.8220 
  157.3750    68.7280    24.1990   108.4510   121.3000   127.2070   -27.3390     2.2450   402.4250 
  157.5000    65.4940    24.2750   121.4070   129.5940   136.7560   -27.0970     2.2780   403.3090 
  157.6250    65.2870    24.5140   122.5410   134.5300   141.6960   -26.8810     2.3030   403.3700 
  157.7500    68.9600    24.8420   114.6320   135.9420   142.4140   -26.6860     2.2860   402.9770 
  157.8750    72.0890    25.1350   105.5740   135.5770   141.5150   -26.4800     2.2440   403.2530 
  158.0000    71.9640    25.3090   106.7780   135.7460   141.7590   -26.2390     2.2210   404.9330 
  158.1250    69.6930    25.3740   120.8450   138.3130   144.9180   -26.0070     2.2300   407.7130 
  158.2500    66.7780    25.3990   138.1940   142.8540   150.0670   -25.8290     2.2430   409.7110 
  158.3750    63.3180    25.4100   133.4660   148.2310   155.6440   -25.6920     2.2440   410.1410 
  158.5000    61.5210    25.4110   122.6120   152.8540   159.7430   -25.5860     2.2360   409.9930 
  158.6250    62.7650    25.4100   121.8850   154.8360   160.4520   -25.5550     2.2290   410.9860 
  158.7500    65.3340    25.4110   129.1410   154.4060   158.6200   -25.5750     2.2280   413.2110 
  158.8750    67.6390    25.4120   139.3380   152.5820   155.6920   -25.6140     2.2320   415.3410 
  159.0000    68.5860    25.4050   130.6550   150.5140   153.0440   -25.6510     2.2380   415.9140 
  159.1250    66.8850    25.3770   109.7170   149.8390   152.3630   -25.6220     2.2370   413.9610 
  159.2500    63.0100    25.3440   121.0160   151.4600   153.8830   -25.5240     2.2240   411.3980 
  159.3750    59.8730    25.3250   158.8280   153.4870   154.4330   -25.4260     2.2130   410.7330 
  159.5000    60.6730    25.3210   177.4700   150.0400   146.4340   -25.3830     2.2140   413.1410 
  159.6250    64.7770    25.3290   232.8500   132.4010   121.9170   -25.3650     2.2030   415.9400 
  159.7500    67.4220    25.3460   275.9000   104.4760    90.4080   -25.3410     2.1820   416.3480 
  159.8750    68.1480    25.3520   219.5350    75.2320    62.6450   -25.3130     2.1870   414.6880 
