~V
VERS. 2.00: Ver 2.00
~W
STRT.M 65.0000:
STOP.M 267.0000:
STEP.M 0.1250:
NULL. -999.2500:
UWI. DF3007:
~C
DEPT.M :
GR.API :
RML.OHMM :
RI. :
RXO.OHMM :
CALI.CM :
DEN.GM/CC :
SP.MV :
~A
# ...
  143.7500    51.8410    27.0530    24.5700    28.1370    24.6230     2.6130   -15.6010 
  143.8750    51.1570    27.0840    24.7020    29.4700    24.6090     2.5960   -15.6080 
  144.0000    52.0130    27.0700    24.7980    30.1100    24.5740     2.5800   -15.6070 
  144.1250    54.9210    27.0620    24.8900    29.4390    24.5460     2.5660   -15.6660 
  144.2500    56.8890    27.0910    24.9990    28.2120    24.5030     2.5540   -15.6860 
  144.3750    56.6180    27.1470    25.1150    27.3320    24.4380     2.5420   -15.7290 
  144.5000    57.6370    27.1860    25.1980    26.3230    24.4070     2.5310   -15.7710 
  144.6250    62.0040    27.1090    25.1590    26.0960    24.4670     2.5270   -15.7970 
  144.7500    64.8050    26.8460    24.9390    26.3340    24.5730     2.5320   -15.8540 
  144.8750    64.2640    26.3500    24.4930    27.0480    24.6470     2.5470   -15.8370 
  145.0000    61.7470    25.6290    23.8250    26.4240    24.6560     2.5670   -15.8390 
  145.1250    60.6010    24.7350    22.9820    25.2420    24.6420     2.5840   -15.8310 
  145.2500    62.3950    23.8200    22.1080    23.6910    24.6460     2.5930   -15.7810 
  145.3750    66.4690    23.0130    21.3270    22.3070    24.6610     2.5910   -15.8260 
  145.5000    68.4720    22.4380    20.7500    20.9510    24.6670     2.5840   -15.8020 
  145.6250    65.6020    22.2340    20.5080    20.4890    24.6640     2.5760   -15.8890 
  145.7500    63.4260    22.3520    20.5670    20.3650    24.6650     2.5710   -15.9390 
  145.8750    64.5990    22.7190    20.8750    20.7950    24.6750     2.5710   -16.0490 
  146.0000    66.3310    23.2180    21.3360    22.2110    24.6740     2.5720   -16.1380 
  146.1250    65.2010    23.7240    21.8410    24.0580    24.6700     2.5710   -16.2400 
  146.2500    63.2540    24.1620    22.3010    24.3460    24.6580     2.5660   -16.4000 
  146.3750    62.4760    24.4930    22.6690    23.8040    24.6330     2.5590   -16.4920 
  146.5000    62.6130    24.6630    22.8930    23.6840    24.6030     2.5510   -16.6200 
  146.6250    61.3110    24.5300    22.8470    22.9970    24.5680     2.5430   -16.6840 
  146.7500    58.9500    24.0520    22.4890    23.0690    24.5520     2.5330   -16.8030 
  146.8750    60.4170    23.2310    21.8060    23.7600    24.5320     2.5230   -16.8080 
  147.0000    67.0310    22.1620    20.8660    22.8690    24.4910     2.5150   -16.8580 
  147.1250    72.1620    21.0200    19.8040    20.6320    24.4510     2.5130   -16.8820 
  147.2500    71.2120    19.9990    18.8110    18.4710    24.4730     2.5140   -16.8610 
  147.3750    67.8110    19.1920    17.9910    17.9710    24.5190     2.5140   -16.9040 
  147.5000    65.8450    18.6240    17.3940    18.3080    24.5460     2.5120   -16.8940 
  147.6250    65.4890    18.2990    17.0530    17.3190    24.5410     2.5070   -16.8730 
  147.7500    65.7280    18.1410    16.9020    16.8090    24.5050     2.5000   -16.8520 
  147.8750    67.3070    18.1310    16.9230    17.1220    24.4700     2.4930   -16.8260 
  148.0000    68.9250    18.2720    17.1110    17.7740    24.5050     2.4880   -16.8330 
  148.1250    67.5060    18.5940    17.4950    18.5460    24.6390     2.4860   -16.8580 
  148.2500    63.9410    19.0270    18.0100    19.6230    24.6880     2.4890   -16.9040 
  148.3750    60.6420    19.4770    18.5680    20.1620    24.6670     2.4980   -16.9450 
  148.5000    58.0090    19.8190    19.0470    20.5250    24.6190     2.5110   -16.9980 
  148.6250    56.8990    19.8960    19.2790    20.6850    24.5760     2.5240   -17.1650 
  148.7500    57.6980    19.6920    19.2200    20.2020    24.5470     2.5320   -17.2850 
  148.8750    59.0950    19.2280    18.8710    18.8030    24.5090     2.5340   -17.5110 
  149.0000    59.6690    18.5590    18.2750    17.1600    24.4590     2.5310   -17.7060 
  149.1250    61.1830    17.6990    17.4550    15.6930    24.3920     2.5250   -17.9500 
  149.2500    63.3130    16.6800    16.4700    14.7580    24.3920     2.5190   -18.2340 
  149.3750    63.2140    15.5120    15.3430    13.9850    24.4750     2.5140   -18.5230 
  149.5000    63.5920    14.2740    14.1510    13.2110    24.6450     2.5070   -18.8290 
  149.6250    69.4000    13.2030    13.0920    12.4460    24.7820     2.4960   -19.1070 
  149.7500    78.0460    12.5570    12.3820    11.4750    24.9740     2.4810   -19.4300 
  149.8750    84.4070    12.5460    12.2060    10.6610    25.1910     2.4650   -19.6760 
  150.0000    85.6000    13.2370    12.6580    10.6400    25.2720     2.4480   -20.0070 
  150.1250    83.3220    14.5500    13.7490    12.4210    25.0010     2.4280   -20.2760 
  150.2500    81.6080    15.9930    15.0930    15.1500    24.8520     2.4080   -20.4770 
  150.3750    81.3540    17.1350    16.3050    17.7330    24.7960     2.3890   -20.6600 
  150.5000    81.7510    17.6600    17.0170    19.7330    24.7630     2.3780   -20.7760 
  150.6250    83.2580    17.4030    16.9680    19.6890    24.7490     2.3780   -20.9180 
  150.7500    86.5810    16.7670    16.4950    18.4980    24.7460     2.3840   -21.0080 
  150.8750    89.0330    16.3090    16.0170    17.2000    24.7470     2.3910   -21.1120 
  151.0000    88.9050    16.4480    15.9470    16.7950    24.7510     2.3920   -21.1550 
  151.1250    88.3400    18.0160    16.7030    18.3480    24.7660     2.3840   -21.1390 
  151.2500    88.5650    20.7620    18.2830    21.3320    24.7830     2.3700   -21.2400 
  151.3750    88.7470    24.6880    20.6300    24.9430    24.7880     2.3550   -21.2810 
  151.5000    86.4660    29.4230    23.5490    28.4670    24.7870     2.3390   -21.3870 
  151.6250    82.5380    33.0840    26.7100    31.9660    24.7930     2.3270   -21.4320 
  151.7500    80.7730    36.3090    29.6800    35.8240    24.7940     2.3190   -21.4350 
  151.8750    81.4170    38.8680    32.2040    39.8600    24.7920     2.3150   -21.4800 
  152.0000    83.0250    40.7340    34.1840    42.6780    24.7760     2.3160   -21.4600 
  152.1250    84.7290    42.0180    35.6270    43.3540    24.7580     2.3170   -21.5300 
  152.2500    85.9020    43.1170    36.8340    43.3840    24.7520     2.3160   -21.5030 
  152.3750    86.2210    44.3070    38.0330    44.8910    24.7580     2.3120   -21.4980 
  152.5000    86.9010    45.7660    39.4020    48.4700    24.7780     2.3070   -21.4780 
  152.6250    89.7370    47.5110    41.0070    47.8960    24.8020     2.3000   -21.4540 
  152.7500    91.4090    49.2080    42.6200    48.1020    24.8120     2.2960   -21.4630 
  152.8750    89.7450    50.4130    43.8970    49.9490    24.8140     2.2940   -21.5000 
  153.0000    85.7070    50.6760    44.4600    53.6140    24.8140     2.2970   -21.5330 
  153.1250    82.3230    49.5630    43.8960    54.5430    24.8140     2.3030   -21.5680 
  153.2500    81.6990    47.4610    42.4470    53.2560    24.8140     2.3110   -21.5970 
  153.3750    83.1970    44.8810    40.4840    48.7240    24.8140     2.3190   -21.6350 
  153.5000    85.6790    42.5000    38.5570    43.1060    24.8140     2.3240   -21.7040 
  153.6250    87.8470    41.1530    37.3960    40.5080    24.8140     2.3270   -21.7070 
  153.7500    89.4580    41.0350    37.2640    40.3850    24.8140     2.3260   -21.7380 
  153.8750    91.0370    42.0760    38.1760    39.3230    24.8140     2.3200   -21.6260 
  154.0000    92.6140    43.9050    39.8800    38.6190    24.8140     2.3090   -21.5510 
  154.1250    91.4860    45.8030    41.8180    45.2550    24.8140     2.2960   -21.4550 
  154.2500    86.6290    46.9160    43.1970    52.0610    24.8140     2.2860   -21.3410 
  154.3750    82.6250    46.7020    43.4600    51.2340    24.8140     2.2820   -21.2490 
  154.5000    84.5830    45.0510    42.4020    46.2090    24.8140     2.2870   -21.0940 
  154.6250    91.3560    42.2800    40.1770    45.4180    24.8140     2.3020   -21.0080 
  154.7500    94.3170    39.3590    37.6370    40.7770    24.8140     2.3220   -20.9110 
  154.8750    91.7970    36.9420    35.3980    34.0870    24.8140     2.3420   -20.9000 
