~V
VERS. 2.00: Ver 2.00
~W
STRT.M 125.0000:
STOP.M 275.0000:
STEP.M 0.1250:
NULL. -999.2500:
UWI. DF3046:
~C
DEPT.M :
GR.API :
CALI.CM :
RXO.OHMM :
RI. :
RML.OHMM :
DEN.GM/CC :
SP.MV :
~A
  125.0000    82.4970    23.7090     8.6570     6.2350     7.4590     2.2840    -8.4340 
  125.1250    86.2390    23.7610     8.1100     5.9500     7.0450     2.3210    -8.3960 
  125.2500    89.6670    23.9110     7.5250     5.5840     6.5480     2.3370    -8.2930 
  125.3750    92.0640    24.1170     7.0140     5.2530     6.1380     2.3220    -8.1370 
  125.5000    95.6230    24.3610     6.6890     5.0590     5.9540     2.2920    -7.8750 
  125.6250    98.7420    24.4440     6.8210     5.0970     6.1030     2.2710    -7.5560 
  125.7500    96.5240    24.2940     7.1230     5.3290     6.4970     2.2640    -7.3720 
  125.8750    88.8640    24.0980     7.4470     5.7060     7.0370     2.2600    -7.3300 
  126.0000    81.4200    24.0000     7.7790     6.1490     7.5970     2.2500    -7.3530 
  126.1250    80.9960    23.9770     7.8080     6.5430     8.0210     2.2320    -7.4440 
  126.2500    84.1540    23.9550     7.5700     6.8000     8.2350     2.2210    -7.6240 
  126.3750    84.5720    23.9420     7.2410     6.8770     8.2100     2.2310    -7.9110 
  126.5000    81.7440    23.9470     7.1610     6.7770     7.9680     2.2620    -8.2640 
  126.6250    82.7860    23.9500     7.2720     6.5270     7.5710     2.2970    -8.5440 
  126.7500    87.7060    23.9830     7.1130     6.2420     7.1690     2.3180    -8.6190 
  126.8750    90.3620    24.0820     6.6730     6.0190     6.8850     2.3210    -8.5580 
  127.0000    89.4900    24.2730     6.2760     5.9290     6.8020     2.3200    -8.4590 
  127.1250    88.4030    24.4180     6.4110     6.0050     6.9410     2.3310    -8.3920 
  127.2500    85.9920    24.3540     6.9750     6.1540     7.1480     2.3480    -8.3810 
  127.3750    80.2310    24.1330     7.6280     6.2690     7.2730     2.3600    -8.4070 
  127.5000    73.8550    23.9740     7.7320     6.2520     7.2120     2.3640    -8.4530 
  127.6250    72.5060    23.9780     7.1940     6.0830     6.9760     2.3560    -8.5580 
  127.7500    73.4400    24.0210     6.5630     5.8950     6.7530     2.3330    -8.7730 
  127.8750    73.5220    24.0860     6.3570     5.8060     6.6940     2.3030    -9.1060 
  128.0000    71.4490    24.1510     6.8240     5.8840     6.8670     2.2840    -9.5780 
  128.1250    69.2510    24.0330     7.7710     6.1310     7.2220     2.2870   -10.1410 
  128.2500    68.3210    23.7620     8.5030     6.4070     7.5510     2.2980   -10.7340 
  128.3750    68.0570    23.5470     8.4490     6.5840     7.7130     2.3090   -11.3070 
  128.5000    68.1330    23.4810     7.8440     6.6250     7.7050     2.3330   -11.8650 
  128.6250    69.0440    23.5060     7.4860     6.6670     7.7290     2.3900   -12.4190 
  128.7500    70.4630    23.5750     7.4410     6.9160     8.0590     2.4480   -12.9670 
  128.8750    72.0840    23.6780     8.0090     7.4950     8.8550     2.4570   -13.5060 
  129.0000    71.5310    23.7960     9.7680     8.4290    10.0980     2.3970   -13.9630 
  129.1250    66.5340    23.8350    13.0300     9.5980    11.5050     2.3040   -14.2960 
  129.2500    61.6020    23.7980    14.1560    10.6130    12.5830     2.2370   -14.5190 
  129.3750    61.4290    23.7270    12.4680    11.1690    13.0380     2.2060   -14.7090 
  129.5000    64.3970    23.6430    10.5430    11.2160    12.8830     2.1920   -14.9370 
  129.6250    64.3520    23.5650    10.1430    10.9570    12.4150     2.1820   -15.1800 
  129.7500    63.1300    23.5310    10.3090    10.7340    12.0500     2.1760   -15.4180 
  129.8750    63.5980    23.5340    10.3730    10.6840    11.9340     2.1750   -15.6310 
  130.0000    63.6070    23.5500    10.3320    10.8040    12.0340     2.1730   -15.8170 
  130.1250    61.1970    23.5480    10.2920    10.9890    12.2270     2.1720   -15.9640 
  130.2500    58.8090    23.5370    10.2590    11.1370    12.3960     2.1760   -16.0990 
  130.3750    57.4980    23.5050    10.2380    11.2380    12.5120     2.1840   -16.1920 
  130.5000    56.5340    23.4770    10.2720    11.3020    12.5750     2.1870   -16.2190 
  130.6250    55.2990    23.4790    10.3780    11.3160    12.5730     2.1790   -16.1950 
  130.7500    55.1920    23.5250    10.4980    11.2770    12.5130     2.1720   -16.1310 
  130.8750    56.4150    23.5940    10.5440    11.1850    12.4070     2.1730   -16.0570 
  131.0000    57.7450    23.6270    10.4430    11.0560    12.2850     2.1840   -15.9930 
  131.1250    58.3540    23.6160    10.2210    10.9180    12.1960     2.2000   -15.9530 
  131.2500    58.5530    23.6240    10.0860    10.8040    12.1620     2.2160   -15.9140 
  131.3750    59.7770    23.6590    10.1150    10.7300    12.1870     2.2300   -15.9030 
  131.5000    63.0810    23.7090    10.2260    10.7000    12.2550     2.2400   -15.9170 
  131.6250    67.3770    23.7360    10.3070    10.7170    12.3470     2.2440   -15.9310 
  131.7500    70.0810    23.7560    10.3490    10.7700    12.4460     2.2410   -15.9270 
  131.8750    69.9930    23.7370    10.3550    10.8540    12.5470     2.2350   -15.8790 
  132.0000    69.9800    23.6500    10.3710    10.9590    12.6500     2.2330   -15.7790 
  132.1250    70.9610    23.5420    10.5790    11.0730    12.7550     2.2380   -15.6250 
  132.2500    70.5870    23.4990    11.0610    11.1790    12.8630     2.2410   -15.4430 
  132.3750    68.7360    23.4820    11.7210    11.2690    12.9780     2.2340   -15.2230 
  132.5000    65.7140    23.4820    12.2580    11.3440    13.1010     2.2220   -14.9620 
  132.6250    63.0890    23.5040    12.3880    11.4050    13.2160     2.2190   -14.6950 
  132.7500    62.5240    23.4950    12.3240    11.4510    13.2970     2.2260   -14.4810 
  132.8750    64.9560    23.4780    12.2220    11.4710    13.3170     2.2320   -14.3340 
  133.0000    69.0810    23.4770    12.1950    11.4520    13.2640     2.2290   -14.2770 
  133.1250    70.1320    23.4990    12.1460    11.3870    13.1470     2.2200   -14.3570 
  133.2500    66.7960    23.5220    12.0740    11.3020    13.0180     2.2170   -14.5320 
  133.3750    61.2670    23.5170    11.9900    11.2250    12.9230     2.2240   -14.7860 
  133.5000    57.6400    23.4990    11.9890    11.1740    12.8860     2.2360   -15.1070 
  133.6250    58.5900    23.5100    12.1690    11.1550    12.9050     2.2420   -15.4220 
  133.7500    60.1100    23.5310    12.3560    11.1490    12.9330     2.2330   -15.6970 
  133.8750    61.5850    23.5260    12.3430    11.1360    12.9370     2.2120   -15.9300 
  134.0000    63.9000    23.4940    12.1380    11.1100    12.9080     2.1930   -16.1310 
  134.1250    64.8990    23.4700    11.9550    11.0840    12.8660     2.1890   -16.2550 
  134.2500    63.9530    23.4640    11.9010    11.0780    12.8390     2.1900   -16.3350 
  134.3750    62.7040    23.4630    11.9130    11.0960    12.8280     2.1870   -16.3580 
  134.5000    63.4350    23.4610    11.9320    11.1180    12.8090     2.1810   -16.3260 
  134.6250    65.3260    23.4690    11.9420    11.1010    12.7330     2.1800   -16.2910 
  134.7500    66.9920    23.4920    11.9680    11.0320    12.5930     2.1850   -16.2440 
  134.8750    68.4860    23.5230    11.8990    10.9340    12.4180     2.1920   -16.1920 
  135.0000    69.9950    23.5630    11.6170    10.8630    12.2700     2.1970   -16.1120 
  135.1250    70.9220    23.6190    11.4680    10.9160    12.2620     2.1990   -16.0130 
  135.2500    70.8940    23.6790    11.7500    11.1270    12.4130     2.1990   -15.8790 
  135.3750    69.1890    23.7090    12.2330    11.4480    12.6370     2.1960   -15.7180 
  135.5000    66.3390    23.7140    12.3470    11.6960    12.7170     2.1960   -15.5340 
  135.6250    64.6950    23.7210    11.8150    11.5050    12.2930     2.2190   -15.3120 
  135.7500    65.5140    23.7220    11.0660    10.7650    11.3220     2.2640   -15.0690 
  135.8750    66.3720    23.7160    10.1530     9.5990     9.9580     2.3100   -14.7590 
  136.0000    66.4940    23.7540     8.8560     8.3000     8.4980     2.3310   -14.3710 
  136.1250    71.8530    23.9640     7.6000     7.1930     7.2860     2.3190   -13.8850 
