~V
VERS. 2.00: Ver 2.00
~W
STRT.M 62.0000:
STOP.M 282.0000:
STEP.M 0.1250:
NULL. -999.2500:
UWI. DF3054:
~C
DEPT.M :
DEN.GM/CC :
GR.API :
CALI.CM :
RXO.OHMM :
RI. :
RML.OHMM :
SP.MV :
~A
# ...
  230.7500     2.6740    54.9310    25.2640    84.3130    91.8370    97.6770   -18.0460 
  230.8750     2.6680    56.2360    25.2330    77.6380    71.3420    73.6910   -17.3360 
  231.0000     2.6500    61.4730    25.2070    69.3180    47.8530    49.0290   -16.5920 
  231.1250     2.6270    67.7520    25.2390    47.9350    29.7240    30.5600   -15.8830 
  231.2500     2.6010    71.3000    25.2940    24.8300    18.1890    18.8740   -15.1420 
  231.3750     2.5640    70.8030    25.4010    11.8750    11.6800    12.3530   -14.2790 
  231.5000     2.5130    68.5340    25.6190     7.7560     8.2860     9.0170   -13.2790 
  231.6250     2.4600    65.3750    25.6940     6.9870     6.8470     7.7840   -12.2660 
  231.7500     2.4220    61.1110    25.5820     6.9210     6.3850     7.6520   -11.4090 
  231.8750     2.4030    56.9080    25.5260     7.0640     6.5800     8.1360   -10.7610 
  232.0000     2.3920    55.2180    25.5560     7.3740     7.1160     8.8300   -10.2700 
  232.1250     2.3710    58.3410    25.6100     7.6810     7.6110     9.3500    -9.8390 
  232.2500     2.3390    62.5370    25.6100     7.8110     7.8430     9.5330    -9.4370 
  232.3750     2.3120    65.5050    25.6660     7.6710     7.8240     9.3890    -9.1340 
  232.5000     2.3000    66.7040    25.7220     7.3060     7.6690     9.0380    -9.0010 
  232.6250     2.3090    66.1530    25.4250     6.9380     7.5040     8.6540    -9.0270 
  232.7500     2.3320    64.2480    25.1720     6.9730     7.3840     8.3550    -9.0580 
  232.8750     2.3630    61.1620    25.1100     7.2060     7.2700     8.1340    -9.0010 
  233.0000     2.3880    58.6350    25.2110     7.2460     7.0750     7.9040    -8.8640 
  233.1250     2.3970    59.3850    25.1710     7.0720     6.7110     7.5590    -8.7690 
  233.2500     2.3930    63.8430    25.1310     6.8490     6.2500     7.1380    -8.7960 
  233.3750     2.3810    70.2550    25.1210     6.5440     5.8140     6.7670    -8.9120 
  233.5000     2.3650    76.8940    25.1200     6.1650     5.5220     6.5940    -9.0260 
  233.6250     2.3580    81.1490    25.0650     6.0910     5.4930     6.7750    -9.0940 
  233.7500     2.3740    84.2630    25.0170     6.5250     5.7030     7.2490    -9.1800 
  233.8750     2.4090    88.3380    25.1300     7.4570     6.1000     7.9120    -9.3480 
  234.0000     2.4400    92.8160    25.3920     8.3680     6.5940     8.6060    -9.5790 
  234.1250     2.4460    95.3450    25.5650     8.5910     7.0470     9.1340    -9.7550 
  234.2500     2.4380    97.2470    25.6230     8.5850     7.3760     9.4270    -9.8010 
  234.3750     2.4290   103.0500    25.6170     8.5670     7.5650     9.5010    -9.7400 
  234.5000     2.4230   113.8350    25.5880     8.5910     7.6430     9.4440    -9.6610 
  234.6250     2.4140   122.2480    25.5670     8.6300     7.6440     9.3870    -9.6300 
  234.7500     2.4030   122.3930    25.5540     8.6840     7.6120     9.4180    -9.6010 
  234.8750     2.3930   118.7640    25.5490     8.7180     7.5650     9.5370    -9.4990 
  235.0000     2.3850   120.6160    25.5500     8.7100     7.5200     9.6770    -9.2940 
  235.1250     2.3830   129.8280    25.5350     8.7140     7.4810     9.7400    -9.0500 
  235.2500     2.3870   136.1810    25.5180     8.7640     7.4510     9.7310    -8.8750 
  235.3750     2.3980   135.4470    25.5010     8.8880     7.4680     9.7610    -8.7860 
  235.5000     2.4100   132.0460    25.4840     9.1080     7.5980     9.9840    -8.7010 
  235.6250     2.4190   130.2120    25.4720     9.4810     7.9370    10.5380    -8.4980 
  235.7500     2.4290   125.7230    25.4620     9.9640     8.4450    11.2750    -8.2160 
  235.8750     2.4380   118.4750    25.4480    11.0000     9.0190    11.9640    -7.9680 
  236.0000     2.4420   112.8560    25.4390    12.4220     9.4750    12.3510    -7.8540 
  236.1250     2.4400   112.0760    25.4510    12.8650     9.5610    12.2300    -7.8710 
  236.2500     2.4330   113.2630    25.4890    11.9890     9.3150    11.7870    -7.8790 
  236.3750     2.4190   115.4310    25.5190    10.8160     8.9260    11.3080    -7.8170 
  236.5000     2.3940   118.4340    25.5390    10.1090     8.6620    11.1340    -7.7440 
  236.6250     2.3650   116.2450    25.5440    10.3130     8.8780    11.7480    -7.8140 
  236.7500     2.3450   109.6650    25.5550    12.3510     9.7680    13.3430    -8.0380 
  236.8750     2.3420   104.3930    25.5420    16.4020    11.5990    16.3540    -8.3330 
  237.0000     2.3500   102.5800    25.5200    22.5520    14.7150    21.2950    -8.5970 
  237.1250     2.3570    98.2280    25.5110    30.7750    19.9250    28.9080    -8.8020 
  237.2500     2.3540    89.4590    25.4910    40.4080    27.5500    39.0680    -9.0380 
  237.3750     2.3490    80.0290    25.4540    54.3840    38.2100    52.3340    -9.3760 
  237.5000     2.3500    73.6870    25.3830    79.7810    52.5160    69.6160    -9.8030 
  237.6250     2.3450    72.1190    25.3460   114.1480    71.4900    92.4670   -10.2160 
  237.7500     2.3330    71.2690    25.4030   143.8640    93.6810   119.4730   -10.5430 
  237.8750     2.2430    67.5720    25.5250   162.5160   116.6680   147.7780   -10.8070 
  238.0000     2.1980    60.9090    25.6430   171.9090   136.4570   172.3050   -11.0860 
  238.1250     2.1930    57.7660    25.6760   170.1880   147.2460   185.7270   -11.4520 
  238.2500     2.2150    59.9020    25.6020   159.5270   148.8110   187.6780   -11.8630 
  238.3750     2.2360    61.1050    25.3880   141.6760   143.1340   180.5710   -12.2390 
  238.5000     2.2410    57.7050    25.1930   122.5710   133.5900   168.5180   -12.5190 
  238.6250     2.2420    54.0380    25.0710   107.8340   123.5270   155.2830   -12.7060 
  238.7500     2.2420    56.7570    25.1700   101.6290   114.9680   143.0620   -12.8890 
  238.8750     2.2380    63.0280    25.4260    96.3830   108.1630   132.0860   -13.1150 
  239.0000     2.2250    65.9270    25.6230    87.6310   102.2960   121.7390   -13.3780 
  239.1250     2.2110    64.5100    25.7000    81.0380    95.9270   111.2480   -13.6030 
  239.2500     2.2070    64.3470    25.7370    80.8610    88.5780   100.7500   -13.7180 
  239.3750     2.2180    67.3400    25.7360    79.4360    81.0090    91.2090   -13.7350 
  239.5000     2.2360    71.3250    25.6570    70.0670    74.5540    83.7880   -13.7370 
  239.6250     2.2490    73.8740    25.5270    58.4940    70.7590    79.7370   -13.8150 
  239.7500     2.2490    74.3340    25.4190    55.6780    69.5210    78.4520   -13.9110 
  239.8750     2.2390    72.0800    25.3970    66.1650    70.2620    79.0300   -13.9150 
  240.0000     2.2230    68.6570    25.4170    80.7150    71.8080    80.0020   -13.7700 
  240.1250     2.2090    66.5610    25.4500    78.5430    72.3450    79.4080   -13.5410 
  240.2500     2.2020    67.3000    25.4910    66.6330    70.8950    76.6990   -13.3890 
  240.3750     2.2030    69.1250    25.5000    58.4050    67.6580    72.5240   -13.3610 
  240.5000     2.2050    69.7000    25.4600    55.1300    63.8070    68.3200   -13.3850 
  240.6250     2.2060    70.0510    25.4480    52.4310    61.1070    65.9730   -13.3230 
  240.7500     2.2090    72.2240    25.4780    51.3540    60.4810    66.2060   -13.1770 
  240.8750     2.2160    74.2200    25.5430    54.8810    62.3510    69.3400   -13.0500 
  241.0000     2.2280    71.8830    25.6060    63.5410    66.8120    75.3440   -13.0280 
  241.1250     2.2360    67.3870    25.5860    73.7380    73.8530    83.9610   -13.1000 
  241.2500     2.2370    66.4250    25.5570    84.6090    82.0000    93.2480   -13.1450 
  241.3750     2.2280    67.8080    25.5550    97.1810    89.5270   101.0180   -13.1070 
  241.5000     2.2120    68.6150    25.5710   107.1150    94.3920   105.0820   -13.0190 
  241.6250     2.1950    68.0820    25.5860   105.8330    94.4450   103.5570   -12.9820 
  241.7500     2.1860    67.2420    25.5760    96.2250    90.7020    98.1310   -13.0380 
  241.8750     2.1880    66.4390    25.5390    85.9060    84.6290    90.6470   -13.1470 
