~V
VERS. 2.00: Ver 2.00
~W
STRT.M 135.0000:
STOP.M 270.0000:
STEP.M 0.1250:
NULL. -999.2500:
UWI. DF3063:
~C
DEPT.M :
SP.MV :
GR.API :
CALI.CM :
RXO.OHMM :
RI. :
RML.OHMM :
DEN.GM/CC :
~A
# ...
  168.7500   -29.5970    70.0080    25.1050   121.5640   107.3170   114.9480     2.2910 
  168.8750   -29.7130    69.0780    25.0840   118.6290   111.6810   118.8980     2.2890 
  169.0000   -29.8260    71.0880    25.0330   119.7740   114.1260   120.5710     2.2800 
  169.1250   -29.9160    72.6850    24.9800   119.8710   114.1370   119.5180     2.2700 
  169.2500   -30.0060    69.1160    24.9640   118.7150   112.2850   116.5060     2.2680 
  169.3750   -30.1000    65.0180    24.9590   110.8200   109.0630   112.0810     2.2680 
  169.5000   -30.1800    65.0950    24.8810   104.2540   104.7990   106.6890     2.2660 
  169.6250   -30.2910    66.9710    24.3620   105.8360    99.6740   100.6330     2.2620 
  169.7500   -30.3900    66.5900    24.1320   106.9540    94.2240    94.5310     2.2620 
  169.8750   -30.3660    65.7520    24.0850    95.9380    88.9040    88.9010     2.2670 
  170.0000   -30.3750    66.7980    24.0610    81.3110    84.2380    84.0710     2.2720 
  170.1250   -30.4800    67.0540    24.0180    76.3660    80.3290    80.1140     2.2750 
  170.2500   -30.5610    66.7940    24.0170    79.2770    76.9740    76.9100     2.2760 
  170.3750   -30.5180    68.1150    23.9060    78.7140    74.3140    74.4470     2.2780 
  170.5000   -30.4760    70.5960    24.0210    71.5170    72.4410    72.7460     2.2850 
  170.6250   -30.5020    70.6550    23.9620    68.1060    71.5170    72.0580     2.2960 
  170.7500   -30.5670    69.0500    23.8290    71.0810    71.5590    72.4150     2.3070 
  170.8750   -30.6110    70.2580    23.9310    73.0080    72.7220    73.9910     2.3150 
  171.0000   -30.6520    74.6250    24.3070    70.7800    75.2950    77.2260     2.3120 
  171.1250   -30.7300    77.7580    24.8580    70.9370    80.0940    82.8840     2.2950 
  171.2500   -30.8720    77.2420    25.0170    73.1580    86.8840    90.5950     2.2720 
  171.3750   -31.0180    74.8250    25.0180    79.7900    95.0370    99.8400     2.2540 
  171.5000   -31.1340    72.7760    25.0140    92.0140   103.8810   109.8980     2.2460 
  171.6250   -31.2690    69.6050    25.0280   110.7700   112.7480   119.8830     2.2460 
  171.7500   -31.4820    67.6270    25.1050   129.4110   120.6000   128.6360     2.2450 
  171.8750   -31.6910    68.1140    25.2010   139.8610   126.6620   135.3700     2.2420 
  172.0000   -31.8450    68.9290    25.2290   140.2690   131.1460   140.2580     2.2400 
  172.1250   -32.0080    67.9270    25.2390   127.3820   134.4670   143.8030     2.2480 
  172.2500   -32.2200    66.8770    25.2120   119.2870   137.3170   146.7890     2.2580 
  172.3750   -32.4180    66.1130    25.2500   126.3450   139.5460   149.1410     2.2560 
  172.5000   -32.5950    63.1270    25.2940   136.9690   140.7140   150.2680     2.2460 
  172.6250   -32.7770    59.2640    25.2930   132.3570   139.7470   149.1370     2.2420 
  172.7500   -32.9220    60.3480    25.2350   133.2930   136.9200   145.8030     2.2510 
  172.8750   -33.0450    65.0630    25.2130   141.3510   132.6010   140.6090     2.2610 
  173.0000   -33.1290    67.4560    25.2200   139.9480   127.5580   134.6210     2.2680 
  173.1250   -33.1950    64.2440    25.2050   127.2960   123.1680   129.7140     2.2710 
  173.2500   -33.3000    62.3600    25.1510   112.6530   120.8990   127.1410     2.2700 
  173.3750   -33.4360    65.3500    25.2020   109.3700   120.9800   126.9360     2.2630 
  173.5000   -33.5010    67.7290    25.0320   116.1120   122.8810   128.4100     2.2530 
  173.6250   -33.5210    63.5970    24.9330   124.0330   125.3210   130.1980     2.2470 
  173.7500   -33.6050    57.8360    24.8720   124.0340   126.9450   130.9250     2.2430 
  173.8750   -33.7470    55.7070    25.0090   124.1170   126.9690   129.8450     2.2380 
  174.0000   -33.8580    57.9840    25.1290   123.6550   124.7120   126.2960     2.2310 
  174.1250   -33.9370    61.1260    25.1410   118.4590   119.6770   120.0030     2.2240 
  174.2500   -34.0380    62.1320    25.0620   107.1730   113.2000   112.7540     2.2240 
  174.3750   -34.1840    61.9830    25.0210    94.1460   106.4440   105.7870     2.2360 
  174.5000   -34.3190    63.4570    25.0140    91.5970   100.3790    99.9470     2.2570 
  174.6250   -34.4160    66.4380    25.0330    94.5460    96.0380    96.2720     2.2770 
  174.7500   -34.5440    67.5220    25.1320    90.8950    93.6580    94.8930     2.2870 
  174.8750   -34.7580    66.4220    25.1030    81.4800    93.4380    95.8490     2.2860 
  175.0000   -34.9900    65.2890    25.0630    75.5120    95.7310    99.4720     2.2810 
  175.1250   -35.1620    65.8420    25.0520    80.4640   101.2200   106.4700     2.2770 
  175.2500   -35.3010    66.3880    25.0410    91.6480   109.4490   116.4420     2.2770 
  175.3750   -35.5000    66.4430    24.9860   106.5800   120.6690   129.8600     2.2760 
  175.5000   -35.7280    63.7810    24.7710   118.1850   135.4440   147.2140     2.2700 
  175.6250   -35.9000    60.2170    24.8200   117.3700   154.2160   168.8830     2.2590 
  175.7500   -36.0390    60.1630    24.9960   128.5010   175.0360   193.2000     2.2480 
  175.8750   -36.1490    63.3490    25.1040   151.6270   196.2000   218.5100     2.2420 
  176.0000   -36.2340    65.5100    25.0950   174.2780   215.6160   242.3290     2.2400 
  176.1250   -36.2780    62.9590    25.0790   177.6840   229.9610   260.4570     2.2360 
  176.2500   -36.2830    58.9390    25.0100   172.1030   238.2600   271.2610     2.2260 
  176.3750   -36.3000    57.1270    24.9330   158.8760   239.8050   273.6690     2.2110 
  176.5000   -36.3130    59.6250    24.7450   147.8340   235.1990   268.6740     2.2000 
  176.6250   -36.2580    64.1480    24.7140   139.0470   226.8240   259.6740     2.2040 
  176.7500   -36.1000    65.4320    24.7000   130.1980   218.4180   250.6360     2.2170 
  176.8750   -35.9750    62.4760    24.6650   120.0210   211.5350   243.1510     2.2270 
  177.0000   -35.8990    60.2560    24.4740   112.9030   206.6340   237.7280     2.2280 
  177.1250   -35.7810    60.3270    24.1410   106.0220   204.1480   234.6920     2.2250 
  177.2500   -35.5570    58.0580    24.0310    96.2940   203.3650   233.2750     2.2210 
  177.3750   -35.3210    54.0140    24.0850    87.5930   203.4950   232.5130     2.2130 
  177.5000   -35.1540    53.2890    24.1810    94.1530   203.1980   230.8990     2.2060 
  177.6250   -34.9930    57.6670    24.6280   117.2700   200.9420   226.9370     2.2100 
  177.7500   -34.8070    60.5340    24.7260   132.4110   196.4360   220.6800     2.2180 
  177.8750   -34.6430    61.3030    24.9400   135.1390   190.1990   212.9650     2.2190 
  178.0000   -34.5470    63.1420    25.0490   134.7140   183.4950   205.3610     2.2130 
  178.1250   -34.5020    64.7380    25.0510   135.1810   178.5450   200.4360     2.2170 
  178.2500   -34.4530    62.5360    25.0480   132.2250   176.4740   199.4250     2.2360 
  178.3750   -34.3170    58.5270    25.0200   127.5510   178.4710   203.2300     2.2600 
  178.5000   -34.2480    56.1570    25.0250   122.1140   184.8590   212.1830     2.2730 
  178.6250   -34.3220    56.7760    25.0840   122.8050   195.5620   225.9670     2.2600 
  178.7500   -34.3550    57.8400    25.2050   129.8730   208.2870   242.0310     2.2320 
  178.8750   -34.3140    56.5690    25.2160   141.4050   221.1520   257.9610     2.2060 
  179.0000   -34.2940    52.7720    25.1930   152.8100   232.0240   271.1740     2.1920 
  179.1250   -34.2700    49.5970    25.0610   161.0240   238.4410   278.1880     2.1900 
  179.2500   -34.2330    49.0680    25.1340   166.7010   240.6240   279.4080     2.1930 
  179.3750   -34.2450    50.0660    25.0990   170.8830   239.3350   276.3490     2.1970 
  179.5000   -34.2550    52.3880    25.0800   173.5250   235.8920   270.6930     2.1970 
  179.6250   -34.2180    56.6410    25.2960   174.9650   232.1420   264.4090     2.1950 
  179.7500   -34.1780    60.8390    25.3500   173.4040   228.0930   257.1690     2.1970 
  179.8750   -34.0260    62.6680    25.3600   168.8310   221.2560   245.8820     2.2040 
