~V
VERS. 2.00: Ver 2.00
~W
STRT.M 110.0000:
STOP.M 266.0000:
STEP.M 0.1250:
NULL. -999.2500:
UWI. DF309:
~C
DEPT.M :
DEN.GM/CC :
SP.MV :
AC.US/MT :
GR.API :
CALI.CM :
RXO.OHMM :
RI. :
RML.OHMM :
~A
  110.0000     2.3400   -25.1170   427.6760   116.1140    24.5790     4.5290     3.6820     4.0630 
  110.1250     2.3580   -25.5400   430.5810   118.3680    24.6280     4.1970     3.4380     3.7730 
  110.2500     2.3740   -26.0750   433.0120   114.6910    24.6280     4.0060     3.3310     3.6810 
  110.3750     2.3800   -26.7210   435.1410   104.6740    24.6280     4.0960     3.3940     3.8200 
  110.5000     2.3660   -27.4670   437.4560    91.8190    24.5930     4.6560     3.6420     4.1910 
  110.6250     2.3240   -28.2520   439.8340    81.4770    24.4840     5.8340     4.1520     4.8650 
  110.7500     2.2750   -29.0040   440.1090    76.9090    24.3340     6.9880     4.9780     5.8950 
  110.8750     2.2450   -29.6900   433.8290    74.6750    24.2680     7.8300     6.2320     7.4190 
  111.0000     2.2610   -30.2780   414.8590    71.7150    24.2960     9.0410     8.0020     9.5660 
  111.1250     2.3370   -30.7510   376.3110    69.0380    24.4110    12.5440    10.2110    12.3200 
  111.2500     2.4320   -31.1450   326.8030    69.4040    24.5420    18.5140    12.1600    14.8030 
  111.3750     2.5020   -31.4730   283.0570    72.3870    24.5810    22.9340    12.9690    15.7120 
  111.5000     2.5110   -31.7490   265.5330    74.8690    24.4850    21.4240    12.2200    14.3760 
  111.6250     2.4450   -31.9820   290.5920    77.0670    24.1990    15.1840    10.4300    11.7280 
  111.7500     2.3490   -32.2240   339.7060    80.4390    23.9070    10.2540     8.7030     9.4330 
  111.8750     2.2620   -32.4780   389.8410    83.0590    23.6650     7.9200     7.4500     7.9700 
  112.0000     2.2080   -32.7210   423.1120    83.7350    23.5530     7.2290     6.7370     7.3040 
  112.1250     2.1930   -32.9060   433.4570    82.2640    23.5230     7.2510     6.5200     7.2860 
  112.2500     2.1930   -33.0030   433.2090    81.8220    23.5080     7.3580     6.5500     7.5340 
  112.3750     2.1910   -33.0100   430.4810    82.9850    23.5000     7.3910     6.6680     7.8060 
  112.5000     2.1840   -32.9510   428.8160    85.3770    23.4980     7.3420     6.7530     7.9370 
  112.6250     2.1760   -32.8690   428.5010    86.0720    23.4980     7.2960     6.7440     7.8770 
  112.7500     2.1780   -32.7810   428.3930    84.8870    23.5030     7.3010     6.6770     7.7420 
  112.8750     2.1930   -32.7010   427.9740    85.4500    23.5230     7.3110     6.6010     7.6200 
  113.0000     2.2120   -32.6550   427.4210    88.3230    23.5860     7.2990     6.5540     7.5640 
  113.1250     2.2220   -32.6560   427.4360    89.1080    23.6680     7.3030     6.5560     7.5890 
  113.2500     2.2170   -32.7010   428.3930    90.3300    23.7400     7.4020     6.5770     7.6470 
  113.3750     2.2040   -32.7760   430.5220    94.4010    23.7660     7.5480     6.5850     7.6900 
  113.5000     2.1950   -32.8850   433.5170    97.8030    23.7700     7.6300     6.5540     7.6830 
  113.6250     2.1950   -33.0350   435.7440    95.9880    23.7570     7.6410     6.4760     7.6140 
  113.7500     2.1990   -33.2150   435.7660    90.4930    23.7260     7.6450     6.3770     7.5180 
  113.8750     2.2020   -33.4070   434.0030    83.2970    23.6960     7.6490     6.2820     7.4270 
  114.0000     2.2030   -33.6050   432.3930    76.5460    23.6830     7.6170     6.2050     7.3590 
  114.1250     2.1990   -33.7970   432.5800    74.8250    23.6830     7.5450     6.1470     7.3150 
  114.2500     2.1900   -33.9830   433.4620    77.2680    23.6830     7.4910     6.1080     7.2850 
  114.3750     2.1810   -34.1700   433.6670    80.7260    23.6830     7.4620     6.1060     7.2880 
  114.5000     2.1790   -34.3680   432.8470    87.4480    23.6830     7.4520     6.1640     7.3600 
  114.6250     2.1900   -34.5680   431.0780    92.2520    23.6830     7.5550     6.3050     7.5400 
  114.7500     2.2070   -34.7710   427.5360    89.0000    23.6830     7.9890     6.4980     7.7930 
  114.8750     2.2250   -34.9660   421.4080    82.0520    23.6830     8.6740     6.6970     8.0510 
  115.0000     2.2380   -35.1360   414.2810    78.8630    23.6830     9.0510     6.8400     8.2230 
  115.1250     2.2380   -35.2840   410.8840    80.9230    23.6830     8.8630     6.8690     8.2160 
  115.2500     2.2310   -35.4220   412.7030    81.4400    23.6830     8.5100     6.8120     8.0850 
  115.3750     2.2220   -35.5470   417.4180    80.8720    23.6830     8.3590     6.7150     7.9160 
  115.5000     2.2140   -35.6250   421.4850    80.8390    23.6830     8.3070     6.6370     7.8020 
  115.6250     2.2080   -35.6510   423.0690    80.3930    23.6830     8.2810     6.6340     7.8240 
  115.7500     2.2080   -35.6300   423.6590    79.6040    23.6820     8.3350     6.7050     7.9640 
  115.8750     2.2140   -35.5770   424.2990    77.8570    23.6720     8.5580     6.8250     8.1730 
  116.0000     2.2200   -35.5100   425.0040    75.3050    23.6450     8.8830     6.9540     8.3850 
  116.1250     2.2150   -35.4050   425.3720    73.6880    23.5900     9.1430     7.0410     8.5180 
  116.2500     2.2030   -35.2520   425.4320    73.7320    23.5350     9.3120     7.0530     8.5260 
  116.3750     2.1920   -35.0610   425.3410    74.9500    23.4930     9.4460     6.9760     8.3880 
  116.5000     2.1880   -34.8450   425.2260    75.9980    23.4770     9.4700     6.8360     8.1530 
  116.6250     2.1850   -34.5850   425.3960    74.6060    23.4770     9.2560     6.7510     7.9960 
  116.7500     2.1810   -34.2850   426.1310    73.4640    23.4770     8.9760     6.8590     8.1130 
  116.8750     2.1890   -33.9660   426.2640    73.4640    23.4790     8.9250     7.2570     8.6410 
  117.0000     2.2280   -33.6480   420.9690    73.4080    23.5070     9.5880     7.9630     9.6010 
  117.1250     2.3110   -33.4010   399.2310    74.3610    23.6700    11.7520     8.8520    10.8320 
  117.2500     2.4060   -33.2450   361.6660    78.9070    23.9650    14.4680     9.5550    11.7950 
  117.3750     2.4710   -33.1830   321.5460    84.1110    24.2060    15.2310     9.7310    11.9570 
  117.5000     2.4730   -33.2040   300.5060    83.7750    24.2320    13.0540     9.2620    11.1480 
  117.6250     2.4090   -33.3370   316.8210    82.9460    24.0150    10.4080     8.3570     9.7830 
  117.7500     2.3280   -33.5740   353.9270    91.4670    23.7400     9.0790     7.4750     8.5860 
  117.8750     2.2620   -33.9110   390.9660   100.7760    23.5520     8.7490     6.8360     7.8420 
  118.0000     2.2200   -34.3240   414.1560    98.7960    23.4830     8.7430     6.5110     7.5850 
  118.1250     2.1990   -34.7700   421.3530    89.4250    23.4740     8.8200     6.4980     7.7400 
  118.2500     2.1880   -35.2050   422.5350    84.8490    23.4570     8.9010     6.6370     8.0430 
  118.3750     2.1830   -35.6030   422.4980    84.2910    23.4020     8.8870     6.8200     8.3350 
  118.5000     2.1830   -35.9540   422.6840    81.6940    23.3430     8.7930     6.9730     8.5270 
  118.6250     2.1870   -36.2370   423.5090    80.9590    23.3350     8.8270     7.0580     8.6000 
  118.7500     2.1900   -36.4400   425.4020    83.7650    23.4590     8.9710     7.0920     8.6080 
  118.8750     2.1930   -36.5570   428.4120    84.6310    23.5920     9.0400     7.0890     8.5790 
  119.0000     2.1940   -36.5860   431.8570    79.9870    23.6350     8.9350     7.0620     8.5300 
  119.1250     2.1900   -36.5170   434.8290    73.5570    23.6170     8.7240     7.0200     8.4780 
  119.2500     2.1840   -36.3770   437.7410    72.4000    23.6420     8.5810     6.9760     8.4360 
  119.3750     2.1930   -36.1880   441.9610    77.2190    23.7100     8.5690     6.9310     8.4060 
  119.5000     2.2230   -35.9760   446.9290    82.7310    23.7570     8.6720     6.8820     8.3830 
  119.6250     2.2560   -35.7570   447.9480    82.6870    23.7680     8.7780     6.8220     8.3480 
  119.7500     2.2670   -35.5430   444.0830    77.1620    23.7530     8.5810     6.7560     8.2930 
  119.8750     2.2540   -35.3410   439.3720    74.6060    23.7180     8.0760     6.6930     8.2290 
