~V
VERS. 2.00: Ver 2.00
~W
STRT.M 60.0000:
STOP.M 268.0000:
STEP.M 0.1250:
NULL. -999.2500:
UWI. DF3035:
~C
DEPT.M :
GR.API :
CALI.CM :
RXO.OHMM :
RI. :
RML.OHMM :
SP.MV :
DEN.GM/CC :
AC.US/MT :
~A
# ...
   70.0000    76.2590    23.9840     8.6440     7.3540     9.3310   -27.4210  -999.2500  -999.2500 
   70.1250    74.0850    23.7210     8.6220     7.2910     9.3160   -27.4430  -999.2500  -999.2500 
   70.2500    74.3250    23.4250     8.6160     7.2300     9.3520   -27.4400  -999.2500  -999.2500 
   70.3750    76.9170    23.1770     8.7940     7.1830     9.4540   -27.4110  -999.2500  -999.2500 
   70.5000    81.6550    23.0270     9.2840     7.1510     9.6000   -27.3530  -999.2500  -999.2500 
   70.6250    85.8060    22.9840     9.7820     7.1120     9.7030   -27.2230  -999.2500  -999.2500 
   70.7500    86.2010    22.9800     9.7950     7.0120     9.6210   -27.0260  -999.2500  -999.2500 
   70.8750    84.8090    22.9790     9.3820     6.7990     9.2450   -26.7550  -999.2500  -999.2500 
   71.0000    86.6500    22.9690     8.9550     6.4830     8.6290   -26.4000  -999.2500  -999.2500 
   71.1250    95.2390    22.9690     8.5040     6.2080     8.1330   -25.9910  -999.2500  -999.2500 
   71.2500   103.3390    23.0590     7.7100     6.1750     8.1730   -25.5570  -999.2500  -999.2500 
   71.3750   104.3190    23.2940     7.4150     6.5510     9.0380   -25.1400  -999.2500  -999.2500 
   71.5000    95.1040    23.6120    10.1760     7.4460    10.8660   -24.8160  -999.2500  -999.2500 
   71.6250    78.3800    23.8620    21.7220     8.8920    13.5730   -24.6500  -999.2500  -999.2500 
   71.7500    67.7350    24.0140    37.6260    10.4050    16.1040   -24.6500  -999.2500  -999.2500 
   71.8750    68.8980    24.0970    42.8730    11.2920    17.0750   -24.8390  -999.2500  -999.2500 
   72.0000    73.9190    24.1130    32.0830    11.0250    15.7480   -25.1920  -999.2500  -999.2500 
   72.1250    72.2740    24.0450    18.4690     9.7520    13.0070   -25.6890  -999.2500  -999.2500 
   72.2500    68.4540    23.9450    11.5680     8.3750    10.6140   -26.2740  -999.2500  -999.2500 
   72.3750    69.2260    23.8570     8.8580     7.3280     9.1330   -26.8850  -999.2500  -999.2500 
   72.5000    72.0930    23.8270     8.1620     6.7270     8.5320   -27.4590  -999.2500  -999.2500 
   72.6250    70.9930    23.9090     8.1420     6.5500     8.6010   -27.9770  -999.2500  -999.2500 
   72.7500    68.3320    24.0480     8.0850     6.5860     8.9060   -28.4220  -999.2500  -999.2500 
   72.8750    67.8550    24.1620     7.9760     6.7070     9.2110   -28.7940  -999.2500  -999.2500 
   73.0000    70.2200    24.2020     7.9640     6.8210     9.3910   -29.1160  -999.2500  -999.2500 
   73.1250    72.7300    24.2080     8.1370     6.8790     9.4270   -29.3630  -999.2500  -999.2500 
   73.2500    71.6690    24.2570     8.3100     6.8940     9.3990   -29.5640  -999.2500  -999.2500 
   73.3750    68.4470    24.3590     8.3110     6.8830     9.3540   -29.7370  -999.2500  -999.2500 
   73.5000    66.5170    24.4670     8.1510     6.8630     9.3170   -29.8680  -999.2500  -999.2500 
   73.6250    67.8820    24.5230     7.9890     6.8370     9.2940   -29.9230  -999.2500  -999.2500 
   73.7500    69.9560    24.5410     7.9170     6.8010     9.2690   -29.9270  -999.2500  -999.2500 
   73.8750    71.4580    24.5400     7.9030     6.7520     9.2270   -29.8640  -999.2500  -999.2500 
   74.0000    73.6060    24.5070     7.8820     6.6910     9.1650   -29.7440  -999.2500  -999.2500 
   74.1250    76.3430    24.4370     7.8120     6.6280     9.1000   -29.5890  -999.2500  -999.2500 
   74.2500    78.7890    24.3860     7.7290     6.5750     9.0540   -29.4060  -999.2500  -999.2500 
   74.3750    78.9330    24.3980     7.6700     6.5340     9.0340   -29.2110  -999.2500  -999.2500 
   74.5000    77.2890    24.4530     7.6230     6.5050     9.0310   -29.0010  -999.2500  -999.2500 
   74.6250    76.7970    24.4820     7.5620     6.4780     9.0190   -28.7800  -999.2500  -999.2500 
   74.7500    78.2580    24.4720     7.5090     6.4460     8.9850   -28.5460  -999.2500  -999.2500 
   74.8750    79.6690    24.4360     7.4790     6.4090     8.9340   -28.3090  -999.2500  -999.2500 
   75.0000    79.4310    24.3800     7.4490     6.3720     8.8840   -28.0740  -999.2500  -999.2500 
   75.1250    78.7900    24.3030     7.4090     6.3460     8.8560   -27.8580  -999.2500  -999.2500 
   75.2500    79.4460    24.2370     7.3910     6.3330     8.8490   -27.6520  -999.2500  -999.2500 
   75.3750    80.0350    24.2090     7.4150     6.3300     8.8580   -27.4580  -999.2500  -999.2500 
   75.5000    78.8400    24.2230     7.4780     6.3300     8.8760   -27.3010  -999.2500  -999.2500 
   75.6250    78.2430    24.2440     7.5360     6.3330     8.9040   -27.2070  -999.2500  -999.2500 
   75.7500    80.6310    24.2540     7.5800     6.3440     8.9490   -27.1650  -999.2500  -999.2500 
   75.8750    83.8690    24.2550     7.7270     6.3650     9.0130   -27.1860  -999.2500  -999.2500 
   76.0000    84.1350    24.2550     8.0780     6.3970     9.0970   -27.2540  -999.2500  -999.2500 
   76.1250    81.1860    24.2670     8.4210     6.4380     9.1920   -27.3770  -999.2500  -999.2500 
   76.2500    77.1820    24.3570     8.4170     6.4840     9.2820   -27.5510  -999.2500  -999.2500 
   76.3750    72.4230    24.5630     8.1090     6.5330     9.3580   -27.7480  -999.2500  -999.2500 
   76.5000    67.4650    24.7840     7.8560     6.5840     9.4210   -27.9500  -999.2500  -999.2500 
   76.6250    64.4690    24.8110     7.9660     6.6360     9.4720   -28.1470  -999.2500  -999.2500 
   76.7500    63.8400    24.6700     8.2400     6.6850     9.5140   -28.3260  -999.2500  -999.2500 
   76.8750    65.0350    24.5110     8.3940     6.7290     9.5440   -28.4770  -999.2500  -999.2500 
   77.0000    67.8660    24.4020     8.3030     6.7630     9.5610   -28.6040  -999.2500  -999.2500 
   77.1250    71.7330    24.2280     8.1330     6.7850     9.5630   -28.6760  -999.2500  -999.2500 
   77.2500    74.8330    23.9640     8.1100     6.7950     9.5610   -28.7080  -999.2500  -999.2500 
   77.3750    75.1410    23.7290     8.1950     6.7920     9.5560   -28.7050  -999.2500  -999.2500 
   77.5000    72.5560    23.6730     8.3070     6.7740     9.5400   -28.6680  -999.2500  -999.2500 
   77.6250    71.2870    23.8640     8.4100     6.7380     9.4980   -28.5990  -999.2500  -999.2500 
   77.7500    73.3740    24.1530     8.3740     6.6940     9.4370   -28.5030  -999.2500  -999.2500 
   77.8750    75.5210    24.4130     8.1080     6.6510     9.3680   -28.3720  -999.2500  -999.2500 
   78.0000    73.5990    24.5620     7.7950     6.6210     9.3120   -28.2150  -999.2500  -999.2500 
   78.1250    70.5890    24.6030     7.7450     6.6160     9.2870   -28.0400  -999.2500  -999.2500 
   78.2500    71.8090    24.6090     7.8140     6.6330     9.2790   -27.8520  -999.2500  -999.2500 
   78.3750    75.9060    24.6070     7.7600     6.6610     9.2670   -27.6900  -999.2500  -999.2500 
   78.5000    78.5640    24.6110     7.5900     6.6930     9.2430   -27.5700  -999.2500  -999.2500 
   78.6250    78.3880    24.6570     7.5140     6.7300     9.2260   -27.4860  -999.2500  -999.2500 
   78.7500    78.4770    24.7450     7.5430     6.7810     9.2520   -27.4530  -999.2500  -999.2500 
   78.8750    79.4540    24.8250     7.5990     6.8580     9.3470   -27.4870  -999.2500  -999.2500 
   79.0000    79.1410    24.8400     7.7140     6.9650     9.5210   -27.5620  -999.2500  -999.2500 
   79.1250    75.7560    24.7720     7.9760     7.0970     9.7580   -27.6930  -999.2500  -999.2500 
   79.2500    71.8560    24.6770     8.2740     7.2250     9.9990   -27.8560  -999.2500  -999.2500 
   79.3750    70.3150    24.5980     8.4840     7.3240    10.1890   -28.0040  -999.2500  -999.2500 
   79.5000    71.7650    24.5810     8.5980     7.3660    10.2560   -28.1250  -999.2500  -999.2500 
   79.6250    73.5650    24.6250     8.6950     7.3060    10.0900   -28.2170  -999.2500  -999.2500 
   79.7500    74.2760    24.6630     8.7740     7.1690     9.7450   -28.2450  -999.2500  -999.2500 
   79.8750    74.3570    24.6720     8.7660     7.0370     9.4200   -28.1990  -999.2500  -999.2500 
