~V
VERS. 2.00: Ver 2.00
~W
STRT.M 64.0000:
STOP.M 268.0000:
STEP.M 0.1250:
NULL. -999.2500:
UWI. DF3002:
~C
DEPT.M :
GR.API :
RML.OHMM :
RI. :
RXO.OHMM :
DEN.GM/CC :
SP.MV :
~A
# ...
   76.8750    80.4770     8.9030     8.3610     8.7690  -999.2500   -32.1760 
   77.0000    79.1020     8.9880     8.3630     8.6800  -999.2500   -32.0010 
   77.1250    82.4470     9.2180     8.4890     8.6380  -999.2500   -31.6310 
   77.2500    83.3650     9.4750     8.6510     8.7130  -999.2500   -31.3350 
   77.3750    80.2230     9.6440     8.7600     8.8870  -999.2500   -30.9750 
   77.5000    79.2180     9.6150     8.7200     9.1230  -999.2500   -30.4200 
   77.6250    83.1600     9.2780     8.4280     9.3920  -999.2500   -29.9380 
   77.7500    86.5070     8.7140     7.9350     9.4430  -999.2500   -29.4980 
   77.8750    89.1600     8.0420     7.3320     8.8230  -999.2500   -28.9760 
   78.0000    93.8710     7.4120     6.7440     7.4630  -999.2500   -28.5770 
   78.1250    97.2700     6.9970     6.3220     7.0640  -999.2500   -28.2840 
   78.2500    96.6710     6.8400     6.1200     6.9090  -999.2500   -28.0270 
   78.3750    96.6520     6.9530     6.1630     6.8510  -999.2500   -27.9590 
   78.5000    98.6500     7.3120     6.4410     6.8590  -999.2500   -28.0150 
   78.6250    97.7940     7.8770     6.9300     7.1600  -999.2500   -28.1190 
   78.7500    91.7730     8.5030     7.5010     7.6100  -999.2500   -28.2650 
   78.8750    84.6850     9.0530     8.0280     8.2850  -999.2500   -28.3480 
   79.0000    81.5010     9.3710     8.3710     8.8210  -999.2500   -28.3510 
   79.1250    82.6170     9.2620     8.3480     9.0630  -999.2500   -28.2960 
   79.2500    86.4410     8.7740     7.9840     8.9680  -999.2500   -28.0670 
   79.3750    92.9700     8.0420     7.3770     8.7990  -999.2500   -27.7190 
   79.5000   103.9000     7.3120     6.7140     8.4330  -999.2500   -27.4410 
   79.6250   114.8870     7.0100     6.3180     7.6350  -999.2500   -27.0510 
   79.7500   117.7950     7.3890     6.4220     7.2920  -999.2500   -26.6850 
   79.8750   112.9560     8.5480     7.1630     8.0410  -999.2500   -26.5520 
   80.0000   105.5740    10.3240     8.5030     9.8310  -999.2500   -26.4280 
   80.1250   100.3600    12.1820    10.1460    13.1620  -999.2500   -26.3980 
   80.2500    98.1370    13.3770    11.4610    18.2730  -999.2500   -26.6540 
   80.3750    97.9910    13.4420    11.9420    22.3870  -999.2500   -26.9840 
   80.5000    98.9570    12.3940    11.4120    20.8400  -999.2500   -27.3310 
   80.6250    98.1690    10.8500    10.2160    15.3320  -999.2500   -27.9530 
   80.7500    95.8500     9.7190     9.1600    11.5930  -999.2500   -28.5800 
   80.8750    94.2570     9.3720     8.6320     9.8080  -999.2500   -29.1880 
   81.0000    94.6110     9.7560     8.6950    10.1670  -999.2500   -29.9070 
   81.1250    94.3950    10.5420     9.2200    12.0690  -999.2500   -30.5940 
   81.2500    92.7060    11.2120     9.8180    14.9110  -999.2500   -31.2160 
   81.3750    92.9770    11.4950    10.2270    16.6460  -999.2500   -31.8210 
   81.5000    95.0900    11.3440    10.3120    13.0800  -999.2500   -32.2940 
   81.6250    93.8540    10.9270    10.1090    10.7700  -999.2500   -32.6350 
   81.7500    88.7580    10.5460     9.8510     9.8810  -999.2500   -32.9590 
   81.8750    85.5110    10.3250     9.6640     9.7500  -999.2500   -33.1270 
   82.0000    88.0190    10.2550     9.5800     9.6770  -999.2500   -33.2460 
   82.1250    92.1320    10.2610     9.5610     9.5740  -999.2500   -33.3540 
   82.2500    91.2180    10.2520     9.5330     9.4570  -999.2500   -33.3710 
   82.3750    86.6490    10.2060     9.4640     9.4130  -999.2500   -33.4200 
   82.5000    84.1430    10.1260     9.3510     9.5250  -999.2500   -33.4840 
   82.6250    84.0050    10.0220     9.2090     9.8700  -999.2500   -33.4610 
   82.7500    81.3340     9.9250     9.0750    10.1840  -999.2500   -33.4530 
   82.8750    78.1920     9.8720     8.9820    10.1490  -999.2500   -33.4090 
   83.0000    78.8690     9.9030     8.9640     9.8300  -999.2500   -33.2520 
   83.1250    80.6940    10.0580     9.0540     9.6510  -999.2500   -33.1890 
   83.2500    79.9990    10.2990     9.2240     9.8620  -999.2500   -33.1080 
   83.3750    78.1250    10.5730     9.4380    10.2340  -999.2500   -32.8400 
   83.5000    76.5590    10.8130     9.6430    10.5050  -999.2500   -32.6170 
   83.6250    75.6600    10.9450     9.7750    10.5840  -999.2500   -32.4450 
   83.7500    74.9950    10.9680     9.8140    10.6150  -999.2500   -32.1780 
   83.8750    74.9270    10.9070     9.7650    10.6100  -999.2500   -32.0390 
   84.0000    77.2080    10.7990     9.6530    10.5460  -999.2500   -31.9520 
   84.1250    81.0260    10.6800     9.5070    10.4950  -999.2500   -31.7380 
   84.2500    81.2200    10.5680     9.3570    10.4670  -999.2500   -31.6010 
   84.3750    76.3860    10.4610     9.2100    10.4270  -999.2500   -31.5320 
   84.5000    72.1620    10.3480     9.0650    10.3500  -999.2500   -31.4510 
   84.6250    73.6390    10.2150     8.9160    10.1930  -999.2500   -31.3780 
   84.7500    76.6090    10.0710     8.7670     9.8960  -999.2500   -31.2680 
   84.8750    77.9320     9.9340     8.6330     9.6570  -999.2500   -31.1260 
   85.0000    78.4450     9.8350     8.5370     9.5500  -999.2500   -30.9750 
   85.1250    79.7750     9.8270     8.5220     9.5180  -999.2500   -30.8150 
   85.2500    80.6000     9.9250     8.6000     9.5150  -999.2500   -30.6550 
   85.3750    80.4370    10.1230     8.7740     9.6260  -999.2500   -30.4810 
   85.5000    80.2040    10.3820     9.0160     9.8290  -999.2500   -30.2310 
   85.6250    80.2490    10.6070     9.2520    10.1070  -999.2500   -29.9900 
   85.7500    78.9070    10.6960     9.3870    10.3460  -999.2500   -29.7940 
   85.8750    77.3650    10.5810     9.3470    10.5600  -999.2500   -29.5120 
   86.0000    78.9310    10.2470     9.1040    10.6620  -999.2500   -29.2660 
   86.1250    84.7730     9.7320     8.6700    10.4160  -999.2500   -29.0080 
   86.2500    90.4680     9.1790     8.1650     9.7110  -999.2500   -28.6250 
   86.3750    92.6030     8.6870     7.6790     8.6710  -999.2500   -28.3340 
   86.5000    92.5410     8.3190     7.2780     7.6930  -999.2500   -28.1550 
   86.6250    92.8760     8.1110     7.0100     7.2890  -999.2500   -27.8400 
   86.7500    93.4180     8.0120     6.8560     7.2210  -999.2500   -27.6240 
   86.8750    93.4220     7.9990     6.8040     7.2390  -999.2500   -27.5150 
   87.0000    92.2490     8.0700     6.8490     7.1660  -999.2500   -27.3190 
   87.1250    90.5910     8.2660     7.0160     7.1270  -999.2500   -27.2990 
   87.2500    88.4170     8.5730     7.2830     7.1360  -999.2500   -27.3350 
   87.3750    86.0920     8.9170     7.5960     7.2470  -999.2500   -27.2140 
   87.5000    85.0400     9.1560     7.8520     7.4270  -999.2500   -27.0750 
   87.6250    85.5170     9.0900     7.8850     7.5830  -999.2500   -26.9270 
   87.7500    86.3410     8.7280     7.6690     7.8320  -999.2500   -26.6140 
   87.8750    87.1910     8.1960     7.2670     7.8630  -999.2500   -26.3020 
   88.0000    91.1040     7.6950     6.8180     7.3480  -999.2500   -25.9830 
   88.1250    98.4470     7.4360     6.4880     6.4850  -999.2500   -25.5570 
   88.2500   102.4350     7.4050     6.3160     6.2170  -999.2500   -25.1980 
   88.3750    99.5020     7.4970     6.2660     6.4850  -999.2500   -24.8760 
   88.5000    93.5840     7.5740     6.2620     6.9270  -999.2500   -24.5670 
   88.6250    93.8250     7.5130     6.2180     6.5980  -999.2500   -24.3730 
   88.7500    99.3450     7.3270     6.1060     6.3060  -999.2500   -24.2370 
   88.8750   104.2400     7.0760     5.9410     5.9720  -999.2500   -24.1420 
   89.0000   106.0460     6.8360     5.7620     5.7210  -999.2500   -24.0910 
   89.1250   105.8950     6.6610     5.6070     5.6780  -999.2500   -24.0160 
   89.2500   107.3920     6.5440     5.4820     5.6080  -999.2500   -23.9990 
   89.3750   108.9620     6.4760     5.3840     5.4850  -999.2500   -24.1010 
   89.5000   108.3210     6.4580     5.3150     5.4550  -999.2500   -24.1390 
   89.6250   105.5330     6.5060     5.2880     5.5480  -999.2500   -24.1970 
