~V
VERS. 2.00: Ver 2.00
~W
STRT.M 57.0000:
STOP.M 272.0000:
STEP.M 0.1250:
NULL. -999.2500:
UWI. DF3055:
~C
DEPT.M :
SP.MV :
GR.API :
RML.OHMM :
RI. :
RXO.OHMM :
CALI.CM :
DEN.GM/CC :
~A
# ...
  192.0000   -22.8940    59.9920   140.2820   132.5820   106.5990    24.9300     2.2310 
  192.1250   -22.7920    60.1690   133.7010   126.4600    99.1460    24.9300     2.2260 
  192.2500   -22.6760    61.2080   130.7180   123.3970    98.6910    24.9290     2.2250 
  192.3750   -22.5480    62.9660   129.8230   122.4400   102.5310    24.9260     2.2280 
  192.5000   -22.3970    63.1510   129.9640   122.7240   108.9180    24.9190     2.2350 
  192.6250   -22.2620    61.4010   130.3390   123.4290   113.8790    24.9040     2.2400 
  192.7500   -22.1280    59.8920   130.4890   123.9420   110.6590    24.8770     2.2350 
  192.8750   -22.0030    59.0550   130.3220   124.0740   104.3050    24.8440     2.2200 
  193.0000   -21.8920    58.0220   129.6510   123.7210   101.1500    24.7990     2.2030 
  193.1250   -21.8170    56.8640   128.0800   122.6550    99.9000    24.7170     2.1910 
  193.2500   -21.7550    57.7360   124.8930   120.3040    95.9840    24.5630     2.1940 
  193.3750   -21.7140    60.4820   120.2460   116.6350    81.6320    24.3080     2.2070 
  193.5000   -21.7100    62.8870   114.6650   111.8960    63.8720    23.9730     2.2210 
  193.6250   -21.7080    64.2570   109.0870   106.7790    51.0410    23.6820     2.2240 
  193.7500   -21.7130    64.3360   104.8410   102.4820    48.2210    23.6100     2.2130 
  193.8750   -21.7180    64.7310   102.5610    99.8390    52.4830    23.7470     2.1970 
  194.0000   -21.7140    65.2440   102.5900    99.3060    61.1950    24.0610     2.1830 
  194.1250   -21.6970    63.1770   104.9780   100.9620    73.4030    24.4950     2.1760 
  194.2500   -21.6620    57.6670   109.7510   104.8010    86.1430    24.9120     2.1770 
  194.3750   -21.6030    54.4660   115.7990   109.8290    97.7810    25.1710     2.1810 
  194.5000   -21.5210    56.0550   122.0040   115.1340   107.1360    25.2570     2.1890 
  194.6250   -21.4360    60.0060   126.8820   119.6510   113.8030    25.2670     2.2000 
  194.7500   -21.3440    61.7510   128.9360   122.0280   114.9360    25.2670     2.2130 
  194.8750   -21.2560    60.6310   128.2030   122.0670   112.2780    25.2670     2.2240 
  195.0000   -21.1720    59.5700   125.5290   119.9060   107.3620    25.2670     2.2300 
  195.1250   -21.1010    61.2480   121.4160   116.0540   103.1990    25.2670     2.2330 
  195.2500   -21.0420    63.9240   117.4610   111.0880   101.0620    25.2670     2.2330 
  195.3750   -21.0010    65.0470   113.4000   105.8310    99.6850    25.2670     2.2360 
  195.5000   -20.9460    65.1080   108.1310   100.7370    96.7500    25.2670     2.2390 
  195.6250   -20.8820    64.2980   102.3800    96.1650    92.3520    25.2680     2.2420 
  195.7500   -20.7970    61.4760    97.9150    92.5350    88.3010    25.2720     2.2400 
  195.8750   -20.7180    59.2430    94.6270    89.7950    85.3850    25.2820     2.2320 
  196.0000   -20.6300    60.8160    92.1760    87.7310    84.4940    25.3010     2.2230 
  196.1250   -20.5410    63.7320    89.9170    85.8570    84.8370    25.3270     2.2180 
  196.2500   -20.4640    63.7250    86.9470    83.3670    83.2940    25.3430     2.2240 
  196.3750   -20.3860    63.1190    82.9170    79.8390    80.3050    25.3020     2.2380 
  196.5000   -20.3410    64.5580    77.9810    75.3150    75.4290    25.2090     2.2560 
  196.6250   -20.2980    67.4170    72.7500    70.3490    69.2130    25.1200     2.2720 
  196.7500   -20.2750    70.0480    68.3300    66.0940    61.9100    25.0860     2.2810 
  196.8750   -20.2280    70.7410    65.5910    63.5470    57.0450    25.0790     2.2810 
  197.0000   -20.1910    68.8590    65.2930    63.5220    57.3250    25.0790     2.2740 
  197.1250   -20.1400    64.3800    68.1650    66.7200    62.4450    25.0790     2.2580 
  197.2500   -20.0780    60.9550    75.9910    74.6030    71.7340    25.0790     2.2380 
  197.3750   -20.0130    60.7170    89.5440    87.2510    84.9090    25.0790     2.2180 
  197.5000   -19.9340    61.5600   109.8790   104.9770   102.6290    25.0790     2.2040 
  197.6250   -19.8300    60.6760   136.5560   127.1800   124.1280    25.0790     2.1960 
  197.7500   -19.6850    57.9900   165.8990   151.2560   148.0810    25.0790     2.1960 
  197.8750   -19.5160    56.7780   189.8040   171.5760   173.8450    25.0790     2.2000 
  198.0000   -19.2880    57.1100   200.5320   182.4850   189.5700    25.0790     2.2080 
  198.1250   -19.0190    55.2280   193.6720   179.9980   187.3750    25.0790     2.2180 
  198.2500   -18.7040    49.9200   171.5000   163.4550   172.8450    25.0790     2.2280 
  198.3750   -18.3820    47.5950   147.5750   142.3790   149.3300    25.0800     2.2370 
  198.5000   -18.0420    51.5780   129.8020   124.3930   118.9430    25.0810     2.2420 
  198.6250   -17.7260    58.4610   121.1900   114.0700    97.1740    25.0840     2.2400 
  198.7500   -17.4340    60.7980   123.0600   113.7900    98.1730    25.0910     2.2340 
  198.8750   -17.1930    58.8830   131.7920   120.3580   113.3780    25.1020     2.2270 
  199.0000   -17.0070    56.3890   143.6810   130.6830   127.6680    25.1120     2.2210 
  199.1250   -16.8670    56.5300   153.3930   140.5840   134.1930    25.1160     2.2200 
  199.2500   -16.7890    58.3210   153.1320   143.9140   131.5550    25.1070     2.2260 
  199.3750   -16.7470    58.8820   141.3860   138.0530   125.1230    25.0900     2.2360 
  199.5000   -16.6370    58.7170   121.5260   123.5550   111.6300    25.0720     2.2480 
  199.6250   -16.5370    61.1340   100.4570   104.5850    90.1650    25.0590     2.2560 
  199.7500   -16.4220    67.5480    84.6080    87.2670    67.7360    25.0420     2.2590 
  199.8750   -16.3110    72.4940    74.6410    74.9160    56.4070    25.0200     2.2600 
  200.0000   -16.1680    72.5790    69.9860    68.2390    59.4510    25.0060     2.2600 
  200.1250   -16.0070    68.1050    69.9790    66.8680    71.6290    25.0080     2.2570 
  200.2500   -15.8310    63.7490    75.1380    70.9780    81.7770    25.0220     2.2480 
  200.3750   -15.6470    62.9480    84.7200    79.3960    83.4120    25.0390     2.2320 
  200.5000   -15.4630    64.6990    98.4830    91.6740    84.7020    25.0480     2.2140 
  200.6250   -15.2630    64.9160   115.2570   106.7150    96.2730    25.0500     2.1990 
  200.7500   -15.0620    61.2200   132.0660   122.1110   117.2760    25.0450     2.1930 
  200.8750   -14.8520    57.4010   145.4320   134.6570   139.2120    25.0340     2.1930 
  201.0000   -14.6320    56.0520   152.3760   142.1860   149.6180    25.0120     2.1950 
  201.1250   -14.4090    56.0020   153.4980   144.4440   142.0580    24.9750     2.1980 
  201.2500   -14.1660    56.5100   153.4510   144.0330   123.9630    24.9400     2.2090 
  201.3750   -13.9160    56.0490   157.4110   145.6300   113.8780    24.9170     2.2390 
  201.5000   -13.6470    54.0800   165.3930   150.2100   118.3970    24.8930     2.2940 
  201.6250   -13.3910    51.4790   171.6060   153.9350   135.8360    24.8430     2.3730 
  201.7500   -13.1270    50.8180   163.3770   147.3600   160.0890    24.7300     2.4590 
  201.8750   -12.8730    50.8040   135.7620   125.1700   174.9720    24.5410     2.5230 
  202.0000   -12.6410    49.6590    94.0770    89.0920   174.7640    24.3170     2.5490 
  202.1250   -12.4400    49.3000    53.6230    51.6910   143.0390    24.1380     2.5370 
  202.2500   -12.2750    50.9860    28.6360    27.6040    61.5070    24.0490     2.5040 
  202.3750   -12.1660    52.7190    15.5760    14.8330    19.9070    24.0440     2.4720 
  202.5000   -12.1390    54.6300     9.4970     8.8590     7.8540    24.1260     2.4500 
  202.6250   -12.1720    56.5570     6.8860     6.2970     5.0900    24.2430     2.4380 
  202.7500   -12.2860    55.4000     6.0150     5.4330     4.7910    24.2240     2.4310 
  202.8750   -12.4600    53.0570     5.8210     5.2190     4.9290    24.0600     2.4250 
  203.0000   -12.6980    52.9720     6.0010     5.3600     5.1500    23.8590     2.4200 
  203.1250   -12.9670    55.8110     6.3630     5.6800     5.5320    23.8300     2.4150 
