~V
VERS. 2.00: Ver 2.00
~W
STRT.M 55.0000:
STOP.M 252.0000:
STEP.M 0.1250:
NULL. -999.2500:
UWI. DF3024:
~C
DEPT.M :
GR.API :
RML.OHMM :
RI. :
RXO.OHMM :
CALI.CM :
DEN.GM/CC :
SP.MV :
~A
# ...
  145.0000    81.1830    12.6470    11.2770    10.4810    24.4210     2.4690   -17.4690 
  145.1250    87.3620    11.9830    10.6170     9.6110    24.4660     2.4440   -17.8550 
  145.2500    90.5920    11.7280    10.3150     9.8190    24.4820     2.4220   -18.2170 
  145.3750    91.8050    11.8620    10.3700    10.2650    24.5010     2.4050   -18.5190 
  145.5000    93.4600    12.2840    10.7160    10.7380    24.5360     2.3930   -18.7750 
  145.6250    95.7300    12.8320    11.2310    11.5110    24.5400     2.3860   -19.1260 
  145.7500    96.1320    13.2900    11.7140    12.5440    24.4880     2.3860   -19.4310 
  145.8750    94.0250    13.5360    12.0370    13.5310    24.3570     2.3900   -19.5440 
  146.0000    92.5550    13.5380    12.1460    13.9100    24.1510     2.3950   -19.6970 
  146.1250    95.2060    13.3500    12.0570    13.0320    24.0270     2.4000   -19.9270 
  146.2500    98.4810    13.1530    11.9220    12.1550    24.0890     2.4020   -19.9770 
  146.3750    98.1740    13.0690    11.8500    12.0310    24.2590     2.4050   -19.9770 
  146.5000    94.4070    13.1550    11.9030    12.2620    24.3720     2.4090   -20.1180 
  146.6250    90.6680    13.3990    12.0900    12.1190    24.4020     2.4150   -20.1380 
  146.7500    88.2100    13.6660    12.3140    12.4530    24.4020     2.4220   -20.0600 
  146.8750    87.8240    13.8390    12.4830    13.0010    24.4020     2.4270   -20.1240 
  147.0000    90.0970    13.8360    12.5250    13.0520    24.4020     2.4280   -20.1910 
  147.1250    93.4310    13.6270    12.4060    12.6960    24.3820     2.4240   -20.0930 
  147.2500    96.5990    13.3180    12.2040    12.7520    24.3310     2.4170   -20.0630 
  147.3750   100.5430    13.0030    11.9910    12.5360    24.2710     2.4110   -20.1510 
  147.5000   103.1600    12.7840    11.8500    11.8090    24.2400     2.4080   -20.1610 
  147.6250   100.0740    12.8140    11.9150    12.0200    24.2360     2.4110   -20.0980 
  147.7500    96.9080    13.1560    12.2510    13.0960    24.2360     2.4150   -20.1180 
  147.8750    96.7750    13.8420    12.9040    13.5170    24.2310     2.4120   -20.1650 
  148.0000    96.1360    14.8070    13.8410    13.4080    24.2160     2.4010   -20.1610 
  148.1250    92.0510    15.8230    14.9020    14.3930    24.1850     2.3860   -20.1640 
  148.2500    88.6170    16.5580    15.7750    16.3320    24.1690     2.3760   -20.2190 
  148.3750    86.5950    16.7700    16.2060    17.6470    24.1560     2.3750   -20.2600 
  148.5000    85.7400    16.3700    16.0530    16.2040    24.1390     2.3840   -20.2460 
  148.6250    86.5910    15.4310    15.3140    13.7770    24.1410     2.3950   -20.2930 
  148.7500    87.0660    14.3650    14.3620    12.3690    24.1480     2.4040   -20.3960 
  148.8750    86.5820    13.5150    13.5210    12.0570    24.1380     2.4060   -20.4150 
  149.0000    88.3170    13.1610    13.0700    12.1890    24.1200     2.4020   -20.3800 
  149.1250    92.4820    13.6040    13.3100    11.7220    24.0990     2.3930   -20.4990 
  149.2500    93.2980    14.7780    14.2340    12.3880    24.0730     2.3800   -20.6520 
  149.3750    89.4720    16.5850    15.8170    14.4610    24.0560     2.3640   -20.6810 
  149.5000    84.3070    18.7870    17.9030    17.7080    24.0370     2.3470   -20.7830 
  149.6250    82.1910    20.9780    20.1750    20.7400    23.9720     2.3330   -21.0060 
  149.7500    81.7400    22.8040    22.1940    20.8030    23.8420     2.3230   -21.0940 
  149.8750    81.7940    24.0160    23.7230    20.7250    23.7020     2.3180   -21.1740 
  150.0000    81.6010    24.8580    24.8170    20.2670    23.6040     2.3180   -21.4240 
  150.1250    81.0620    26.3060    26.1000    18.2440    23.5180     2.3200   -21.5960 
  150.2500    80.7030    29.8390    28.8240    18.3740    23.4290     2.3170   -21.6470 
  150.3750    79.7380    37.4860    34.9450    21.5430    23.3280     2.3050   -21.7930 
  150.5000    78.3640    52.5590    47.3160    31.2400    23.2490     2.2840   -21.9790 
  150.6250    76.1960    80.1840    71.1610    54.5420    23.3980     2.2550   -22.0040 
  150.7500    72.8540   120.2990   106.6300    95.2670    23.7460     2.2270   -21.9860 
  150.8750    69.9820   170.1740   151.5690   159.3070    24.1720     2.2040   -21.9760 
  151.0000    69.0670   225.5060   199.7310   226.9910    24.5110     2.1900   -21.9370 
  151.1250    69.2460   274.1440   240.0890   237.1910    24.6400     2.1840   -21.9230 
  151.2500    67.6050   307.2340   266.6360   234.9230    24.6710     2.1810   -21.8970 
  151.3750    64.6090   324.1680   279.9240   238.5300    24.6640     2.1790   -21.8530 
  151.5000    61.6970   331.7330   285.5880   246.6840    24.6420     2.1770   -21.8760 
  151.6250    59.3210   337.1590   289.4830   246.5330    24.6310     2.1720   -21.9840 
  151.7500    58.6290   342.3780   293.6050   240.1100    24.6240     2.1660   -22.1590 
  151.8750    58.5650   345.5430   296.6890   234.6490    24.6040     2.1590   -22.3940 
  152.0000    58.2050   345.0170   297.3290   231.2780    24.5560     2.1530   -22.5410 
  152.1250    59.5530   340.8110   295.2270   229.0700    24.4910     2.1530   -22.5240 
  152.2500    63.7420   336.3520   292.7830   223.6890    24.4180     2.1600   -22.5870 
  152.3750    67.6210   334.6370   292.3760   216.6260    24.3360     2.1700   -22.6900 
  152.5000    68.0600   337.2610   295.4990   213.2700    24.3510     2.1790   -22.5900 
  152.6250    64.6500   343.6150   301.9730   212.3340    24.3930     2.1820   -22.4720 
  152.7500    59.1310   349.6260   308.5040   213.0120    24.4400     2.1790   -22.4950 
  152.8750    55.3400   351.8930   312.1160   217.7570    24.4600     2.1730   -22.4220 
  153.0000    57.1030   348.6830   311.0030   233.0950    24.4330     2.1690   -22.2910 
  153.1250    62.7720   340.7610   305.1800   228.5610    24.3490     2.1680   -22.4020 
  153.2500    67.0010   332.7280   298.3010   212.8690    24.3310     2.1710   -22.5260 
  153.3750    68.3660   328.0200   293.4040   205.1190    24.4320     2.1760   -22.4750 
  153.5000    67.5230   328.4570   292.4440   215.8230    24.5360     2.1820   -22.4920 
  153.6250    63.9670   334.5430   296.3480   236.1700    24.5670     2.1880   -22.6130 
  153.7500    59.8720   343.7270   303.2110   252.8930    24.5650     2.1940   -22.5470 
  153.8750    57.9570   354.4760   311.7170   261.8980    24.5610     2.2010   -22.4490 
  154.0000    58.2580   366.2860   321.2290   262.8970    24.5520     2.2070   -22.4980 
  154.1250    60.9040   380.3730   332.4710   263.7530    24.5270     2.2100   -22.5030 
  154.2500    63.6250   396.9860   345.7520   273.6450    24.4960     2.2110   -22.3850 
  154.3750    64.6770   413.8250   359.6980   293.1670    24.4430     2.2110   -22.2720 
  154.5000    64.6330   424.6600   369.9260   313.0680    24.3370     2.2130   -22.2170 
  154.6250    64.9680   416.2130   366.3050   320.9150    24.0670     2.2200   -22.1610 
  154.7500    65.9250   382.9590   343.4270   321.5280    23.8660     2.2310   -22.0830 
  154.8750    65.8320   326.5540   300.7450   309.2680    23.7800     2.2450   -21.9960 
  155.0000    64.5740   259.1170   245.6610   285.2480    23.9130     2.2590   -21.9180 
  155.1250    62.7820   199.5950   192.3090   233.6180    23.9810     2.2710   -21.7800 
  155.2500    61.5260   156.8880   151.1460   150.0340    23.9840     2.2800   -21.6560 
  155.3750    62.0460   131.7000   125.3090    91.0990    24.0530     2.2880   -21.7200 
  155.5000    65.1470   121.5970   113.9840    72.0860    24.2990     2.2930   -21.7900 
  155.6250    68.6950   124.4720   115.7830    72.4140    24.4390     2.2930   -21.7570 
  155.7500    69.8240   133.4070   124.1010    79.8550    24.4460     2.2850   -21.9640 
  155.8750    68.5520   142.7810   133.6040    95.4370    24.2950     2.2710   -22.3000 
  156.0000    67.6340   146.8260   138.7040   117.0130    23.9630     2.2560   -22.5040 
  156.1250    68.3900   140.1660   133.9480   139.1790    23.8230     2.2480   -22.8340 
