~V
VERS. 2.00: Ver 2.00
~W
STRT.M 90.0000:
STOP.M 264.0000:
STEP.M 0.1250:
NULL. -999.2500:
UWI. DF3021:
~C
DEPT.M :
AC.US/MT :
DEN.GM/CC :
GR.API :
CALI.CM :
RXO.OHMM :
RI. :
RML.OHMM :
SP.MV :
~A
# ...
  200.0000   417.5360     2.1710    60.8490    23.9970   103.5020    89.2220    96.6380   -29.6280 
  200.1250   418.8370     2.1680    59.9820    24.0020    98.7340    83.6790    91.0340   -29.6280 
  200.2500   418.5400     2.1690    58.6300    23.9890    87.7700    77.8380    85.1220   -29.6340 
  200.3750   416.5300     2.1770    60.4560    23.8990    73.2780    72.7080    79.9470   -29.6810 
  200.5000   413.3340     2.1880    66.2090    23.7590    63.5520    69.0310    76.2620   -29.7560 
  200.6250   409.7500     2.1950    68.6390    23.3890    61.9900    67.3010    74.5490   -29.8630 
  200.7500   406.4310     2.1980    67.0710    22.8560    65.9700    66.8350    74.1000   -30.0090 
  200.8750   403.5020     2.1970    67.7360    22.5240    69.2270    66.9430    74.2190   -30.1920 
  201.0000   400.9550     2.1970    70.4330    22.7190    70.3140    66.8950    74.1850   -30.4330 
  201.1250   399.4150     2.2050    69.3580    23.2890    70.6400    66.0650    73.3720   -30.6980 
  201.2500   399.6670     2.2170    66.8840    23.9250    69.6740    64.5680    71.8710   -30.9760 
  201.3750   401.9960     2.2250    66.4790    24.2330    66.8390    62.7600    70.0020   -31.2810 
  201.5000   405.4860     2.2240    67.4390    24.2900    62.8320    61.1120    68.2080   -31.5670 
  201.6250   408.0860     2.2190    68.8990    24.1770    59.5930    60.2540    67.1040   -31.8510 
  201.7500   408.8030     2.2190    71.1160    23.9930    58.9500    60.4840    67.0300   -32.0980 
  201.8750   408.0090     2.2200    72.6100    23.8370    59.5590    62.0090    68.2180   -32.3360 
  202.0000   406.6530     2.2160    70.6880    23.8340    61.9420    64.8390    70.6920   -32.5620 
  202.1250   405.6930     2.2060    67.7150    24.0310    68.7950    68.7540    74.2040   -32.7300 
  202.2500   405.6360     2.1950    65.5900    24.2510    77.2890    72.7470    77.7300   -32.8880 
  202.3750   406.5720     2.1890    63.7340    24.3540    82.2930    75.8540    80.3290   -33.0100 
  202.5000   407.7690     2.1890    62.9050    24.3610    82.6620    77.3720    81.3580   -33.1410 
  202.6250   407.2450     2.1960    62.6870    24.3520    80.5710    77.1490    80.7230   -33.2690 
  202.7500   404.1390     2.2080    63.1610    24.3530    75.6800    76.5090    79.7110   -33.3970 
  202.8750   399.3870     2.2190    64.1340    24.3700    69.2890    76.7730    79.5750   -33.5210 
  203.0000   395.3340     2.2250    65.4280    24.4030    65.8540    78.8780    81.1810   -33.6350 
  203.1250   394.4380     2.2280    66.2500    24.4330    72.4290    83.0410    84.6580   -33.7770 
  203.2500   395.7800     2.2280    65.7370    24.4590    84.4020    87.7380    88.5390   -33.9400 
  203.3750   397.5400     2.2230    64.0420    24.4730    99.5480    91.4240    91.4670   -34.1220 
  203.5000   398.5320     2.2140    63.3650    24.4540   111.1450    92.9900    92.5680   -34.3060 
  203.6250   399.0390     2.2100    64.1340    24.4110   106.4290    92.1580    91.6560   -34.4570 
  203.7500   399.9090     2.2130    64.5500    24.3030    92.5870    90.3630    89.8720   -34.6140 
  203.8750   400.9170     2.2180    64.0710    24.0950    86.1640    88.5470    87.9290   -34.8130 
  204.0000   401.1070     2.2170    63.4620    23.8560    96.2790    86.9550    86.0180   -35.0020 
  204.1250   399.3560     2.2120    64.8390    23.6700   106.9040    85.1470    83.8480   -35.1790 
  204.2500   396.2010     2.2130    67.0110    23.6130    99.5270    82.8610    81.3700   -35.3590 
  204.3750   392.8880     2.2280    67.3280    23.5710    81.3580    80.4500    78.9850   -35.5250 
  204.5000   391.0530     2.2490    64.7990    23.5750    69.6440    78.7140    77.4000   -35.6730 
  204.6250   392.2820     2.2520    65.8620    23.6770    71.9440    78.8530    77.6620   -35.8370 
  204.7500   395.6230     2.2310    70.3640    23.9070    78.5300    80.9730    79.8010   -35.9560 
  204.8750   399.4250     2.2040    71.5850    24.1540    85.2700    84.5250    83.2780   -35.9840 
  205.0000   402.0610     2.1890    67.8330    24.2820    88.7670    88.2010    86.8650   -35.9720 
  205.1250   402.5920     2.1860    65.4230    24.1960    88.2060    90.0820    88.7820   -35.8480 
  205.2500   401.9990     2.1850    66.3080    23.9730    84.8060    89.5650    88.4170   -35.5810 
  205.3750   401.2570     2.1860    65.9580    23.7200    79.0630    86.8510    85.8750   -35.1630 
  205.5000   400.8310     2.1940    64.0170    23.5490    72.8870    82.5830    81.7200   -34.5870 
  205.6250   400.3410     2.2140    61.7230    23.4540    68.9290    77.3440    76.5450   -33.8120 
  205.7500   399.1620     2.2380    61.5980    23.4500    66.1080    71.8620    71.1730   -32.9550 
  205.8750   397.2210     2.2550    64.1990    23.5690    62.0300    66.8570    66.3630   -32.0800 
  206.0000   394.6820     2.2650    67.1890    23.8170    56.7510    63.3550    63.1250   -31.1770 
  206.1250   389.3000     2.2750    66.8050    23.9180    53.3600    62.9590    63.0290   -30.3480 
  206.2500   375.3440     2.3030    64.0720    23.8110    57.0080    66.0320    66.4220   -29.5700 
  206.3750   346.6530     2.3540    61.0040    23.6510    79.7850    72.9020    73.6380   -28.8880 
  206.5000   304.3960     2.4240    59.1460    23.6450   129.8420    83.3560    84.3950   -28.3410 
  206.6250   264.0610     2.4960    59.4160    23.7930   165.7570    95.4170    96.4760   -27.9380 
  206.7500   242.1910     2.5480    59.9560    23.8620   162.9980   102.5180   103.4190   -27.6180 
  206.8750   239.6370     2.5710    59.7750    23.8600   142.3360    96.8220    97.7020   -27.3430 
  207.0000   245.3330     2.5680    60.9000    23.9060   126.8010    76.8010    77.5580   -27.0780 
  207.1250   250.8970     2.5560    62.3780    23.9250   101.4870    51.9550    52.3890   -26.7870 
  207.2500   262.0340     2.5510    61.3190    23.8170    67.4880    32.3790    32.9280   -26.5350 
  207.3750   286.1270     2.5460    61.4560    23.6940    35.2580    19.7080    20.7640   -26.3110 
  207.5000   320.7150     2.5200    63.8760    23.6460    15.8440    12.5550    14.0770   -26.1200 
  207.6250   350.6460     2.4730    61.5410    23.7670     9.8200     9.4150    11.0540   -25.9950 
  207.7500   362.2420     2.4360    52.4850    23.7080     8.7430     8.2260     9.7500   -25.9400 
  207.8750   352.5360     2.4300    43.2710    23.4750    10.1560     8.2160     9.5730   -25.9270 
  208.0000   330.1660     2.4420    39.7880    23.3380    12.8910     8.8340    10.1150   -25.9560 
  208.1250   314.1740     2.4460    42.4620    23.3310    13.3570     9.4700    10.8460   -26.0760 
  208.2500   316.3540     2.4390    47.2990    23.4360    11.6320     9.5860    11.1390   -26.2270 
  208.3750   335.0280     2.4310    54.3430    23.6720     9.6360     9.0700    10.7850   -26.4050 
  208.5000   360.1350     2.4220    61.2830    23.9280     8.5320     8.1690     9.9850   -26.5840 
  208.6250   379.5060     2.4040    63.7620    24.1180     7.9010     7.3110     9.1560   -26.7680 
  208.7500   388.3760     2.3840    62.8480    24.2150     7.4350     6.7810     8.6050   -27.0080 
  208.8750   387.0680     2.3790    64.1170    24.2530     7.3960     6.6630     8.4260   -27.3160 
  209.0000   379.9390     2.4010    73.5970    24.2000     7.8590     6.9260     8.5890   -27.7060 
  209.1250   374.3100     2.4370    86.9810    24.1080     8.9330     7.4830     9.0010   -28.1270 
  209.2500   373.7310     2.4620    96.1040    24.1190    10.2010     8.1010     9.4400   -28.5690 
  209.3750   376.6020     2.4640   100.1280    24.1570    11.1100     8.5880     9.7370   -29.0440 
  209.5000   380.1200     2.4500   101.0600    24.1910    11.4540     8.8110     9.7940   -29.5420 
  209.6250   383.4080     2.4330   102.5120    24.2320    11.3590     8.7660     9.6370   -30.1000 
  209.7500   386.5640     2.4230   103.2920    24.2500    11.1510     8.6810     9.4630   -30.6520 
  209.8750   388.2260     2.4230   102.3640    24.2460    10.9510     8.7430     9.4170   -31.1770 
