~V
VERS. 2.00: Ver 2.00
~W
STRT.M 64.0000:
STOP.M 264.0000:
STEP.M 0.1250:
NULL. -999.2500:
UWI. DF3031:
~C
DEPT.M :
DEN.GM/CC :
AC.US/MT :
GR.API :
CALI.CM :
RXO.OHMM :
RI. :
RML.OHMM :
SP.MV :
~A
# ...
   74.0000  -999.2500  -999.2500    71.0310    28.9270     7.9730     6.1340     7.9840   -29.4080 
   74.1250  -999.2500  -999.2500    73.2020    29.1940     7.8960     6.2180     8.1900   -29.9690 
   74.2500  -999.2500  -999.2500    73.7370    29.4640     7.7890     6.2840     8.2750   -30.4550 
   74.3750  -999.2500  -999.2500    72.4970    29.7400     7.7140     6.3050     8.2390   -30.8340 
   74.5000  -999.2500  -999.2500    71.5190    30.0020     7.6920     6.2820     8.1100   -31.0840 
   74.6250  -999.2500  -999.2500    70.3240    30.2040     7.7090     6.2190     7.9080   -31.1690 
   74.7500  -999.2500  -999.2500    69.9550    30.4240     7.7210     6.1390     7.6820   -31.1060 
   74.8750  -999.2500  -999.2500    72.4980    30.7730     7.7010     6.0740     7.5050   -30.8760 
   75.0000  -999.2500  -999.2500    74.9090    31.2420     7.6530     6.0700     7.4710   -30.4590 
   75.1250  -999.2500  -999.2500    72.8780    31.6470     7.6580     6.2030     7.7240   -29.8130 
   75.2500  -999.2500  -999.2500    71.5940    31.8490     7.8320     6.4860     8.2520   -28.9620 
   75.3750  -999.2500  -999.2500    74.8300    31.8650     8.2390     6.8810     8.9500   -27.9370 
   75.5000  -999.2500  -999.2500    81.0260    31.8890     8.8390     7.2710     9.5740   -26.7620 
   75.6250  -999.2500  -999.2500    84.8740    32.2380     9.3260     7.4220     9.7030   -25.4970 
   75.7500  -999.2500  -999.2500    88.6480    32.8050     9.1700     7.2240     9.2130   -24.2380 
   75.8750  -999.2500  -999.2500    93.4630    33.2620     8.1410     6.7120     8.2330   -23.0510 
   76.0000  -999.2500  -999.2500    97.3270    33.3770     6.6600     6.0480     7.0950   -21.9970 
   76.1250  -999.2500  -999.2500    99.2510    33.1710     5.5810     5.4420     6.1820   -21.1600 
   76.2500  -999.2500  -999.2500    98.1370    32.7870     5.1260     5.0020     5.6130   -20.5450 
   76.3750  -999.2500  -999.2500    95.7080    32.2570     5.0670     4.7440     5.3660   -20.1610 
   76.5000  -999.2500  -999.2500    94.8560    31.7110     5.1220     4.6420     5.3460   -20.0350 
   76.6250  -999.2500  -999.2500    96.0020    31.2800     5.1520     4.6630     5.4680   -20.1680 
   76.7500  -999.2500  -999.2500    96.3300    30.8010     5.1850     4.7610     5.6690   -20.4670 
   76.8750  -999.2500  -999.2500    95.2840    30.1440     5.2800     4.9430     5.9860   -20.9130 
   77.0000  -999.2500  -999.2500    93.7770    29.4510     5.4660     5.2320     6.4850   -21.4660 
   77.1250  -999.2500  -999.2500    89.6970    29.0540     5.7800     5.6670     7.2370   -22.0980 
   77.2500  -999.2500  -999.2500    81.8600    28.9790     6.2270     6.2050     8.1420   -22.7580 
   77.3750  -999.2500  -999.2500    72.5210    29.0870     6.7440     6.7680     9.0400   -23.4180 
   77.5000  -999.2500  -999.2500    65.9020    29.1950     7.1730     7.2370     9.7160   -24.0350 
   77.6250  -999.2500  -999.2500    66.3660    29.0620     7.3430     7.4520     9.9320   -24.5710 
   77.7500  -999.2500  -999.2500    72.0900    28.6750     7.3140     7.4270     9.7740   -25.0360 
   77.8750  -999.2500  -999.2500    77.1680    28.2360     7.1790     7.2430     9.4310   -25.4320 
   78.0000  -999.2500  -999.2500    77.5980    27.9700     7.0320     7.0310     9.1300   -25.7550 
   78.1250  -999.2500  -999.2500    74.0460    27.9220     7.0030     6.9170     9.0720   -26.0150 
   78.2500  -999.2500  -999.2500    70.1440    27.8780     7.1340     6.9210     9.2390   -26.2460 
   78.3750  -999.2500  -999.2500    67.6700    27.7710     7.3860     7.0130     9.5450   -26.4540 
   78.5000  -999.2500  -999.2500    67.5600    27.6590     7.6310     7.1410     9.8760   -26.6450 
   78.6250  -999.2500  -999.2500    71.3010    27.6160     7.6680     7.2490    10.1200   -26.8160 
   78.7500  -999.2500  -999.2500    76.6190    27.6160     7.5360     7.3190    10.2630   -26.9710 
   78.8750  -999.2500  -999.2500    79.0310    27.6200     7.4030     7.3610    10.3460   -27.0980 
   79.0000  -999.2500  -999.2500    75.4240    27.6200     7.3900     7.3940    10.4200   -27.1970 
   79.1250  -999.2500  -999.2500    69.9590    27.6220     7.4330     7.4380    10.5210   -27.2600 
   79.2500  -999.2500  -999.2500    68.5730    27.6240     7.4000     7.4990    10.6420   -27.2850 
   79.3750  -999.2500  -999.2500    68.5480    27.6220     7.2960     7.5780    10.7710   -27.2830 
   79.5000  -999.2500  -999.2500    67.0540    27.6220     7.2280     7.6720    10.8930   -27.2670 
   79.6250  -999.2500  -999.2500    66.3420    27.6920     7.3120     7.7640    10.9800   -27.2520 
   79.7500  -999.2500  -999.2500    68.1930    27.9070     7.5000     7.8280    11.0050   -27.2490 
   79.8750  -999.2500  -999.2500    69.5850    28.2050     7.6530     7.8390    10.9300   -27.2450 
   80.0000  -999.2500  -999.2500    69.1660    28.3520     7.6270     7.7750    10.7270   -27.2490 
   80.1250  -999.2500  -999.2500    67.9040    28.0760     7.4100     7.6230    10.3910   -27.2610 
   80.2500  -999.2500  -999.2500    66.0890    27.5030     7.2190     7.4300    10.0210   -27.2820 
   80.3750  -999.2500  -999.2500    65.4190    26.8890     7.1780     7.2430     9.7060   -27.3000 
   80.5000  -999.2500  -999.2500    66.4390    26.4620     7.2620     7.1020     9.5120   -27.3180 
   80.6250  -999.2500  -999.2500    68.7470    26.3160     7.3630     7.0380     9.4720   -27.3300 
   80.7500  -999.2500  -999.2500    68.9860    26.3030     7.4310     7.0290     9.5230   -27.3310 
   80.8750  -999.2500  -999.2500    67.9280    26.3120     7.4630     7.0500     9.6070   -27.3150 
   81.0000  -999.2500  -999.2500    67.8380    26.3110     7.4480     7.0760     9.6780   -27.2850 
   81.1250  -999.2500  -999.2500    65.7140    26.3110     7.3930     7.0930     9.7150   -27.2470 
   81.2500  -999.2500  -999.2500    61.2770    26.3110     7.3410     7.1050     9.7320   -27.2010 
   81.3750  -999.2500  -999.2500    58.0400    26.3110     7.3100     7.1200     9.7430   -27.1610 
   81.5000  -999.2500  -999.2500    59.9520    26.3110     7.2970     7.1430     9.7650   -27.1320 
   81.6250  -999.2500  -999.2500    65.1440    26.3110     7.3160     7.1780     9.8140   -27.1150 
   81.7500  -999.2500  -999.2500    66.4650    26.3110     7.3580     7.2180     9.8830   -27.1080 
   81.8750  -999.2500  -999.2500    63.8140    26.3110     7.3750     7.2560     9.9530   -27.1140 
   82.0000  -999.2500  -999.2500    62.5720    26.3120     7.3160     7.2870    10.0080   -27.1280 
   82.1250  -999.2500  -999.2500    65.9300    26.3140     7.1800     7.3100    10.0370   -27.1360 
   82.2500  -999.2500  -999.2500    68.6570    26.3140     7.0570     7.3280    10.0440   -27.1370 
   82.3750  -999.2500  -999.2500    68.2820    26.3130     7.0180     7.3380    10.0270   -27.1240 
   82.5000  -999.2500  -999.2500    67.0780    26.3110     7.0920     7.3320     9.9750   -27.0880 
   82.6250  -999.2500  -999.2500    68.3360    26.3110     7.2560     7.2960     9.8730   -27.0110 
   82.7500  -999.2500  -999.2500    70.6590    26.3100     7.3820     7.2330     9.7380   -26.8940 
   82.8750  -999.2500  -999.2500    73.3950    26.3170     7.3850     7.1580     9.6010   -26.7490 
   83.0000  -999.2500  -999.2500    73.8380    26.3230     7.2970     7.0900     9.5050   -26.5720 
   83.1250  -999.2500  -999.2500    70.2570    26.2210     7.2590     7.0570     9.4900   -26.3420 
   83.2500  -999.2500  -999.2500    68.3890    25.9900     7.3050     7.0510     9.5210   -26.0610 
   83.3750  -999.2500  -999.2500    69.0670    25.7440     7.3670     7.0440     9.5370   -25.7330 
   83.5000  -999.2500  -999.2500    70.3150    25.6120     7.3710     7.0060     9.4790   -25.3560 
   83.6250  -999.2500  -999.2500    72.9460    25.6220     7.2610     6.9140     9.3120   -24.9520 
   83.7500  -999.2500  -999.2500    76.5610    25.6800     7.0990     6.7930     9.1020   -24.5510 
   83.8750  -999.2500  -999.2500    78.6960    25.7180     7.0290     6.6810     8.9330   -24.1920 
