~V
VERS. 2.00: Ver 2.00
~W
STRT.M 67.0000:
STOP.M 279.0000:
STEP.M 0.1250:
NULL. -999.2500:
UWI. DF3057:
~C
DEPT.M :
GR.API :
CALI.CM :
RXO.OHMM :
RI. :
RML.OHMM :
DEN.GM/CC :
SP.MV :
~A
# ...
  202.0000    90.3120    25.1350    10.1710    10.3890    17.2780     2.4120   -28.9440 
  202.1250    90.8740    25.0150    11.2580    10.6280    17.9930     2.4040   -29.2330 
  202.2500    88.7260    24.7060    13.1990    10.9810    18.8060     2.4090   -29.4200 
  202.3750    91.5650    24.4800    14.5910    11.6150    19.9080     2.4220   -29.5210 
  202.5000    93.7010    24.4340    14.8160    12.0640    20.5070     2.4290   -29.5910 
  202.6250    90.0130    24.2740    15.9200    12.4380    20.9050     2.4140   -29.6780 
  202.7500    83.1310    23.7020    17.2510    12.9200    21.5690     2.3880   -29.7650 
  202.8750    77.2810    23.1670    18.0040    13.6440    22.7800     2.3670   -29.7510 
  203.0000    75.8870    23.2810    18.2310    14.7170    24.6740     2.3640   -29.5240 
  203.1250    78.3980    23.6270    19.5820    16.0870    26.9880     2.3860   -29.0590 
  203.2500    79.5030    23.9400    21.7130    17.4470    29.1140     2.4230   -28.4930 
  203.3750    76.6220    24.2320    24.4030    18.4810    30.4850     2.4650   -27.9180 
  203.5000    72.6150    24.4930    27.8410    18.8790    30.6290     2.4990   -27.3400 
  203.6250    72.4260    24.7540    30.9110    18.2650    29.0770     2.5240   -26.7320 
  203.7500    78.1320    24.7820    30.2170    17.0010    26.5490     2.5480   -26.0440 
  203.8750    86.2860    24.6790    23.3880    15.5060    23.7880     2.5660   -25.3010 
  204.0000    91.1720    24.2680    15.3830    14.1130    21.3760     2.5710   -24.5460 
  204.1250    92.3090    24.2290    12.3070    13.1160    19.7930     2.5620   -23.8920 
  204.2500    95.1060    24.4020    12.9580    12.5070    18.9050     2.5500   -23.3750 
  204.3750    98.7020    24.9040    13.0520    12.1950    18.4840     2.5410   -22.9680 
  204.5000    97.7450    25.2110    13.6830    12.0950    18.3200     2.5320   -22.6370 
  204.6250    92.7020    25.2280    13.0950    12.0830    18.1320     2.5270   -22.2710 
  204.7500    91.0710    25.3880    11.9060    11.9340    17.6230     2.5290   -21.8810 
  204.8750    93.5090    25.3750    11.0070    11.5220    16.6930     2.5350   -21.5450 
  205.0000    94.8010    25.3530    10.8540    10.8990    15.4880     2.5390   -21.3200 
  205.1250    91.2100    25.2770    10.7110    10.1150    14.1160     2.5320   -21.2020 
  205.2500    84.1530    24.9480    10.3780     9.2630    12.7150     2.5130   -21.0970 
  205.3750    74.3530    24.6140     9.3500     8.4440    11.4070     2.4900   -20.9600 
  205.5000    62.6940    24.4950     7.8790     7.7330    10.2870     2.4730   -20.7460 
  205.6250    53.7780    24.5200     6.9300     7.2060     9.4760     2.4640   -20.5480 
  205.7500    50.4320    24.5410     6.7860     6.8700     8.9590     2.4590   -20.4380 
  205.8750    51.3080    24.4810     6.8130     6.7100     8.7130     2.4580   -20.4150 
  206.0000    51.9970    24.2820     6.6430     6.6930     8.6710     2.4600   -20.4720 
  206.1250    53.1420    24.4820     6.4060     6.8020     8.7810     2.4630   -20.5360 
  206.2500    57.7300    24.5270     6.3780     6.9580     8.9270     2.4680   -20.5690 
  206.3750    66.4090    24.4810     6.5410     7.1040     9.0450     2.4750   -20.5840 
  206.5000    76.5930    24.2560     6.8020     7.2210     9.1210     2.4780   -20.6790 
  206.6250    83.3250    24.2580     6.9800     7.2970     9.1480     2.4710   -20.9320 
  206.7500    84.3670    24.2760     7.0010     7.3210     9.1180     2.4550   -21.2550 
  206.8750    83.4730    24.3220     6.8900     7.2840     9.0210     2.4360   -21.5330 
  207.0000    85.1000    24.5170     6.6690     7.1970     8.8650     2.4270   -21.7040 
  207.1250    88.0390    24.7540     6.4860     7.0570     8.6370     2.4430   -21.8030 
  207.2500    86.1650    24.8280     6.4440     6.8910     8.3880     2.4660   -21.9360 
  207.3750    80.2440    25.0130     6.4440     6.7670     8.2440     2.4730   -22.1730 
  207.5000    74.9310    25.0630     6.3410     6.7330     8.2940     2.4560   -22.4910 
  207.6250    74.0570    25.1530     6.1960     6.8330     8.5790     2.4300   -22.8170 
  207.7500    78.3780    25.1740     6.1890     7.0560     9.0440     2.4190   -23.0850 
  207.8750    84.8510    25.0320     6.4130     7.3870     9.6430     2.4240   -23.3220 
  208.0000    87.4940    24.8170     6.9480     7.7600    10.2480     2.4360   -23.5890 
  208.1250    84.7000    24.6450     8.5970     8.0600    10.6620     2.4410   -23.9390 
  208.2500    80.5900    24.6560    10.1250     8.1990    10.7880     2.4350   -24.3600 
  208.3750    78.1830    24.7400     9.7610     8.1260    10.5680     2.4290   -24.7810 
  208.5000    77.1350    24.5850     8.0660     7.8910    10.1200     2.4310   -25.1440 
  208.6250    77.2790    24.4910     7.5330     7.7020     9.8150     2.4360   -25.3590 
  208.7500    77.9350    24.4650     7.9310     7.6980     9.8580     2.4320   -25.5380 
  208.8750    78.4280    24.4880     8.3660     7.9570    10.3540     2.4190   -25.7850 
  209.0000    78.4490    24.5150     8.4900     8.5570    11.4020     2.4090   -26.1140 
  209.1250    77.8730    24.6600     8.7640     9.6810    13.1730     2.4180   -26.4890 
  209.2500    76.5540    24.7990    10.6820    11.2610    15.5010     2.4340   -26.8160 
  209.3750    75.3310    24.8590    14.5630    13.3000    18.3360     2.4390   -27.0640 
  209.5000    74.2660    25.0620    18.3280    15.7730    21.6320     2.4290   -27.2490 
  209.6250    73.1590    25.1000    18.0010    18.6550    25.3120     2.4170   -27.4940 
  209.7500    70.1950    25.1480    17.7040    21.7780    29.1520     2.4180   -27.8340 
  209.8750    65.2830    25.2080    21.9670    25.0540    33.0700     2.4370   -28.2380 
  210.0000    62.8070    25.1260    29.1760    28.4100    37.0230     2.4680   -28.6030 
  210.1250    65.5440    25.1170    33.9120    31.8010    41.1180     2.4850   -28.8530 
  210.2500    68.7300    25.1500    34.5400    35.5500    45.7770     2.4710   -29.0600 
  210.3750    66.8590    25.2560    33.6990    40.0700    51.5080     2.4330   -29.2910 
  210.5000    62.6540    25.4000    33.5410    45.6700    58.7440     2.3870   -29.6220 
  210.6250    63.4600    25.4130    36.4230    53.0010    68.1690     2.3440   -30.0420 
  210.7500    67.2390    25.4290    44.0460    61.7130    79.1910     2.3080   -30.4360 
  210.8750    68.7060    25.5020    59.3590    71.1550    90.8810     2.2800   -30.7060 
  211.0000    64.6310    25.5340    76.4430    80.1320   101.6450     2.2590   -30.8900 
  211.1250    58.9220    25.4340    85.0530    86.6460   108.7240     2.2460   -31.0860 
  211.2500    57.3420    25.4200    85.7820    89.8860   111.3210     2.2410   -31.3230 
  211.3750    60.9970    25.4230    83.8370    89.9650   109.9350     2.2400   -31.6160 
  211.5000    67.5780    25.4770    77.2110    88.1200   106.3840     2.2390   -31.8970 
  211.6250    71.3260    25.3890    66.8840    85.7830   102.7290     2.2350   -32.1010 
  211.7500    70.9210    25.2710    59.3420    84.2310   100.3240     2.2280   -32.2140 
  211.8750    69.6740    25.3310    59.9670    83.9560    99.4330     2.2210   -32.2900 
  212.0000    70.7380    25.3850    63.0970    84.6520    99.4370     2.2170   -32.3970 
  212.1250    70.7430    25.3850    64.4610    85.7080    99.7450     2.2190   -32.5690 
  212.2500    66.0160    25.2530    65.0390    86.6550    99.7980     2.2240   -32.7940 
  212.3750    61.8750    25.3150    64.8970    87.2600    99.2880     2.2240   -32.9860 
  212.5000    63.7350    25.3950    63.9500    87.2060    98.0370     2.2200   -33.1110 
  212.6250    68.1500    25.4020    62.4330    86.4560    96.2230     2.2140   -33.1520 
  212.7500    68.1480    25.2630    61.6810    85.5380    94.4780     2.2120   -33.2450 
  212.8750    64.2320    25.1370    62.6450    84.9860    93.3930     2.2170   -33.4390 
  213.0000    60.5350    25.1040    64.5920    85.1750    93.2210     2.2300   -33.7150 
  213.1250    60.0110    25.0780    64.6980    86.3660    94.2500     2.2420   -33.9860 
