~V
VERS. 2.00: Ver 2.00
~W
STRT.M 60.0000:
STOP.M 268.0000:
STEP.M 0.1250:
NULL. -999.2500:
UWI. DF3035:
~C
DEPT.M :
GR.API :
CALI.CM :
RXO.OHMM :
RI. :
RML.OHMM :
SP.MV :
DEN.GM/CC :
AC.US/MT :
~A
# ...
  110.0000    72.5350    24.1170     8.4770     6.9570     9.2300   -27.0150     2.2550   370.9620 
  110.1250    68.6720    24.0840     8.5280     7.1040     9.3890   -27.1320     2.2620   368.4820 
  110.2500    66.4990    24.0310     8.5270     7.2270     9.5010   -27.2710     2.2640   366.0320 
  110.3750    67.7840    23.9800     8.4970     7.3190     9.5680   -27.4270     2.2640   364.6160 
  110.5000    69.8300    23.9450     8.4630     7.3800     9.5980   -27.6050     2.2700   364.9590 
  110.6250    68.6910    23.9460     8.4970     7.4020     9.5920   -27.8240     2.2820   367.6470 
  110.7500    65.2560    23.9740     8.6730     7.3870     9.5460   -28.0700     2.2870   372.0070 
  110.8750    64.2080    24.0250     8.9490     7.3340     9.4510   -28.3160     2.2780   377.4200 
  111.0000    66.9200    24.0810     9.1430     7.2440     9.3040   -28.5480     2.2650   383.1740 
  111.1250    69.6750    24.1150     9.0770     7.1280     9.1140   -28.7140     2.2640   388.0840 
  111.2500    70.8760    24.1350     8.8620     7.0080     8.9230   -28.8220     2.2720   391.1790 
  111.3750    70.6020    24.1570     8.6270     6.9030     8.7710   -28.8810     2.2760   392.1230 
  111.5000    71.1280    24.1720     8.4560     6.8290     8.6890   -28.8730     2.2650   391.4030 
  111.6250    72.0890    24.1750     8.4930     6.8010     8.6930   -28.7990     2.2430   390.1110 
  111.7500    70.7690    24.1830     8.7360     6.8040     8.7450   -28.7040     2.2230   389.6210 
  111.8750    68.5030    24.1220     8.9420     6.8220     8.8120   -28.5990     2.2110   390.4090 
  112.0000    69.2980    23.9690     8.8110     6.8420     8.8630   -28.4970     2.2060   391.6190 
  112.1250    73.8470    23.8950     8.4350     6.8470     8.8750   -28.4160     2.2080   391.1740 
  112.2500    75.5820    24.0060     8.3070     6.8390     8.8580   -28.3560     2.2170   388.7380 
  112.3750    74.1730    24.1910     8.5220     6.8190     8.8180   -28.3030     2.2250   385.7120 
  112.5000    73.6170    24.2810     8.7890     6.7850     8.7500   -28.2490     2.2290   384.1850 
  112.6250    73.2360    24.2550     8.8270     6.7420     8.6640   -28.1680     2.2310   385.6760 
  112.7500    70.9970    24.2130     8.7570     6.7200     8.6190   -28.0510     2.2350   388.8170 
  112.8750    69.1920    24.1720     8.6210     6.7570     8.6850   -27.9010     2.2410   392.0860 
  113.0000    69.5920    24.1560     8.3180     6.8780     8.9030   -27.7370     2.2440   394.7830 
  113.1250    71.0610    24.2370     7.9260     7.0830     9.2640   -27.5840     2.2420   397.4500 
  113.2500    73.1290    24.3730     7.7770     7.3030     9.6350   -27.4550     2.2350   400.6990 
  113.3750    75.1610    24.4270     7.9440     7.4620     9.8700   -27.3870     2.2280   404.1900 
  113.5000    74.6700    24.3360     8.1900     7.4930     9.8500   -27.3910     2.2250   406.8750 
  113.6250    70.8000    24.2250     8.2480     7.3610     9.5440   -27.4620     2.2260   407.0770 
  113.7500    68.5690    24.1890     8.1810     7.1480     9.1350   -27.5750     2.2290   404.4540 
  113.8750    69.0300    24.1570     8.1220     6.9290     8.7700   -27.7290     2.2280   399.2900 
  114.0000    71.2130    24.1010     8.1180     6.7600     8.5360   -27.8910     2.2180   392.7030 
  114.1250    74.2900    24.0770     8.1150     6.6760     8.4600   -28.0360     2.2040   386.6030 
  114.2500    74.6100    24.0770     8.0070     6.6450     8.4540   -28.1450     2.2000   382.3200 
  114.3750    72.0310    24.0580     7.7730     6.6390     8.4550   -28.1900     2.2060   380.0100 
  114.5000    70.5270    24.0180     7.5130     6.6370     8.4360   -28.1850     2.2140   379.1220 
  114.6250    73.2800    23.9810     7.4060     6.6370     8.4080   -28.1400     2.2120   379.3080 
  114.7500    75.3250    23.9370     7.4550     6.6380     8.3840   -28.0530     2.2010   380.1930 
  114.8750    74.8890    23.9020     7.5700     6.6350     8.3560   -27.9330     2.1950   381.3000 
  115.0000    74.1680    23.9070     7.6850     6.6160     8.3090   -27.7800     2.1960   381.8950 
  115.1250    73.8730    23.9420     7.8220     6.5660     8.2260   -27.5780     2.2000   381.5460 
  115.2500    73.3210    23.9940     7.9460     6.4910     8.1170   -27.3460     2.1990   380.9970 
  115.3750    72.7520    24.0970     7.9420     6.3970     7.9970   -27.0630     2.1950   380.9140 
  115.5000    73.0540    24.2590     7.7680     6.2880     7.8680   -26.7160     2.1940   381.4240 
  115.6250    76.9600    24.4050     7.6120     6.1480     7.6920   -26.3120     2.1970   382.2620 
  115.7500    82.7390    24.4720     7.6270     5.9640     7.4230   -25.8820     2.2080   383.2290 
  115.8750    89.0380    24.4590     7.6230     5.7200     7.0300   -25.4320     2.2280   384.4120 
  116.0000    95.2830    24.4070     7.2640     5.4290     6.5380   -25.0000     2.2490   385.7950 
  116.1250   101.4290    24.4000     6.5510     5.1440     6.0670   -24.6520     2.2630   386.6430 
  116.2500   103.9340    24.4500     5.9740     4.9500     5.7750   -24.4150     2.2720   385.6370 
  116.3750   100.2930    24.4990     5.7860     4.9150     5.7780   -24.3600     2.2800   381.4950 
  116.5000    92.2860    24.5200     6.0480     5.0870     6.1360   -24.4920     2.2880   373.6920 
  116.6250    84.1540    24.5110     6.8210     5.5050     6.8810   -24.7840     2.2890   362.9190 
  116.7500    78.1950    24.4470     7.7850     6.0670     7.8080   -25.1450     2.2800   352.5340 
  116.8750    75.3550    24.3250     8.4920     6.6330     8.6490   -25.4960     2.2600   345.8940 
  117.0000    75.4940    24.2260     8.6880     7.0120     9.0860   -25.7600     2.2340   345.4200 
  117.1250    79.2660    24.2160     8.5020     6.9850     8.8170   -25.8240     2.2170   351.6730 
  117.2500    85.9370    24.2340     8.1540     6.6200     8.0600   -25.6470     2.2100   360.3730 
  117.3750    94.2920    24.2430     7.5100     6.0570     7.1070   -25.1910     2.2090   368.2330 
  117.5000   101.4370    24.2430     6.5280     5.4680     6.2290   -24.4920     2.2080   373.4640 
  117.6250   107.2210    24.2640     5.6000     4.9980     5.6250   -23.5990     2.2230   375.5780 
  117.7500   113.8310    24.3230     5.1220     4.6830     5.2880   -22.6710     2.2590   375.8070 
  117.8750   118.7490    24.3890     5.0520     4.5230     5.1890   -21.8160     2.2980   374.7930 
  118.0000   117.3200    24.4040     5.1150     4.4990     5.2760   -21.1310     2.3160   373.2340 
  118.1250   109.2720    24.3560     5.2000     4.5970     5.5050   -20.7260     2.3130   372.1240 
  118.2500   102.5280    24.3070     5.3910     4.7710     5.8160   -20.5780     2.3160   371.8460 
  118.3750    98.7940    24.2410     5.6930     5.0170     6.2170   -20.6810     2.3260   371.9890 
  118.5000    96.7560    24.1500     6.0090     5.3360     6.7290   -20.9820     2.3240   371.8060 
  118.6250    96.7910    24.1320     6.3100     5.7150     7.3300   -21.4120     2.3010   371.1950 
  118.7500    97.5980    24.2120     6.7180     6.0670     7.8620   -21.8400     2.2740   371.4110 
  118.8750    96.9620    24.3210     7.1970     6.2840     8.1380   -22.2040     2.2550   373.3470 
  119.0000    97.5190    24.3950     7.3830     6.2760     8.0090   -22.4380     2.2470   376.4750 
  119.1250   102.4380    24.4700     6.8290     5.9940     7.4360   -22.4810     2.2470   376.7700 
  119.2500   106.0870    24.5890     5.9360     5.5750     6.6940   -22.4040     2.2540   372.8980 
  119.3750   103.4740    24.7080     5.2480     5.1380     6.0040   -22.2340     2.2690   368.6950 
  119.5000    98.6130    24.7590     4.9870     4.7770     5.5050   -22.0150     2.2900   367.6650 
  119.6250    97.7590    24.7320     4.9800     4.5600     5.2790   -21.8180     2.3130   368.9290 
  119.7500    97.3680    24.7200     4.9890     4.4720     5.2590   -21.6840     2.3280   369.8540 
  119.8750    97.7010    24.7350     5.0320     4.5000     5.4010   -21.6210     2.3330   370.1090 
