~V
VERS. 2.00: Ver 2.00
~W
STRT.M 115.0000:
STOP.M 288.0000:
STEP.M 0.1250:
NULL. -999.2500:
UWI. DF3049:
~C
DEPT.M :
GR.API :
CALI.CM :
RXO.OHMM :
RI. :
RML.OHMM :
SP.MV :
DEN.GM/CC :
AC.US/MT :
~A
# ...
  235.0000    86.9730    24.0880    30.3800    36.9830    40.4100   -20.4900     2.3330   378.1260 
  235.1250    83.4670    23.8090    28.8300    39.2380    42.7430   -20.6030     2.3190   381.1870 
  235.2500    76.8900    23.4950    34.9720    46.7550    50.4050   -20.7520     2.2970   385.2980 
  235.3750    71.8870    23.2980    51.8620    60.0710    63.8850   -20.9150     2.2780   388.9510 
  235.5000    68.1880    23.2120    85.8380    78.9580    83.6980   -21.0750     2.2690   390.8880 
  235.6250    65.5550    23.1840   134.8100    99.7560   107.1490   -21.2690     2.2740   390.6440 
  235.7500    65.5480    23.1720   165.8930   112.7590   122.6570   -21.4720     2.2880   388.6000 
  235.8750    66.1290    23.1670   156.2810   113.0920   122.1210   -21.6700     2.2980   386.2700 
  236.0000    67.4680    23.1660   118.9070   103.3960   109.6490   -21.8560     2.3030   384.6800 
  236.1250    70.4430    23.1660    82.3400    89.9800    94.2780   -22.0190     2.3040   384.3410 
  236.2500    73.7270    23.1680    66.5400    77.8510    81.5260   -22.1460     2.3050   385.2040 
  236.3750    75.5500    23.1900    61.8740    68.0800    71.5000   -22.2450     2.3080   386.5350 
  236.5000    76.2950    23.2690    61.3710    60.4700    63.6700   -22.3500     2.3120   387.9750 
  236.6250    76.5680    23.4420    57.4460    54.9630    57.9110   -22.4270     2.3160   389.3410 
  236.7500    76.2810    23.7190    47.2380    52.3360    55.0690   -22.5030     2.3120   390.2700 
  236.8750    77.7070    23.9650    38.8080    52.7820    55.4030   -22.5750     2.2970   390.1920 
  237.0000    80.6800    24.0860    38.2610    56.8890    59.5030   -22.6680     2.2760   388.1300 
  237.1250    82.4570    24.0990    48.7740    65.0750    67.8240   -22.7900     2.2560   382.6200 
  237.2500    78.8550    23.9890    69.7190    77.4720    80.7950   -22.9150     2.2550   371.6950 
  237.3750    73.6990    23.8190    90.7220    91.1970    95.6510   -23.0440     2.2800   357.7330 
  237.5000    69.9750    23.6670   101.2580   102.8390   108.5180   -23.1800     2.3230   345.6450 
  237.6250    68.6380    23.6270    99.8890   109.3760   115.4810   -23.3110     2.3610   340.8760 
  237.7500    69.6610    23.6380   104.7000   109.0660   114.4160   -23.4180     2.3770   345.3040 
  237.8750    71.5360    23.6440   108.1610   104.6120   108.9070   -23.5200     2.3790   351.4920 
  238.0000    74.8670    23.6440   105.3840    98.1700   101.6280   -23.5830     2.3770   354.0330 
  238.1250    78.0960    23.6440    97.6680    91.4620    94.4130   -23.6100     2.3750   352.0950 
  238.2500    78.0510    23.6470    87.6900    85.9680    88.6810   -23.6190     2.3740   347.1520 
  238.3750    73.4480    23.6700    77.1640    82.4640    85.0780   -23.6240     2.3730   341.8210 
  238.5000    66.9040    23.7280    74.1900    81.4770    84.0870   -23.6250     2.3670   339.6410 
  238.6250    64.2870    23.7950    78.3200    83.1850    85.8570   -23.6120     2.3510   343.3870 
  238.7500    66.3710    23.8220    81.7920    87.8370    90.6050   -23.5980     2.3260   349.6790 
  238.8750    67.7040    23.8240    86.1230    94.4240    97.2750   -23.5570     2.3060   350.0920 
  239.0000    65.1410    23.8200    96.2800   101.8200   104.6850   -23.5090     2.3040   341.4850 
  239.1250    60.9870    23.8180   108.5800   108.4870   111.1910   -23.4440     2.3180   327.1320 
  239.2500    60.3590    23.8180   116.3600   112.5490   114.8140   -23.3600     2.3370   315.1440 
  239.3750    61.4980    23.8180   118.4750   113.6570   115.3290   -23.2580     2.3490   313.7090 
  239.5000    65.7000    23.8180   112.5610   111.9250   112.9780   -23.1130     2.3510   324.6040 
  239.6250    71.6350    23.8080   100.7390   108.1060   108.6220   -22.9680     2.3480   339.3400 
  239.7500    72.1660    23.7790    91.7800   103.2860   103.4560   -22.8110     2.3490   341.0200 
  239.8750    66.8750    23.7340    88.0800    98.6330    98.6440   -22.6400     2.3600   328.4790 
  240.0000    62.5620    23.6960    84.3430    94.7970    94.7960   -22.4660     2.3780   313.0600 
  240.1250    63.2520    23.6570    79.5420    92.1880    92.2760   -22.2560     2.3920   306.8000 
  240.2500    64.6980    23.6730    76.2850    90.8880    91.1390   -22.0150     2.3930   313.9750 
  240.3750    64.9320    23.7030    74.8880    90.1960    90.6390   -21.7240     2.3810   327.4580 
  240.5000    65.0280    23.7180    76.3970    89.8330    90.4660   -21.3810     2.3670   340.4560 
  240.6250    64.1650    23.7200    77.3980    89.9170    90.7240   -21.0250     2.3640   346.1190 
  240.7500    64.3120    23.7200    71.0770    91.0250    92.0360   -20.6390     2.3740   341.1570 
  240.8750    65.5340    23.7210    61.7350    93.3470    94.6880   -20.2310     2.3840   334.0280 
  241.0000    66.2870    23.7220    64.0510    96.6490    98.5520   -19.8130     2.3830   331.8690 
  241.1250    67.5090    23.7250    85.0450    99.9250   102.5720   -19.4130     2.3670   336.3490 
  241.2500    70.5730    23.7220   102.6460   101.1470   104.1890   -19.0320     2.3460   345.2240 
  241.3750    71.5470    23.7230   102.0530    99.2910   101.8740   -18.6780     2.3300   355.1150 
  241.5000    68.6360    23.7270    86.6920    94.1140    95.3910   -18.3790     2.3190   363.6000 
  241.6250    66.3750    23.7300    71.7510    86.3580    85.9800   -18.0700     2.3070   368.5570 
  241.7500    68.6650    23.7330    65.2510    77.9060    76.1920   -17.7820     2.2980   369.1440 
  241.8750    73.0600    23.7380    63.2020    70.9840    68.3780   -17.4930     2.2990   368.0200 
  242.0000    77.0810    23.7430    59.7980    66.6290    63.4290   -17.2080     2.3050   366.8080 
  242.1250    77.2330    23.7440    52.3050    64.9860    61.3610   -16.9400     2.3100   365.3220 
  242.2500    72.4100    23.7300    51.3310    65.6160    61.8060   -16.6800     2.3110   361.8970 
  242.3750    68.2970    23.7220    59.8710    66.3030    62.6940   -16.4530     2.3130   356.9710 
  242.5000    69.5340    23.7280    71.4430    64.6400    61.6050   -16.2140     2.3170   352.6690 
  242.6250    73.2160    23.7540    76.8430    59.0890    56.6800   -16.0050     2.3260   351.2920 
  242.7500    74.5060    23.8320    71.6500    50.5830    48.5270   -15.8200     2.3450   354.0580 
  242.8750    75.2530    23.9200    57.5680    42.7080    40.8720   -15.6680     2.3630   358.8080 
  243.0000    75.8060    23.9850    39.5020    37.4850    35.9000   -15.5490     2.3610   362.8140 
  243.1250    74.6880    24.0090    26.5940    35.8310    34.5680   -15.4560     2.3380   361.9520 
  243.2500    68.8340    24.0160    27.2430    38.9190    38.0010   -15.3990     2.3220   349.1950 
  243.3750    62.5430    24.0250    40.5210    46.4650    45.9970   -15.3660     2.3440   324.6110 
  243.5000    61.1070    24.0440    62.3760    58.2970    58.8410   -15.3540     2.4030   293.3280 
  243.6250    66.3860    24.0800    79.8870    72.7820    75.5390   -15.3460     2.4740   264.3350 
  243.7500    73.6700    24.1410    82.5900    85.8520    91.5850   -15.3080     2.5270   246.5670 
  243.8750    76.8850    24.1890    77.8180    94.9710   102.3700   -15.2650     2.5600   238.4950 
  244.0000    77.1220    24.2280    74.0160   101.6020   108.9060   -15.1890     2.5870   235.4890 
  244.1250    78.4350    24.2390    73.1370   109.5170   116.0580   -15.0810     2.6200   232.5090 
  244.2500    84.5380    24.2000    71.9830   121.9660   128.7080   -14.9180     2.6590   226.5190 
  244.3750    89.8660    24.1200    72.0880   134.7030   143.3300   -14.7220     2.6940   220.7140 
  244.5000    87.6020    24.0410    76.8410   136.4760   145.6750   -14.5180     2.7140   222.4630 
  244.6250    79.0040    23.9920    85.7720   115.7790   119.8960   -14.2910     2.7010   239.3650 
  244.7500    74.8150    23.9700    82.0480    78.2690    77.8620   -14.0670     2.6420   274.4350 
  244.8750    74.9300    23.9540    57.4970    46.2910    45.7290   -13.8330     2.5590   314.0280 
