~V
VERS. 2.00: Ver 2.00
~W
STRT.M 60.0000:
STOP.M 268.0000:
STEP.M 0.1250:
NULL. -999.2500:
UWI. DF3035:
~C
DEPT.M :
GR.API :
CALI.CM :
RXO.OHMM :
RI. :
RML.OHMM :
SP.MV :
DEN.GM/CC :
AC.US/MT :
~A
# ...
  150.0000    56.3480    24.9150    19.2580    17.0380    21.9140   -17.4760     2.6460   240.2150 
  150.1250    56.5540    24.9030    19.1810    17.1270    22.0620   -17.4090     2.6390   240.9790 
  150.2500    54.8740    24.8900    19.1940    17.2260    22.2300   -17.3610     2.6180   241.7670 
  150.3750    52.8730    24.8880    19.2510    17.3240    22.3990   -17.3420     2.5940   241.7970 
  150.5000    50.6530    24.8990    19.4440    17.4030    22.5370   -17.3610     2.5810   240.4230 
  150.6250    49.5910    24.8950    19.6480    17.4260    22.5720   -17.4160     2.5930   237.6660 
  150.7500    50.7780    24.8700    19.5660    17.3590    22.4560   -17.4970     2.6160   234.9660 
  150.8750    53.8280    24.8490    19.2740    17.1610    22.1360   -17.6360     2.6330   233.6760 
  151.0000    56.6910    24.8470    19.0700    16.8020    21.5810   -17.8090     2.6350   234.5490 
  151.1250    58.4150    24.8500    19.0840    16.2770    20.8040   -18.0130     2.6230   237.4840 
  151.2500    61.0780    24.8430    18.8100    15.6950    19.9650   -18.2430     2.6060   240.9680 
  151.3750    64.3880    24.8310    17.8400    15.1580    19.2170   -18.4590     2.5880   243.9980 
  151.5000    65.6150    24.8220    16.4610    14.7680    18.7040   -18.6330     2.5740   246.1750 
  151.6250    64.5260    24.8390    15.7410    14.6260    18.5640   -18.7730     2.5670   247.8640 
  151.7500    64.0660    24.8770    16.1230    14.6890    18.7130   -18.8680     2.5640   249.9180 
  151.8750    63.8690    24.8870    17.2090    14.8840    19.0150   -18.8800     2.5560   252.6750 
  152.0000    62.2680    24.8620    18.1740    15.0910    19.2740   -18.8380     2.5340   255.8510 
  152.1250    60.6050    24.8590    18.1410    15.1540    19.2560   -18.7350     2.5050   258.5190 
  152.2500    60.9750    24.8730    17.2600    15.0220    18.9460   -18.5630     2.4910   260.0200 
  152.3750    63.3510    24.8660    16.0430    14.7210    18.4330   -18.3530     2.4980   260.3240 
  152.5000    65.8120    24.8440    15.0150    14.3230    17.8490   -18.1380     2.5120   260.0500 
  152.6250    66.5060    24.8530    14.5120    13.8780    17.2640   -17.8990     2.5130   260.4010 
  152.7500    65.9380    24.8780    14.2800    13.3910    16.6360   -17.6510     2.5100   262.1870 
  152.8750    64.8640    24.8850    13.8560    12.8250    15.8920   -17.4260     2.5140   265.6170 
  153.0000    63.4670    24.8790    12.8970    12.1700    15.0150   -17.1990     2.5190   270.2590 
  153.1250    61.3150    24.8210    11.5850    11.4770    14.0970   -16.9860     2.5170   274.9020 
  153.2500    60.1920    24.6770    10.5560    10.8670    13.3290   -16.8040     2.5160   277.9550 
  153.3750    60.4700    24.4950    10.1720    10.4490    12.8700   -16.6340     2.5240   278.1910 
  153.5000    61.0760    24.4200    10.5340    10.2940    12.7970   -16.4810     2.5310   275.1420 
  153.6250    62.2780    24.5510    11.6680    10.4410    13.1190   -16.3770     2.5260   269.2850 
  153.7500    64.1430    24.7410    13.1670    10.7710    13.6120   -16.3150     2.5240   262.8480 
  153.8750    65.6070    24.8670    14.4000    11.1710    14.0710   -16.3010     2.5360   257.3760 
  154.0000    65.0270    24.9140    14.6400    11.5120    14.3100   -16.3450     2.5540   253.6240 
  154.1250    61.8250    24.9370    13.9150    11.6800    14.2300   -16.4300     2.5660   251.6550 
  154.2500    59.7430    24.9630    13.3050    11.7230    14.0070   -16.5520     2.5770   250.6720 
  154.3750    62.5020    24.9840    13.0960    11.7130    13.7760   -16.7090     2.5930   250.3900 
  154.5000    69.4520    24.9830    12.9250    11.6840    13.5560   -16.8610     2.6070   250.8930 
  154.6250    74.7640    24.9690    12.6590    11.5220    13.1350   -17.0010     2.6050   253.0700 
  154.7500    75.5370    24.9640    12.3750    11.0410    12.2530   -17.1320     2.5900   257.7530 
  154.8750    76.2400    24.9680    11.7150    10.0950    10.7710   -17.2120     2.5660   265.9040 
  155.0000    81.4030    24.9790    10.2380     8.7370     8.8430   -17.2460     2.5340   278.0330 
  155.1250    89.2420    25.0170     8.0070     7.2450     6.8950   -17.2310     2.4980   294.3100 
  155.2500    95.1570    25.0680     5.8630     5.9410     5.3010   -17.1600     2.4680   312.4830 
  155.3750    98.6670    25.0940     4.3690     4.9620     4.1960   -17.0510     2.4450   330.2590 
  155.5000    99.9460    25.0710     3.6810     4.3320     3.5660   -16.9380     2.4290   345.3320 
  155.6250    99.3080    25.0300     3.5880     4.0420     3.3630   -16.8120     2.4200   355.3480 
  155.7500    98.0990    25.0150     3.6390     3.9560     3.3910   -16.6780     2.4110   361.1870 
  155.8750    98.3910    25.0130     3.7100     3.9950     3.5390   -16.5590     2.3880   364.5550 
  156.0000   100.2260    24.9990     3.7980     4.0890     3.7190   -16.4600     2.3510   367.4590 
  156.1250   102.3340    24.9660     3.8850     4.1810     3.8670   -16.3960     2.3230   370.8400 
  156.2500   104.1110    24.9360     3.9580     4.2460     3.9640   -16.3660     2.3220   373.4970 
  156.3750   102.8710    24.9170     4.0470     4.2750     3.9970   -16.3710     2.3410   373.7150 
  156.5000    97.8580    24.9080     4.2090     4.2650     3.9610   -16.4130     2.3580   370.5950 
  156.6250    95.9670    24.9150     4.4870     4.2490     3.9220   -16.4910     2.3590   364.5250 
  156.7500    98.4750    24.9220     4.7830     4.3240     4.0570   -16.5940     2.3520   357.8130 
  156.8750    97.4020    24.9290     5.1110     4.6260     4.6090   -16.7430     2.3440   351.8860 
  157.0000    89.0780    24.9470     6.0900     5.3440     5.8840   -16.9340     2.3380   347.5250 
  157.1250    79.7100    24.9630    10.1660     6.9250     8.5030   -17.1460     2.3280   345.3330 
  157.2500    73.1570    25.0040    19.7800     9.6500    12.7030   -17.3840     2.3110   344.8670 
  157.3750    68.2320    25.1000    34.5170    13.7080    18.5350   -17.6420     2.2850   345.6990 
  157.5000    67.0730    25.2200    45.7860    18.5640    24.9710   -17.8950     2.2530   347.1430 
  157.6250    71.4770    25.2460    42.7720    21.9600    28.5050   -18.1340     2.2300   348.3590 
  157.7500    76.3580    25.1480    32.3270    22.4090    27.6450   -18.3600     2.2200   349.1190 
  157.8750    79.1870    24.9960    23.6700    20.7740    24.4370   -18.5540     2.2180   349.8950 
  158.0000    80.7520    24.8770    19.1210    18.9170    21.7640   -18.7060     2.2210   351.4440 
  158.1250    79.9870    24.8670    17.9480    18.3160    21.4290   -18.8450     2.2300   354.4780 
  158.2500    77.2230    24.9590    20.1080    19.1630    23.2160   -18.9730     2.2370   358.7510 
  158.3750    73.0050    25.1190    26.8800    21.2240    26.5610   -19.0720     2.2360   363.9370 
  158.5000    68.8120    25.2910    36.4430    23.5770    29.9590   -19.1540     2.2320   369.5790 
  158.6250    69.1300    25.3630    39.8420    24.0950    30.1840   -19.2270     2.2340   375.0940 
  158.7500    73.5790    25.2870    33.4740    22.0530    26.6490   -19.2840     2.2440   379.8420 
  158.8750    78.1700    25.1140    22.3350    18.5960    21.5250   -19.3360     2.2620   383.1520 
  159.0000    81.1420    24.9220    13.3680    15.4480    17.3820   -19.4020     2.2810   384.5490 
  159.1250    82.6160    24.7120     9.8040    13.8770    15.7790   -19.4580     2.2970   384.1320 
  159.2500    81.4670    24.4840    10.4940    13.9000    16.4460   -19.5130     2.3090   383.4250 
  159.3750    76.0760    24.3130    14.8510    15.5370    19.2570   -19.5830     2.3150   383.4510 
  159.5000    70.5470    24.2620    21.3330    18.7000    23.9230   -19.6580     2.3080   384.3380 
  159.6250    71.3140    24.2930    26.7170    22.7950    29.3170   -19.7490     2.2770   385.0540 
  159.7500    76.1810    24.3110    30.0910    26.0200    32.9080   -19.8690     2.2360   384.4420 
  159.8750    81.7800    24.3010    31.7680    27.0280    33.1570   -20.0000     2.2040   382.4030 
