~V
VERS. 2.00: Ver 2.00
~W
STRT.M 115.0000:
STOP.M 288.0000:
STEP.M 0.1250:
NULL. -999.2500:
UWI. DF3049:
~C
DEPT.M :
GR.API :
CALI.CM :
RXO.OHMM :
RI. :
RML.OHMM :
SP.MV :
DEN.GM/CC :
AC.US/MT :
~A
# ...
  165.0000    75.2720    25.5130   118.1930   168.0760   174.8170   -32.3240     2.2440   399.7230 
  165.1250    71.7640    25.5130   104.2640   164.2830   170.7790   -32.2930     2.2530   395.5950 
  165.2500    64.3970    25.5180    95.7870   164.2920   171.0360   -32.2630     2.2590   392.6890 
  165.3750    61.0500    25.5250   103.6300   168.5320   175.8210   -32.2510     2.2610   392.4080 
  165.5000    61.2840    25.5050   120.6180   176.9690   185.0280   -32.2570     2.2590   394.9820 
  165.6250    61.3960    25.4290   133.5150   188.7200   197.6760   -32.2660     2.2520   399.2420 
  165.7500    59.1010    25.3240   131.8360   202.4350   212.1790   -32.2810     2.2450   402.8290 
  165.8750    57.2960    25.2700   131.7550   216.2380   226.4240   -32.2960     2.2420   404.4200 
  166.0000    57.1610    25.2530   138.4340   229.3480   239.5280   -32.3060     2.2410   404.2130 
  166.1250    57.8620    25.3020   151.6470   241.5180   251.3400   -32.3070     2.2440   403.2570 
  166.2500    57.7510    25.3590   163.9800   251.1620   260.3610   -32.3120     2.2510   402.9250 
  166.3750    57.8830    25.3850   166.6140   254.9990   263.0340   -32.2930     2.2580   403.5680 
  166.5000    58.2310    25.3790   164.2170   248.8160   254.5890   -32.2510     2.2590   404.4870 
  166.6250    58.9560    25.3910   160.0540   230.1700   232.5150   -32.1840     2.2510   404.6580 
  166.7500    61.5420    25.4360   150.0410   198.8750   197.6950   -32.0830     2.2400   403.4070 
  166.8750    64.3370    25.4230   130.1510   162.7730   159.4210   -31.9590     2.2420   401.3130 
  167.0000    65.5370    25.2470   106.8010   128.6880   124.8070   -31.8120     2.2560   398.7290 
  167.1250    66.9290    25.0180    87.0580   101.6920    98.2490   -31.6480     2.2730   395.8200 
  167.2500    71.4500    24.9220    70.0570    85.4710    82.6280   -31.4790     2.2850   392.9790 
  167.3750    74.0780    24.9210    56.4320    78.4730    76.0140   -31.3370     2.2950   391.0510 
  167.5000    71.7050    24.9540    51.2610    80.3550    77.9810   -31.2260     2.3030   390.9580 
  167.6250    67.5060    24.9560    60.0610    90.9020    88.2990   -31.1650     2.3060   393.3000 
  167.7500    65.2070    24.8720    83.0780   110.2050   107.4570   -31.1500     2.3020   397.9490 
  167.8750    62.6240    24.7240   106.5390   132.9040   130.9040   -31.1760     2.2920   402.7410 
  168.0000    59.5860    24.6490   116.8880   151.9100   151.6640   -31.2440     2.2770   405.6600 
  168.1250    57.9470    24.7470   110.9020   159.9090   161.1390   -31.3400     2.2640   405.5640 
  168.2500    56.8750    24.8400    97.8190   152.9840   154.1260   -31.4520     2.2600   402.7300 
  168.3750    55.4810    24.8500    85.2830   138.6080   139.2210   -31.5540     2.2660   399.0340 
  168.5000    55.1990    24.7920    76.3300   122.4670   122.9380   -31.6470     2.2760   394.5680 
  168.6250    57.7890    24.7350    68.6370   107.9820   108.6950   -31.7060     2.2850   387.9970 
  168.7500    65.0740    24.7170    59.5830    97.2460    98.3180   -31.7540     2.3000   378.3910 
  168.8750    71.2660    24.7580    49.6860    90.4010    91.8130   -31.7830     2.3290   369.0050 
  169.0000    71.8780    24.8140    43.3810    87.8190    89.6010   -31.7990     2.3620   363.8850 
  169.1250    68.2680    24.8080    44.7660    89.7310    91.9860   -31.8070     2.3750   365.2660 
  169.2500    67.1090    24.7330    47.7410    92.5980    95.1340   -31.8240     2.3570   371.9650 
  169.3750    66.4640    24.6900    49.3930    94.1910    96.8830   -31.8540     2.3310   378.6960 
  169.5000    66.5600    24.6610    55.6630   100.5330   103.7720   -31.8910     2.3120   382.6340 
  169.6250    67.9000    24.6220    62.6210   111.4680   115.7030   -31.9350     2.2960   383.7080 
  169.7500    67.9590    24.5890    68.5040   121.7000   127.1570   -31.9670     2.2800   383.7270 
  169.8750    67.4350    24.5530    73.3730   127.5590   134.0230   -31.9850     2.2710   384.1720 
  170.0000    66.9090    24.5010    74.8990   127.5100   134.3930   -32.0070     2.2720   384.9930 
  170.1250    68.0170    24.3980    71.1640   122.6850   129.4610   -32.0430     2.2750   386.0140 
  170.2500    71.6450    24.2040    65.0650   115.9850   122.5400   -32.0680     2.2770   387.3760 
  170.3750    74.2950    24.0160    60.8840   110.6020   117.1470   -32.0920     2.2840   388.3270 
  170.5000    74.5680    23.9230    57.8100   107.9630   114.7770   -32.1290     2.2950   387.3760 
  170.6250    72.2030    23.8970    56.0110   108.4100   115.7400   -32.1990     2.3020   383.7670 
  170.7500    68.1620    23.8950    59.5090   111.6520   119.6470   -32.2810     2.3040   378.8470 
  170.8750    64.8290    23.8940    65.8930   116.0140   124.6200   -32.3860     2.3080   375.2660 
  171.0000    63.4290    23.8940    73.0250   120.2130   129.2130   -32.4950     2.3070   373.8420 
  171.1250    64.4430    23.8940    79.1240   122.9880   132.0410   -32.5710     2.2940   373.7570 
  171.2500    67.0880    23.8990    81.4470   122.6740   131.3040   -32.6470     2.2750   373.5660 
  171.3750    67.1960    23.9100    79.0780   118.9740   126.8040   -32.7140     2.2710   373.0190 
  171.5000    64.3810    23.9200    74.5730   111.9870   118.7650   -32.7690     2.2840   373.0010 
  171.6250    62.4310    23.9220    69.5570   102.7300   108.4140   -32.7830     2.3000   374.4770 
  171.7500    64.6410    23.9240    63.3630    93.2660    98.1020   -32.7910     2.3040   377.7480 
  171.8750    66.1260    23.9250    55.5860    85.7560    90.1190   -32.7940     2.3010   381.5450 
  172.0000    65.0020    23.9360    49.1640    81.4060    85.7210   -32.8060     2.3020   384.9040 
  172.1250    64.8840    23.9780    47.6190    80.7280    85.4220   -32.8580     2.3040   387.3220 
  172.2500    68.1240    24.0840    52.9350    84.2300    89.7580   -32.9090     2.2980   388.6340 
  172.3750    71.4820    24.2240    63.3690    90.5840    97.2590   -32.9800     2.2850   389.3030 
  172.5000    75.9750    24.4210    76.5330    98.5550   106.5580   -33.0500     2.2750   389.7540 
  172.6250    80.1260    24.7070    88.0600   106.5200   115.8230   -33.1150     2.2760   390.4000 
  172.7500    77.4260    25.0060    92.6460   112.4320   122.7130   -33.1630     2.2900   391.2870 
  172.8750    69.2840    25.2010    93.1050   115.6080   126.5070   -33.1870     2.3070   391.8820 
  173.0000    64.8150    25.2670    92.9750   116.1480   127.4130   -33.1840     2.3190   391.7100 
  173.1250    67.6740    25.2740    94.4020   114.7490   126.2960   -33.1550     2.3230   390.7680 
  173.2500    69.9800    25.2930    94.2100   112.1690   124.0440   -33.1260     2.3190   389.8540 
  173.3750    68.1300    25.3560    91.1660   109.2410   121.5030   -33.0880     2.3120   389.8660 
  173.5000    67.1880    25.4580    87.0900   106.4570   119.1630   -33.0500     2.3060   390.5410 
  173.6250    71.8970    25.5300    85.5360   104.5100   117.7720   -33.0310     2.3020   390.4000 
  173.7500    77.8710    25.5570    87.0650   104.8190   118.9240   -33.0350     2.3000   387.9470 
  173.8750    77.0280    25.5660    86.8200   108.3310   123.6980   -33.0470     2.2980   384.8540 
  174.0000    69.2260    25.5720    84.9390   116.1540   133.3620   -33.0680     2.2940   383.5420 
  174.1250    60.9020    25.5740    89.3410   129.1010   148.9520   -33.0990     2.2800   384.6770 
  174.2500    58.6480    25.5800   113.5610   147.7220   171.6210   -33.1260     2.2530   383.9990 
  174.3750    57.1900    25.5810   145.4630   168.7570   198.1900   -33.1260     2.2400   374.3690 
  174.5000    55.2460    25.5700   166.6100   187.8200   223.6500   -33.1110     2.2710   351.6760 
  174.6250    58.6770    25.5540   170.9490   199.8900   241.1070   -33.0760     2.3510   319.7390 
  174.7500    66.3290    25.5470   167.6140   200.7760   243.9040   -33.0160     2.4380   294.5490 
  174.8750    68.2190    25.5460   165.8320   194.7260   237.2580   -32.9480     2.4750   290.1500 
