~V
VERS. 2.00: Ver 2.00
~W
STRT.M 60.0000:
STOP.M 254.0000:
STEP.M 0.1250:
NULL. -999.2500:
UWI. DF3029:
~C
DEPT.M :
SP.MV :
GR.API :
RML.OHMM :
RI. :
RXO.OHMM :
CALI.CM :
DEN.GM/CC :
~A
# ...
  127.5000   -23.1630    70.6100    12.4950    11.6240    10.8530    23.4280     2.4660 
  127.6250   -22.8000    69.6520    12.6490    11.9650    12.4980    23.4170     2.4890 
  127.7500   -22.5100    70.1070    12.0830    11.5730    14.9250    23.4150     2.4890 
  127.8750   -22.2930    73.1810    11.0270    10.5340    15.7790    23.4150     2.4620 
  128.0000   -22.1620    76.7700     9.9450     9.2550    12.0360    23.4150     2.4150 
  128.1250   -22.1680    81.0150     9.3490     8.2620     8.0030    23.4150     2.3710 
  128.2500   -22.1950    86.5220     8.9090     7.7050     6.5730    23.4180     2.3470 
  128.3750   -22.2000    90.0760     8.9010     7.5010     6.3110    23.4350     2.3480 
  128.5000   -22.1860    87.6350     9.0030     7.4550     6.7470    23.4820     2.3650 
  128.6250   -22.1740    82.7020     8.8680     7.3340     7.4610    23.5390     2.3790 
  128.7500   -22.1370    83.3540     8.4400     7.0410     7.5060    23.5830     2.3790 
  128.8750   -22.1740    88.2070     7.8840     6.6510     6.6800    23.5990     2.3650 
  129.0000   -22.1070    92.3550     7.5150     6.3630     6.1360    23.6010     2.3460 
  129.1250   -21.9620    91.6830     7.8010     6.5150     6.0970    23.6140     2.3380 
  129.2500   -21.9240    87.7400     8.8710     7.2630     6.6160    23.6440     2.3530 
  129.3750   -21.8670    81.9410    10.6910     8.6610     7.8670    23.6750     2.3930 
  129.5000   -21.9240    75.4430    12.9800    10.5820    10.1150    23.6790     2.4540 
  129.6250   -21.9250    70.8880    15.1830    12.6590    13.7170    23.6440     2.5240 
  129.7500   -22.0310    69.3670    16.7880    14.3730    17.8990    23.5690     2.5800 
  129.8750   -22.1220    69.5080    17.5930    15.4210    20.3650    23.4620     2.6130 
  130.0000   -22.2470    69.2180    17.7120    15.7760    20.4480    23.3700     2.6210 
  130.1250   -22.5890    66.6850    17.3750    15.5790    17.9280    23.3800     2.6140 
  130.2500   -22.9340    64.2030    16.7970    15.0850    14.8090    23.4750     2.6040 
  130.3750   -23.4020    63.8640    15.9430    14.3120    14.4730    23.5650     2.5900 
  130.5000   -23.9070    66.5920    14.7850    13.2690    17.0110    23.6010     2.5630 
  130.6250   -24.7040    70.7220    13.4910    12.0900    18.1960    23.5970     2.5180 
  130.7500   -25.5800    73.8530    12.4510    11.0890    15.1270    23.5580     2.4640 
  130.8750   -26.4510    75.7070    11.9520    10.4960    10.6490    23.4400     2.4200 
  131.0000   -27.4470    76.0940    12.0780    10.4040     9.3990    23.2590     2.3990 
  131.1250   -28.5190    76.6900    12.6790    10.7680    10.9200    23.1140     2.4010 
  131.2500   -29.5650    78.5710    13.2860    11.2560    13.2960    23.0250     2.4060 
  131.3750   -30.6030    79.0010    13.5660    11.5980    14.3040    22.9800     2.3970 
  131.5000   -31.5670    76.7700    13.3680    11.6070    12.9100    22.9650     2.3700 
  131.6250   -32.2770    72.8780    12.7510    11.2320    10.9910    22.9650     2.3300 
  131.7500   -32.7790    72.2270    12.0700    10.7120     9.9600    22.9600     2.2910 
  131.8750   -33.1660    74.2090    11.5750    10.2470     9.4900    22.9390     2.2600 
  132.0000   -33.3430    75.2980    11.4380    10.0000     9.2890    22.8900     2.2390 
  132.1250   -33.1510    74.3420    11.8270    10.1310     9.3370    22.8550     2.2310 
  132.2500   -32.7790    74.4800    12.6040    10.5710     9.6500    22.8180     2.2390 
  132.3750   -32.0860    76.2620    13.5380    11.1680    10.2500    22.7900     2.2630 
  132.5000   -31.3110    76.5030    14.2630    11.6670    11.1420    22.8030     2.2990 
  132.6250   -30.3770    73.3810    14.3070    11.7090    12.5000    22.9050     2.3330 
  132.7500   -29.3330    73.4870    13.6950    11.2610    13.6850    23.0450     2.3480 
  132.8750   -28.3170    78.9180    12.7750    10.5380    12.6760    23.1840     2.3370 
  133.0000   -27.3620    85.0940    12.1450     9.9670     9.7690    23.3000     2.3110 
  133.1250   -26.5960    85.3420    12.4870    10.0870     8.5380    23.3770     2.2960 
  133.2500   -25.9060    82.2800    13.7190    10.9360     9.2640    23.3900     2.3150 
  133.3750   -25.4870    79.2180    15.4480    12.3260    11.5250    23.3560     2.3720 
  133.5000   -25.1340    75.5530    17.0590    13.8470    15.0760    23.3100     2.4500 
  133.6250   -24.9020    70.8970    17.7630    14.8550    21.3220    23.2560     2.5090 
  133.7500   -24.8500    68.7060    17.4310    15.0410    22.4300    23.1890     2.5260 
  133.8750   -24.8530    68.8990    16.3020    14.4490    15.9590    23.1320     2.5050 
  134.0000   -24.8960    69.2820    14.8390    13.4010    10.9110    23.0790     2.4670 
  134.1250   -24.7740    70.5470    13.4460    12.2420     9.9410    23.0760     2.4320 
  134.2500   -24.6550    74.1660    12.2420    11.1570    10.0560    23.1070     2.4030 
  134.3750   -24.5270    79.5380    11.2010    10.1710     9.7850    23.1090     2.3760 
  134.5000   -24.4200    86.3480    10.3000     9.2830     8.0180    22.9600     2.3480 
  134.6250   -24.3500    94.6080     9.5940     8.5430     6.6920    22.8390     2.3250 
  134.7500   -24.2430   100.7060     9.0930     7.9690     6.1130    22.8360     2.3120 
  134.8750   -24.1320   102.7630     8.7810     7.5640     5.9770    22.9280     2.3110 
  135.0000   -23.9320   103.5690     8.6050     7.3040     5.8430    23.0640     2.3190 
  135.1250   -23.8040   106.5950     8.5270     7.1780     5.8940    23.1200     2.3320 
  135.2500   -23.8710   107.3350     8.5470     7.1680     5.9550    23.1210     2.3430 
  135.3750   -23.9380   104.2810     8.7310     7.3120     6.1060    23.0790     2.3490 
  135.5000   -24.0050   100.1840     9.1720     7.6660     6.2540    23.0220     2.3470 
  135.6250   -24.1770    95.0000    10.0430     8.3650     6.9160    22.9080     2.3330 
  135.7500   -24.3620    89.2010    11.3970     9.4600     8.2240    22.7570     2.3100 
  135.8750   -24.5650    85.5170    13.2840    11.0260     9.9470    22.5840     2.2820 
  136.0000   -24.7860    84.2570    15.6330    13.0490    11.3160    22.3610     2.2520 
  136.1250   -25.1360    81.2370    18.1010    15.3180    12.9230    22.0630     2.2290 
  136.2500   -25.2990    76.9920    20.0330    17.2740    14.5860    21.8380     2.2160 
  136.3750   -25.4160    75.3300    20.8190    18.3450    16.0580    21.7900     2.2140 
  136.5000   -25.4700    77.3250    20.1080    18.1200    16.9310    21.9210     2.2230 
  136.6250   -25.4040    82.3950    17.9180    16.4630    16.6870    22.0680     2.2380 
  136.7500   -25.3020    88.1530    15.2290    14.1920    15.2880    22.1790     2.2550 
  136.8750   -25.1490    90.9590    12.7850    11.9670    12.3960    22.2380     2.2680 
  137.0000   -25.0790    92.1750    11.0360    10.2240     9.0020    22.2800     2.2730 
  137.1250   -24.8840    94.5240    10.1650     9.1760     7.7980    22.2230     2.2690 
  137.2500   -24.7250    95.0280     9.8130     8.5930     7.2630    22.0330     2.2610 
  137.3750   -24.5300    92.9130     9.6940     8.2870     7.0060    21.8220     2.2590 
  137.5000   -24.2370    93.2150     9.5580     8.0700     7.0090    21.7340     2.2680 
  137.6250   -23.9410    98.0950     9.2550     7.8170     7.0780    21.8440     2.2890 
  137.7500   -23.5990   100.7990     8.9070     7.5600     6.6460    21.9180     2.3110 
  137.8750   -23.2070    97.8680     8.7390     7.4370     6.2160    21.9240     2.3280 
  138.0000   -22.7840    92.8050     8.9740     7.6070     6.1170    21.8950     2.3410 
  138.1250   -22.2810    90.5330     9.8380     8.2670     6.5970    21.8700     2.3620 
  138.2500   -21.7160    88.5630    11.2250     9.3800     7.6840    21.8590     2.3920 
  138.3750   -21.0970    84.2980    13.0110    10.8920     9.4280    21.8850     2.4310 
  138.5000   -20.5990    78.0660    15.0350    12.6890    11.6590    21.9500     2.4710 
  138.6250   -20.0870    72.0460    17.1670    14.6470    13.0030    21.9740     2.4920 
