~V
VERS. 2.00: Ver 2.00
~W
STRT.M 56.0000:
STOP.M 263.0000:
STEP.M 0.1250:
NULL. -999.2500:
UWI. DF3034:
~C
DEPT.M :
DEN.GM/CC :
GR.API :
RML.OHMM :
RI. :
RXO.OHMM :
CALI.CM :
SP.MV :
~A
# ...
  236.0000     2.3700   113.4060    12.8670    10.3480    14.0930    24.0700   -19.2990 
  236.1250     2.3780   114.2600    15.5050    11.9760    14.9190    24.0500   -19.8490 
  236.2500     2.3880   113.3550    20.7910    15.4490    18.6130    23.9890   -20.4310 
  236.3750     2.3930   108.3360    29.5760    21.4030    27.0730    23.9340   -21.0600 
  236.5000     2.3860    99.1560    41.6810    29.8810    42.7920    23.9280   -21.7220 
  236.6250     2.3660    87.8060    53.9630    39.8740    64.3300    23.9430   -22.3480 
  236.7500     2.3380    78.3880    64.2890    48.7810    84.9960    23.8100   -22.9860 
  236.8750     2.3110    74.2820    70.0360    54.4710    89.1090    23.7930   -23.5640 
  237.0000     2.2920    74.2070    70.3900    56.0700    81.1110    23.8620   -24.1210 
  237.1250     2.2840    76.1850    66.8860    54.2490    74.0290    23.8110   -24.5790 
  237.2500     2.2850    77.3110    63.0420    51.5730    61.6430    23.7160   -25.0330 
  237.3750     2.2920    77.8560    60.3970    49.4270    51.3340    23.6810   -25.4330 
  237.5000     2.3000    78.1510    59.5740    48.5730    49.7900    23.6940   -25.8360 
  237.6250     2.3050    78.3670    61.2990    49.7850    52.4820    23.7220   -26.1930 
  237.7500     2.3050    78.5310    65.6240    53.1820    49.1970    23.7260   -26.5750 
  237.8750     2.3000    76.8440    72.8580    59.0310    46.9660    23.7160   -26.9190 
  238.0000     2.2930    73.0540    82.9580    67.2820    52.3490    23.6770   -27.2520 
  238.1250     2.2870    70.0390    95.3930    77.4650    65.3430    23.6310   -27.5770 
  238.2500     2.2830    70.0440   108.0820    87.8720    74.1320    23.5380   -27.8620 
  238.3750     2.2820    72.8920   119.0370    96.9590    73.9140    23.3710   -28.1430 
  238.5000     2.2810    75.8900   126.5680   103.4470    70.9370    23.1120   -28.3750 
  238.6250     2.2780    76.7570   129.4350   106.3160    68.2480    22.9750   -28.5860 
  238.7500     2.2720    75.2050   129.1070   106.5360    67.8460    22.9300   -28.7230 
  238.8750     2.2640    71.8820   126.6650   104.8580    69.7830    22.9280   -28.8510 
  239.0000     2.2570    69.1580   123.0540   102.0430    72.6160    22.9170   -28.9120 
  239.1250     2.2530    69.6220   119.2990    98.9720    73.1610    22.8480   -28.9720 
  239.2500     2.2540    72.3650   116.4720    96.6300    69.6870    22.7200   -29.0100 
  239.3750     2.2580    74.4400   115.2610    95.6490    63.9260    22.6160   -29.0210 
  239.5000     2.2590    72.7010   115.9670    96.3180    60.3950    22.5760   -29.0040 
  239.6250     2.2550    69.0540   118.6340    98.7150    60.1810    22.5860   -29.0280 
  239.7500     2.2470    68.6320   122.2480   102.0140    63.9160    22.6570   -28.9920 
  239.8750     2.2370    69.8140   125.9580   105.5320    70.2930    22.8170   -28.9730 
  240.0000     2.2300    69.0890   129.0040   108.6300    75.7120    22.9500   -28.9490 
  240.1250     2.2290    67.4630   130.6560   110.6720    77.9370    22.9320   -28.9460 
  240.2500     2.2340    67.8540   130.9260   111.6020    77.4410    22.8960   -28.9210 
  240.3750     2.2420    70.2990   129.8350   111.4220    76.4420    22.9520   -28.9110 
  240.5000     2.2480    73.3040   127.4380   110.1930    79.1160    23.1620   -28.9240 
  240.6250     2.2500    73.7650   123.7820   107.9430    85.9130    23.5990   -28.8990 
  240.7500     2.2490    70.3370   119.6900   105.2590    92.4360    23.9340   -28.8730 
  240.8750     2.2470    65.2590   115.9900   102.7590    97.3020    24.1210   -28.8380 
  241.0000     2.2460    63.0690   113.3000   100.9870    98.8670    24.1780   -28.7900 
  241.1250     2.2440    65.7480   111.8670   100.2290    93.0620    24.1780   -28.7440 
  241.2500     2.2430    69.6910   110.7820    99.9620    89.5100    24.1760   -28.6590 
  241.3750     2.2480    72.5360   109.3190    99.6140    96.8250    24.1730   -28.5600 
  241.5000     2.2650    74.3090   107.2400    98.6750   108.8580    24.1630   -28.4420 
  241.6250     2.2990    76.1230   104.3640    96.6900   110.5700    24.1600   -28.3280 
  241.7500     2.3410    77.8450   101.6510    93.7200   100.8100    24.1490   -28.2380 
  241.8750     2.3760    79.8560    99.1360    89.7920    92.6560    24.1460   -28.1200 
  242.0000     2.3870    81.9030    96.6150    85.1280    90.7620    24.1540   -28.0150 
  242.1250     2.3740    82.5600    94.1710    80.3630    91.9260    24.1740   -27.8700 
  242.2500     2.3430    79.9490    89.2730    76.4330    89.3610    24.1910   -27.7800 
  242.3750     2.3100    76.3940    86.6170    74.1220    80.4500    24.1900   -27.6810 
  242.5000     2.2840    75.9620    86.7200    73.9570    72.5360    24.1530   -27.5630 
  242.6250     2.2670    77.4720    89.8390    76.3050    74.1960    24.0680   -27.4320 
  242.7500     2.2600    76.3840    94.6180    80.1510    85.3370    23.9830   -27.3130 
  242.8750     2.2600    71.7820    99.8750    84.5390    97.5690    23.9180   -27.1940 
  243.0000     2.2630    67.6090   104.5090    88.5260   103.4060    23.8910   -27.0750 
  243.1250     2.2670    67.9630   107.6840    91.3400   104.7410    23.8930   -26.9410 
  243.2500     2.2670    69.1480   109.8590    93.2650   102.7730    23.8950   -26.7820 
  243.3750     2.2620    69.5540   111.7750    94.8880   101.5410    23.8960   -26.6140 
  243.5000     2.2530    70.9810   114.1160    96.8150   103.6900    23.9060   -26.4280 
  243.6250     2.2450    73.6620   117.2990    99.4640   108.5430    23.9260   -26.2590 
  243.7500     2.2410    73.3650   121.0460   102.6350   112.9840    23.9420   -26.0280 
  243.8750     2.2430    69.4090   124.9700   106.0200   116.9860    23.9240   -25.8120 
  244.0000     2.2480    66.9610   128.5440   109.2090   120.6000    23.8950   -25.5860 
  244.1250     2.2550    68.7110   130.9030   111.5730   123.4100    23.8620   -25.3720 
  244.2500     2.2580    69.2130   131.5190   112.7050   126.4370    23.8220   -25.1490 
  244.3750     2.2540    66.9270   129.8280   112.1300   129.0910    23.7870   -24.8990 
  244.5000     2.2430    63.7170   125.4370   109.4350   129.0460    23.8090   -24.6640 
  244.6250     2.2280    62.7710   118.0670   104.1640   122.6070    23.9680   -24.3700 
  244.7500     2.2140    64.6480   109.1170    97.2670   115.9540    24.1940   -24.1390 
  244.8750     2.2060    66.7850    99.9530    89.7890   109.7450    24.2890   -23.8310 
  245.0000     2.2030    68.0220    91.8850    82.8800    97.3420    24.2940   -23.5900 
  245.1250     2.2040    69.6290    86.0710    77.6760    82.5450    24.2850   -23.3600 
  245.2500     2.2060    70.1410    82.1670    74.1080    74.0140    24.2850   -23.0770 
  245.3750     2.2090    68.5080    79.5820    71.7760    73.1440    24.2850   -22.8910 
  245.5000     2.2120    67.1070    77.5660    70.0670    74.9610    24.2850   -22.7660 
  245.6250     2.2170    69.9970    75.4940    68.4240    74.5910    24.2880   -22.6120 
  245.7500     2.2240    73.4320    73.2420    66.6550    72.8920    24.3030   -22.4580 
  245.8750     2.2310    74.6450    71.1190    64.9690    69.5180    24.3360   -22.4780 
  246.0000     2.2380    75.6770    69.6490    63.7980    65.5970    24.3680   -22.4180 
  246.1250     2.2450    76.3610    69.6040    63.8250    62.3450    24.3810   -22.3100 
  246.2500     2.2480    75.3310    71.0680    65.1510    65.1990    24.3840   -22.3510 
  246.3750     2.2470    73.6320    73.9320    67.6800    69.8250    24.3860   -22.4240 
  246.5000     2.2420    73.9640    77.7510    71.0060    73.0920    24.3930   -22.4180 
  246.6250     2.2350    75.3230    81.6900    74.3710    75.5120    24.3940   -22.4090 
  246.7500     2.2290    75.3130    84.7880    76.9480    79.9670    24.4020   -22.4760 
  246.8750     2.2290    74.0990    86.4680    78.2540    85.7820    24.4120   -22.4520 
  247.0000     2.2370    73.6140    86.5830    78.1800    89.0670    24.4260   -22.4300 
  247.1250     2.2520    74.4910    85.2020    76.7940    85.7260    24.3890   -22.5550 
