~V
VERS. 2.00: Ver 2.00
~W
STRT.M 120.0000:
STOP.M 233.0000:
STEP.M 0.1250:
NULL. -999.2500:
UWI. DF3066:
~C
DEPT.M :
GR.API :
RML.OHMM :
RI. :
RXO.OHMM :
CALI.CM :
DEN.GM/CC :
SP.MV :
~A
# ...
  153.7500    74.4930    14.7570    12.9490     8.3740    23.8220     2.3880   -17.5900 
  153.8750    74.5300    18.1940    15.6170     9.7480    23.9310     2.3560   -18.3360 
  154.0000    76.2930    23.1410    19.4850    12.6600    24.0540     2.3200   -19.0920 
  154.1250    77.3970    30.4300    24.7840    18.1790    23.8130     2.2850   -19.8040 
  154.2500    78.3900    39.2130    31.1850    25.0630    23.5950     2.2570   -20.4860 
  154.3750    80.0320    48.4380    38.5140    30.2670    23.4460     2.2380   -21.0860 
  154.5000    81.8340    57.9570    46.6210    34.2060    23.6020     2.2280   -21.5880 
  154.6250    79.6370    68.5540    55.5310    38.1980    23.7080     2.2230   -22.0550 
  154.7500    75.8960    80.1810    65.0670    42.0820    23.6180     2.2210   -22.3940 
  154.8750    73.7850    92.7770    75.0690    42.7660    23.4750     2.2210   -22.6680 
  155.0000    71.9620   105.9000    85.1510    41.8420    23.4090     2.2210   -22.8940 
  155.1250    68.8760   118.2940    94.3920    46.0950    23.4500     2.2170   -23.0180 
  155.2500    67.3160   128.3480   101.8270    57.5080    23.6200     2.2070   -23.1840 
  155.3750    68.6010   134.4590   106.4740    77.2100    23.8710     2.1930   -23.3230 
  155.5000    69.5520   135.5840   107.6860   102.0760    24.0450     2.1800   -23.4010 
  155.6250    67.5530   131.2960   105.0430   112.8610    23.8700     2.1730   -23.3950 
  155.7500    66.1800   124.2020   100.1430   104.3290    23.7540     2.1740   -23.4650 
  155.8750    67.3380   116.2960    94.2940    89.7440    23.7750     2.1780   -23.5170 
  156.0000    69.2260   109.0580    88.6490    80.8950    23.8990     2.1840   -23.4130 
  156.1250    70.4130   103.4670    84.1330    76.6000    24.1280     2.1880   -23.3960 
  156.2500    72.0060    99.3530    80.7950    73.4730    24.2070     2.1890   -23.2630 
  156.3750    73.7600    96.4850    78.4970    70.0560    24.3310     2.1880   -23.0620 
  156.5000    74.3680    94.5410    76.9600    67.1470    24.4270     2.1870   -22.9550 
  156.6250    72.7810    93.2180    75.9160    65.8800    24.4610     2.1870   -22.7200 
  156.7500    71.4950    92.0700    75.0080    65.9130    24.4810     2.1890   -22.4460 
  156.8750    71.9490    90.8270    74.0510    67.0740    24.5220     2.1930   -22.1980 
  157.0000    73.1190    89.2440    72.8940    69.2550    24.4850     2.1970   -21.9730 
  157.1250    74.4320    86.9280    71.3160    69.9480    24.2480     2.1990   -21.7220 
  157.2500    76.3260    83.7000    69.2040    70.2360    23.8950     2.1990   -21.4350 
  157.3750    78.5570    79.4550    66.4730    71.2170    23.7490     2.1970   -21.2040 
  157.5000    79.5410    74.4630    63.2490    73.0880    23.8410     2.1940   -20.9590 
  157.6250    76.5440    69.6680    60.1030    75.3470    24.1450     2.1920   -20.7270 
  157.7500    72.9350    66.1330    57.7830    75.7160    24.4360     2.1930   -20.5020 
  157.8750    71.2780    64.2610    56.6520    74.3700    24.5450     2.1950   -20.2530 
  158.0000    71.8070    63.4860    56.3720    70.8740    24.5310     2.1970   -19.9950 
  158.1250    71.6340    61.9280    55.4970    67.6520    24.5100     2.1970   -19.7570 
  158.2500    70.7010    57.7280    52.4100    69.0030    24.6320     2.1980   -19.5400 
  158.3750    70.4420    50.1620    46.3110    75.6140    24.7740     2.2050   -19.3100 
  158.5000    71.0910    40.1610    37.7400    80.8460    24.7780     2.2230   -19.0860 
  158.6250    73.5780    30.2320    28.6870    75.8030    24.6530     2.2560   -18.8670 
  158.7500    79.8520    22.3760    21.2240    53.6760    24.3790     2.2970   -18.6520 
  158.8750    88.8910    17.0280    16.0050    28.6890    24.2920     2.3400   -18.5290 
  159.0000    96.3790    13.8280    12.8240    14.2650    24.3860     2.3770   -18.4080 
  159.1250    96.5050    12.3820    11.3490    10.6410    24.5650     2.3990   -18.2570 
  159.2500    92.4820    11.9200    10.8700     9.7770    24.6600     2.4090   -18.2530 
  159.3750    89.4480    12.1460    11.1290     9.7710    24.6490     2.4090   -18.2070 
  159.5000    87.9950    12.8680    11.9460     9.9740    24.5630     2.4050   -18.1950 
  159.6250    86.9240    13.9560    13.1860    10.7100    24.5380     2.3980   -18.3470 
  159.7500    87.5820    15.1320    14.5430    11.7540    24.5670     2.3890   -18.4020 
  159.8750    88.4160    16.1340    15.7440    13.0550    24.6290     2.3770   -18.4710 
  160.0000    87.7240    16.6970    16.5040    14.5100    24.6980     2.3630   -18.6460 
  160.1250    88.8590    16.5480    16.5030    15.7040    24.7460     2.3530   -18.7670 
  160.2500    92.3280    15.8590    15.8670    16.0260    24.7740     2.3470   -18.8870 
  160.3750    94.7980    14.8980    14.8310    15.0800    24.7880     2.3490   -19.0080 
  160.5000    95.5750    14.0010    13.7210    13.2200    24.8590     2.3540   -19.1410 
  160.6250    98.1770    13.5200    12.8840    11.5720    24.8240     2.3610   -19.2550 
  160.7500   100.2630    13.4990    12.4340    10.6460    24.6020     2.3660   -19.3970 
  160.8750    99.8330    13.8870    12.3760    10.8170    24.3960     2.3690   -19.5620 
  161.0000    98.0160    14.5800    12.6550    11.7160    24.0820     2.3700   -19.6720 
  161.1250    96.2230    15.5500    13.2480    13.0960    23.9330     2.3690   -19.8620 
  161.2500    94.9160    16.8390    14.1210    14.4090    23.8840     2.3660   -20.0320 
  161.3750    94.7080    18.7100    15.4380    15.4270    23.9090     2.3600   -20.2380 
  161.5000    93.6290    21.6260    17.5800    16.9910    23.9430     2.3510   -20.5140 
  161.6250    87.8900    26.6950    21.5800    20.0330    23.8890     2.3410   -20.7400 
  161.7500    81.0270    34.6330    28.1840    25.8530    23.8720     2.3270   -20.9960 
  161.8750    76.8250    46.3270    38.2140    35.7170    23.8750     2.3100   -21.2750 
  162.0000    75.1800    62.2340    51.9820    50.5910    23.9630     2.2880   -21.5580 
  162.1250    73.3960    82.1190    69.0220    72.7360    24.2140     2.2650   -21.7390 
  162.2500    71.0150   102.7720    86.4280    93.1940    24.5140     2.2450   -21.9510 
  162.3750    69.6560   120.5560   101.2200   106.9510    24.3740     2.2320   -22.1400 
  162.5000    71.1960   131.7860   110.6390   114.2450    23.6710     2.2240   -22.1680 
  162.6250    74.1130   132.8020   111.9830   114.1840    23.4600     2.2220   -22.2730 
  162.7500    75.6310   126.0910   107.1230   111.0270    23.8160     2.2210   -22.3270 
  162.8750    75.1470   114.8490    98.3010   105.0610    24.4490     2.2220   -22.2430 
  163.0000    75.4150   102.6980    88.2350    97.3780    24.9280     2.2260   -22.2590 
  163.1250    76.7940    92.8670    79.6290    78.3380    24.6180     2.2340   -22.2780 
  163.2500    77.4510    86.1770    73.5780    58.7060    24.1410     2.2420   -22.2530 
  163.3750    76.9810    82.4890    70.2330    50.1710    23.9510     2.2490   -22.2240 
  163.5000    75.9720    81.2050    69.2240    53.5870    24.0090     2.2510   -22.1800 
  163.6250    74.9080    81.8260    70.2090    60.6880    24.2050     2.2490   -22.1370 
  163.7500    73.8140    83.4650    72.3180    63.9950    24.3510     2.2450   -22.0760 
  163.8750    74.0520    85.7840    75.1560    65.6380    24.4730     2.2410   -22.0340 
  164.0000    76.1560    88.5750    78.4320    68.0570    24.4930     2.2360   -21.9850 
  164.1250    76.0180    91.5440    81.8030    70.8010    24.5160     2.2310   -21.9220 
  164.2500    72.7040    93.9760    84.6460    72.7700    24.5290     2.2250   -21.8960 
  164.3750    70.2170    94.9000    86.1410    74.2840    24.5530     2.2210   -21.9120 
  164.5000    71.7960    93.3150    85.4210    75.2400    24.4780     2.2170   -21.9790 
  164.6250    74.7750    88.2320    81.5440    75.9000    24.3920     2.2160   -22.0500 
  164.7500    76.4370    80.8220    75.3970    74.6620    24.5160     2.2190   -22.1160 
  164.8750    77.8500    72.5590    68.1430    70.4660    24.5950     2.2290   -22.2180 
