~V
VERS. 2.00: Ver 2.00
~W
STRT.M 55.0000:
STOP.M 252.0000:
STEP.M 0.1250:
NULL. -999.2500:
UWI. DF3024:
~C
DEPT.M :
GR.API :
RML.OHMM :
RI. :
RXO.OHMM :
CALI.CM :
DEN.GM/CC :
SP.MV :
~A
# ...
  167.5000    63.2110   361.6040   302.6230   258.0020    24.3930     2.1640   -24.9700 
  167.6250    66.2040   370.0690   310.9730   255.3210    24.4120     2.1660   -25.0330 
  167.7500    66.9120   372.8130   314.8530   256.3110    24.4410     2.1700   -25.0010 
  167.8750    64.6730   370.8220   314.8680   265.4960    24.4690     2.1760   -25.0920 
  168.0000    61.6220   365.7540   312.1850   277.5220    24.4800     2.1840   -25.3180 
  168.1250    61.5230   359.3380   308.0490   278.9720    24.4760     2.1920   -25.4920 
  168.2500    63.9600   353.1780   303.8430   272.0110    24.4620     2.1960   -25.7510 
  168.3750    66.0620   347.9430   300.2130   264.7890    24.4260     2.1970   -26.0520 
  168.5000    66.3200   343.8320   297.4140   264.4970    24.3760     2.1950   -26.3430 
  168.6250    66.6310   340.7210   295.3800   267.2640    24.3050     2.1940   -26.5590 
  168.7500    68.3790   337.8800   293.5070   268.1720    24.2560     2.1950   -26.7070 
  168.8750    67.8170   334.7400   291.3060   267.5040    24.2310     2.1980   -26.7630 
  169.0000    62.4240   330.9330   288.4560   263.8010    24.2120     2.2030   -26.6670 
  169.1250    57.9370   326.3530   284.8560   257.4660    24.1830     2.2080   -26.4730 
  169.2500    59.4400   321.4330   280.8920   252.0680    24.1710     2.2130   -26.2240 
  169.3750    64.5280   316.3750   276.7440   247.6600    24.1680     2.2210   -25.9710 
  169.5000    67.0480   310.8110   272.1530   244.4320    24.1680     2.2290   -25.7390 
  169.6250    64.8980   302.9530   265.7380   242.5770    24.1680     2.2370   -25.4810 
  169.7500    62.1890   291.1330   256.1850   241.6690    24.1640     2.2430   -25.2910 
  169.8750    61.4290   274.2610   242.5700   240.8860    24.1460     2.2460   -25.1500 
  170.0000    62.1610   252.7980   225.1800   236.4200    24.1060     2.2460   -25.0310 
  170.1250    63.1880   229.1180   205.8020   224.5540    24.0890     2.2450   -24.9430 
  170.2500    65.3150   207.2100   187.7300   196.3570    24.0950     2.2430   -24.9060 
  170.3750    68.1800   189.7110   173.3180   162.0370    24.1290     2.2430   -24.9150 
  170.5000    70.5450   177.9790   163.9740   141.3880    24.1970     2.2430   -24.7630 
  170.6250    69.5520   172.7860   160.6560   137.6710    24.2870     2.2440   -24.7150 
  170.7500    66.8030   171.2370   161.0660   141.6210    24.3940     2.2440   -24.7380 
  170.8750    65.7310   170.5210   162.6940   146.2700    24.4600     2.2430   -24.5830 
  171.0000    68.0130   167.5170   162.2750   150.0140    24.4810     2.2400   -24.5860 
  171.1250    71.3540   158.0470   155.3930   152.5470    24.4810     2.2330   -24.6630 
  171.2500    71.9160   142.6920   141.4010   150.3120    24.4810     2.2260   -24.5580 
  171.3750    69.8090   123.1640   121.6270   136.4500    24.4800     2.2220   -24.5490 
  171.5000    68.7930   102.6400    99.5150   111.0280    24.4690     2.2260   -24.6280 
  171.6250    71.2000    85.3480    80.0060    70.3120    24.4410     2.2390   -24.6770 
  171.7500    73.1200    70.0500    65.7320    43.8870    24.4150     2.2560   -24.7350 
  171.8750    71.1940    61.4630    57.3730    34.8110    24.4210     2.2710   -24.8070 
  172.0000    67.8690    58.9230    54.5200    34.8860    24.4570     2.2770   -24.8790 
  172.1250    67.8950    62.0490    56.9970    37.6630    24.4750     2.2730   -24.8720 
  172.2500    68.5640    68.6620    62.9070    50.4540    24.4810     2.2620   -24.9340 
  172.3750    69.0180    77.3610    70.9960    65.5580    24.4810     2.2480   -24.9950 
  172.5000    70.8860    86.5810    79.7460    71.5150    24.4810     2.2350   -24.9950 
  172.6250    74.6590    94.3210    87.1310    71.8350    24.4790     2.2230   -25.0080 
  172.7500    76.3330    99.3980    91.8800    79.1750    24.4650     2.2160   -24.9850 
  172.8750    75.3730   101.3220    93.4520    85.8150    24.4340     2.2130   -24.9900 
  173.0000    74.8690   100.4100    92.1140    86.7700    24.4110     2.2160   -25.0010 
  173.1250    75.8380    97.6680    88.7230    82.0590    24.4090     2.2260   -24.9980 
  173.2500    75.2740    95.2430    85.2670    79.7040    24.4200     2.2400   -25.0190 
  173.3750    72.7490    95.0990    83.5040    80.0070    24.4290     2.2560   -25.0910 
  173.5000    72.4880    99.2400    85.2250    81.9330    24.4370     2.2680   -25.2020 
  173.6250    75.4790   110.4950    92.9510    82.5590    24.4510     2.2700   -25.2200 
  173.7500    74.8850   128.3080   106.4130    92.2520    24.4710     2.2600   -25.3270 
  173.8750    70.9810   150.9830   124.4380   111.3150    24.4790     2.2380   -25.4390 
  174.0000    68.0500   174.5390   143.9730   142.5960    24.4810     2.2100   -25.4400 
  174.1250    64.9800   191.5780   159.2270   184.0680    24.4690     2.1850   -25.5970 
  174.2500    58.1720   197.3920   166.0400   202.1520    24.4400     2.1720   -25.6870 
  174.3750    52.4510   190.6720   162.8270   169.6150    24.4080     2.1730   -25.6400 
  174.5000    54.6560   174.2340   151.1450   126.7390    24.3640     2.1870   -25.6780 
  174.6250    62.4210   153.0000   134.3350    96.7420    24.2530     2.2100   -25.6570 
  174.7500    67.1680   132.1320   116.9310    78.2750    24.0850     2.2330   -25.5650 
  174.8750    68.4810   113.7760   101.0590    70.5430    23.9780     2.2520   -25.5100 
  175.0000    68.8750    99.1530    88.0380    65.3460    23.9650     2.2650   -25.4280 
  175.1250    70.6770    89.9430    79.3680    56.4220    24.0400     2.2680   -25.3070 
  175.2500    72.6490    85.7740    74.7360    49.9200    24.1610     2.2640   -25.1750 
  175.3750    72.8610    85.9490    73.8930    47.5680    24.2440     2.2550   -25.0780 
  175.5000    70.9420    89.6330    76.1800    47.1130    24.1990     2.2460   -24.9520 
  175.6250    68.0700    94.4080    80.8290    53.5270    23.9760     2.2430   -24.8480 
  175.7500    66.4400    99.2150    86.3680    56.2980    23.7460     2.2460   -24.7410 
  175.8750    67.0170   102.9070    92.1410    55.0280    23.6350     2.2530   -24.5290 
  176.0000    69.2980   105.7530    97.9800    56.1700    23.6050     2.2600   -24.3660 
  176.1250    71.0790   113.2530   104.1680    61.0750    23.5740     2.2670   -24.1430 
  176.2500    71.6520   121.4130   110.7530    65.9240    23.5280     2.2730   -23.8650 
  176.3750    71.2520   129.5680   117.2250    71.0640    23.5030     2.2790   -23.6150 
  176.5000    72.1730   136.2960   122.4560    79.6530    23.4700     2.2820   -23.4080 
  176.6250    73.7340   139.1650   124.4810    88.6390    23.4540     2.2800   -23.2120 
  176.7500    72.4640   137.6670   122.8850    95.4680    23.5680     2.2750   -23.0840 
  176.8750    68.1450   132.2450   117.9770   101.1980    23.8760     2.2680   -23.2170 
  177.0000    62.7740   124.4670   110.9820   105.4750    24.1660     2.2590   -23.3530 
  177.1250    61.0570   116.5570   103.7230   106.7530    24.3090     2.2510   -23.4500 
  177.2500    63.4190   110.1510    97.6990    99.3100    24.3540     2.2480   -23.8140 
  177.3750    68.2670   105.7040    93.4330    90.6250    24.3670     2.2480   -24.1630 
  177.5000    72.6070   102.9680    90.8160    87.1270    24.3780     2.2500   -24.4450 
  177.6250    72.1920   101.5120    89.5310    88.5540    24.3850     2.2520   -24.8340 
  177.7500    70.2160   100.7640    88.9850    88.6790    24.3910     2.2550   -25.0710 
  177.8750    70.3470   100.7930    89.1380    87.2470    24.3920     2.2590   -25.2110 
  178.0000    71.2040   101.8770    90.1610    85.1710    24.3940     2.2630   -25.3300 
  178.1250    70.8450   104.3740    92.3440    83.6430    24.3950     2.2650   -25.4100 
  178.2500    70.6080   107.7260    95.2760    84.5920    24.3970     2.2640   -25.3730 
  178.3750    70.1400   111.1560    98.3370    94.3630    24.4040     2.2600   -25.2080 
  178.5000    67.4010   113.7920   100.7610   107.5810    24.4210     2.2540   -25.0370 
  178.6250    64.9770   114.9070   101.8100   109.2220    24.4640     2.2440   -24.7820 
