~V
VERS. 2.00: Ver 2.00
~W
STRT.M 65.0000:
STOP.M 273.0000:
STEP.M 0.1250:
NULL. -999.2500:
UWI. DF3011:
~C
DEPT.M :
DEN.GM/CC :
GR.API :
RML.OHMM :
RI. :
RXO.OHMM :
CALI.CM :
AC.US/MT :
SP.MV :
~A
# ...
  155.0000     2.2300    62.3050   125.7560   117.8180   127.9720    25.3390   401.1120   -11.7070 
  155.1250     2.2370    62.5630   126.7780   121.4450   130.5280    25.1290   399.2310   -11.9340 
  155.2500     2.2470    66.8120   121.1890   118.7170   120.7360    25.1670   397.0230   -12.1610 
  155.3750     2.2550    72.6780   110.5090   110.2280   109.9060    25.4700   394.6620   -12.4020 
  155.5000     2.2590    77.6110    97.1920    97.8370   101.2580    25.7340   392.9410   -12.6280 
  155.6250     2.2590    77.5070    83.9280    84.1000    89.4450    25.8590   394.0170   -12.7720 
  155.7500     2.2550    75.5860    71.0150    71.4970    70.6940    25.9540   398.6570   -12.8780 
  155.8750     2.2500    75.7710    60.9090    61.1150    54.1480    25.9710   405.7280   -12.9990 
  156.0000     2.2460    78.6260    53.5920    53.3190    46.6190    25.8230   412.1780   -13.1590 
  156.1250     2.2480    81.4550    49.2300    48.4940    41.9930    25.4940   413.6970   -13.3790 
  156.2500     2.2590    81.7100    47.1910    46.0770    40.4340    25.0420   409.7830   -13.6260 
  156.3750     2.2740    79.4060    47.3620    45.9640    39.9330    24.5830   402.3290   -13.8870 
  156.5000     2.2870    77.2930    49.5900    48.0030    40.9140    24.3650   395.0170   -14.1970 
  156.6250     2.2880    77.1380    53.7210    52.0680    44.1310    24.4730   392.3540   -14.6390 
  156.7500     2.2780    77.5220    58.6650    57.0760    48.1950    24.8650   394.4990   -15.1520 
  156.8750     2.2640    75.5830    63.4500    62.0470    53.2190    25.3880   399.1190   -15.6780 
  157.0000     2.2520    74.1080    67.1630    66.0150    57.5290    25.7950   403.0950   -16.1990 
  157.1250     2.2470    75.4570    69.1370    68.1200    56.3240    25.9710   404.4820   -16.7130 
  157.2500     2.2450    77.2860    70.1270    68.9050    52.6500    26.0640   404.2430   -17.2520 
  157.3750     2.2420    78.0630    71.1690    69.2980    51.5100    25.9900   403.3730   -17.8180 
  157.5000     2.2370    76.3040    73.4220    70.4800    53.3260    25.6230   402.6730   -18.4020 
  157.6250     2.2310    72.0580    78.6800    74.1070    57.0040    25.2850   403.4510   -18.9880 
  157.7500     2.2280    67.8850    87.4740    81.1800    62.3050    25.4090   406.0240   -19.5680 
  157.8750     2.2310    67.4540   101.4260    93.2610    70.1330    25.5900   409.0100   -20.1570 
  158.0000     2.2360    70.8160   122.0830   112.4120    82.6420    25.4080   409.7190   -20.7760 
  158.1250     2.2370    72.1130   154.8170   142.5890   107.7300    25.2190   405.8610   -21.4080 
  158.2500     2.2310    68.5690   198.3450   183.0410   158.7870    25.1990   400.1810   -21.9760 
  158.3750     2.2180    63.0830   250.5750   231.3490   238.6210    25.4230   396.8060   -22.4650 
  158.5000     2.2030    59.7610   307.0910   281.4030   336.7510    25.6380   398.7020   -22.8640 
  158.6250     2.1900    61.1260   351.7190   321.6970   417.7590    25.7780   405.2570   -23.1120 
  158.7500     2.1820    63.1300   374.8320   344.8480   444.4400    25.7900   411.0270   -23.2090 
  158.8750     2.1760    63.6210   375.1880   348.7460   413.3200    25.7430   412.6280   -23.1630 
  159.0000     2.1700    63.3630   359.4220   337.3960   375.2740    25.6960   409.8700   -22.9800 
  159.1250     2.1620    62.7340   337.0580   318.0250   354.2260    25.6830   404.9730   -22.6530 
  159.2500     2.1560    64.0480   316.2430   298.8520   338.7450    25.7100   401.0270   -22.2470 
  159.3750     2.1560    67.6920   299.9630   283.3200   319.6330    25.7630   399.3580   -21.7590 
  159.5000     2.1620    70.5670   289.9440   273.3850   287.9890    25.8110   400.2760   -21.1910 
  159.6250     2.1710    66.3990   288.8770   271.6800   255.5480    25.8340   403.3790   -20.5400 
  159.7500     2.1790    58.6750   295.3850   277.3850   247.7930    25.8980   407.0670   -19.8300 
  159.8750     2.1820    54.2330   307.4640   288.9940   268.1340    26.0410   410.0380   -19.0840 
  160.0000     2.1840    54.8710   321.3020   302.9500   300.8970    26.1810   411.3970   -18.3470 
  160.1250     2.1850    57.3390   329.5320   312.6120   331.1390    26.3000   411.1450   -17.6830 
  160.2500     2.1860    58.6510   327.9980   312.7280   343.3570    26.3900   410.5470   -17.0620 
  160.3750     2.1850    58.0630   314.9970   300.9420   329.3520    26.4520   410.6710   -16.4870 
  160.5000     2.1810    56.1410   293.0800   279.0240   295.6870    26.4750   412.5730   -15.9790 
  160.6250     2.1780    57.1790   268.1990   252.3150   253.2940    26.4550   417.1520   -15.5900 
  160.7500     2.1780    62.3610   242.0570   227.7130   206.2100    26.3830   422.6500   -15.2800 
  160.8750     2.1810    66.7540   222.0160   208.1800   180.8660    26.2330   426.1370   -15.0210 
  161.0000     2.1880    67.8920   207.7540   194.2070   176.9110    26.0690   424.8160   -14.7700 
  161.1250     2.1970    67.6000   198.1450   185.2360   175.2210    25.9220   417.8670   -14.4820 
  161.2500     2.2060    65.9740   190.4830   178.7170   170.8920    25.7910   410.0450   -14.1660 
  161.3750     2.2130    60.5410   183.3970   173.2460   159.7980    25.6870   404.9560   -13.8550 
  161.5000     2.2160    54.6510   176.1010   167.9040   145.5070    25.7220   403.2600   -13.5500 
  161.6250     2.2130    53.8760   168.2230   162.1920   138.6080    25.7930   403.5510   -13.2290 
  161.7500     2.2070    55.4790   159.9910   156.0160   133.7190    25.7820   404.3600   -12.9300 
  161.8750     2.2010    55.5010   150.8700   149.0440   126.1870    25.7170   405.4490   -12.7090 
  162.0000     2.1980    54.5330   140.4920   140.3970   119.3640    25.5590   406.3560   -12.5670 
  162.1250     2.2010    55.4350   126.2800   128.2630   111.7620    25.2910   406.4310   -12.4660 
  162.2500     2.2090    57.3340   109.9750   112.7850   100.2690    25.0300   405.5820   -12.4050 
  162.3750     2.2190    58.9200    92.6530    95.2950    86.5960    24.7860   404.2140   -12.3860 
  162.5000     2.2330    62.2700    74.5710    78.0770    70.4980    24.4250   403.2330   -12.4210 
  162.6250     2.2470    67.5050    61.6840    63.7790    46.8510    23.9320   403.1870   -12.5120 
  162.7500     2.2620    73.0180    51.5240    52.9830    34.1960    23.5970   403.3090   -12.6370 
  162.8750     2.2740    76.2120    45.4260    45.6970    32.2040    23.4140   403.3470   -12.7400 
  163.0000     2.2830    76.1700    42.4280    41.7120    33.9290    23.4870   403.8160   -12.8170 
  163.1250     2.2870    73.7380    43.1590    41.5840    34.8180    23.7560   405.0250   -12.9460 
  163.2500     2.2850    72.5070    47.4030    45.0000    36.6880    24.0800   405.0700   -13.1530 
  163.3750     2.2790    75.0380    55.2470    51.9790    44.8470    24.2080   402.1840   -13.4150 
  163.5000     2.2690    79.4310    66.1270    61.9030    60.2890    24.1420   395.4650   -13.7020 
  163.6250     2.2590    79.1570    78.3510    73.1250    78.6330    24.1610   386.4100   -14.0380 
  163.7500     2.2510    74.3730    88.9580    82.8230    91.2120    24.3800   381.7900   -14.4070 
  163.8750     2.2470    70.4130    95.6560    88.9120    93.0050    24.5910   384.1140   -14.7950 
  164.0000     2.2460    71.5350    97.5240    90.5750    87.1980    24.5370   389.6610   -15.1980 
  164.1250     2.2460    73.8850    95.4470    88.4500    79.0960    24.2140   392.2110   -15.5790 
  164.2500     2.2460    72.7850    92.1860    85.2850    75.4610    23.9610   392.0600   -15.9120 
  164.3750     2.2490    71.1780    88.9900    82.5180    77.2260    23.9170   392.1700   -16.1900 
  164.5000     2.2530    70.6840    86.2740    80.6570    80.0290    24.1130   392.8030   -16.4000 
  164.6250     2.2590    71.4160    83.7380    79.6060    80.9700    24.4520   393.2280   -16.5270 
  164.7500     2.2640    71.7630    82.5510    78.7720    79.9190    24.4330   392.5080   -16.5950 
  164.8750     2.2680    71.5440    81.5480    77.8290    78.4090    24.2510   390.4490   -16.6180 
