~V
VERS. 2.00: Ver 2.00
~W
STRT.M 67.0000:
STOP.M 264.0000:
STEP.M 0.1250:
NULL. -999.2500:
UWI. DF3014:
~C
DEPT.M :
GR.API :
CALI.CM :
RXO.OHMM :
RI. :
RML.OHMM :
DEN.GM/CC :
SP.MV :
~A
# ...
  224.5000    86.0800    23.2380    25.7360    23.5720    30.1490     2.3650   -37.4050 
  224.6250    84.4250    23.2440    26.0190    24.5530    30.9990     2.3780   -37.5500 
  224.7500    83.1180    23.2340    25.6610    24.9340    31.0840     2.4070   -37.6310 
  224.8750    81.6650    23.2370    24.5450    24.9250    30.7470     2.4450   -37.6200 
  225.0000    80.7650    23.2000    23.5800    24.7840    30.3010     2.4730   -37.5520 
  225.1250    84.1460    23.1910    25.4410    24.7250    30.0020     2.4780   -37.5380 
  225.2500    87.5940    23.1920    27.6380    24.8170    29.9150     2.4560   -37.6100 
  225.3750    86.0260    23.2730    27.2200    25.0950    30.0580     2.4180   -37.7500 
  225.5000    80.1040    23.3020    24.5810    25.5730    30.4370     2.3830   -37.9110 
  225.6250    77.4110    23.2280    25.5110    26.3160    31.0710     2.3590   -37.9800 
  225.7500    81.0140    23.2170    26.6820    27.2150    31.8240     2.3480   -38.0060 
  225.8750    84.8870    23.1810    26.9040    28.1640    32.5570     2.3490   -38.0090 
  226.0000    85.7770    23.1710    27.0600    29.0870    33.2280     2.3590   -38.0460 
  226.1250    83.8150    23.2210    28.4130    30.1260    34.0190     2.3700   -38.1550 
  226.2500    81.7970    23.2250    30.6500    31.3350    35.0260     2.3730   -38.2740 
  226.3750    79.0450    23.1990    32.3330    32.7970    36.4130     2.3660   -38.3570 
  226.5000    73.2580    23.2120    32.2150    34.6220    38.3120     2.3580   -38.3510 
  226.6250    68.1880    23.2260    31.6430    37.0060    40.9010     2.3560   -38.2850 
  226.7500    68.1620    23.2150    35.5940    39.8510    43.9650     2.3650   -38.2100 
  226.8750    71.8660    23.1380    48.6320    43.1060    47.4090     2.3800   -38.1720 
  227.0000    75.0080    23.0700    64.6670    46.6940    51.1590     2.3910   -38.1680 
  227.1250    74.6840    23.1930    70.1110    50.7050    55.3620     2.3930   -38.1220 
  227.2500    72.9550    23.2010    62.8780    55.2970    60.2380     2.3910   -37.9880 
  227.3750    71.1530    23.1670    52.6670    60.8340    66.0820     2.3850   -37.7530 
  227.5000    70.3700    23.1430    46.0750    67.3860    72.8410     2.3780   -37.4360 
  227.6250    68.8250    23.1570    53.9790    74.6460    80.1400     2.3750   -37.1600 
  227.7500    66.5570    23.2130    69.5740    81.5190    86.8380     2.3730   -36.9540 
  227.8750    67.0590    23.1890    83.1050    86.8330    91.7340     2.3660   -36.7570 
  228.0000    71.0190    23.1570    86.9140    89.4050    93.5750     2.3590   -36.4900 
  228.1250    73.3840    23.2090    85.4470    87.9660    91.1010     2.3570   -36.0620 
  228.2500    72.0460    23.2200    82.2960    83.5840    85.7430     2.3550   -35.5660 
  228.3750    68.2340    23.1840    75.1170    77.7010    79.2560     2.3350   -35.1020 
  228.5000    65.5840    23.1800    63.1120    72.0180    73.4440     2.3060   -34.7150 
  228.6250    67.3530    23.2000    53.9700    68.2730    69.8330     2.2850   -34.3950 
  228.7500    70.0320    23.1890    51.2610    66.7230    68.5110     2.2840   -34.0470 
  228.8750    68.9510    23.1170    50.7740    67.1790    69.2950     2.2950   -33.6350 
  229.0000    65.6330    23.0060    50.1640    69.2370    71.7740     2.2990   -33.2020 
  229.1250    65.2430    22.9200    51.3930    72.4790    75.5050     2.2980   -32.8230 
  229.2500    66.1090    22.9050    57.6330    76.0630    79.7260     2.2990   -32.5250 
  229.3750    65.4880    22.8580    66.3250    79.4990    83.8040     2.3100   -32.2870 
  229.5000    63.9110    22.8400    71.2010    82.3850    87.4680     2.3240   -32.1230 
  229.6250    63.8540    22.8720    67.2570    84.7540    90.7420     2.3360   -31.8910 
  229.7500    66.1830    22.8600    63.4280    87.3150    94.1970     2.3440   -31.5830 
  229.8750    69.9420    22.8740    63.9170    90.3280    97.9550     2.3460   -31.2660 
  230.0000    73.1080    23.0080    70.2060    93.6130   101.8040     2.3410   -30.9450 
  230.1250    74.8950    23.1120    75.1620    96.6750   105.3250     2.3320   -30.7140 
  230.2500    74.9740    23.0740    76.4650    99.0020   107.7860     2.3250   -30.5370 
  230.3750    71.7310    23.0620    75.2340    99.5090   107.9500     2.3290   -30.3230 
  230.5000    67.2220    23.0140    73.7990    97.1210   104.6210     2.3450   -29.9690 
  230.6250    66.3790    22.9950    67.9010    90.8280    96.8500     2.3690   -29.5220 
  230.7500    66.7870    23.0310    63.2640    81.7220    86.3020     2.3940   -29.1090 
  230.8750    63.8730    22.9500    61.3190    71.2410    74.6410     2.4040   -28.7780 
  231.0000    60.3780    22.9840    59.8230    60.8320    63.3780     2.3910   -28.5600 
  231.1250    62.2040    23.2100    54.1240    51.7330    53.6910     2.3640   -28.3820 
  231.2500    65.8320    23.3220    43.6860    44.2140    45.7130     2.3390   -28.1360 
  231.3750    67.8180    23.1980    33.2740    38.3350    39.5830     2.3330   -27.8360 
  231.5000    69.1480    22.9540    27.6230    34.0570    35.1800     2.3420   -27.5600 
  231.6250    70.8000    22.8950    26.6440    31.2740    32.3780     2.3610   -27.4210 
  231.7500    70.8740    22.8860    25.8010    29.3750    30.5290     2.3790   -27.3950 
  231.8750    69.3910    22.8550    24.5720    28.1690    29.4110     2.3820   -27.4150 
  232.0000    68.5650    22.8580    22.6310    27.5230    28.8560     2.3720   -27.3950 
  232.1250    69.7670    22.9040    21.3670    27.3300    28.7440     2.3530   -27.2790 
  232.2500    72.5910    22.8750    22.2080    27.3780    28.8760     2.3330   -27.1300 
  232.3750    75.1150    22.8500    24.3360    27.5730    29.1440     2.3140   -27.0310 
  232.5000    74.6290    22.8660    25.5780    27.7810    29.4240     2.2940   -27.0290 
  232.6250    72.2420    22.8820    25.5160    27.9670    29.7050     2.2760   -27.0870 
  232.7500    71.1280    22.8320    24.8240    28.1950    30.0790     2.2750   -27.1050 
  232.8750    69.8920    22.8050    24.1690    28.4570    30.5680     2.3010   -27.0500 
  233.0000    68.4130    22.8820    24.6290    28.8080    31.2190     2.3350   -26.9440 
  233.1250    70.2510    22.8670    25.5440    29.3250    32.0810     2.3630   -26.8490 
  233.2500    75.4110    22.7670    26.3100    29.8520    32.9120     2.3840   -26.8640 
  233.3750    77.1970    22.7050    28.2400    30.1010    33.3890     2.4010   -26.9530 
  233.5000    72.8800    22.7880    28.8060    29.9330    33.3710     2.4060   -27.0780 
  233.6250    67.6260    22.8840    27.8010    29.2580    32.7080     2.3900   -27.1310 
  233.7500    65.3880    22.8610    26.3410    28.2520    31.6380     2.3570   -27.1080 
  233.8750    66.3790    22.8610    25.0360    27.1760    30.5010     2.3240   -27.0670 
  234.0000    68.1070    22.8920    21.8830    26.2900    29.6270     2.3100   -27.0720 
  234.1250    69.0340    22.8830    20.1130    25.8000    29.2560     2.3130   -27.1830 
  234.2500    68.1560    22.8710    20.8380    25.6850    29.3220     2.3200   -27.3040 
  234.3750    66.3270    22.8440    23.5940    25.8580    29.6860     2.3190   -27.3550 
  234.5000    65.2310    22.8500    25.8660    26.0810    30.0330     2.3140   -27.2610 
  234.6250    64.7210    22.8670    25.8380    26.0710    30.0020     2.3150   -27.1020 
  234.7500    63.9690    22.8080    25.5160    25.7030    29.4800     2.3260   -27.0170 
  234.8750    63.3490    22.7170    24.6920    24.9540    28.4440     2.3370   -27.0320 
  235.0000    63.0560    22.6120    22.8280    23.9240    27.0490     2.3380   -27.0960 
  235.1250    63.4090    22.5900    21.1070    22.8120    25.6190     2.3300   -27.0750 
  235.2500    66.2020    22.6060    20.1930    21.8220    24.3820     2.3220   -26.9440 
  235.3750    72.2190    22.5910    19.5590    21.0230    23.4140     2.3270   -26.7760 
  235.5000    77.0220    22.5780    18.7080    20.4420    22.7300     2.3410   -26.6510 
  235.6250    74.4430    22.5620    17.7500    20.0480    22.2660     2.3570   -26.6140 
