~V
VERS. 2.00: Ver 2.00
~W
STRT.M 110.0000:
STOP.M 266.0000:
STEP.M 0.1250:
NULL. -999.2500:
UWI. DF309:
~C
DEPT.M :
DEN.GM/CC :
SP.MV :
AC.US/MT :
GR.API :
CALI.CM :
RXO.OHMM :
RI. :
RML.OHMM :
~A
# ...
  260.0000     2.4800   -20.2910   231.8170    68.8780    18.4680    13.0770    10.0260    11.6780 
  260.1250     2.4350   -20.2840   243.3020    68.8780    18.4680    13.2370    10.0220    11.6680 
  260.2500     2.4040   -20.2800   254.8470    68.8780    18.4680    12.7160    10.0210    11.6580 
  260.3750     2.3810   -20.2760   262.5370    68.8780    18.4680    11.9040    10.0180    11.6480 
  260.5000     2.3570   -20.2530   264.5260    68.8780    18.4680    12.1320    10.0120    11.6380 
  260.6250     2.3280   -20.2380   264.4370    68.8780    18.4680    14.5110    10.0150    11.6310 
  260.7500     2.2950   -20.2200   264.1440    68.8780    18.4680    16.7780    10.0290    11.6320 
  260.8750     2.2690   -20.2190   264.2030    68.8780    18.5040    17.4200    10.0460    11.6410 
  261.0000     2.2500   -20.2250   264.2880    68.8780    18.6240    16.5100    10.0560    11.6580 
  261.1250     2.2380   -20.2320   264.1500    68.8780    18.8700    15.1580    10.0550    11.6750 
  261.2500     2.2250   -20.2340   263.9340    68.8780    18.9930    13.6570    10.0500    11.6840 
  261.3750     2.2030   -20.2350   263.8680    68.8780    18.9620    11.6420    10.0450    11.6810 
  261.5000     2.1660   -20.2470   264.0120    68.8780    18.7590     9.4610    10.0420    11.6700 
  261.6250     2.1140   -20.2460   264.1510    68.8780    18.3570     8.3370    10.0420    11.6700 
  261.7500     2.0600   -20.2690   264.1770    68.8780    17.8670     7.9440    10.0420    11.6700 
  261.8750     2.0260   -20.3010   264.1570    68.8780    17.3440     7.9140    10.0420    11.6700 
  262.0000     2.0170   -20.3350   264.1880    68.8780    16.8390     7.9320    10.0420    11.6700 
  262.1250     2.0210   -20.3640   264.1250    68.8780    16.3640     7.8390    10.0420    11.6700 
  262.2500     2.0190   -20.3960   263.7050    68.8780    15.8870     7.7230    10.0420    11.6700 
  262.3750     2.0140   -20.4150   262.9000    68.8780    15.3270     7.7140    10.0420    11.6700 
  262.5000     2.0150   -20.4340   262.0610    68.8780    14.7690     7.7680    10.0420    11.6700 
  262.6250     2.0280   -20.4740   261.6440    68.8780    14.2630     7.8620    10.0420    11.6700 
  262.7500     2.0440   -20.5050   261.7650    68.8780    13.7520     7.8670    10.0420    11.6700 
  262.8750     2.0540   -20.5160   262.2000    68.8780    13.2240     7.7140    10.0420    11.6700 
  263.0000     2.0550   -20.5160   262.5860    68.8780    12.7000     7.4880    10.0420    11.6700 
  263.1250     2.0490  -999.2500   262.7610    68.8780    12.2910     7.3350    10.0420    11.6700 
  263.2500     2.0400  -999.2500   275.4020    68.8780    12.1150     7.2870    10.0420    11.6700 
  263.3750     2.0330  -999.2500   313.1600    68.8780    12.0720     7.2780    10.0420    11.6700 
  263.5000     2.0330  -999.2500   388.8080    68.8780    12.0690     7.2780    10.0420    11.6700 
  263.6250     2.0430  -999.2500   422.7750    68.8780    12.0690     7.2800    10.0420    11.6700 
  263.7500     2.0530  -999.2500   432.0080    68.8780    12.0690     7.2800    10.0420    11.6700 
  263.8750     2.0530  -999.2500   433.4400    68.8780    12.0690     7.2790    10.0420    11.6700 
  264.0000     2.0450  -999.2500  -999.2500    68.8780    12.0690     7.2800    10.0420    11.6700 
  264.1250     2.0360  -999.2500  -999.2500    68.8780    12.0690     7.2810    10.0420    11.6700 
  264.2500     2.0330  -999.2500  -999.2500    68.8780    12.0680     7.2800    10.0420    11.6700 
  264.3750     2.0290  -999.2500  -999.2500    68.8780    12.0650     7.2790    10.0420    11.6700 
  264.5000     2.0230  -999.2500  -999.2500    68.8780    12.0670     7.2800    10.0420    11.6700 
  264.6250     2.0190  -999.2500  -999.2500    68.8780    12.0680     7.2810    10.0420    11.6700 
  264.7500     2.0240  -999.2500  -999.2500    68.8780    12.0690     7.2840    10.0420    11.6700 
  264.8750     2.0310  -999.2500  -999.2500    68.8780    12.0690     7.2860    10.0420    11.6700 
  265.0000     2.0340  -999.2500  -999.2500    68.8780    12.0690     7.2870    10.0420    11.6700 
  265.1250     2.0320  -999.2500  -999.2500    68.8780    12.0690     7.2860    10.0420    11.6700 
  265.2500     2.0280  -999.2500  -999.2500    68.8780    12.0690     7.2820    10.0420    11.6700 
  265.3750     2.0260  -999.2500  -999.2500    68.8780    12.0690     7.2800    10.0420    11.6700 
  265.5000     2.0280  -999.2500  -999.2500    68.8780    12.0690     7.2800    10.0420    11.6700 
  265.6250     2.0310  -999.2500  -999.2500    68.8780    12.0690     7.2800    10.0420    11.6700 
  265.7500     2.0290  -999.2500  -999.2500    68.8780    12.0690     7.2780    10.0420    11.6700 
  265.8750     2.0400  -999.2500  -999.2500    68.8780    12.0690     7.2780    10.0420    11.6700 
  266.0000     2.0890  -999.2500  -999.2500    68.8780    12.0690     7.2770    10.0420    11.6700 
