~V
VERS. 2.00: Ver 2.00
~W
STRT.M 105.0000:
STOP.M 279.0000:
STEP.M 0.1250:
NULL. -999.2500:
UWI. DF3027:
~C
DEPT.M :
DEN.GM/CC :
AC.US/MT :
GR.API :
CALI.CM :
RXO.OHMM :
RI. :
RML.OHMM :
SP.MV :
~A
# ...
  235.0000     2.4870   274.1870    65.4150    23.5350     7.9610     8.0650    10.1420    -9.3040 
  235.1250     2.4800   271.3040    67.3890    23.5330     8.2720     8.2810    10.4190    -9.1670 
  235.2500     2.4920   268.2930    69.4520    23.5220     8.2590     8.4570    10.6520    -9.0090 
  235.3750     2.5280   265.0530    69.6070    23.4840     8.2080     8.5900    10.8330    -8.8450 
  235.5000     2.5590   262.3050    68.4550    23.4560     8.4210     8.6740    10.9510    -8.7070 
  235.6250     2.5490   260.5870    67.3270    23.4390     8.6840     8.7000    10.9950    -8.6100 
  235.7500     2.5270   259.0590    66.4520    23.3590     8.5020     8.6840    10.9910    -8.5610 
  235.8750     2.5300   256.8380    64.6770    23.1960     7.9450     8.6470    10.9730    -8.5440 
  236.0000     2.5630   253.7000    64.1000    23.0150     7.6250     8.6170    10.9770    -8.5530 
  236.1250     2.5950   250.3570    65.0120    22.9370     8.1330     8.6340    11.0410    -8.5820 
  236.2500     2.6010   247.7510    64.8760    23.0230     9.0310     8.7060    11.1680    -8.6210 
  236.3750     2.5880   246.0990    64.6700    23.2130     9.7780     8.8280    11.3410    -8.6850 
  236.5000     2.5720   245.0430    65.6380    23.3490    10.2450     8.9800    11.5280    -8.7660 
  236.6250     2.5650   243.9930    66.4540    23.2490    10.6330     9.1320    11.6960    -8.8540 
  236.7500     2.5630   242.6440    66.4940    23.0250    10.9380     9.2680    11.8430    -8.9520 
  236.8750     2.5610   240.9590    67.1460    22.8410    11.0470     9.3900    11.9910    -9.0500 
  237.0000     2.5560   238.8540    68.2170    22.7710    11.1270     9.5170    12.1670    -9.1390 
  237.1250     2.5520   236.1350    67.1130    22.8180    11.4440     9.6750    12.4000    -9.2080 
  237.2500     2.5500   233.2820    66.5640    22.9550    12.0520     9.8730    12.6810    -9.2470 
  237.3750     2.5530   231.2850    68.1910    23.1890    13.2330    10.1050    12.9900    -9.2530 
  237.5000     2.5600   231.1790    70.6370    23.4720    15.1230    10.3540    13.2980    -9.2270 
  237.6250     2.5660   233.3790    73.4950    23.6770    16.5580    10.5890    13.5640    -9.1620 
  237.7500     2.5630   236.2320    76.1230    23.7540    16.3670    10.7910    13.7720    -9.0660 
  237.8750     2.5570   238.2310    76.6020    23.7410    15.2190    10.9500    13.9240    -8.9480 
  238.0000     2.5590   238.7370    75.6180    23.7110    14.7040    11.0730    14.0380    -8.8130 
  238.1250     2.5650   238.3760    75.4160    23.6940    15.1580    11.1700    14.1400    -8.6820 
  238.2500     2.5600   238.3890    76.2180    23.6980    15.2110    11.2520    14.2420    -8.5790 
  238.3750     2.5460   238.8830    74.5200    23.8120    14.3640    11.3160    14.3300    -8.4880 
  238.5000     2.5430   239.1520    70.6070    24.0810    13.0820    11.3490    14.3710    -8.4030 
  238.6250     2.5570   238.5360    67.9180    24.3730    12.1640    11.3270    14.3210    -8.3410 
  238.7500     2.5680   237.7850    68.5640    24.5370    11.9500    11.2480    14.1940    -8.2940 
  238.8750     2.5660   238.0150    71.1530    24.6060    12.2380    11.1230    14.0240    -8.2760 
  239.0000     2.5570   239.8920    73.1320    24.6240    12.4470    10.9760    13.8520    -8.2940 
  239.1250     2.5470   243.4920    72.9580    24.5280    12.3350    10.8480    13.7330    -8.3410 
  239.2500     2.5380   248.1590    70.1150    24.3410    12.5420    10.7770    13.6920    -8.3940 
  239.3750     2.5350   253.7620    66.8270    24.1670    13.1420    10.7800    13.7370    -8.4450 
  239.5000     2.5360   259.8950    64.7210    24.0870    13.3280    10.8500    13.8590    -8.4990 
  239.6250     2.5360   264.7150    64.5190    24.1270    12.4360    10.9870    14.0540    -8.5540 
  239.7500     2.5330   266.0530    69.5150    24.2410    11.3230    11.1730    14.3000    -8.6160 
  239.8750     2.5300   262.7310    75.2000    24.3840    10.8410    11.4080    14.5910    -8.6800 
  240.0000     2.5250   255.4520    76.5380    24.4660    11.4750    11.6860    14.9260    -8.7360 
  240.1250     2.5220   246.8900    72.9620    24.3760    13.5150    12.0000    15.2990    -8.7820 
  240.2500     2.5290   240.3300    70.7150    24.1590    15.9020    12.3130    15.6650    -8.8320 
  240.3750     2.5500   237.0470    72.8600    23.9130    17.2220    12.5930    15.9740    -8.8970 
  240.5000     2.5760   236.6070    73.7770    23.6790    16.7900    12.8100    16.1870    -8.9850 
  240.6250     2.5830   237.5310    71.4360    23.4130    15.3810    12.9260    16.2600    -9.0910 
  240.7500     2.5560   238.1650    69.5800    23.1420    14.3810    12.9420    16.2120    -9.1990 
  240.8750     2.5440   238.1380    71.3030    22.9380    14.1030    12.8520    16.0510    -9.2910 
  241.0000     2.5510   237.8840    74.3280    22.8460    14.4040    12.6600    15.7920    -9.3620 
  241.1250     2.5670   238.1020    75.2170    22.8370    14.9700    12.3740    15.4560    -9.4040 
  241.2500     2.5770   238.9260    75.3420    22.8160    15.0080    12.0560    15.1100    -9.4030 
  241.3750     2.5670   240.4400    75.7020    22.7810    14.0140    11.7550    14.8080    -9.3650 
  241.5000     2.5450   241.6840    78.4260    22.7750    12.5090    11.5070    14.5740    -9.2780 
  241.6250     2.5210   242.3030    82.5830    22.8800    11.9450    11.3320    14.3990    -9.1430 
  241.7500     2.5010   242.6500    82.6970    23.0960    12.6170    11.2060    14.2380    -8.9930 
  241.8750     2.4850   243.3590    77.1610    23.3800    13.6150    11.1180    14.0810    -8.8400 
  242.0000     2.4780   244.0980    70.3020    23.6890    13.6770    11.0770    13.9620    -8.7070 
  242.1250     2.4820   243.8190    68.1620    23.9910    12.3740    11.1200    13.9640    -8.6130 
  242.2500     2.4950   241.6420    70.2920    24.1950    11.1910    11.2650    14.1340    -8.5550 
  242.3750     2.5140   237.5340    73.3030    24.1720    11.2800    11.5200    14.4780    -8.5330 
  242.5000     2.5310   233.1230    75.9430    23.9350    12.6800    11.8640    14.9440    -8.5460 
  242.6250     2.5360   229.6460    77.8440    23.7250    14.5360    12.2380    15.4090    -8.5850 
  242.7500     2.5250   227.6260    77.9760    23.6670    16.0400    12.5600    15.7490    -8.6300 
  242.8750     2.5150   226.8240    75.3750    23.7180    16.7860    12.7830    15.9120    -8.6620 
  243.0000     2.5250   226.2110    71.6360    23.8340    16.6090    12.8970    15.9220    -8.6560 
  243.1250     2.5560   225.2430    68.4880    23.9970    16.1190    12.9290    15.8530    -8.6090 
  243.2500     2.5880   223.9030    68.9210    24.1680    16.1120    12.9390    15.7920    -8.5330 
  243.3750     2.5990   222.9590    72.3900    24.3600    16.2450    12.9530    15.7640    -8.4380 
  243.5000     2.5900   223.3300    75.9030    24.6150    15.8780    12.9770    15.7710    -8.3300 
  243.6250     2.5690   225.4790    76.7690    24.9050    15.2260    13.0080    15.8090    -8.2190 
  243.7500     2.5480   229.2200    74.9570    25.1640    15.1520    13.0350    15.8640    -8.1030 
  243.8750     2.5470   233.7890    73.2700    25.3680    15.6960    13.0450    15.9080    -8.0010 
  244.0000     2.5670   238.0330    72.2020    25.5020    16.2240    13.0060    15.8710    -7.9390 
  244.1250     2.5840   241.5620    72.5030    25.5250    15.8920    12.8140    15.5820    -7.9120 
  244.2500     2.5720   244.8560    73.5080    25.4720    14.6620    12.4090    14.9760    -7.9090 
  244.3750     2.5460   249.1290    73.8110    25.4140    12.9360    11.7960    14.0830    -7.9090 
  244.5000     2.5400   254.4710    72.9290    25.4160    11.2250    11.0720    13.0690    -7.9200 
  244.6250     2.5550   259.6640    72.2070    25.5050    10.0000    10.4250    12.2300    -7.9450 
  244.7500     2.5650   262.7590    72.5110    25.5710     9.6270    10.0000    11.7640    -7.9840 
  244.8750     2.5620   261.7640    72.9320    25.5450    10.3030     9.8660    11.7390    -8.0400 
