~V
VERS. 2.00: Ver 2.00
~W
STRT.M 59.0000:
STOP.M 281.0000:
STEP.M 0.1250:
NULL. -999.2500:
UWI. DF3005:
~C
DEPT.M :
DEN.GM/CC :
SP.MV :
AC.US/MT :
GR.API :
CALI.CM :
RXO.OHMM :
RI. :
RML.OHMM :
~A
# ...
  119.0000     2.2580   -14.6490   432.7180   100.0930    27.0710     5.1730     4.2240     5.3350 
  119.1250     2.2450   -14.7220   432.9830    98.6320    27.0460     5.7020     4.4210     5.5940 
  119.2500     2.2390   -14.8800   432.5160    95.5040    27.0290     7.1720     4.6880     5.9080 
  119.3750     2.2340   -15.0940   432.4690    91.9910    27.0190     9.6270     4.9250     6.1620 
  119.5000     2.2310   -15.3030   434.4050    89.8850    27.0140    11.8930     5.0330     6.2450 
  119.6250     2.2510   -15.4430   436.3000    89.6320    27.0140    11.3700     4.9420     6.0790 
  119.7500     2.2940   -15.5360   432.3020    91.8400    27.0140     8.6720     4.7280     5.7700 
  119.8750     2.3440   -15.6020   421.1630    98.2950    27.0150     6.1340     4.4720     5.4280 
  120.0000     2.3690   -15.6370   410.0400   105.4910    27.0140     5.3730     4.2440     5.1430 
  120.1250     2.3510   -15.6340   411.0490   106.5730    27.0030     5.4320     4.1090     5.0080 
  120.2500     2.3120   -15.6180   421.2590   104.4860    26.9910     4.9900     4.0760     5.0360 
  120.3750     2.2710   -15.6420   430.6100   104.2680    26.9770     4.5700     4.1590     5.2330 
  120.5000     2.2400   -15.7420   432.6170   104.1230    26.9530     4.8410     4.3710     5.5880 
  120.6250     2.2200   -15.9180   429.7470    98.1880    26.9220     5.7420     4.7220     6.0540 
  120.7500     2.2100   -16.1370   428.2890    90.6640    26.9020     6.6770     5.1220     6.4960 
  120.8750     2.2110   -16.3680   428.8190    86.3290    26.8980     7.4030     5.4550     6.7860 
  121.0000     2.2230   -16.5780   429.9890    84.3760    26.9000     7.7720     5.5990     6.8260 
  121.1250     2.2400   -16.7220   430.4860    82.4160    26.9000     7.2340     5.4740     6.5750 
  121.2500     2.2500   -16.7810   429.3220    82.0610    26.9000     6.5300     5.1990     6.1850 
  121.3750     2.2500   -16.7820   426.6960    85.4650    26.9000     5.9390     4.8940     5.7920 
  121.5000     2.2500   -16.7690   424.5720    91.7550    26.9000     5.9010     4.6440     5.4840 
  121.6250     2.2600   -16.7690   426.1530    96.8560    26.9000     6.4930     4.4840     5.2920 
  121.7500     2.2740   -16.7670   430.7730    97.4960    26.9000     6.2770     4.3790     5.1690 
  121.8750     2.2810   -16.7320   435.4370    95.5470    26.9000     5.4410     4.3000     5.0860 
  122.0000     2.2770   -16.6740   436.9330    96.2730    26.9000     4.8860     4.2410     5.0330 
  122.1250     2.2710   -16.6460   433.9120    98.7140    26.9000     4.8380     4.2350     5.0570 
  122.2500     2.2680   -16.6690   429.3070    97.5630    26.9000     5.0090     4.3150     5.1880 
  122.3750     2.2620   -16.7430   425.0150    93.6640    26.9000     5.3460     4.4910     5.4270 
  122.5000     2.2490   -16.8400   422.4590    91.6330    26.9000     5.8970     4.7270     5.7080 
  122.6250     2.2380   -16.9640   423.2210    92.7630    26.9000     6.3710     4.9250     5.8870 
  122.7500     2.2430   -17.1440   427.3830    93.1310    26.9000     6.7470     5.0010     5.8620 
  122.8750     2.2710   -17.3810   433.4970    92.4920    26.9000     6.4720     4.9220     5.6120 
  123.0000     2.3120   -17.6530   436.1890    92.4380    26.9000     5.5870     4.7150     5.2210 
  123.1250     2.3470   -17.9130   431.5520    94.0300    26.9000     4.7910     4.4630     4.8710 
  123.2500     2.3630   -18.1630   424.9850    95.7170    26.9000     5.2340     4.2780     4.7180 
  123.3750     2.3530   -18.4290   423.7140    95.1110    26.9000     5.7890     4.2320     4.8280 
  123.5000     2.3150   -18.7180   428.4050    91.9770    26.9010     5.9840     4.3640     5.1870 
  123.6250     2.2680   -19.0630   431.1500    87.8450    26.8880     5.9260     4.6810     5.7060 
  123.7500     2.2430   -19.4770   429.3070    83.5410    26.8490     7.5770     5.0530     6.1710 
  123.8750     2.2480   -19.9640   426.1450    79.8990    26.7930     9.4100     5.3280     6.3980 
  124.0000     2.2680   -20.4870   424.3860    79.5370    26.7500     9.4360     5.3750     6.2880 
  124.1250     2.2840   -20.9450   423.1760    82.4200    26.7340     8.6760     5.1550     5.8910 
  124.2500     2.2950   -21.3050   422.5040    85.0250    26.7190     7.2290     4.8540     5.4810 
  124.3750     2.3170   -21.5880   422.3500    86.9690    26.7010     6.4070     4.6410     5.2730 
  124.5000     2.3630   -21.8590   415.3290    87.8720    26.6830     7.2520     4.6650     5.4370 
  124.6250     2.4400   -22.2140   387.4260    83.1930    26.6620     8.2530     5.1270     6.2170 
  124.7500     2.5270   -22.6550   340.3570    75.1600    26.6360    10.1930     6.1060     7.6730 
  124.8750     2.6070   -23.1580   286.9820    71.9950    26.6170    14.0320     7.7700     9.9650 
  125.0000     2.6640   -23.7120   244.1970    76.7820    26.6120    23.5820    10.3140    13.2700 
  125.1250     2.6880   -24.3130   222.9070    80.7790    26.6130    30.5890    13.9490    17.7590 
  125.2500     2.6900   -24.9440   212.8020    77.2350    26.6140    35.2830    17.9850    22.5050 
  125.3750     2.6730   -25.5970   206.5660    69.4460    26.6130    38.0940    21.2030    25.7440 
  125.5000     2.6280   -26.2820   209.9090    63.5230    26.6140    38.1750    22.2340    25.6410 
  125.6250     2.5410   -27.0400   240.0210    61.8050    26.6130    33.1370    20.3680    22.0070 
  125.7500     2.4300   -27.8630   294.4250    61.6720    26.5970    24.9300    17.2130    17.6140 
  125.8750     2.3270   -28.7600   355.9320    62.4440    26.5800    17.6520    14.0220    13.9340 
  126.0000     2.2620   -29.7340   401.8800    64.5490    26.6090    12.8130    11.4950    11.4000 
  126.1250     2.2420   -30.7380   417.1330    65.9220    26.7200    11.6950     9.9200    10.0170 
  126.2500     2.2400   -31.6910   415.4560    64.8090    26.8650    11.4600     9.0260     9.3280 
  126.3750     2.2390   -32.5200   410.3010    62.9300    27.0100    11.1840     8.6330     9.0980 
  126.5000     2.2330   -33.1810   407.9150    63.1540    27.1550    11.0110     8.5590     9.1240 
  126.6250     2.2270   -33.6650   408.4840    66.3740    27.2870    11.2110     8.6420     9.2390 
  126.7500     2.2240   -34.0310   410.3720    68.4130    27.3700    11.3510     8.7370     9.3270 
  126.8750     2.2210   -34.3380   412.1330    67.5960    27.3980    11.4460     8.8040     9.3780 
  127.0000     2.2170   -34.6320   412.2680    66.0290    27.3990    11.4940     8.8410     9.4220 
  127.1250     2.2130   -34.9450   411.0230    65.8410    27.3930    11.5300     8.8530     9.4740 
  127.2500     2.2120   -35.2920   411.2760    65.6540    27.3670    11.6890     8.8530     9.5030 
  127.3750     2.2100   -35.6510   414.3120    64.1880    27.3090    11.7880     8.8490     9.4900 
  127.5000     2.2080   -35.9910   418.8270    62.8080    27.2230    11.8440     8.8540     9.4580 
  127.6250     2.2020   -36.3010   421.8390    64.2640    27.1280    12.0170     8.8690     9.4470 
  127.7500     2.1920   -36.5930   422.4410    68.0350    27.0230    12.2390     8.8700     9.4500 
  127.8750     2.1810   -36.8780   421.6110    71.6730    26.9080    12.4200     8.8280     9.4240 
  128.0000     2.1750   -37.1230   420.7120    71.7450    26.8080    12.7210     8.7190     9.3110 
  128.1250     2.1840   -37.2660   420.2480    68.0420    26.7980    12.7850     8.5340     9.0810 
  128.2500     2.1990   -37.2980   419.5070    65.7170    26.9200    12.2020     8.3210     8.8240 
  128.3750     2.2090   -37.2260   418.0750    66.8460    27.1380    11.5950     8.1360     8.6400 
  128.5000     2.2130   -37.1100   416.3560    68.3430    27.3510    12.3450     8.0290     8.5990 
  128.6250     2.2140   -37.0010   415.7830    67.6440    27.4530    14.1880     8.0600     8.7460 
  128.7500     2.2120   -36.9270   417.0240    66.8630    27.4710    17.6440     8.2200     9.0330 
  128.8750     2.2070   -36.9180   419.6690    66.9390    27.4640    18.8460     8.4810     9.4040 
