~V
VERS. 2.00: Ver 2.00
~W
STRT.M 62.0000:
STOP.M 265.0000:
STEP.M 0.1250:
NULL. -999.2500:
UWI. DF3071:
~C
DEPT.M :
GR.API :
CALI.CM :
RXO.OHMM :
RI. :
RML.OHMM :
DEN.GM/CC :
SP.MV :
~A
   62.0000    59.1360    24.1050     1.5710     0.1170     5.9710  -999.2500   142.7350 
   62.1250    57.2350    24.0810     1.5820     0.1440     6.0370  -999.2500   142.3590 
   62.2500    57.9450    24.0730     1.5880     0.1660     6.0700  -999.2500   141.5340 
   62.3750    60.9680    24.0780     1.5770     0.1820     6.0570  -999.2500   140.3060 
   62.5000    62.9760    24.1390     1.5530     0.1900     6.0100  -999.2500   138.8500 
   62.6250    61.3690    24.3170     1.5260     0.1910     5.9690  -999.2500   137.2460 
   62.7500    57.9400    24.5550     1.4840     0.1890     5.9810  -999.2500   135.1900 
   62.8750    53.2300    24.7630     1.4110     0.1880     6.0710  -999.2500   132.1060 
   63.0000    48.2200    24.9280     1.3280     0.1960     6.2280  -999.2500   127.8790 
   63.1250    45.3020    25.0560     1.3420     0.2170     6.4020  -999.2500   122.7590 
   63.2500    44.3010    25.0210     1.5230     0.2500     6.5310  -999.2500   117.2980 
   63.3750    45.6430    24.7490     1.7930     0.2900     6.5930  -999.2500   111.5030 
   63.5000    48.2800    24.3820     1.9780     0.3290     6.5970  -999.2500   105.3870 
   63.6250    49.9750    24.2160     1.9010     0.3600     6.5580  -999.2500    99.1570 
   63.7500    49.8630    24.2820     1.6980     0.3790     6.4800  -999.2500    93.3530 
   63.8750    49.8770    24.4440     1.5430     0.3870     6.3560  -999.2500    88.6210 
   64.0000    51.6980    24.5570     1.5110     0.3890     6.2200  -999.2500    85.0360 
   64.1250    52.8730    24.5760     1.4870     0.3900     6.1930  -999.2500    82.0100 
   64.2500    53.1310    24.6880     1.3820     0.3950     6.3460  -999.2500    78.9970 
   64.3750    54.9680    25.0280     1.3100     0.4020     6.6530  -999.2500    76.0800 
   64.5000    58.7280    25.5280     1.4110     0.4080     6.9990  -999.2500    73.3670 
   64.6250    60.1070    25.9300     1.6260     0.4070     7.2380  -999.2500    70.8480 
   64.7500    58.0400    26.1000     1.7680     0.3930     7.3140  -999.2500    68.4220 
   64.8750    55.7130    26.0960     1.8110     0.3590     7.0880  -999.2500    66.2030 
   65.0000    53.8260    26.0480     1.8070     0.2820     6.3000  -999.2500    64.5030 
   65.1250    51.1800    26.0520     1.7930     0.1260     4.7720  -999.2500    64.1880 
   65.2500    49.7490    26.0910     1.7860    -0.0570     3.0600  -999.2500    65.6140 
   65.3750    49.9560    26.1310     1.7900    -0.1990     1.7060  -999.2500    68.7460 
   65.5000    49.3710    26.1530     1.7910    -0.2790     0.9330  -999.2500    72.8100 
   65.6250    47.8070    26.1640     1.7710    -0.3070     0.6570  -999.2500    76.4200 
   65.7500    50.6050    26.1870     1.8220    -0.3000     0.6100  -999.2500    78.6280 
   65.8750    58.2310    26.1200     2.3320    -0.2320     0.7410  -999.2500    78.7270 
   66.0000    65.3510    25.7880     4.3790    -0.0320     1.0970  -999.2500    76.2930 
   66.1250    68.5140    25.1940     9.0830     0.5010     1.8690  -999.2500    70.9850 
   66.2500    70.2330    24.6800    12.6980     1.4920     3.0260  -999.2500    63.4700 
   66.3750    71.9170    24.4180    12.2610     2.8850     4.3310  -999.2500    54.0370 
   66.5000    72.9730    24.3400     9.4500     4.2880     5.4070  -999.2500    43.4410 
   66.6250    73.4090    24.2910     8.2890     5.2400     5.9710  -999.2500    32.9380 
   66.7500    72.4040    24.2200     8.1860     5.8510     6.2540  -999.2500    23.5150 
   66.8750    71.0050    24.1480     8.3980     6.3160     6.4890  -999.2500    15.7740 
   67.0000    70.5980    24.1190     8.5680     6.7350     6.7760  -999.2500    10.0650 
   67.1250    72.2300    24.1470     8.7510     7.0900     7.0750  -999.2500     6.3430 
   67.2500    74.7650    24.1770     8.9170     7.3480     7.3140  -999.2500     3.6800 
   67.3750    75.9030    24.1900     9.0620     7.4970     7.4630  -999.2500     1.7380 
   67.5000    74.3060    24.2110     9.1850     7.5440     7.5230  -999.2500     0.2420 
   67.6250    70.5400    24.2550     9.1860     7.4810     7.4850  -999.2500    -0.9360 
   67.7500    69.2280    24.3010     9.0860     7.3180     7.3640  -999.2500    -1.8080 
   67.8750    70.6620    24.3330     8.9480     7.0750     7.2000  -999.2500    -2.3990 
   68.0000    71.2170    24.3460     8.8770     6.8600     7.0980  -999.2500    -2.8990 
   68.1250    70.7100    24.3510     8.9190     6.9300     7.2870  -999.2500    -3.3010 
   68.2500    71.5530    24.3560     9.0940     7.4580     7.9160  -999.2500    -3.6470 
   68.3750    72.1430    24.3660     9.6330     8.5420     9.0670  -999.2500    -3.9970 
   68.5000    69.6460    24.3940    11.2680    10.1160    10.5980  -999.2500    -4.2880 
   68.6250    66.5320    24.4870    16.7690    11.7030    11.9960  -999.2500    -4.5590 
   68.7500    65.8480    24.6380    23.3810    12.4830    12.4280  -999.2500    -4.9020 
   68.8750    66.8880    24.7540    23.9530    12.0850    11.4340  -999.2500    -5.2990 
   69.0000    67.4410    24.7380    17.5270    10.8940     9.5020  -999.2500    -5.6900 
   69.1250    67.5010    24.6010    11.5630     9.6630     7.9140  -999.2500    -6.0960 
   69.2500    68.5170    24.4880     9.6200     8.8350     7.2330  -999.2500    -6.4820 
   69.3750    69.4760    24.4730     9.4040     8.4840     7.1830  -999.2500    -6.8220 
   69.5000    69.1030    24.4940    10.0930     8.5200     7.3800  -999.2500    -7.2000 
   69.6250    67.8350    24.2680    11.0630     8.7260     7.6460  -999.2500    -7.5290 
   69.7500    68.2530    23.7350    10.8700     8.8320     7.7820  -999.2500    -7.8340 
   69.8750    69.5670    23.1200     9.7600     8.7400     7.7280  -999.2500    -8.1190 
   70.0000    69.6150    22.7130     8.9620     8.4890     7.5280  -999.2500    -8.3810 
   70.1250    70.8090    22.6210     8.8920     8.1930     7.2870  -999.2500    -8.6660 
   70.2500    74.0180    22.6300     8.8830     7.9650     7.1010  -999.2500    -8.9540 
   70.3750    75.6780    22.6180     8.6050     7.8470     7.0050  -999.2500    -9.2480 
   70.5000    75.7840    22.5250     8.1510     7.8400     7.0090  -999.2500    -9.5750 
   70.6250    78.4820    22.3750     7.9330     7.9300     7.1100  -999.2500    -9.9690 
   70.7500    80.4440    22.2640     8.0760     8.0710     7.2590  -999.2500   -10.3770 
   70.8750    76.3450    22.2100     8.4300     8.2240     7.4130  -999.2500   -10.8100 
   71.0000    68.6150    22.1820     8.5210     8.3470     7.5350  -999.2500   -11.2390 
   71.1250    66.9860    22.1620     8.1700     8.4030     7.5880  -999.2500   -11.6640 
   71.2500    71.1280    22.1510     7.8000     8.4020     7.5890  -999.2500   -12.0780 
   71.3750    74.6910    22.1540     7.6740     8.3690     7.5660  -999.2500   -12.4870 
   71.5000    74.9970    22.1600     7.6800     8.3340     7.5530  -999.2500   -12.8560 
   71.6250    73.9510    22.1350     7.8310     8.3160     7.5750  -999.2500   -13.2270 
   71.7500    72.9470    22.0540     8.0260     8.3120     7.6160  -999.2500   -13.5340 
   71.8750    72.2280    21.9400     8.1810     8.3040     7.6520  -999.2500   -13.7910 
   72.0000    72.8630    21.8920     8.2730     8.2700     7.6630  -999.2500   -14.0310 
   72.1250    73.3840    22.1340     8.4910     8.1980     7.6460  -999.2500   -14.1450 
   72.2500    72.2660    22.6600     8.6920     8.1000     7.6170  -999.2500   -14.1980 
   72.3750    72.0940    23.2670     8.7220     7.9800     7.5730  -999.2500   -14.1920 
   72.5000    76.4200    23.6890     8.5560     7.8230     7.4990  -999.2500   -14.1040 
   72.6250    80.1060    23.8030     8.4290     7.6160     7.3880  -999.2500   -13.9030 
   72.7500    79.1690    23.7880     8.4920     7.3930     7.2750  -999.2500   -13.7250 
   72.8750    78.5860    23.7620     8.4710     7.2000     7.2070  -999.2500   -13.5930 
   73.0000    83.8210    23.7560     7.9710     7.0830     7.2220  -999.2500   -13.5470 
   73.1250    91.1430    23.7210     7.4140     7.0810     7.3370  -999.2500   -13.6880 
