~V
VERS. 2.00: Ver 2.00
~W
STRT.M 56.0000:
STOP.M 270.0000:
STEP.M 0.1250:
NULL. -999.2500:
UWI. DF3053:
~C
DEPT.M :
GR.API :
CALI.CM :
RXO.OHMM :
RI. :
RML.OHMM :
DEN.GM/CC :
SP.MV :
~A
# ...
  202.1250    48.8440    24.3080    74.5650    50.5650    60.6120     2.2670   -11.8220 
  202.2500    49.8940    24.3800    58.2900    44.2560    51.9320     2.3450   -11.4450 
  202.3750    48.9730    24.3150    61.1410    35.1060    39.9400     2.4030   -11.1240 
  202.5000    48.1550    24.1480    58.5890    25.6140    28.2270     2.4020   -10.8580 
  202.6250    49.4400    24.0380    30.7240    18.4110    19.8060     2.3570   -10.5860 
  202.7500    50.9270    23.9900    14.8200    13.6560    14.3960     2.3370   -10.2650 
  202.8750    50.5620    23.9520    11.8860    10.8400    11.2980     2.3650    -9.9250 
  203.0000    49.2520    23.8800    11.8920     9.3630     9.7930     2.4180    -9.6240 
  203.1250    49.6890    23.7610    10.7840     8.8780     9.4200     2.4620    -9.4300 
  203.2500    51.1430    23.6560    10.7900     8.8530     9.4980     2.4840    -9.3020 
  203.3750    51.2120    23.6170    12.2150     8.9460     9.6100     2.4820    -9.2090 
  203.5000    49.5260    23.6610    12.8470     8.8730     9.4630     2.4570    -9.1350 
  203.6250    48.8420    23.7580    10.4670     8.4990     8.9610     2.4230    -9.0700 
  203.7500    49.1680    23.8370     8.6070     7.9940     8.3320     2.3990    -9.0580 
  203.8750    49.0880    23.8650     7.7840     7.5160     7.7560     2.3930    -9.1100 
  204.0000    48.4710    23.8660     7.5450     7.1690     7.3480     2.4010    -9.1940 
  204.1250    48.9780    23.8680     7.6160     7.0210     7.1820     2.4160    -9.2690 
  204.2500    50.8730    23.8420     7.8540     7.0350     7.1920     2.4300    -9.3160 
  204.3750    52.7410    23.7660     7.8080     7.1630     7.3130     2.4380    -9.3670 
  204.5000    53.0070    23.6740     7.4710     7.3320     7.4690     2.4380    -9.4490 
  204.6250    50.6000    23.6150     7.5460     7.4330     7.5690     2.4350    -9.5820 
  204.7500    47.8720    23.5810     8.1610     7.3890     7.5410     2.4320    -9.7480 
  204.8750    47.9380    23.5830     8.7180     7.1570     7.3440     2.4220    -9.8960 
  205.0000    50.3190    23.6250     8.2750     6.7490     6.9830     2.4010   -10.0110 
  205.1250    50.3810    23.6560     6.8120     6.2310     6.5220     2.3830   -10.1070 
  205.2500    47.8810    23.6460     6.0090     5.7250     6.0850     2.3860   -10.2130 
  205.3750    46.4240    23.6140     5.7500     5.3070     5.7550     2.3970   -10.3450 
  205.5000    46.6120    23.5880     5.5240     5.0300     5.5900     2.4000   -10.4780 
  205.6250    45.8030    23.5690     5.3930     4.9560     5.6600     2.3860   -10.5970 
  205.7500    44.7930    23.5630     5.5850     5.0690     5.9410     2.3730   -10.7070 
  205.8750    46.5410    23.5750     6.1410     5.3760     6.4440     2.3700   -10.8390 
  206.0000    50.6340    23.5840     6.8440     5.8730     7.1710     2.3730   -11.0460 
  206.1250    54.3620    23.5870     8.1450     6.5440     8.1000     2.3820   -11.3740 
  206.2500    59.2090    23.6600     9.9680     7.2850     9.0910     2.3910   -11.7840 
  206.3750    65.8230    23.8680    11.9230     8.0220    10.0460     2.3990   -12.2160 
  206.5000    71.4970    24.1990    13.1000     8.7080    10.9220     2.4030   -12.6310 
  206.6250    71.3100    24.5080    13.6030     9.3280    11.7340     2.4090   -12.9910 
  206.7500    66.4440    24.6530    14.7010     9.8910    12.5230     2.4240   -13.3020 
  206.8750    61.2650    24.6330    17.6320    10.3670    13.2410     2.4370   -13.6080 
  207.0000    58.0050    24.5060    20.1000    10.6830    13.7560     2.4300   -13.9470 
  207.1250    58.0110    24.3440    19.5340    10.7370    13.8880     2.4030   -14.3280 
  207.2500    58.8280    24.2090    17.3510    10.5950    13.7210     2.3780   -14.6900 
  207.3750    58.1400    24.1150    15.5040    10.3590    13.4200     2.3650   -14.9880 
  207.5000    56.0680    24.0420    14.6400    10.1760    13.2230     2.3610   -15.2000 
  207.6250    55.4730    23.9440    15.1640    10.2610    13.4660     2.3610   -15.3210 
  207.7500    58.1170    23.8530    16.5970    10.7230    14.3020     2.3690   -15.4370 
  207.8750    60.7540    23.8180    18.9070    11.6510    15.8510     2.3890   -15.5780 
  208.0000    60.7770    23.8420    21.3380    13.0720    18.1220     2.4160   -15.7080 
  208.1250    59.7400    23.8860    24.4630    14.9010    20.9040     2.4380   -15.7470 
  208.2500    58.7100    23.9140    28.5610    16.6280    23.3420     2.4500   -15.6680 
  208.3750    57.4160    23.9480    31.8400    17.5850    24.3610     2.4530   -15.5090 
  208.5000    57.2180    24.0010    28.8910    17.2100    23.1960     2.4540   -15.3120 
  208.6250    61.9590    24.0030    21.3860    15.4320    20.0550     2.4540   -15.0990 
  208.7500    69.4400    23.9370    15.2870    13.2180    16.6180     2.4440   -14.8680 
  208.8750    75.0910    23.8580    12.5060    11.2020    13.8250     2.4220   -14.5760 
  209.0000    77.3060    23.8280    10.6600     9.7000    12.0070     2.3960   -14.2360 
  209.1250    77.9850    23.9120     9.6960     8.8630    11.2060     2.3760   -13.9230 
  209.2500    78.2100    24.0780    10.1170     8.5240    11.0260     2.3670   -13.7130 
  209.3750    77.2460    24.2260    11.0850     8.6080    11.3040     2.3660   -13.6160 
  209.5000    74.7810    24.2480    12.1560     9.0760    12.0110     2.3720   -13.5750 
  209.6250    73.9080    24.1570    13.7400     9.9920    13.3550     2.3870   -13.5350 
  209.7500    75.7230    24.0900    15.5120    11.3260    15.4090     2.4010   -13.4620 
  209.8750    78.0150    24.0700    18.5550    13.0690    18.1810     2.3920   -13.3710 
  210.0000    77.2980    24.0750    24.3090    15.0320    21.2640     2.3480   -13.3160 
  210.1250    72.2250    24.1390    30.1570    16.4700    23.1990     2.2930   -13.3270 
  210.2500    69.2160    24.2450    30.4670    16.5550    22.6290     2.2770   -13.3720 
  210.3750    71.7430    24.3220    27.1760    15.0280    19.4810     2.3160   -13.3820 
  210.5000    76.1850    24.3130    20.9430    12.4810    15.1500     2.3810   -13.2990 
  210.6250    77.6170    24.2310    13.2900     9.9260    11.4090     2.4150   -13.1180 
  210.7500    76.2820    24.1540     8.2370     7.9370     8.8210     2.4100   -12.9200 
  210.8750    73.2380    24.0910     6.9150     6.5890     7.2830     2.3900   -12.8010 
  211.0000    68.1410    24.0230     6.4500     5.7970     6.5390     2.3790   -12.7930 
  211.1250    62.5790    23.9270     6.2270     5.5040     6.3990     2.3760   -12.8500 
  211.2500    61.6770    23.8000     5.9500     5.5120     6.5540     2.3720   -12.8920 
  211.3750    65.7810    23.6630     6.0470     5.7170     6.8440     2.3680   -12.9070 
  211.5000    72.3860    23.5580     6.4820     6.0210     7.1470     2.3660   -12.9700 
  211.6250    76.5490    23.5580     6.7760     6.3470     7.3810     2.3620   -13.1820 
  211.7500    75.8430    23.6690     6.9290     6.6360     7.5310     2.3510   -13.5400 
  211.8750    73.4230    23.8500     7.2970     6.8580     7.5990     2.3330   -13.9920 
  212.0000    73.3320    24.0350     7.4290     7.0010     7.6200     2.3170   -14.4470 
  212.1250    76.1760    24.1670     7.9540     7.0700     7.6710     2.3140   -14.8320 
  212.2500    79.4370    24.2530     8.6080     7.1050     7.8060     2.3240   -15.1560 
  212.3750    81.5200    24.3270     9.1450     7.1370     8.0310     2.3390   -15.4780 
  212.5000    81.4490    24.3920     9.3350     7.2010     8.3290     2.3490   -15.8360 
  212.6250    78.6090    24.3940     9.8410     7.3570     8.7110     2.3490   -16.2350 
  212.7500    75.2890    24.3350    10.7430     7.6430     9.1960     2.3450   -16.6450 
  212.8750    72.4500    24.2630    11.6610     8.0920     9.8360     2.3360   -17.0240 
  213.0000    70.5690    24.2270    13.4090     8.7110    10.6620     2.3170   -17.3350 
  213.1250    71.3580    24.2310    14.2760     9.4820    11.6560     2.2870   -17.5560 
  213.2500    73.1760    24.2410    15.3180    10.3240    12.7130     2.2560   -17.7190 
