~V
VERS. 2.00: Ver 2.00
~W
STRT.M 57.0000:
STOP.M 272.0000:
STEP.M 0.1250:
NULL. -999.2500:
UWI. DF3055:
~C
DEPT.M :
SP.MV :
GR.API :
RML.OHMM :
RI. :
RXO.OHMM :
CALI.CM :
DEN.GM/CC :
~A
# ...
  180.7500   -21.8760    70.3570    70.4800    67.6990    69.4430    24.6120     2.2320 
  180.8750   -21.8640    66.2530    71.3110    68.2780    72.1700    24.7860     2.2260 
  181.0000   -21.8560    62.9480    72.0220    68.6760    68.8690    24.8730     2.2190 
  181.1250   -21.8550    61.4930    73.3990    69.4200    63.0270    24.8530     2.2110 
  181.2500   -21.8490    62.2650    76.5450    71.4500    63.7020    24.7300     2.2010 
  181.3750   -21.8460    63.4060    81.2710    74.8540    71.5510    24.5490     2.1880 
  181.5000   -21.8300    63.0090    86.7180    79.1530    82.3050    24.3580     2.1710 
  181.6250   -21.8070    60.3640    91.4230    83.3010    94.1420    24.2210     2.1540 
  181.7500   -21.7870    59.0350    93.1880    85.5520    97.2880    24.1680     2.1500 
  181.8750   -21.7980    61.4340    91.3630    85.0260    89.1800    24.1380     2.1640 
  182.0000   -21.8090    65.7910    86.1300    81.4940    78.0690    24.0900     2.1950 
  182.1250   -21.8260    67.8710    78.6150    75.5790    67.0810    24.0190     2.2320 
  182.2500   -21.8660    67.5020    70.5510    68.5610    53.4450    23.9540     2.2600 
  182.3750   -21.9060    66.9610    63.6240    62.1270    41.0640    24.0160     2.2710 
  182.5000   -21.9550    66.2430    58.7050    57.2320    36.9090    24.2130     2.2710 
  182.6250   -22.0160    65.9800    56.1550    54.3560    39.5590    24.5160     2.2650 
  182.7500   -22.0820    68.1830    56.2350    53.8630    45.2490    24.7150     2.2600 
  182.8750   -22.1450    70.8430    58.0890    55.0580    50.7080    24.7770     2.2570 
  183.0000   -22.2130    70.7230    61.1230    57.4440    55.3760    24.7630     2.2550 
  183.1250   -22.2800    69.4130    64.6990    60.4720    58.7920    24.7130     2.2530 
  183.2500   -22.3170    68.9060    68.2030    63.5970    59.7380    24.6170     2.2500 
  183.3750   -22.3510    68.0460    71.3560    66.4780    59.9610    24.4690     2.2430 
  183.5000   -22.3800    66.9970    74.3010    69.1640    62.6270    24.2960     2.2340 
  183.6250   -22.4030    67.2660    77.5340    72.0260    68.2580    24.1960     2.2220 
  183.7500   -22.4220    69.7920    82.2190    75.9800    71.5960    24.1730     2.2110 
  183.8750   -22.4430    71.4400    89.3460    81.7860    73.2480    24.1780     2.2020 
  184.0000   -22.4600    71.1620    99.8560    90.1210    78.7690    24.1890     2.1970 
  184.1250   -22.4710    68.4160   114.1120   101.2550    89.5630    24.2160     2.1940 
  184.2500   -22.4870    63.3450   131.5710   114.8960   106.8510    24.2650     2.1930 
  184.3750   -22.5170    58.5100   149.1280   128.9070   123.4530    24.3300     2.1930 
  184.5000   -22.5480    55.9440   163.6400   141.0800   132.4170    24.3920     2.1940 
  184.6250   -22.5570    56.0100   172.5300   149.4090   130.7990    24.4450     2.1960 
  184.7500   -22.5330    58.5780   174.2370   152.2320   122.4170    24.4910     2.2010 
  184.8750   -22.4730    60.6560   171.5820   151.1940   115.1200    24.5580     2.2080 
  185.0000   -22.3890    60.6510   166.3950   147.6910   113.3990    24.6570     2.2140 
  185.1250   -22.2960    59.6620   159.3300   142.5730   116.0120    24.7410     2.2190 
  185.2500   -22.2110    60.4280   149.5920   135.4890   114.2000    24.8170     2.2210 
  185.3750   -22.1130    62.8280   137.4760   126.4410   109.2880    24.9130     2.2250 
  185.5000   -22.0300    63.3130   124.0870   115.8990   100.7920    25.0110     2.2330 
  185.6250   -21.9670    61.6280   111.4550   105.2780    88.2460    25.0610     2.2420 
  185.7500   -21.9290    61.2060   102.5770    97.3130    75.3360    25.0680     2.2480 
  185.8750   -21.9100    62.4620    98.7510    93.9060    67.6450    25.0670     2.2480 
  186.0000   -21.9180    63.0480   101.2060    96.6440    65.7780    25.0660     2.2470 
  186.1250   -21.9130    62.5120   111.5090   106.8810    68.2800    25.0680     2.2540 
  186.2500   -21.8940    61.2700   134.0480   127.4250    75.2590    25.0650     2.2790 
  186.3750   -21.8560    56.6880   169.2450   157.3500    85.6110    25.0210     2.3150 
  186.5000   -21.8090    49.4860   215.8310   195.2120   101.2670    24.9020     2.3520 
  186.6250   -21.7620    45.4830   267.0400   236.5450   126.8860    24.7450     2.3840 
  186.7500   -21.7250    48.7980   307.2210   271.0710   166.9970    24.5640     2.4160 
  186.8750   -21.6950    51.3440   322.0670   288.7610   201.0720    24.4650     2.4490 
  187.0000   -21.6690    48.4390   305.2180   282.9270   214.7330    24.4570     2.4760 
  187.1250   -21.6470    43.8450   262.1550   253.9220   199.8270    24.5040     2.4790 
  187.2500   -21.6520    44.9050   211.6380   210.1520   169.3410    24.5450     2.4460 
  187.3750   -21.6870    50.3060   169.4540   167.6190   141.4010    24.5610     2.3950 
  187.5000   -21.7090    55.4030   138.0460   134.0390   111.3730    24.5140     2.3460 
  187.6250   -21.7330    58.8120   116.9810   111.4540    84.3510    24.3760     2.3110 
  187.7500   -21.7670    63.2140   106.0440    99.5950    72.8170    24.2710     2.2940 
  187.8750   -21.8160    67.6670   100.9820    94.1640    70.3230    24.2330     2.2870 
  188.0000   -21.8470    67.8410   100.4620    93.2850    71.3190    24.2280     2.2860 
  188.1250   -21.8930    65.0430   103.5720    95.7530    71.0190    24.2280     2.2850 
  188.2500   -21.9280    64.2170   109.0990   100.6530    67.4110    24.2280     2.2790 
  188.3750   -21.9540    65.6810   113.5160   105.5220    66.2080    24.2320     2.2640 
  188.5000   -21.9940    63.5990   113.5620   107.5080    68.3480    24.2420     2.2360 
  188.6250   -22.0280    57.0470   105.5670   103.6480    71.7010    24.2730     2.1980 
  188.7500   -22.0410    52.2460    89.9670    91.3740    70.1590    24.3520     2.1590 
  188.8750   -22.0590    51.5840    71.3990    74.4950    60.5070    24.4950     2.1300 
  189.0000   -22.1010    55.6500    55.0760    57.9450    45.2600    24.7120     2.1200 
  189.1250   -22.1630    64.7380    44.8770    45.7780    31.1170    24.9900     2.1320 
  189.2500   -22.2350    77.3710    38.8680    40.3990    27.9340    25.1690     2.1640 
  189.3750   -22.3200    85.5640    40.0960    40.3280    31.7970    25.1420     2.1990 
  189.5000   -22.4040    86.6270    45.7190    44.7830    40.4500    25.0280     2.2280 
  189.6250   -22.5060    83.5550    55.1280    53.0020    53.0070    24.9500     2.2450 
  189.7500   -22.6160    77.4190    67.5530    64.2610    63.0580    24.9320     2.2490 
  189.8750   -22.7260    69.8340    80.7240    76.4690    71.9620    24.9300     2.2480 
  190.0000   -22.8180    64.0510    92.8810    87.9840    80.9560    24.9300     2.2460 
  190.1250   -22.8920    62.1390   103.0270    97.5880    89.9860    24.9300     2.2440 
  190.2500   -22.9530    63.5310   110.8060   104.7550    94.1610    24.9300     2.2420 
  190.3750   -22.9990    64.2750   117.7680   110.7690    96.0780    24.9300     2.2380 
  190.5000   -23.0540    63.0000   124.8190   116.7890    99.4160    24.9300     2.2340 
  190.6250   -23.1060    61.3030   133.2220   123.7220   105.4860    24.9300     2.2300 
  190.7500   -23.1600    62.1270   142.7190   132.1560   113.7660    24.9320     2.2280 
  190.8750   -23.1830    63.8530   153.3340   141.4920   122.2550    24.9330     2.2250 
  191.0000   -23.1970    63.2240   165.3020   150.8240   129.1190    24.9340     2.2220 
  191.1250   -23.2050    62.2190   176.7420   159.0060   134.8030    24.9360     2.2200 
  191.2500   -23.2050    63.0760   183.8520   164.3510   137.6950    24.9370     2.2210 
  191.3750   -23.1960    62.4660   185.7700   166.2490   139.0970    24.9400     2.2260 
  191.5000   -23.1690    60.3770   182.1270   164.2930   139.6060    24.9410     2.2310 
  191.6250   -23.1080    59.3610   173.6280   158.7040   138.2220    24.9390     2.2370 
  191.7500   -23.0370    60.5620   161.8670   150.1780   131.5620    24.9330     2.2390 
  191.8750   -22.9650    60.9060   150.0490   140.9070   119.4460    24.9300     2.2370 
