~V
VERS. 2.00: Ver 2.00
~W
STRT.M 60.0000:
STOP.M 277.0000:
STEP.M 0.1250:
NULL. -999.2500:
UWI. DF3048:
~C
DEPT.M :
SP.MV :
GR.API :
RML.OHMM :
RI. :
RXO.OHMM :
CALI.CM :
DEN.GM/CC :
~A
# ...
  150.0000   -14.2090    78.3070    14.1960    12.3460    15.7340    22.9910     2.4410 
  150.1250   -13.7860    75.9320    15.2380    13.5410    16.9460    23.3790     2.4590 
  150.2500   -13.4190    73.6230    16.1800    14.5810    17.5100    23.8520     2.4800 
  150.3750   -13.0140    72.7240    17.0800    15.5010    18.7660    24.2150     2.5070 
  150.5000   -12.6100    74.1500    17.9390    16.3240    21.0930    24.4560     2.5410 
  150.6250   -12.2560    74.3500    18.6870    17.0140    23.1000    24.4200     2.5730 
  150.7500   -11.9570    68.4570    19.2860    17.5570    24.2010    24.2830     2.5970 
  150.8750   -11.6900    60.3510    19.7540    17.9660    22.5290    24.2090     2.6100 
  151.0000   -11.4680    56.5810    20.1730    18.3070    21.1280    24.2410     2.6130 
  151.1250   -11.2850    59.3790    20.6580    18.6950    21.8680    24.2990     2.6090 
  151.2500   -11.1510    61.2050    21.2410    19.1940    22.8400    24.3400     2.6040 
  151.3750   -11.0310    58.4490    21.8760    19.7910    23.3290    24.3260     2.6040 
  151.5000   -10.9680    54.9510    22.4680    20.4120    23.5140    24.3250     2.6070 
  151.6250   -10.9210    55.0170    22.8880    20.9330    23.2270    24.3490     2.6140 
  151.7500   -10.9040    55.9110    23.1320    21.3050    23.3070    24.3190     2.6190 
  151.8750   -10.8830    54.5740    23.2510    21.5360    24.0280    24.2470     2.6210 
  152.0000   -10.8760    51.2610    23.3280    21.6760    24.7890    24.3370     2.6200 
  152.1250   -10.9070    49.9760    23.4390    21.7830    23.9670    24.4860     2.6180 
  152.2500   -10.9130    50.8230    23.5850    21.8980    23.3540    24.4460     2.6170 
  152.3750   -10.9830    53.3320    23.7280    22.0170    23.6010    24.1990     2.6140 
  152.5000   -11.0110    56.1190    23.8360    22.1330    24.4020    24.0610     2.6100 
  152.6250   -11.0750    55.7750    23.9330    22.2670    25.3390    24.0890     2.6030 
  152.7500   -11.1080    52.9490    24.0950    22.4590    25.9110    24.2150     2.5940 
  152.8750   -11.1690    50.7710    24.3740    22.7390    25.9060    24.3110     2.5780 
  153.0000   -11.2730    50.8290    24.7480    23.0930    26.1160    24.1790     2.5510 
  153.1250   -11.3490    52.3620    25.0920    23.4310    26.9120    24.1450     2.5130 
  153.2500   -11.4780    55.4880    25.2570    23.6400    27.8420    24.0360     2.4740 
  153.3750   -11.5780    58.3250    25.1870    23.6630    27.7450    23.7880     2.4380 
  153.5000   -11.7070    57.3500    24.9490    23.5340    25.9050    23.5950     2.4080 
  153.6250   -11.7920    55.1320    24.7250    23.3850    24.5420    23.5710     2.3880 
  153.7500   -11.8870    56.5370    24.6770    23.3590    23.8980    23.6760     2.3750 
  153.8750   -11.9490    61.3030    24.8260    23.4920    23.8950    23.7540     2.3720 
  154.0000   -11.9630    65.2530    25.0630    23.7010    24.7640    23.6190     2.3800 
  154.1250   -11.9370    64.8010    25.1430    23.7740    26.0930    23.5060     2.3980 
  154.2500   -11.9020    62.4730    24.8960    23.5440    26.3230    23.3720     2.4170 
  154.3750   -11.8260    59.3640    24.2710    22.9480    25.4580    23.2400     2.4300 
  154.5000   -11.7490    57.7110    23.3470    22.0480    23.6740    23.1630     2.4350 
  154.6250   -11.6270    60.1510    22.3210    21.0150    21.7050    23.2630     2.4320 
  154.7500   -11.5230    63.6700    21.4280    20.0730    20.3930    23.4920     2.4270 
  154.8750   -11.4010    65.3450    20.7920    19.3500    20.0540    23.6480     2.4250 
  155.0000   -11.3040    65.6810    20.4650    18.9050    20.1940    23.6230     2.4300 
  155.1250   -11.1940    66.9040    20.4850    18.7880    20.7470    23.3470     2.4450 
  155.2500   -11.0870    67.8680    20.7560    18.9190    21.1730    23.4480     2.4630 
  155.3750   -10.9620    67.5370    21.2290    19.2570    20.9550    23.7540     2.4760 
  155.5000   -10.8640    67.8240    21.8270    19.7360    21.2230    24.0320     2.4770 
  155.6250   -10.7650    70.2980    22.4070    20.2430    22.3830    24.0080     2.4610 
  155.7500   -10.6900    71.8900    22.7940    20.6210    22.8880    24.0150     2.4380 
  155.8750   -10.6430    71.5870    22.8500    20.7400    23.1600    24.0130     2.4160 
  156.0000   -10.5900    69.6990    22.5150    20.5290    23.6320    24.0790     2.4060 
  156.1250   -10.5790    68.0860    21.8140    19.9710    24.0680    24.1010     2.4120 
  156.2500   -10.5500    70.1890    20.9760    19.2420    22.7110    24.1450     2.4320 
  156.3750   -10.5620    74.9010    20.1500    18.4660    21.0710    24.2510     2.4600 
  156.5000   -10.5350    77.6300    19.4020    17.7170    19.8200    24.2570     2.4890 
  156.6250   -10.5360    74.5960    18.7200    17.0180    18.6810    24.2900     2.5080 
  156.7500   -10.5530    69.9310    18.0440    16.3460    17.9140    24.1390     2.5160 
  156.8750   -10.5880    68.8230    17.3690    15.7030    17.0440    23.9660     2.5150 
  157.0000   -10.6200    70.5380    16.7440    15.1230    15.6310    23.6520     2.5130 
  157.1250   -10.6450    68.9280    16.2850    14.6870    14.5300    23.5300     2.5150 
  157.2500   -10.6930    63.3810    16.0350    14.4200    13.9610    23.5290     2.5200 
  157.3750   -10.7560    58.5720    15.9880    14.3170    13.9610    23.4370     2.5240 
  157.5000   -10.8340    58.2630    16.1070    14.3490    14.6090    23.3720     2.5220 
  157.6250   -10.8610    60.6930    16.3650    14.4940    15.3650    23.6210     2.5130 
  157.7500   -10.8580    63.2420    16.7170    14.7120    16.5130    23.9870     2.5030 
  157.8750   -10.8370    66.5210    17.1480    14.9930    16.6900    24.1620     2.4950 
  158.0000   -10.8460    69.6440    17.6070    15.3110    15.9360    24.1250     2.4960 
  158.1250   -10.8990    71.0860    17.9570    15.5810    16.2320    24.0660     2.5060 
  158.2500   -10.9990    72.4140    18.0600    15.7040    17.3370    24.0880     2.5190 
  158.3750   -11.1160    73.8480    17.8610    15.6280    18.0000    24.1100     2.5270 
  158.5000   -11.2790    74.0250    17.4670    15.4110    18.1230    24.1320     2.5170 
  158.6250   -11.5330    71.3480    17.2630    15.3180    17.3330    24.0930     2.4800 
  158.7500   -11.8290    69.4880    17.6840    15.6930    16.7610    24.1320     2.4220 
  158.8750   -12.1470    70.4360    19.0170    16.8130    16.7580    24.1840     2.3560 
  159.0000   -12.5550    71.8170    21.2560    18.7670    17.3980    24.1820     2.2970 
  159.1250   -12.9060    70.8340    23.9440    21.3200    19.2610    24.0920     2.2580 
  159.2500   -13.2050    70.4570    26.0470    23.5970    23.0610    24.2860     2.2410 
  159.3750   -13.4350    72.3030    26.6440    24.7120    26.3330    24.2320     2.2450 
  159.5000   -13.5990    74.2960    25.2160    24.0160    26.3290    23.9660     2.2640 
  159.6250   -13.6690    73.9980    21.8630    21.3240    23.7910    23.7520     2.2930 
  159.7500   -13.6840    74.9800    17.9800    17.8340    20.4580    23.7820     2.3190 
  159.8750   -13.6490    79.3970    14.5080    14.4840    15.0850    23.9660     2.3330 
  160.0000   -13.4950    85.9010    11.9050    11.8310    10.4850    24.1580     2.3330 
  160.1250   -13.3350    90.1040    10.3080    10.1090     8.9630    24.3290     2.3190 
  160.2500   -13.2020    92.0510     9.3230     9.0300     8.3110    24.2290     2.3010 
  160.3750   -13.1240    94.3490     8.7620     8.4430     7.9640    24.0380     2.2880 
  160.5000   -13.0920    97.7090     8.5930     8.2620     7.7830    24.2080     2.2860 
  160.6250   -13.1550   101.8150     8.9890     8.5700     7.9670    24.1830     2.2960 
  160.7500   -13.2660   105.6300    10.1940     9.4110     8.7880    24.1770     2.3100 
  160.8750   -13.4730   105.8210    12.3640    10.9070    10.5510    24.2030     2.3240 
  161.0000   -13.7450   100.2710    15.4680    13.1050    13.3420    24.2920     2.3330 
  161.1250   -14.0990    91.3970    19.2070    15.8800    19.3180    24.3480     2.3360 
