~V
VERS. 2.00: Ver 2.00
~W
STRT.M 110.0000:
STOP.M 266.0000:
STEP.M 0.1250:
NULL. -999.2500:
UWI. DF309:
~C
DEPT.M :
DEN.GM/CC :
SP.MV :
AC.US/MT :
GR.API :
CALI.CM :
RXO.OHMM :
RI. :
RML.OHMM :
~A
# ...
  250.0000     2.3980   -22.0870   339.7370    63.4020    23.3700     8.9920     7.2010     8.8760 
  250.1250     2.3890   -22.1250   343.8130    62.1150    22.9240     8.6610     7.1470     8.8180 
  250.2500     2.3790   -22.1520   347.3310    62.1380    22.7200     8.4780     7.1280     8.8120 
  250.3750     2.3780   -22.1760   348.1350    62.6530    23.0620     8.6120     7.1470     8.8540 
  250.5000     2.3790   -22.1960   343.6900    63.3160    24.0170     8.8240     7.1930     8.9260 
  250.6250     2.3570   -22.2360   335.9680    63.7200    25.2920     8.7880     7.2510     8.9980 
  250.7500     2.2890   -22.3060   328.1400    62.9250    25.9270     8.2730     7.2980     9.0400 
  250.8750     2.2190   -22.3970   322.7390    61.5300    26.1950     7.7800     7.3230     9.0410 
  251.0000     2.1930   -22.5260   320.5920    61.2590    26.4690     7.5960     7.3320     9.0150 
  251.1250     2.2230   -22.6850   320.2460    62.8020    26.4600     7.4390     7.3530     9.0060 
  251.2500     2.2770   -22.8550   320.8650    64.5830    25.8150     7.3030     7.4110     9.0550 
  251.3750     2.3210   -23.0250   321.5350    65.9130    24.5800     7.4620     7.5130     9.1710 
  251.5000     2.3570   -23.1850   320.7580    67.1660    23.4820     8.1150     7.6460     9.3370 
  251.6250     2.3860   -23.3520   318.4660    67.7850    23.0380     9.0230     7.7760     9.5030 
  251.7500     2.3890   -23.5000   315.7910    67.9050    23.1870     9.5670     7.8630     9.6120 
  251.8750     2.3630   -23.6480   313.8740    68.2580    23.6460     9.6830     7.8900     9.6390 
  252.0000     2.3270   -23.7770   313.4270    67.8810    24.0920     9.6350     7.8590     9.5910 
  252.1250     2.3050   -23.9040   314.2750    66.4240    24.3870     9.5550     7.7840     9.4980 
  252.2500     2.3080   -24.0380   315.8340    65.7260    24.6500     9.3270     7.7020     9.4120 
  252.3750     2.3180   -24.1770   316.7680    66.9410    24.8650     9.2260     7.6340     9.3590 
  252.5000     2.3280   -24.3320   315.8510    68.6950    24.9810     9.5090     7.5890     9.3450 
  252.6250     2.3400   -24.4840   314.5170    68.3860    25.0110    10.1080     7.5750     9.3650 
  252.7500     2.3620   -24.6390   314.4910    66.9090    25.0490    10.4040     7.5870     9.4090 
  252.8750     2.3850   -24.7780   316.1620    66.0180    25.0820    10.0780     7.6340     9.4820 
  253.0000     2.4020   -24.9080   318.2300    66.1940    25.0080     9.2540     7.7360     9.6090 
  253.1250     2.4130   -25.0370   318.6670    66.0120    24.7970     8.7890     7.9420     9.8610 
  253.2500     2.4290   -25.1580   315.7510    64.0910    24.6940     8.8890     8.2670    10.2710 
  253.3750     2.4490   -25.2750   308.0880    62.5410    24.6250     9.7420     8.7120    10.8520 
  253.5000     2.4630   -25.4130   295.0040    63.3110    24.5030    11.8360     9.2570    11.5670 
  253.6250     2.4680   -25.5660   280.2900    64.8210    24.3230    16.2360     9.8560    12.3250 
  253.7500     2.4550   -25.7370   268.5640    64.9210    24.2310    20.0130    10.4260    12.9940 
  253.8750     2.4270   -25.9380   263.6140    66.6100    24.2060    20.3710    10.9030    13.4930 
  254.0000     2.4020   -26.1550   266.5680    71.2540    24.2050    17.5760    11.2470    13.8040 
  254.1250     2.4030   -26.3930   272.2120    74.2610    24.2050    14.9700    11.4250    13.9400 
  254.2500     2.4370   -26.6290   276.9110    72.0270    24.2050    14.0120    11.4840    13.9630 
  254.3750     2.4730   -26.8700   279.6700    66.8790    24.2050    14.1700    11.4540    13.8840 
  254.5000     2.4930   -27.0770   280.9960    63.1660    24.2050    14.6960    11.3590    13.7010 
  254.6250     2.5010   -27.2590   282.3210    62.7220    24.2050    15.0970    11.2240    13.4350 
  254.7500     2.5080   -27.4170   284.6110    63.5760    24.2050    15.1530    11.1000    13.1840 
  254.8750     2.5190   -27.5500   288.7700    64.9940    24.2050    15.5420    11.0430    13.0440 
  255.0000     2.5330   -27.6700   295.2120    66.4590    24.2050    16.6030    11.0990    13.0770 
  255.1250     2.5460   -27.7660   302.0560    68.1220    24.2050    18.0800    11.2950    13.2860 
  255.2500     2.5580   -27.8620   306.6850    70.2140    24.2050    18.4050    11.5550    13.5360 
  255.3750     2.5610   -27.9620   306.3530    71.4200    24.2050    17.2440    11.7860    13.7060 
  255.5000     2.5510   -28.0870   300.5290    68.8780    24.2050    15.4660    11.8850    13.6950 
  255.6250     2.5290   -28.2590   294.4550    68.8780    24.2050    13.9120    11.7370    13.4050 
  255.7500     2.5070   -28.4740   291.2490    68.8780    24.2050    13.6730    11.3790    12.9000 
  255.8750     2.4970   -28.7510   290.0730    68.8780    24.2050    14.0770    10.8820    12.2610 
  256.0000     2.5040   -29.1140   288.9430    68.8780    24.2030    14.1980    10.3420    11.5870 
  256.1250     2.5150   -29.5710   289.0390    68.8780    24.2000    13.0060     9.8580    10.9930 
  256.2500     2.5160   -30.1400   291.7760    68.8780    24.1970    10.5770     9.4770    10.5460 
  256.3750     2.5000   -30.8290   296.0310    68.8780    24.1870     8.4530     9.2150    10.2760 
  256.5000     2.4750   -31.6390   298.5650    68.8780    24.1480     7.2420     9.0740    10.1800 
  256.6250     2.4510   -32.5520   297.4550    68.8780    24.0670     6.7900     9.0610    10.2410 
  256.7500     2.4350   -33.5030   291.7940    68.8780    24.0160     6.6520     9.1220    10.3610 
  256.8750     2.4300   -34.4710   282.0240    68.8780    23.9990     6.6360     9.1950    10.4530 
  257.0000     2.4370   -35.4160   271.5430    68.8780    23.9850     6.6310     9.2160    10.4510 
  257.1250     2.4550   -36.2970   265.4550    68.8780    23.9230     6.6490     9.1680    10.3540 
  257.2500     2.4690   -37.0060   265.7080    68.8780    23.8010     6.7080     9.1220    10.2690 
  257.3750     2.4650   -37.4750   269.8850    68.8780    23.6610     6.8660     9.1550    10.2970 
  257.5000     2.4500   -37.6400   271.7530    68.8780    23.5320     7.1990     9.3200    10.5060 
  257.6250     2.4440   -37.3860   267.5160    68.8780    23.4090     7.6530     9.6180    10.9100 
  257.7500     2.4630   -36.8020   257.9990    68.8780    23.2990     7.9200     9.9320    11.3620 
  257.8750     2.4840   -35.8610   248.3040    68.8780    23.1640     7.9170    10.1580    11.7220 
  258.0000     2.4790   -34.5100   246.6380    68.8780    22.8820     7.9140    10.2390    11.9010 
  258.1250     2.4450   -32.6810   254.3270    68.8780    22.4330     8.1380    10.1830    11.8810 
  258.2500     2.4060   -30.6480   267.3380    68.8780    22.0660     8.2430    10.0900    11.7860 
  258.3750     2.3890   -28.5910   278.6630    68.8780    21.9230     8.1330    10.0240    11.7040 
  258.5000     2.3910   -26.6100   281.8940    68.8780    21.9010     8.0090    10.0120    11.6740 
  258.6250     2.3950   -24.8510   279.0870    68.8780    21.8620     7.9550    10.0370    11.6770 
  258.7500     2.3890   -23.3270   274.3500    68.8780    21.7410     8.0100    10.0600    11.6780 
  258.8750     2.3850   -22.0710   270.0910    68.8780    21.5600     8.2570    10.0690    11.6710 
  259.0000     2.3950   -21.1530   265.0770    68.8780    21.4400     8.5630    10.0600    11.6630 
  259.1250     2.4280   -20.6660   258.2520    68.8780    21.3330     8.3470    10.0380    11.6600 
  259.2500     2.4740   -20.4230   251.1380    68.8780    21.0640     7.8310    10.0210    11.6640 
  259.3750     2.5140   -20.3080   245.7040    68.8780    20.5340     7.5770    10.0200    11.6710 
  259.5000     2.5460   -20.2800   241.3830    68.8780    19.8810     7.8460    10.0350    11.6800 
  259.6250     2.5660   -20.2940   235.4980    68.8780    19.2420     8.8800    10.0480    11.6870 
  259.7500     2.5610   -20.3020   228.8300    68.8780    18.7770    10.5360    10.0480    11.6890 
  259.8750     2.5270   -20.2980   225.8440    68.8780    18.5360    12.1620    10.0370    11.6860 
