~V
VERS. 2.00: Ver 2.00
~W
STRT.M 125.0000:
STOP.M 254.0000:
STEP.M 0.1250:
NULL. -999.2500:
UWI. DF3068:
~C
DEPT.M :
SP.MV :
GR.API :
CALI.CM :
RXO.OHMM :
RI. :
RML.OHMM :
DEN.GM/CC :
~A
# ...
  203.7500   -29.2250    70.8060    23.6480    80.4230    94.8400    99.1140     2.2160 
  203.8750   -29.1260    70.5190    24.0240    94.1450    94.2150    99.8050     2.2180 
  204.0000   -29.0000    69.5440    24.7220    99.9810    88.2850    94.7830     2.2240 
  204.1250   -28.8790    68.1070    25.2960    85.9870    80.2750    86.6120     2.2340 
  204.2500   -28.7900    68.7940    25.6000    66.0580    73.8600    79.3460     2.2450 
  204.3750   -28.7210    71.8680    25.6590    59.4900    70.0540    74.5010     2.2480 
  204.5000   -28.6370    74.3820    25.6040    62.3000    68.5060    72.0740     2.2500 
  204.6250   -28.5080    72.1750    25.5690    71.8150    68.2740    71.3630     2.2440 
  204.7500   -28.3660    69.2030    25.5640    75.4100    67.9390    70.9280     2.2390 
  204.8750   -28.2660    69.6980    25.5580    70.8790    66.8350    69.9610     2.2380 
  205.0000   -28.2380    72.1320    25.5150    64.8760    65.0110    68.2670     2.2400 
  205.1250   -28.2550    70.5930    25.4360    62.5470    63.2560    66.3900     2.2380 
  205.2500   -28.2600    68.2920    25.3710    59.5430    62.4190    65.2190     2.2350 
  205.3750   -28.2430    69.8630    25.3310    58.4870    62.8630    65.2890     2.2320 
  205.5000   -28.2350    73.3160    25.2740    60.1570    64.4730    66.6730     2.2340 
  205.6250   -28.2770    73.6680    25.1820    60.3200    66.7770    69.0580     2.2350 
  205.7500   -28.3570    71.9470    24.9870    53.9200    68.9740    71.5750     2.2310 
  205.8750   -28.4390    70.7540    24.5900    44.4120    70.5610    73.6040     2.2220 
  206.0000   -28.4980    69.8190    24.1230    40.2440    71.2390    74.7090     2.2140 
  206.1250   -28.5380    69.1100    23.9730    45.4480    70.8290    74.5900     2.2170 
  206.2500   -28.5770    70.4900    24.1700    49.8710    69.6860    73.6140     2.2250 
  206.3750   -28.6310    73.3870    24.2720    48.5430    68.0660    72.0550     2.2300 
  206.5000   -28.7120    75.7850    23.8050    41.9460    66.2400    70.2080     2.2280 
  206.6250   -28.8170    76.7990    22.8170    34.2170    64.4470    68.3440     2.2190 
  206.7500   -28.9330    75.9330    21.9670    29.2290    62.7190    66.5300     2.2140 
  206.8750   -29.0360    73.8080    21.6050    26.6990    61.0160    64.7200     2.2280 
  207.0000   -29.0990    71.4400    21.6310    25.7340    59.4320    63.0020     2.2680 
  207.1250   -29.1080    70.4290    21.8490    30.1430    58.3470    61.7650     2.3090 
  207.2500   -29.1130    69.7350    22.2260    33.7300    58.0650    61.3420     2.3220 
  207.3750   -29.1580    69.2030    22.7910    37.3470    58.8370    62.0280     2.3050 
  207.5000   -29.2560    68.7950    23.5270    45.6030    60.6740    63.9090     2.2720 
  207.6250   -29.3910    69.0080    24.3160    56.1180    63.2400    66.7200     2.2440 
  207.7500   -29.5100    70.5160    24.9360    63.1590    65.6510    69.5110     2.2270 
  207.8750   -29.5860    72.2190    25.2950    67.1360    67.2530    71.5220     2.2230 
  208.0000   -29.6130    71.8360    25.4710    68.3530    67.8080    72.3660     2.2260 
  208.1250   -29.6430    68.3880    25.5910    66.5510    67.7770    72.3180     2.2250 
  208.2500   -29.7210    65.2630    25.6710    64.3840    68.3360    72.5770     2.2190 
  208.3750   -29.8580    64.5290    25.6890    65.0580    70.3610    74.1170     2.2130 
  208.5000   -30.0250    65.2040    25.6720    69.7710    74.2970    77.4820     2.2090 
  208.6250   -30.1760    65.9650    25.6320    80.4030    80.3090    82.8390     2.2100 
  208.7500   -30.2850    65.9650    25.5610    90.5960    87.3540    89.1070     2.2130 
  208.8750   -30.3730    64.7070    25.4690    94.7820    94.4450    95.3140     2.2140 
  209.0000   -30.4900    63.1520    25.3610    97.9590   100.7600   100.7440     2.2130 
  209.1250   -30.6710    64.1310    25.2240   100.4000   105.2050   106.0110     2.2110 
  209.2500   -30.8640    68.4430    25.0830   100.4590   109.4140   110.9810     2.2100 
  209.3750   -31.0100    72.8640    25.0260   105.5720   113.9740   116.3440     2.2050 
  209.5000   -31.0700    73.9540    25.1320   118.9470   119.1490   122.3340     2.1940 
  209.6250   -31.0140    71.9070    25.3550   134.4760   124.5910   128.3570     2.1870 
  209.7500   -30.8710    69.7760    25.5130   137.1080   129.3850   133.3010     2.1920 
  209.8750   -30.6540    69.1250    25.5340   131.2780   132.6800   136.2480     2.2050 
  210.0000   -30.3730    69.8770    25.4590   129.5730   133.8520   136.6770     2.2080 
  210.1250   -30.0140    70.5520    25.3670   128.3160   132.4640   134.3970     2.1970 
  210.2500   -29.6130    69.9120    25.3050   125.2770   129.3740   130.5340     2.1880 
  210.3750   -29.1920    67.8990    25.2780   120.4070   125.1270   125.7090     2.1890 
  210.5000   -28.7560    66.0870    25.2610   113.5020   120.1150   120.3020     2.1960 
  210.6250   -28.3250    65.7520    25.2280   108.5870   114.6400   114.6480     2.2030 
  210.7500   -27.9230    67.0330    25.1880   106.1410   109.2460   109.2770     2.2110 
  210.8750   -27.5400    68.6000    25.1650    98.7410   104.3580   104.5820     2.2190 
  211.0000   -27.1740    68.6620    25.1630    86.8340   100.1790   100.6810     2.2240 
  211.1250   -26.8200    67.0610    25.1490    85.3130    96.7840    97.5440     2.2290 
  211.2500   -26.4680    67.3850    25.1110    86.8740    94.0610    95.0280     2.2370 
  211.3750   -26.1240    69.8430    25.0660    92.0040    92.2360    93.3810     2.2440 
  211.5000   -25.7860    71.8870    25.0400    92.7160    91.5900    92.9450     2.2490 
  211.6250   -25.4590    72.0580    25.0450    83.3980    92.4700    94.1450     2.2560 
  211.7500   -25.1520    71.6890    25.0570    86.0410    94.2910    96.3750     2.2770 
  211.8750   -24.8850    71.3070    25.0180   106.6140    96.1730    98.6580     2.3200 
  212.0000   -24.6640    70.8750    24.8550   123.5760    97.0170    99.7290     2.3830 
  212.1250   -24.4460    70.6270    24.5370   125.5330    95.6930    98.3110     2.4500 
  212.2500   -24.1840    69.5160    24.2840   116.2360    92.6280    95.0100     2.5000 
  212.3750   -23.8840    67.5310    24.2570   103.6050    88.7360    90.9600     2.5220 
  212.5000   -23.5500    67.5770    24.4090   104.2160    85.2480    87.4840     2.5180 
  212.6250   -23.1850    69.3170    24.3780    92.3970    83.5770    85.8690     2.4920 
  212.7500   -22.7890    70.4800    23.9750    89.2470    84.1070    86.3180     2.4590 
  212.8750   -22.3470    72.1550    23.5910    90.5190    87.1460    89.0910     2.4360 
  213.0000   -21.8910    74.6550    23.7170   107.4360    92.9960    94.5440     2.4370 
  213.1250   -21.4450    75.7200    24.2450   118.4540   102.4620   103.5440     2.4600 
  213.2500   -21.0040    73.0020    24.5040   151.0640   113.8820   114.3110     2.4940 
  213.3750   -20.5500    68.7810    24.3400   188.2100   122.2750   120.5340     2.5520 
  213.5000   -20.0540    65.4130    24.0220   199.5530   118.1430   110.2830     2.6450 
  213.6250   -19.5330    64.1610    23.8470   184.9040    92.8210    79.2190     2.7550 
  213.7500   -19.0240    64.0980    24.0010   152.1320    60.5880    48.2940     2.8250 
  213.8750   -18.5520    63.6070    24.4630    90.2170    34.5960    27.2020     2.8190 
  214.0000   -18.1270    62.9980    24.8950    32.0290    18.6880    15.2340     2.7440 
  214.1250   -17.7360    62.9230    24.9460    11.2290    11.2380     9.6070     2.6370 
  214.2500   -17.3920    63.9780    24.8200     5.6570     7.5530     6.8040     2.5430 
  214.3750   -17.1010    66.8120    24.7360     5.1420     5.7980     5.5970     2.4810 
  214.5000   -16.8780    69.9650    24.7410     5.4190     5.0840     5.3050     2.4570 
  214.6250   -16.7550    73.4310    24.8510     5.8260     5.0970     5.6130     2.4680 
  214.7500   -16.7090    79.3630    25.0740     6.2760     5.5110     6.1950     2.4900 
  214.8750   -16.7380    85.5310    25.3530     7.1570     6.1610     6.8830     2.5090 
