~V
VERS. 2.00: Ver 2.00
~W
STRT.M 65.0000:
STOP.M 270.0000:
STEP.M 0.1250:
NULL. -999.2500:
UWI. DF3062:
~C
DEPT.M :
SP.MV :
GR.API :
CALI.CM :
RXO.OHMM :
RI. :
RML.OHMM :
DEN.GM/CC :
~A
# ...
  143.7500   -32.2570    59.4550    23.8210    11.8130    11.8400    12.8730     2.1930 
  143.8750   -32.3270    61.5440    23.8890    12.0330    11.6700    12.7000     2.1840 
  144.0000   -32.3060    65.4980    23.8590    11.9010    11.2420    12.2590     2.1780 
  144.1250   -32.0950    66.5530    23.6160    11.6960    10.4320    11.3610     2.1840 
  144.2500   -31.6800    68.0940    23.4070    11.3800     9.3590    10.1610     2.2090 
  144.3750   -31.1240    72.9370    23.3420     9.9860     8.2560     8.9230     2.2430 
  144.5000   -30.5370    79.7490    23.1510     8.1420     7.3470     7.9350     2.2690 
  144.6250   -30.0060    86.8620    23.2940     6.9870     6.8760     7.5720     2.2860 
  144.7500   -29.6120    92.4870    23.4260     6.9940     6.9010     7.9190     2.3090 
  144.8750   -29.4160    93.5820    23.6650     7.1000     7.4290     8.8990     2.3550 
  145.0000   -29.4260    88.3810    23.7700     7.7650     8.4250    10.3470     2.4050 
  145.1250   -29.6920    79.5650    23.7340    10.0160     9.8000    11.9590     2.4280 
  145.2500   -30.1220    71.1070    23.5500    12.3820    11.1860    13.3170     2.3980 
  145.3750   -30.6620    65.6630    23.3630    13.3200    12.2190    14.1130     2.3190 
  145.5000   -31.1950    64.6670    23.1130    12.5210    12.6730    14.2340     2.2390 
  145.6250   -31.6380    67.4290    23.0490    11.4140    12.5040    13.7320     2.1810 
  145.7500   -31.9700    69.6990    22.9710    11.4900    12.0540    13.0140     2.1490 
  145.8750   -32.1520    71.1700    22.9030    11.8930    11.5820    12.4060     2.1340 
  146.0000   -32.1710    71.3380    22.9300    11.9990    11.2570    12.0950     2.1280 
  146.1250   -32.0360    68.4240    23.1450    11.7080    11.1460    12.1110     2.1280 
  146.2500   -31.8210    64.3210    23.3550    11.7030    11.1520    12.2690     2.1330 
  146.3750   -31.5690    63.0490    23.4200    11.6750    11.1900    12.4510     2.1330 
  146.5000   -31.3540    63.4990    23.6640    11.4360    11.2150    12.5990     2.1290 
  146.6250   -31.1620    62.7300    23.8030    10.7660    11.2010    12.7070     2.1270 
  146.7500   -30.9640    62.1110    23.6650     9.7850    11.1640    12.7640     2.1350 
  146.8750   -30.7560    63.3060    23.5750     9.1500    11.1210    12.7760     2.1460 
  147.0000   -30.5310    65.5720    23.5090     9.7530    11.0810    12.7560     2.1460 
  147.1250   -30.2610    65.5720    23.4040    11.0010    11.0390    12.6940     2.1310 
  147.2500   -29.9170    62.5590    23.4100    11.6240    11.0190    12.6580     2.1170 
  147.3750   -29.4740    59.6160    23.5700    11.4280    11.1030    12.7850     2.1270 
  147.5000   -28.9320    60.2890    23.6400    11.2010    11.4070    13.2410     2.1510 
  147.6250   -28.2930    63.7490    23.3410    11.0830    12.0460    14.1210     2.1680 
  147.7500   -27.5690    65.6320    22.9470    10.6860    12.9040    15.1980     2.1780 
  147.8750   -26.7710    65.2760    22.6220    10.4100    13.8140    16.2330     2.2280 
  148.0000   -25.9310    63.6200    22.4640    11.6360    14.5320    16.8790     2.3400 
  148.1250   -25.0880    63.0610    22.4710    17.5340    14.5140    16.5810     2.4770 
  148.2500   -24.3300    69.3940    22.8580    26.9640    13.6910    15.3950     2.5620 
  148.3750   -23.6950    80.9140    23.1970    30.2630    12.2770    13.5820     2.5340 
  148.5000   -23.1620    89.8880    23.5700    20.8540    10.6330    11.5580     2.4460 
  148.6250   -22.7510    93.0590    23.7470    10.1660     9.1680     9.8330     2.3600 
  148.7500   -22.4450    96.1070    23.9820     5.8790     8.0550     8.6250     2.3120 
  148.8750   -22.2440    97.7870    24.2030     5.6480     7.3200     7.9390     2.3120 
  149.0000   -22.1190    93.4540    24.3510     5.5950     6.9400     7.7080     2.3340 
  149.1250   -22.0330    88.6340    24.3530     5.7100     6.8720     7.8060     2.3560 
  149.2500   -21.9230    88.2600    24.2920     6.1550     6.9260     7.9650     2.3720 
  149.3750   -21.7590    89.4760    24.1230     6.8220     7.0260     8.1140     2.3880 
  149.5000   -21.5640    88.2380    24.0370     7.4820     7.1890     8.3010     2.4060 
  149.6250   -21.3760    84.3480    24.1370     8.1070     7.5070     8.6940     2.4200 
  149.7500   -21.2070    80.8090    24.3830     8.8460     8.0700     9.4820     2.4310 
  149.8750   -21.0600    77.4050    24.4320     9.7030     8.9760    10.7850     2.4520 
  150.0000   -20.9540    72.3360    24.4290    10.3440    10.2520    12.5490     2.4950 
  150.1250   -20.9140    64.7030    24.3870    13.7540    11.9250    14.6980     2.5560 
  150.2500   -20.9110    59.9440    24.3930    16.2120    13.8250    16.9490     2.6190 
  150.3750   -20.9580    60.4740    24.2900    16.4740    15.6400    18.9370     2.6570 
  150.5000   -21.0450    60.9010    24.1330    17.2600    17.0260    20.3510     2.6680 
  150.6250   -21.1270    56.6430    24.0860    18.0820    17.7740    21.0180     2.6610 
  150.7500   -21.1940    51.6010    24.1000    17.6670    18.0100    21.1460     2.6510 
  150.8750   -21.2340    49.2320    24.1100    17.4350    17.8990    20.9610     2.6470 
  151.0000   -21.2280    49.5530    24.1760    17.2580    17.7160    20.7880     2.6440 
  151.1250   -21.1760    50.5390    24.2420    17.1990    17.6970    20.9050     2.6390 
  151.2500   -21.1240    50.4010    24.1390    16.6590    17.8420    21.1990     2.6340 
  151.3750   -21.0500    48.7410    24.0290    16.7790    18.0940    21.5880     2.6350 
  151.5000   -20.9600    46.0390    24.0030    17.8540    18.4060    21.9920     2.6370 
  151.6250   -20.8770    45.7510    24.0120    18.7030    18.7020    22.3150     2.6310 
  151.7500   -20.8070    48.2690    23.9360    17.5900    18.9550    22.5710     2.6210 
  151.8750   -20.7640    51.2080    23.7580    15.4410    19.1900    22.7990     2.6220 
  152.0000   -20.7950    52.2330    23.6120    13.7470    19.4390    23.0630     2.6350 
  152.1250   -20.8890    51.8670    23.5000    12.8840    19.7420    23.3800     2.6500 
  152.2500   -21.0180    51.1160    23.5970    13.5270    20.0770    23.7170     2.6570 
  152.3750   -21.1960    49.2040    23.4360    14.4690    20.4300    24.0640     2.6550 
  152.5000   -21.3930    46.9520    23.2060    15.2210    20.7810    24.3740     2.6500 
  152.6250   -21.5730    47.0390    23.4260    15.1750    21.1020    24.5870     2.6380 
  152.7500   -21.7310    47.9870    23.5120    15.5450    21.3800    24.7270     2.6160 
  152.8750   -21.8440    49.0500    23.5090    16.3110    21.6280    24.8330     2.6000 
  153.0000   -21.8810    50.5270    23.4860    16.8730    21.8820    24.9480     2.5970 
  153.1250   -21.8430    50.4280    23.4440    16.9820    22.1660    25.0860     2.6020 
  153.2500   -21.7530    48.5960    23.2540    16.8410    22.4620    25.2150     2.6010 
  153.3750   -21.6120    48.1250    23.2210    17.0670    22.7350    25.3040     2.5920 
  153.5000   -21.4600    49.0660    23.0010    16.9250    22.9360    25.3140     2.5840 
  153.6250   -21.3160    48.0250    22.7730    16.1540    22.9880    25.1510     2.5780 
  153.7500   -21.1880    46.6020    23.0710    16.4220    22.9110    24.8730     2.5790 
  153.8750   -21.0920    48.7660    23.6600    17.5550    22.7560    24.5380     2.5850 
  154.0000   -21.0210    52.6620    23.9960    18.0010    22.5510    24.2050     2.5830 
  154.1250   -20.9810    53.6460    24.0990    17.6000    22.3870    23.9780     2.5660 
  154.2500   -20.9840    52.8680    24.2700    17.4120    22.3730    23.9410     2.5350 
  154.3750   -21.0510    52.3220    24.2930    17.3220    22.5200    24.0720     2.5060 
  154.5000   -21.1850    51.8410    24.2970    19.0360    22.7770    24.3050     2.4960 
  154.6250   -21.3620    52.0730    24.3140    22.1120    23.0740    24.5620     2.5070 
  154.7500   -21.5480    53.6410    24.3760    23.2340    23.2950    24.7100     2.5250 
  154.8750   -21.7390    55.9340    24.4240    22.1990    23.3050    24.6290     2.5310 
