~V
VERS. 2.00: Ver 2.00
~W
STRT.M 85.0000:
STOP.M 235.0000:
STEP.M 0.1250:
NULL. -999.2500:
UWI. DF305:
~C
DEPT.M :
DEN.GM/CC :
SP.MV :
AC.US/MT :
GR.API :
CALI.CM :
RXO.OHMM :
RI. :
RML.OHMM :
~A
# ...
  225.0000     2.5630   -14.2070   258.4820    73.8190    23.7830    11.2690    12.2940    16.0350 
  225.1250     2.5630   -14.1720   262.2690    73.8190    23.7830    12.5150    12.2860    16.1240 
  225.2500     2.5610   -14.1520   268.6590    73.8190    23.7830    13.4910    12.3180    16.1990 
  225.3750     2.5540   -14.1370   275.6130    73.8190    23.7830    13.2360    12.3720    16.2310 
  225.5000     2.5480   -14.1340   280.8960    73.8190    23.7830    12.2600    12.4500    16.2510 
  225.6250     2.5530   -14.1280   282.8060    73.8190    23.7830    12.1110    12.5710    16.3300 
  225.7500     2.5660   -14.1370   281.7000    73.8190    23.7830    13.1870    12.7270    16.4780 
  225.8750     2.5730   -14.1410   277.7820    73.8190    23.7820    14.4000    12.9040    16.6700 
  226.0000     2.5710   -14.1400   271.9850    73.8190    23.7810    14.7590    13.0800    16.8640 
  226.1250     2.5700   -14.1490   266.8900    73.8190    23.7780    13.7490    13.2320    17.0140 
  226.2500     2.5750   -14.1340   264.9090    73.8190    23.7780    12.1390    13.3550    17.1110 
  226.3750     2.5750   -14.1280   266.3090    73.8190    23.7790    10.7950    13.4590    17.1590 
  226.5000     2.5620   -14.1090   269.4160    73.8190    23.7800    10.0780    13.5500    17.1590 
  226.6250     2.5490   -14.0890   271.9350    73.8190    23.7790     9.8200    13.6090    17.0920 
  226.7500     2.5480   -14.0760   273.3370    73.8190    23.7790     9.6060    13.6030    16.9520 
  226.8750     2.5540   -14.0530   274.3430    73.8190    23.7770     9.4550    13.4950    16.7310 
  227.0000     2.5580   -14.0360   275.5640    73.8190    23.7770     9.5080    13.2730    16.4250 
  227.1250     2.5580   -14.0160   276.9950    73.8190    23.7790     9.6460    12.9660    16.0570 
  227.2500     2.5600   -14.0120   278.4100    73.8190    23.7780     9.7100    12.6660    15.6990 
  227.3750     2.5650   -13.9930   279.5700    73.8190    23.7760     9.5130    12.4410    15.4170 
  227.5000     2.5710   -13.9690   279.8960    73.8190    23.7770     9.1680    12.3240    15.2420 
  227.6250     2.5770   -13.9580   278.7780    73.8190    23.7740     9.0320    12.3130    15.1750 
  227.7500     2.5830   -13.9350   277.1590    73.8190    23.7750     9.3200    12.3390    15.1520 
  227.8750     2.5860   -13.9220   276.0440    73.8190    23.7780    10.0220    12.3540    15.1340 
  228.0000     2.5850   -13.9020   275.3700    73.8190    23.7790    11.0340    12.3370    15.1090 
  228.1250     2.5830   -13.8580   273.8450    73.8190    23.7760    12.0350    12.2920    15.0860 
  228.2500     2.5810   -13.8200   271.0560    73.8190    23.7760    12.3180    12.2470    15.0690 
  228.3750     2.5780   -13.7810   267.8190    73.8190    23.7750    12.2440    12.2230    15.0600 
  228.5000     2.5740   -13.7620   265.2870    73.8190    23.7730    12.5030    12.2320    15.0580 
  228.6250     2.5750   -13.7600   264.1290    73.8190    23.7720    13.1020    12.2730    15.0610 
  228.7500     2.5810   -13.7520   264.1050    73.8190    23.7710    13.8070    12.3240    15.0690 
  228.8750     2.5830   -13.7490   265.8160    73.8190    23.7590    14.3780    12.3710    15.0770 
  229.0000     2.5750   -13.7490   270.1700    73.8190    23.7300    14.7240    12.4000    15.0830 
  229.1250     2.5620   -13.7590   276.3180    73.8190    23.6930    14.8650    12.3980    15.0800 
  229.2500     2.5520   -13.7710   280.3350    73.8190    23.6780    14.7730    12.3660    15.0710 
  229.3750     2.5510   -13.7830   280.0450    73.8190    23.6750    14.6970    12.3120    15.0620 
  229.5000     2.5580   -13.7980   277.0690    73.8190    23.6860    15.9990    12.2510    15.0600 
  229.6250     2.5660   -13.7980   276.0170    73.8190    23.7170    17.1720    12.2050    15.0650 
  229.7500     2.5750   -13.8010   278.1760    73.8190    23.7540    17.2550    12.1820    15.0680 
  229.8750     2.5860   -13.8000   280.8820    73.8190    23.7700    15.9830    12.1820    15.0640 
  230.0000     2.6010   -13.7980   280.4760    73.8190    23.7720    14.2860    12.1830    15.0630 
  230.1250     2.6080   -13.8180   275.2330    73.8190    23.7130    12.2500    12.1830    15.0630 
  230.2500     2.6020   -13.8260   268.9080    73.8190    23.5630    10.6350    12.1830    15.0630 
  230.3750     2.5870   -13.8240   265.0250    73.8190    23.3900    10.2950    12.1830    15.0630 
  230.5000     2.5630   -13.7980   265.0380    73.8190    23.2830    11.7750    12.1830    15.0630 
  230.6250     2.5300   -13.7860   268.1060    73.8190    23.1970    14.8010    12.1830    15.0630 
  230.7500     2.4960   -13.7860   271.6290    73.8190    23.0810    17.8480    12.1830    15.0630 
  230.8750     2.4590   -13.7950   274.3650    73.8190    23.0120    20.0780    12.1830    15.0630 
  231.0000     2.4050   -13.8100   275.9150    73.8190    22.9920    21.0690    12.1830    15.0630 
  231.1250     2.3380   -13.8130   276.4480    73.8190    22.9730    19.7690    12.1830    15.0630 
  231.2500     2.2350   -13.8380   276.6530    73.8190    22.9410    19.3300    12.1830    15.0630 
  231.3750     2.1430   -13.8850   276.7870    73.8190    22.9130    24.2640    12.1830    15.0630 
  231.5000     2.0830   -13.9510   276.9580    73.8190    22.9030    35.0070    12.1830    15.0630 
  231.6250     2.0600   -14.0120   277.1690    73.8190    22.8930    38.0140    12.1830    15.0630 
  231.7500     2.0600   -14.0760   277.3460    73.8190    22.8030    30.4250    12.1830    15.0630 
  231.8750     2.0600   -14.1440   277.4260    73.8190    22.5120    20.6080    12.1830    15.0630 
  232.0000     2.0520   -14.2130   277.4210    73.8190    21.9400    14.3970    12.1830    15.0630 
  232.1250     2.0410   -14.2800   277.3720    73.8190    20.2650     9.6540    12.1830    15.0630 
  232.2500     2.0370   -14.3320   277.3150    73.8190    17.4110     6.5220    12.1830    15.0630 
  232.3750     2.0400   -14.3750   277.3000    73.8190    14.7410     5.1910    12.1830    15.0630 
  232.5000     2.0460   -14.4200   277.3310    73.8190    13.5070     4.8920    12.1830    15.0630 
  232.6250     2.0480   -14.4690   277.3130    73.8190    13.3660     4.8910    12.1830    15.0630 
  232.7500     2.0450   -14.5300   277.2000    73.8190    13.3380     4.8930    12.1830    15.0630 
  232.8750     2.0420   -14.5960   277.0490    73.8190    13.3270     4.8950    12.1830    15.0630 
  233.0000     2.0420   -14.6830   276.9110    73.8190    13.3220     4.8950    12.1830    15.0630 
  233.1250     2.0410   -14.7770   276.7990    73.8190    13.3210     4.8940    12.1830    15.0630 
  233.2500     2.0410   -14.8500   276.7610    73.8190    13.3220     4.8950    12.1830    15.0630 
  233.3750     2.0430   -14.9240   276.7800    73.8190    13.3250     4.8950    12.1830    15.0630 
  233.5000     2.0490   -15.0060   276.6690    73.8190    13.3230     4.8930    12.1830    15.0630 
  233.6250     2.0550   -15.0850   276.3610    73.8190    13.3220     4.8910    12.1830    15.0630 
  233.7500     2.0540   -15.1370   276.1720    73.8190    13.3210     4.8900    12.1830    15.0630 
  233.8750     2.0480   -15.1520   276.2720    73.8190    13.3210     4.8900    12.1830    15.0630 
  234.0000     2.0400   -15.1520   276.4820    73.8190    13.3210     4.8910    12.1830    15.0630 
  234.1250     2.0330  -999.2500   303.5770    73.8190    13.3210     4.8890    12.1830    15.0630 
  234.2500     2.0280  -999.2500   366.9410    73.8190    13.3160     4.8860    12.1830    15.0630 
  234.3750     2.0270  -999.2500   431.4280    73.8190    13.2960     4.8830    12.1830    15.0630 
  234.5000     2.0340  -999.2500   461.8420    73.8190    13.2520     4.8820    12.1830    15.0630 
  234.6250     2.0470  -999.2500   466.7770    73.8190    13.2300     4.8860    12.1830    15.0630 
  234.7500     2.0570  -999.2500  -999.2500    73.8190    13.2230     4.8860    12.1830    15.0630 
  234.8750     2.0530  -999.2500  -999.2500    73.8190    13.2230     4.8840    12.1830    15.0630 
