~V
VERS. 2.00: Ver 2.00
~W
STRT.M 120.0000:
STOP.M 271.0000:
STEP.M 0.1250:
NULL. -999.2500:
UWI. DF3037:
~C
DEPT.M :
GR.API :
RML.OHMM :
RI. :
RXO.OHMM :
CALI.CM :
SP.MV :
DEN.GM/CC :
AC.US/MT :
~A
# ...
  190.0000    61.4410   120.0960   112.3980    45.7490    23.9810   -19.7860     2.2580   391.1910 
  190.1250    59.3110   144.9560   137.0530    70.4910    24.0200   -19.9620     2.2850   373.6000 
  190.2500    56.8110   171.0080   163.3010    99.3330    23.9460   -20.2590     2.3310   355.8610 
  190.3750    56.4020   192.3370   185.5270   133.4600    23.9000   -20.6900     2.3820   340.4560 
  190.5000    57.7040   202.2250   197.3220   170.2590    23.8650   -21.2450     2.4220   329.6080 
  190.6250    59.1330   193.0930   191.2090   170.7460    23.8190   -21.7760     2.4330   326.4640 
  190.7500    60.6370   169.3370   170.4050   155.2030    23.8380   -22.2920     2.4210   330.4860 
  190.8750    62.6110   137.7240   140.3700   114.5550    23.9430   -22.7110     2.3980   340.1030 
  191.0000    65.4420   105.2270   107.7060    77.7540    24.0610   -23.0940     2.3800   352.2650 
  191.1250    68.1180    76.9100    78.2110    54.7560    24.1060   -23.3100     2.3690   363.6310 
  191.2500    69.6490    54.0660    54.2690    42.4020    24.0680   -23.4970     2.3520   373.2690 
  191.3750    72.3170    37.3010    36.8280    33.8790    23.9990   -23.5890     2.3170   381.6310 
  191.5000    78.8610    26.4640    25.6300    26.2180    23.9550   -23.6130     2.2710   388.2400 
  191.6250    88.9030    21.6030    20.3060    17.5360    23.9760   -23.5410     2.2440   388.8350 
  191.7500    92.8390    21.1510    18.9880    13.8500    24.0180   -23.4120     2.2580   380.1580 
  191.8750    87.3860    24.8940    21.4070    17.2350    24.0430   -23.2230     2.3130   362.0940 
  192.0000    77.9020    32.7520    27.6040    27.0040    24.0920   -23.0090     2.3860   339.6920 
  192.1250    72.5080    44.6100    37.6920    46.1400    24.2250   -22.7040     2.4310   322.9260 
  192.2500    71.5430    57.9510    49.3920    71.5530    24.4880   -22.4170     2.4250   317.1800 
  192.3750    71.0170    69.9390    60.0270    85.3630    24.8380   -22.1120     2.3820   321.2760 
  192.5000    68.8880    77.5230    66.7190    84.6310    25.1780   -21.7760     2.3340   328.8890 
  192.6250    66.5510    77.8310    66.8280    80.5840    25.3630   -21.5350     2.3200   331.0170 
  192.7500    66.1100    72.4310    61.8880    79.5310    25.3620   -21.3460     2.3520   324.3050 
  192.8750    66.8430    63.0800    53.5450    77.4880    25.2120   -21.2660     2.4230   310.1860 
  193.0000    65.7030    51.5050    43.5730    67.4850    24.9330   -21.1900     2.5110   293.2230 
  193.1250    62.3290    39.5820    33.8770    50.6660    24.5070   -21.3060     2.5760   280.0680 
  193.2500    59.0870    28.8810    25.8150    35.6180    24.0560   -21.4310     2.6000   274.5700 
  193.3750    56.8720    20.2620    19.9000    25.8580    23.7650   -21.6480     2.5890   277.1850 
  193.5000    54.3310    14.8960    16.0470    17.5820    23.8370   -21.9840     2.5640   285.1450 
  193.6250    51.0300    13.2830    14.0310    13.7540    24.1040   -22.3130     2.5540   293.6850 
  193.7500    48.7210    12.5990    13.0450    12.5940    24.4760   -22.6730     2.5660   299.7420 
  193.8750    47.0080    12.4430    12.6840    13.3430    24.8100   -23.0290     2.5900   304.2350 
  194.0000    45.5410    12.4600    12.5990    14.7510    24.9160   -23.4240     2.6060   310.0930 
  194.1250    45.0310    12.3320    12.4690    12.7330    24.7820   -23.8050     2.5830   320.8410 
  194.2500    47.5360    11.9500    12.1290    10.4350    24.5590   -24.2080     2.5170   336.1050 
  194.3750    51.7310    11.3640    11.5900     9.2500    24.2840   -24.5520     2.4120   353.7240 
  194.5000    54.1690    10.7170    10.9690     8.7500    24.0610   -24.8520     2.2910   370.0400 
  194.6250    53.5040    10.2080    10.4460     7.8210    24.2840   -25.1510     2.1860   379.5750 
  194.7500    52.4660     9.9350    10.1310     6.8960    24.8650   -25.4230     2.1200   380.2860 
  194.8750    52.8880     9.9240    10.0620     6.8900    25.4960   -25.6670     2.1040   372.3300 
  195.0000    54.5850    10.1390    10.2220     7.5180    25.8460   -25.9450     2.1320   358.4330 
  195.1250    56.7680    10.5370    10.5910     7.9370    25.1890   -26.1430     2.1910   343.0250 
  195.2500    59.1790    11.0140    11.0630     7.7370    24.1590   -26.3720     2.2560   330.1740 
  195.3750    60.2400    11.4800    11.5480     8.1110    23.6200   -26.6510     2.3190   321.8220 
  195.5000    60.1940    11.8280    11.9270     9.1040    23.9180   -26.8600     2.3700   319.2420 
  195.6250    60.5650    11.8770    12.0030     9.6300    24.2990   -27.1230     2.3830   324.4960 
  195.7500    60.0570    11.5620    11.7020     9.1330    24.1540   -27.3420     2.3440   336.0390 
  195.8750    57.5700    10.8830    11.0120     7.5950    23.9620   -27.5530     2.2600   351.6170 
  196.0000    53.9740     9.9500    10.0390     6.4020    24.1060   -27.6420     2.1610   367.7550 
  196.1250    49.3540     8.9590     8.9660     6.3140    24.9590   -27.8140     2.0900   380.6820 
  196.2500    45.5310     8.0910     7.9820     6.3140    26.7350   -27.9160     2.0580   389.9390 
  196.3750    45.2390     7.4220     7.1660     5.4760    29.2110   -28.0000     2.0560   396.9730 
  196.5000    49.5380     6.9550     6.5330     4.8410    31.0210   -28.1360     2.0730   403.9170 
  196.6250    54.6870     6.6800     6.0930     4.6500    31.5820   -28.2380     2.1060   411.8490 
  196.7500    57.5930     6.5460     5.8040     4.5820    31.4750   -28.3430     2.1540   419.1740 
  196.8750    61.0780     6.5570     5.6760     4.5010    29.8170   -28.4720     2.2140   424.0450 
  197.0000    67.9930     6.7270     5.7260     4.5700    26.9290   -28.6300     2.2720   425.7350 
  197.1250    80.4550     7.0920     5.9990     4.7330    24.6500   -28.7290     2.3020   424.0750 
  197.2500    93.0790     7.6000     6.4490     4.9100    23.7230   -28.7860     2.3040   419.8300 
  197.3750    99.0480     8.2080     7.0390     5.4170    23.6260   -28.7830     2.2930   413.1950 
  197.5000    97.4930     8.8850     7.7240     6.2750    23.7310   -28.7280     2.2900   405.1320 
  197.6250    93.2280     9.6540     8.4830     7.5600    23.7280   -28.5420     2.3090   397.8840 
  197.7500    91.0100    10.5460     9.2980     8.8200    23.7600   -28.3130     2.3440   392.8520 
  197.8750    91.0820    11.5700    10.1600     9.6820    23.7890   -28.0110     2.3880   389.0970 
  198.0000    91.0740    12.6480    11.0160    10.2540    23.7670   -27.7510     2.4280   384.1510 
  198.1250    90.2710    13.5350    11.7010    11.6400    23.7520   -27.4840     2.4450   376.9920 
  198.2500    89.5190    14.0010    12.0610    14.3230    23.7880   -27.2480     2.4300   371.2690 
  198.3750    89.1980    13.9340    12.0030    16.2150    24.1270   -27.0710     2.3880   371.0630 
  198.5000    87.5020    13.4360    11.5840    15.3780    24.7440   -26.9030     2.3350   377.9410 
  198.6250    84.3360    12.8540    11.0400    13.8200    25.2060   -26.8830     2.3000   389.1670 
  198.7500    83.2430    12.5930    10.6920    12.2770    25.2170   -26.8850     2.2970   397.9930 
  198.8750    84.7320    12.8340    10.7130    11.3380    24.6570   -26.9410     2.3290   400.3260 
  199.0000    86.4500    13.5290    11.1210    10.9430    23.9010   -26.8910     2.3830   395.5150 
  199.1250    86.8980    14.4300    11.8000    11.8870    23.4110   -26.8480     2.4350   386.3260 
  199.2500    88.1260    15.1540    12.4530    13.3360    23.3710   -26.7630     2.4700   378.4900 
  199.3750    89.2120    15.4780    12.8670    14.1030    23.4440   -26.6180     2.4870   375.5190 
  199.5000    90.0810    15.3500    12.9330    13.6310    23.4840   -26.4090     2.4930   378.4690 
  199.6250    92.4360    14.8680    12.6400    13.1760    23.4880   -26.0880     2.5000   386.0790 
  199.7500    96.3470    14.3050    12.1870    12.2150    23.4470   -25.6910     2.5090   394.4540 
  199.8750    98.4910    13.7780    11.6790    11.7680    23.3710   -25.2080     2.5100   401.6420 
