~V
VERS. 2.00: Ver 2.00
~W
STRT.M 125.0000:
STOP.M 273.0000:
STEP.M 0.1250:
NULL. -999.2500:
UWI. DF3072:
~C
DEPT.M :
DEN.GM/CC :
GR.API :
CALI.CM :
RXO.OHMM :
RI. :
RML.OHMM :
SP.MV :
~A
# ...
  147.5000     2.3490    92.5870    24.7810     5.2360     5.2390     5.6340   -17.0580 
  147.6250     2.2860    94.4210    24.8440     5.2010     4.8230     5.0140   -17.3350 
  147.7500     2.2560    95.2150    24.9410     5.2840     4.5950     4.7630   -17.6450 
  147.8750     2.2620    93.6370    25.1330     5.5430     4.6150     4.9340   -17.9900 
  148.0000     2.2800    92.0950    25.3260     6.3450     4.9000     5.5290   -18.3690 
  148.1250     2.2790    89.4050    25.4460     8.3500     5.4900     6.5860   -18.7690 
  148.2500     2.2640    84.2330    25.5870    11.9170     6.2900     7.9240   -19.1650 
  148.3750     2.2520    80.5480    25.7850    16.5260     7.1710     9.2860   -19.5510 
  148.5000     2.2510    80.6070    25.9480    19.6000     7.9140    10.2750   -19.9310 
  148.6250     2.2530    79.4920    25.8860    18.0230     8.2280    10.4430   -20.2840 
  148.7500     2.2510    76.4420    25.5970    14.0690     8.1360     9.9940   -20.5950 
  148.8750     2.2440    77.0270    25.2100    10.6550     7.7930     9.2830   -20.8370 
  149.0000     2.2390    81.8410    24.9390     8.7730     7.3890     8.6480   -21.0120 
  149.1250     2.2390    83.0040    24.9250     8.0880     7.0950     8.3260   -21.1570 
  149.2500     2.2410    80.9700    25.0450     7.9170     6.9540     8.2890   -21.2810 
  149.3750     2.2420    80.2920    25.2020     7.9780     6.9560     8.4570   -21.4010 
  149.5000     2.2410    80.0920    25.3360     8.0730     7.0550     8.7250   -21.5160 
  149.6250     2.2380    78.9930    25.3600     8.0400     7.1950     8.9740   -21.6040 
  149.7500     2.2310    79.9740    25.2620     7.9040     7.3130     9.1210   -21.6840 
  149.8750     2.2220    82.1180    25.0910     7.8330     7.3750     9.1350   -21.7480 
  150.0000     2.2130    82.5890    24.9160     7.9740     7.3700     9.0260   -21.7720 
  150.1250     2.2170    81.6710    24.7810     8.2070     7.3020     8.8320   -21.7350 
  150.2500     2.2330    82.8850    24.6910     8.1840     7.2080     8.6280   -21.6390 
  150.3750     2.2510    83.5800    24.6670     7.7680     7.1180     8.4570   -21.4730 
  150.5000     2.2590    83.3130    24.7080     7.1380     7.0500     8.3370   -21.2250 
  150.6250     2.2540    86.3310    24.7730     6.7010     7.0090     8.2520   -20.8690 
  150.7500     2.2460    90.0810    24.7790     6.5540     6.9660     8.1500   -20.4270 
  150.8750     2.2430    92.5510    24.7000     6.5200     6.8920     7.9870   -19.9240 
  151.0000     2.2510    92.5830    24.5870     6.4190     6.7660     7.7460   -19.4020 
  151.1250     2.2720    90.4570    24.5540     6.2560     6.5850     7.4400   -18.9080 
  151.2500     2.2950    88.2380    24.6340     6.1480     6.3830     7.1320   -18.4560 
  151.3750     2.3050    89.3420    24.7580     6.1290     6.1920     6.8700   -18.0490 
  151.5000     2.2990    94.2180    24.8310     6.1360     6.0350     6.6780   -17.7070 
  151.6250     2.2870    96.7970    24.8040     6.0580     5.9280     6.5680   -17.4550 
  151.7500     2.2830    94.9200    24.7210     5.8950     5.8540     6.5000   -17.2600 
  151.8750     2.2910    91.7340    24.6290     5.7480     5.7940     6.4360   -17.1240 
  152.0000     2.3080    91.8810    24.5440     5.7010     5.7140     6.3160   -17.0110 
  152.1250     2.3270    94.8570    24.4580     5.6890     5.5730     6.0700   -16.8680 
  152.2500     2.3360    94.4350    24.3820     5.5710     5.3910     5.7580   -16.7010 
  152.3750     2.3350    90.1560    24.3550     5.3170     5.2380     5.5170   -16.5060 
  152.5000     2.3360    85.7750    24.4160     5.1110     5.2030     5.5040   -16.2850 
  152.6250     2.3610    83.3670    24.5600     5.5670     5.3930     5.8820   -16.0770 
  152.7500     2.4040    80.7490    24.7130     7.2780     5.7980     6.5830   -15.9000 
  152.8750     2.4530    78.8310    24.8280    10.1790     6.3620     7.4580   -15.7660 
  153.0000     2.4950    80.6170    24.8810    12.4550     6.9390     8.2080   -15.7040 
  153.1250     2.5150    83.1270    24.8640    11.8510     7.2650     8.3960   -15.7300 
  153.2500     2.5040    82.3410    24.8060     9.9040     7.2650     8.0590   -15.8170 
  153.3750     2.4600    79.2560    24.7190     8.4110     7.0650     7.5230   -15.9750 
  153.5000     2.4000    74.9590    24.5890     7.5410     6.9080     7.2150   -16.1820 
  153.6250     2.3510    70.0690    24.4150     7.1080     7.1040     7.5670   -16.3940 
  153.7500     2.3280    65.5750    24.2430     7.5560     7.7160     8.5640   -16.5900 
  153.8750     2.3380    63.8520    24.1540     9.4630     8.6500     9.9880   -16.7510 
  154.0000     2.3830    65.1710    24.2150    12.7400     9.5910    11.3040   -16.8530 
  154.1250     2.4470    70.1270    24.4300    14.6780     9.9050    11.5180   -16.9120 
  154.2500     2.4830    77.0390    24.6150    13.1630     9.3660    10.4230   -16.9360 
  154.3750     2.4680    82.8110    24.6130     9.5960     8.2220     8.5590   -16.9080 
  154.5000     2.4140    85.5120    24.4180     6.8560     6.9950     6.7900   -16.8480 
  154.6250     2.3600    86.8620    24.1760     6.0180     6.2000     5.8390   -16.7490 
  154.7500     2.3390    85.0900    24.0340     6.2880     5.9760     5.7690   -16.6090 
  154.8750     2.3620    77.9410    24.0560     8.0000     6.3960     6.6060   -16.4660 
  155.0000     2.4200    68.9430    24.2860    12.3870     7.5380     8.3810   -16.3320 
  155.1250     2.4870    64.4270    24.7830    20.2490     9.5870    11.1970   -16.1880 
  155.2500     2.5430    63.1880    25.3380    27.0160    12.2620    14.5500   -16.0540 
  155.3750     2.5840    61.6440    25.7140    28.8180    15.0260    17.6360   -15.9500 
  155.5000     2.6060    60.7760    25.8130    26.8940    16.9970    19.3810   -15.8660 
  155.6250     2.6050    63.3230    25.7610    25.6150    17.1240    18.7540   -15.8380 
  155.7500     2.5870    67.4050    25.7510    24.1380    15.7210    16.5010   -15.8790 
  155.8750     2.5570    72.2130    25.7800    19.9000    13.4350    13.5230   -15.9460 
  156.0000     2.5120    76.7720    25.7940    13.6250    10.9680    10.6110   -16.0240 
  156.1250     2.4490    82.3480    25.7860     8.9520     8.8770     8.3290   -16.1120 
  156.2500     2.3900    88.2680    25.7910     6.7840     7.3040     6.7140   -16.1760 
  156.3750     2.3510    92.0070    25.8190     6.1100     6.2530     5.7140   -16.2180 
  156.5000     2.3380    91.5560    25.8480     6.0300     5.6730     5.2430   -16.2510 
  156.6250     2.3370    88.8350    25.8600     6.1920     5.5860     5.3320   -16.2660 
  156.7500     2.3360    87.8290    25.8620     6.8120     5.9230     5.9550   -16.2480 
  156.8750     2.3420    85.5870    25.8690     8.7180     6.7580     7.2470   -16.2280 
  157.0000     2.3760    79.0620    25.8740    13.0700     8.2140     9.3740   -16.2080 
  157.1250     2.4490    71.6000    25.8450    20.3480    10.5090    12.5390   -16.1730 
  157.2500     2.5270    67.6260    25.7830    26.5170    13.3590    16.2560   -16.1520 
  157.3750     2.5820    67.0880    25.7330    28.0310    16.2160    19.7250   -16.1420 
  157.5000     2.6020    66.3540    25.7230    25.7070    18.3420    22.0180   -16.1310 
  157.6250     2.5990    63.4080    25.7320    23.7810    19.1590    22.6250   -16.1180 
  157.7500     2.5930    61.0190    25.7250    23.6950    19.1920    22.4630   -16.1230 
  157.8750     2.5870    59.9440    25.7140    24.6190    18.9620    22.2480   -16.1240 
  158.0000     2.5760    58.6710    25.7050    25.6030    18.8120    22.3410   -16.1270 
  158.1250     2.5510    55.7170    25.6900    25.9370    18.8910    22.8360   -16.1640 
  158.2500     2.5290    54.9240    25.6700    25.9240    19.1960    23.6430   -16.1990 
  158.3750     2.5230    59.0550    25.6350    26.5740    19.7490    24.7600   -16.2410 
  158.5000     2.5310    64.7620    25.5700    28.7720    20.5330    26.1310   -16.2930 
  158.6250     2.5470    65.4040    25.4950    31.8570    21.4180    27.5110   -16.3560 
