~V
VERS. 2.00: Ver 2.00
~W
STRT.M 54.0000:
STOP.M 250.0000:
STEP.M 0.1250:
NULL. -999.2500:
UWI. DF3016:
~C
DEPT.M :
GR.API :
RML.OHMM :
RI. :
RXO.OHMM :
CALI.CM :
DEN.GM/CC :
SP.MV :
~A
# ...
  110.2500    99.8470     8.1340     7.0750     7.7570    24.4610     2.2790   -19.8910 
  110.3750    97.8190     7.7200     6.6330     6.7240    24.5400     2.2860   -19.1910 
  110.5000    97.1990     7.4470     6.3240     6.4470    24.5480     2.2950   -18.6400 
  110.6250    99.4740     7.2670     6.1390     6.3490    24.5230     2.3080   -18.2400 
  110.7500   104.1830     7.1190     6.0240     6.2900    24.4850     2.3260   -18.0110 
  110.8750   109.2950     7.0140     5.9720     6.2150    24.4630     2.3420   -17.8920 
  111.0000   110.2800     6.9940     5.9980     6.0600    24.4570     2.3510   -17.8710 
  111.1250   106.4790     7.1230     6.1460     5.9000    24.4410     2.3480   -17.9410 
  111.2500   103.3050     7.3670     6.3950     5.9570    24.3820     2.3360   -18.0050 
  111.3750   103.8330     7.6570     6.7000     6.3550    24.2580     2.3190   -18.1380 
  111.5000   104.6820     7.8970     6.9860     6.8380    24.0960     2.3020   -18.2370 
  111.6250   101.5720     7.9710     7.1450     7.1800    23.9640     2.2900   -18.3680 
  111.7500    98.0780     7.8740     7.1430     7.3160    23.9510     2.2830   -18.4390 
  111.8750    98.8100     7.6480     6.9970     7.2110    24.0630     2.2820   -18.4950 
  112.0000   103.0610     7.3750     6.7650     6.7950    24.2680     2.2850   -18.5120 
  112.1250   106.2830     7.1440     6.5270     6.3260    24.4040     2.2950   -18.5150 
  112.2500   106.8210     6.9870     6.3290     6.0300    24.4510     2.3120   -18.5330 
  112.3750   105.6470     6.8890     6.1770     5.8410    24.4570     2.3360   -18.5290 
  112.5000   104.6600     6.8230     6.0550     5.8110    24.4570     2.3640   -18.5550 
  112.6250   104.4360     6.7710     5.9560     5.7990    24.4570     2.3900   -18.6230 
  112.7500   103.4190     6.7410     5.8790     5.8060    24.4570     2.4070   -18.7740 
  112.8750   101.6360     6.7480     5.8330     5.6940    24.4490     2.4130   -18.9850 
  113.0000   100.6030     6.7920     5.8190     5.6270    24.4070     2.4070   -19.2690 
  113.1250    99.7840     6.8330     5.8210     5.6990    24.2960     2.3920   -19.6490 
  113.2500    96.9700     6.8150     5.8060     6.0020    24.1800     2.3720   -20.0930 
  113.3750    93.1820     6.7180     5.7600     6.4430    24.1250     2.3500   -20.6150 
  113.5000    89.1070     6.6090     5.7170     6.7420    24.1090     2.3250   -21.1670 
  113.6250    84.2450     6.7400     5.8430     6.9620    24.0440     2.3030   -21.7790 
  113.7500    80.1150     7.3740     6.3410     7.4530    23.8700     2.2940   -22.3970 
  113.8750    78.9940     8.6840     7.3880     8.5110    23.6990     2.3120   -23.0420 
  114.0000    80.0290    10.6110     9.0230    10.7720    23.6340     2.3610   -23.7060 
  114.1250    79.5350    12.7390    11.0400    15.2120    23.7330     2.4290   -24.3670 
  114.2500    76.0750    14.3450    12.8300    22.5020    23.8620     2.4790   -25.0760 
  114.3750    70.7600    14.8830    13.8260    33.5760    23.8610     2.4870   -25.7540 
  114.5000    65.4010    14.2010    13.7170    39.5280    23.6980     2.4490   -26.4650 
  114.6250    63.3080    12.6590    12.6280    25.9540    23.4260     2.3850   -27.0690 
  114.7500    65.3410    11.1490    11.3620    16.2580    23.2630     2.3260   -27.6030 
  114.8750    68.3250    10.1280    10.3740    12.5350    23.2060     2.2820   -28.0270 
  115.0000    68.0560     9.7100     9.8310    11.5250    23.2020     2.2490   -28.3200 
  115.1250    65.2200     9.8060     9.7310    11.2130    23.2450     2.2170   -28.4160 
  115.2500    65.6970    10.0690     9.8240    10.8540    23.3090     2.1830   -28.3110 
  115.3750    68.7990    10.2670     9.9220    10.4990    23.3380     2.1530   -28.0230 
  115.5000    71.6100    10.2250     9.8550    10.1190    23.3190     2.1360   -27.5390 
  115.6250    73.7350     9.8110     9.4760    10.0590    23.3450     2.1480   -26.9380 
  115.7500    75.1050     9.1410     8.8520    10.2560    23.4390     2.1830   -26.2730 
  115.8750    75.8920     8.3650     8.0980    10.7660    23.5770     2.2290   -25.6440 
  116.0000    77.5150     7.6540     7.3640    10.7160    23.7320     2.2680   -25.0980 
  116.1250    80.6120     7.2020     6.8240     8.6850    23.8200     2.2850   -24.7420 
  116.2500    82.8600     7.0440     6.5360     6.9930    23.7820     2.2850   -24.4810 
  116.3750    84.3780     7.1680     6.5170     6.9790    23.6900     2.2750   -24.3990 
  116.5000    86.2830     7.5090     6.7390     7.2250    23.6360     2.2650   -24.4990 
  116.6250    87.8590     7.9790     7.1500     7.1720    23.5890     2.2580   -24.8500 
  116.7500    86.3210     8.4370     7.6050     7.3250    23.4510     2.2540   -25.3080 
  116.8750    82.8780     8.7900     7.9970     8.0550    23.2280     2.2510   -25.8350 
  117.0000    80.1570     8.9750     8.2400     8.7000    23.1000     2.2480   -26.3000 
  117.1250    78.8190     8.9340     8.2570     8.8180    23.2250     2.2430   -26.7990 
  117.2500    77.9260     8.7380     8.1000     8.6080    23.4100     2.2370   -27.3350 
  117.3750    78.8610     8.4730     7.8410     8.2860    23.5390     2.2320   -27.8610 
  117.5000    82.0550     8.2580     7.5820     7.9830    23.5980     2.2280   -28.3750 
  117.6250    83.0850     8.2230     7.4460     7.7750    23.5930     2.2240   -28.7830 
  117.7500    78.2040     8.3740     7.4640     7.7930    23.5510     2.2160   -29.2110 
  117.8750    72.0640     8.6690     7.6230     8.0470    23.4620     2.2050   -29.5990 
  118.0000    70.1120     9.0220     7.8740     8.5560    23.3210     2.1910   -30.0350 
  118.1250    72.0390     9.3300     8.1410     9.2630    23.1120     2.1790   -30.3310 
  118.2500    73.3620     9.5540     8.3680     9.7540    23.0230     2.1740   -30.5450 
  118.3750    72.1930     9.7240     8.5500    10.0020    23.0020     2.1750   -30.7130 
  118.5000    70.5980     9.9100     8.7220    10.0740    23.0020     2.1820   -30.8290 
  118.6250    70.4360    10.1860     8.9330     9.9690    23.0000     2.1970   -30.9630 
  118.7500    70.1490    10.5260     9.1860     9.7480    22.9820     2.2160   -31.0580 
  118.8750    69.0220    10.8560     9.4430     9.3410    22.9350     2.2390   -31.1520 
  119.0000    67.9610    11.0850     9.6440     9.3210    22.8770     2.2570   -31.1830 
  119.1250    69.5870    11.1280     9.7220     9.6820    22.8500     2.2630   -31.2190 
  119.2500    70.8970    11.0340     9.6950    10.1580    22.8410     2.2570   -31.1400 
  119.3750    69.5260    10.8780     9.6070    10.4590    22.8350     2.2450   -30.9330 
  119.5000    67.0250    10.7370     9.5160    10.7920    22.8310     2.2340   -30.5180 
  119.6250    67.2980    10.6680     9.4730    11.2430    22.8330     2.2270   -29.8630 
  119.7500    68.6770    10.6570     9.4830    11.7960    22.8530     2.2200   -29.0010 
  119.8750    68.3260    10.6790     9.5340    12.1280    22.8570     2.2120   -28.0290 
  120.0000    66.9130    10.7150     9.6120    11.5530    22.7840     2.2030   -27.0320 
  120.1250    67.7210    10.7720     9.7130    10.9930    22.6260     2.1990   -25.9890 
  120.2500    69.4220    10.8510     9.8300    10.6510    22.4890     2.2020   -25.0340 
  120.3750    68.5340    10.9270     9.9380    10.6950    22.4250     2.2110   -24.1740 
  120.5000    65.8480    10.9370     9.9870    10.7740    22.4360     2.2210   -23.4310 
  120.6250    65.2310    10.7640     9.8800    10.7280    22.4400     2.2260   -22.8440 
  120.7500    68.7700    10.3810     9.5890    10.4710    22.4230     2.2240   -22.3420 
  120.8750    73.6860     9.8160     9.1220     9.9980    22.4230     2.2210   -21.8860 
  121.0000    78.3220     9.1620     8.5480     9.3290    22.4700     2.2220   -21.3990 
  121.1250    83.4280     8.5690     7.9810     8.5400    22.4750     2.2320   -20.9660 
  121.2500    87.3160     8.1290     7.5140     7.7560    22.5090     2.2460   -20.4890 
  121.3750    87.1460     7.8590     7.1790     7.0410    22.6270     2.2590   -20.0230 
