~V
VERS. 2.00: Ver 2.00
~W
STRT.M 140.0000:
STOP.M 272.0000:
STEP.M 0.1250:
NULL. -999.2500:
UWI. DF3077:
~C
DEPT.M :
GR.API :
CALI.CM :
RXO.OHMM :
RI. :
RML.OHMM :
DEN.GM/CC :
SP.MV :
~A
# ...
  263.7500    95.8590    25.8000    18.7870    10.0930     9.9180     2.2650   -25.2820 
  263.8750    95.8590    25.7710    14.4390     9.0310     9.0080     2.2690   -25.3550 
  264.0000    95.8590    25.7630    10.5320     8.3140     8.5010     2.2560   -25.4550 
  264.1250    95.8590    25.7230    10.2310     7.9340     8.3580     2.2410   -25.5070 
  264.2500    95.8590    25.7780     9.4650     7.7800     8.4080     2.2360   -25.5800 
  264.3750    95.8590    25.7520     8.8940     7.7870     8.5890     2.2390   -25.7770 
  264.5000    95.8590    25.7000     9.0350     7.9120     8.8320     2.2470   -26.0530 
  264.6250    95.8590    25.7790     9.6140     8.0890     9.0580     2.2550   -26.3030 
  264.7500    95.8590    25.7920     9.9610     8.2970     9.2650     2.2640   -26.5320 
  264.8750    95.8590    25.7840     9.7360     8.5680     9.5070     2.2680   -26.7200 
  265.0000    95.8590    25.8150     9.2880     8.9270     9.8120     2.2650   -26.9800 
  265.1250    95.8590    25.7700     9.6370     9.3510    10.1920     2.2510   -27.3460 
  265.2500    95.8590    25.7740    10.4820     9.7950    10.6230     2.2390   -27.7030 
  265.3750    95.8590    25.6360    11.4430    10.2280    11.0590     2.2420   -27.9550 
  265.5000    95.8590    25.5060    12.4040    10.6210    11.4580     2.2610   -28.0720 
  265.6250    95.8590    25.4870    12.9450    10.9120    11.7380     2.2840   -28.2340 
  265.7500    95.8590    25.4880    13.6330    11.0960    11.8850     2.2970   -28.4050 
  265.8750    95.8590    25.4090    14.7740    11.1850    11.9340     2.2990   -28.5570 
  266.0000    95.8590    25.4990    16.9550    11.2020    11.9110     2.2940   -28.5600 
  266.1250    95.8590    25.3750    17.9330    11.1900    11.8640     2.2830   -28.5620 
  266.2500    95.8590    25.3390    17.3480    11.1800    11.8130     2.2740   -28.5480 
  266.3750    95.8590    25.4280    14.6630    11.1720    11.7840     2.2760   -28.5530 
  266.5000    95.8590    25.3220    11.2350    11.1690    11.7630     2.2890   -28.6150 
  266.6250    95.8590    25.3060     8.9730    11.1720    11.7630     2.3000   -28.6260 
  266.7500    95.8590    25.2770     7.7970    11.1760    11.7700     2.2940   -28.6120 
  266.8750    95.8590    25.2490     7.4360    11.1760    11.7700     2.2800   -28.6260 
  267.0000    95.8590    25.3030     7.4950    11.1760    11.7700     2.2710   -28.6640 
  267.1250    95.8590    25.3340     7.9040    11.1760    11.7700     2.2730   -28.6300 
  267.2500    95.8590    25.3450     9.1110    11.1760    11.7700     2.2740   -28.6180 
  267.3750    95.8590    25.1640    11.1300    11.1760    11.7700     2.2770   -28.5920 
  267.5000    95.8590    25.0870    12.9110    11.1760    11.7700     2.2840   -28.6400 
  267.6250    95.8590    25.1350    13.2930    11.1760    11.7700     2.2870   -28.8010 
  267.7500    95.8590    25.2350    12.7450    11.1760    11.7700     2.2840   -28.9960 
  267.8750    95.8590    25.2800    12.0650    11.1760    11.7700     2.2800   -29.0910 
  268.0000    95.8590    25.1880    11.8490    11.1760    11.7700     2.2840   -29.3470 
  268.1250    95.8590    25.1580    12.4520    11.1760    11.7700     2.2940   -29.5870 
  268.2500    95.8590    25.2730    13.4900    11.1760    11.7700     2.3000   -29.7960 
  268.3750    95.8590    25.2850    13.0680    11.1760    11.7700     2.2960   -30.0180 
  268.5000    95.8590    25.2590    12.1880    11.1760    11.7700     2.2790   -30.0670 
  268.6250    95.8590    25.0980    12.5440    11.1760    11.7700     2.2630   -30.0670 
  268.7500    95.8590    25.0240    13.3510    11.1760    11.7700     2.2650  -999.2500 
  268.8750    95.8590    25.0540    11.3120    11.1760    11.7700     2.2870  -999.2500 
  269.0000    95.8590    25.0600     7.8140    11.1760    11.7700     2.3090  -999.2500 
  269.1250    95.8590    24.9850     7.3830    11.1760    11.7700     2.3140  -999.2500 
  269.2500    95.8590    24.8360     7.2600    11.1760    11.7700     2.3120  -999.2500 
  269.3750    95.8590    24.7440     7.3480    11.1760    11.7700     2.3120  -999.2500 
  269.5000    95.8590    24.6430     7.8150    11.1760    11.7700     2.3150  -999.2500 
  269.6250    95.8590    24.4730     7.7190    11.1760    11.7700     2.3140  -999.2500 
  269.7500    95.8590    24.2970     7.3230    11.1760    11.7700     2.2970  -999.2500 
  269.8750    95.8590    24.1440     6.6270    11.1760    11.7700     2.2360  -999.2500 
  270.0000    95.8590    24.0470     5.9140    11.1760    11.7700     2.0950  -999.2500 
  270.1250    95.8590    23.8020     5.6400    11.1760    11.7700     1.8780  -999.2500 
  270.2500    95.8590    23.2840     5.5100    11.1760    11.7700     1.6770  -999.2500 
  270.3750    95.8590    21.3220     5.4340    11.1760    11.7700     1.5470  -999.2500 
  270.5000    95.8590    17.6860     5.3860    11.1760    11.7700     1.4900  -999.2500 
  270.6250    95.8590    16.2030     5.3400    11.1760    11.7700     1.4800  -999.2500 
  270.7500    95.8590    15.9240     5.3310    11.1760    11.7700     1.4810  -999.2500 
  270.8750    95.8590    15.8930     5.3300    11.1760    11.7700     1.4810  -999.2500 
  271.0000    95.8590    15.8930     5.3310    11.1760    11.7700     1.4780  -999.2500 
  271.1250    95.8590    15.8920     5.3320    11.1760    11.7700     1.4760  -999.2500 
  271.2500    95.8590    15.8880     5.3320    11.1760    11.7700     1.4800  -999.2500 
  271.3750    95.8590    15.8830     5.3320    11.1760    11.7700     1.4880  -999.2500 
  271.5000    95.8590    15.8590     5.3320    11.1760    11.7700     1.4970  -999.2500 
  271.6250    95.8590    15.8790     5.3320    11.1760    11.7700     1.4810  -999.2500 
  271.7500    95.8590    15.8770     5.3300    11.1760    11.7700     1.5150  -999.2500 
  271.8750    95.8590    15.8770     5.3290    11.1760    11.7700     1.7160  -999.2500 
  272.0000    95.8590    15.8770     5.3290    11.1760    11.7700     2.0440  -999.2500 
