~V
VERS. 2.00: Ver 2.00
~W
STRT.M 125.0000:
STOP.M 245.0000:
STEP.M 0.1250:
NULL. -999.2500:
UWI. DF3026:
~C
DEPT.M :
SP.MV :
GR.API :
CALI.CM :
RXO.OHMM :
RI. :
RML.OHMM :
DEN.GM/CC :
~A
# ...
  226.2500   -19.7850    68.4470    25.2430    14.5690    14.5460    15.5280     2.3180 
  226.3750   -19.7590    70.7030    25.3380    16.0640    15.4940    16.8800     2.3260 
  226.5000   -19.6970    72.6880    25.6260    16.2150    15.6520    17.1830     2.3400 
  226.6250   -19.5920    70.9570    25.8320    15.5720    15.0990    16.5580     2.3510 
  226.7500   -19.4590    66.9190    25.8700    14.5490    14.5150    15.9110     2.3570 
  226.8750   -19.3080    64.2340    25.8150    13.6540    14.3990    15.8680     2.3640 
  227.0000   -19.1360    63.6640    25.7330    14.0860    15.0510    16.7930     2.3700 
  227.1250   -18.9270    62.1090    25.6680    17.0990    16.7190    18.9780     2.3640 
  227.2500   -18.7150    60.5560    25.6760    21.9710    19.1510    22.1020     2.3430 
  227.3750   -18.5120    60.9140    25.7780    27.5400    22.0320    25.7260     2.3180 
  227.5000   -18.3180    62.8940    25.9050    31.3330    24.8580    29.1200     2.2970 
  227.6250   -18.1440    65.5800    25.9400    32.5320    27.0380    31.4310     2.2830 
  227.7500   -17.9740    66.8510    25.9310    33.7930    28.6400    32.8790     2.2740 
  227.8750   -17.7940    65.2400    25.9100    36.5740    30.0100    34.0350     2.2650 
  228.0000   -17.6110    60.0530    25.8950    39.4350    31.4830    35.3710     2.2530 
  228.1250   -17.4370    53.9680    25.8850    40.0570    33.1730    37.0280     2.2440 
  228.2500   -17.2540    51.9020    25.8800    40.1540    34.7720    38.6400     2.2390 
  228.3750   -17.0340    54.4000    25.8760    40.6190    35.7880    39.6530     2.2330 
  228.5000   -16.7870    57.7120    25.8620    40.3640    35.6310    39.3820     2.2280 
  228.6250   -16.4930    56.9050    25.8010    38.2770    33.3950    36.7440     2.2320 
  228.7500   -16.1740    54.5670    25.6910    34.7980    29.1900    31.8300     2.2500 
  228.8750   -15.8280    54.5610    25.5910    30.4840    23.6410    25.4280     2.2740 
  229.0000   -15.4390    57.0600    25.5280    25.9780    17.9280    18.9880     2.3010 
  229.1250   -14.9970    61.9210    25.4920    20.6420    13.3120    13.9550     2.3190 
  229.2500   -14.5240    65.8000    25.5510    15.0270    10.0010    10.4450     2.2890 
  229.3750   -14.0790    65.4280    25.9280     9.5740     7.8640     8.2520     2.2010 
  229.5000   -13.6820    62.7630    26.7960     5.7280     6.6480     7.0840     2.0840 
  229.6250   -13.3380    62.3780    27.6020     4.4760     6.1980     6.7590     1.9900 
  229.7500   -13.0240    63.6150    27.3820     4.1770     6.1890     6.8980     1.9820 
  229.8750   -12.7370    62.0880    26.4110     4.1750     6.4580     7.2910     2.0560 
  230.0000   -12.5050    58.2100    25.6760     4.1670     6.8430     7.7450     2.1770 
  230.1250   -12.3400    54.9880    25.4690     4.1100     7.1900     8.0930     2.2810 
  230.2500   -12.2430    53.7570    25.4560     4.0780     7.4340     8.3020     2.3130 
  230.3750   -12.1730    54.1170    25.4540     4.1910     7.5800     8.4030     2.3110 
  230.5000   -12.0900    54.4980    25.4510     4.5170     7.6470     8.4340     2.3230 
  230.6250   -12.0170    56.2810    25.4390     5.2770     7.6280     8.4090     2.3570 
  230.7500   -11.9650    59.6120    25.4190     6.9580     7.5340     8.3430     2.3770 
  230.8750   -11.9360    62.5910    25.4060     9.4440     7.3690     8.2460     2.3680 
  231.0000   -11.9190    67.7780    25.4070    10.8720     7.1340     8.1170     2.3510 
  231.1250   -11.8970    73.8490    25.4250     9.4720     6.8400     7.9460     2.3430 
  231.2500   -11.8740    72.8300    25.4370     7.4490     6.5510     7.7830     2.3400 
  231.3750   -11.8600    63.8270    25.4360     6.7760     6.3340     7.6880     2.3340 
  231.5000   -11.8520    55.7510    25.4340     6.9960     6.2330     7.6980     2.3280 
  231.6250   -11.8490    55.7510    25.4310     7.1510     6.2630     7.8160     2.3200 
  231.7500   -11.8310    55.7510    25.4280     6.7130     6.3600     7.9680     2.3000 
  231.8750   -11.8130    55.7510    25.4060     6.0810     6.4750     8.1020     2.2820 
  232.0000   -11.8040    55.7510    25.3370     5.4680     6.5700     8.1850     2.2760 
  232.1250   -11.8170    55.7510    25.1760     5.0240     6.6210     8.2090     2.2760 
  232.2500   -11.8220    55.7510    25.0500     4.7270     6.6410     8.2070     2.2770 
  232.3750   -11.8360    55.7510    24.9800     4.5920     6.6460     8.1990     2.2760 
  232.5000   -11.8770    55.7510    24.9590     4.5690     6.6450     8.1860     2.2680 
  232.6250   -11.9180    55.7510    24.9580     4.5720     6.6260     8.1030     2.2500 
  232.7500   -11.9770    55.7510    24.9560     4.4510     6.5780     7.8850     2.2410 
  232.8750   -12.0410    55.7510    24.9520     4.2610     6.5000     7.5640     2.2540 
  233.0000   -12.0900    55.7510    24.9480     4.1690     6.4150     7.2670     2.2920 
  233.1250   -12.1280    55.7510    24.9430     4.2570     6.3570     7.1820     2.3440 
  233.2500   -12.1630    55.7510    24.9380     4.4460     6.3340     7.3230     2.3810 
  233.3750   -12.1890    55.7510    24.9320     4.6760     6.3340     7.5880     2.3860 
  233.5000   -12.2000    55.7510    24.9220     4.9060     6.3300     7.8130     2.3680 
  233.6250   -12.1970    55.7510    24.9170     5.1040     6.2940     7.8470     2.3460 
  233.7500   -12.1820    55.7510    24.9160     5.2260     6.2310     7.7450     2.3300 
  233.8750   -12.1710    55.7510    24.9160     5.2730     6.1620     7.6090     2.3180 
  234.0000   -12.1630    55.7510    24.9160     5.3210     6.1200     7.5160     2.3140 
  234.1250   -12.1510    55.7510    24.9150     5.5410     6.1320     7.5160     2.3170 
  234.2500   -12.1600    55.7510    24.8970     5.8660     6.1840     7.5820     2.3180 
  234.3750   -12.1740    55.7510    24.8090     5.9490     6.2500     7.6690     2.3160 
  234.5000   -12.1760    55.7510    24.5900     5.6580     6.3050     7.7290     2.3020 
  234.6250   -12.2020    55.7510    24.3550     5.2840     6.3330     7.7260     2.2600 
  234.7500   -12.2300    55.7510    24.2050     5.0700     6.3460     7.6840     2.1920 
  234.8750   -12.2370    55.7510    24.1480     4.9480     6.3540     7.6460     2.1340 
  235.0000   -12.2430    55.7510    24.0380     4.8450     6.3630     7.6490     2.1010 
  235.1250   -12.2520    55.7510    23.6440     4.8080     6.3660     7.7010     2.0870 
  235.2500   -12.2240    55.7510    22.9910     4.8290     6.3600     7.7660     2.1040 
  235.3750   -12.1880    55.7510    22.4270     4.8880     6.3500     7.8140     2.1620 
  235.5000   -12.1690    55.7510    22.0930     5.0030     6.3430     7.8270     2.2480 
  235.6250   -12.1470    55.7510    22.1200     5.1430     6.3450     7.7930     2.3220 
  235.7500   -12.1270    55.7510    22.4340     5.1540     6.3510     7.7290     2.3500 
  235.8750   -12.1250    55.7510    22.5900     5.0890     6.3560     7.6460     2.3590 
  236.0000   -12.1390    55.7510    22.5500     5.1570     6.3590     7.5630     2.3680 
  236.1250   -12.1420    55.7510    22.5520     5.6920     6.3600     7.5060     2.3780 
  236.2500   -12.1660    55.7510    22.7960     7.2770     6.3600     7.4860     2.3740 
  236.3750   -12.2050    55.7510    23.2960    10.1030     6.3590     7.4990     2.3650 
  236.5000   -12.2300    55.7510    23.7740    13.2560     6.3570     7.5260     2.3640 
  236.6250   -12.2460    55.7510    24.0850    13.3920     6.3600     7.5480     2.3730 
  236.7500   -12.2580    55.7510    24.1840    11.7030     6.3660     7.5550     2.3930 
  236.8750   -12.2560    55.7510    24.1970    10.1440     6.3730     7.5470     2.4160 
  237.0000   -12.2550    55.7510    24.1660     9.5860     6.3790     7.5300     2.4330 
  237.1250   -12.2840    55.7510    24.0370     9.6160     6.3870     7.5100     2.4360 
  237.2500   -12.2950    55.7510    23.8330     9.7300     6.3950     7.4960     2.4260 
  237.3750   -12.2920    55.7510    23.6270     9.7070     6.3920     7.4890     2.4130 
