~V
VERS. 2.00: Ver 2.00
~W
STRT.M 60.0000:
STOP.M 250.0000:
STEP.M 0.1250:
NULL. -999.2500:
UWI. DF3018:
~C
DEPT.M :
DEN.GM/CC :
GR.API :
RML.OHMM :
RI. :
RXO.OHMM :
CALI.CM :
SP.MV :
~A
# ...
  228.7500     2.3630    70.4960    26.7940    24.0940    30.2870    24.3520   -21.1640 
  228.8750     2.3380    73.0940    25.6870    23.0560    27.0590    24.3750   -21.1060 
  229.0000     2.3170    72.3010    25.1900    22.4920    24.6770    24.3730   -21.0510 
  229.1250     2.3060    70.4000    25.7640    22.7930    24.0120    24.3460   -21.0520 
  229.2500     2.3020    71.8040    27.3260    23.9370    24.4190    24.3050   -21.0450 
  229.3750     2.3010    73.6140    29.6230    25.7730    26.1630    24.2830   -21.0510 
  229.5000     2.3010    71.9140    32.1170    27.9000    29.3810    24.2800   -21.0510 
  229.6250     2.3030    69.8970    33.9060    29.5800    33.3290    24.2880   -21.0200 
  229.7500     2.3080    72.1190    34.4640    30.2790    36.0330    24.2970   -20.9750 
  229.8750     2.3180    76.8660    33.6930    29.8180    37.3850    24.3310   -20.9110 
  230.0000     2.3280    79.2900    31.9690    28.4390    36.5980    24.3540   -20.8370 
  230.1250     2.3350    75.8130    29.9800    26.6720    33.0900    24.3340   -20.7370 
  230.2500     2.3340    71.2820    28.3470    25.0940    28.9560    24.2910   -20.6240 
  230.3750     2.3220    71.3720    27.2370    23.9000    26.2940    24.2760   -20.5020 
  230.5000     2.3070    76.2280    26.5520    23.0750    26.1280    24.3040   -20.4280 
  230.6250     2.2940    79.3550    26.0750    22.5090    27.6220    24.3400   -20.3440 
  230.7500     2.2900    76.3620    25.5750    22.0210    27.9050    24.3730   -20.3460 
  230.8750     2.2980    69.6650    25.0080    21.5580    26.2960    24.4000   -20.3660 
  231.0000     2.3110    62.8990    24.4400    21.1460    23.8980    24.4410   -20.4280 
  231.1250     2.3240    59.5330    24.0420    20.8950    23.0990    24.4610   -20.5140 
  231.2500     2.3340    60.3800    23.9400    20.8820    22.8330    24.4680   -20.6450 
  231.3750     2.3360    64.7260    24.2500    21.1930    23.2450    24.4680   -20.8040 
  231.5000     2.3310    68.2630    25.0640    21.9000    24.1690    24.4680   -20.9470 
  231.6250     2.3210    67.8380    26.4630    23.0710    24.8410    24.4680   -21.1150 
  231.7500     2.3080    66.8040    28.1360    24.4650    25.2280    24.4720   -21.2400 
  231.8750     2.2950    67.2820    29.6350    25.7360    26.3930    24.4750   -21.3520 
  232.0000     2.2850    66.5130    30.3900    26.4240    28.5890    24.4730   -21.4350 
  232.1250     2.2830    63.0200    29.7210    25.9550    31.2870    24.3800   -21.4750 
  232.2500     2.2880    62.0020    27.8580    24.4750    31.0900    24.2460   -21.4840 
  232.3750     2.3030    65.0940    25.3350    22.3860    27.8360    24.0720   -21.4610 
  232.5000     2.3210    69.2370    22.9050    20.2930    22.9110    23.9280   -21.4350 
  232.6250     2.3370    72.8850    21.3990    18.8750    19.0780    23.8750   -21.3470 
  232.7500     2.3460    76.9020    20.9990    18.3340    17.1520    23.8880   -21.3040 
  232.8750     2.3460    79.1680    21.6760    18.7020    17.5630    23.9300   -21.2520 
  233.0000     2.3380    77.9760    23.2410    19.8790    20.1220    23.9900   -21.2280 
  233.1250     2.3230    75.4460    25.4450    21.7130    22.8880    24.0540   -21.2220 
  233.2500     2.3030    74.6770    27.7610    23.7410    24.8290    24.1620   -21.2650 
  233.3750     2.2810    74.4750    29.7270    25.5430    26.6450    24.2810   -21.3160 
  233.5000     2.2650    72.3760    30.8580    26.6790    28.8290    24.3430   -21.3740 
  233.6250     2.2580    68.5350    30.5800    26.6330    30.6600    24.3210   -21.5090 
  233.7500     2.2640    66.8520    29.1430    25.5630    31.6200    24.2450   -21.6370 
  233.8750     2.2820    70.6710    27.0450    23.8290    31.0020    24.1460   -21.7970 
  234.0000     2.3050    77.9340    25.0770    22.0440    27.6240    24.0530   -21.9600 
  234.1250     2.3310    82.9660    24.3660    21.1130    23.4860    24.0180   -22.1530 
  234.2500     2.3630    85.3250    25.4510    21.5600    23.0480    24.0330   -22.3420 
  234.3750     2.4020    86.3370    28.6320    23.7320    25.8360    24.1020   -22.5400 
  234.5000     2.4450    87.5320    33.8350    27.7060    32.3530    24.2090   -22.7540 
  234.6250     2.4800    87.3790    40.5920    33.2880    43.1810    24.2430   -22.9580 
  234.7500     2.4990    84.7180    47.4080    39.2560    57.6860    24.2170   -23.1380 
  234.8750     2.4970    80.5080    52.9850    44.4820    63.3620    24.1780   -23.2680 
  235.0000     2.4830    79.8600    56.3930    48.0560    55.8710    24.1670   -23.3700 
  235.1250     2.4620    84.5010    57.1760    49.3840    51.9940    24.2190   -23.4360 
  235.2500     2.4390    86.5360    56.4320    49.2360    50.2710    24.2390   -23.5020 
  235.3750     2.4140    82.6230    54.9120    48.2170    51.0700    24.2650   -23.5530 
  235.5000     2.3910    78.1590    53.1320    46.7990    54.0180    24.2920   -23.5660 
  235.6250     2.3700    78.0970    51.4920    45.3280    53.2270    24.2380   -23.5550 
  235.7500     2.3510    78.2520    50.2490    44.0670    52.0560    24.1560   -23.5260 
  235.8750     2.3360    78.1020    49.4180    43.0730    51.3220    24.0490   -23.5020 
  236.0000     2.3290    79.8180    48.6900    42.1240    49.7620    23.9320   -23.4560 
  236.1250     2.3370    84.0720    47.1290    40.5830    46.8340    23.8720   -23.4210 
  236.2500     2.3590    88.0740    44.2080    38.0420    46.8380    23.9830   -23.3490 
  236.3750     2.3850    90.6820    39.7820    34.4760    48.8390    24.1220   -23.2860 
  236.5000     2.4000    91.0750    34.5840    30.3260    42.6600    24.1780   -23.2060 
  236.6250     2.3970    88.6570    29.3000    26.3860    31.6250    24.1670   -23.1660 
  236.7500     2.3780    86.1490    24.9480    23.1960    23.7050    24.1420   -23.1230 
  236.8750     2.3520    84.6270    22.2610    20.9260    19.7460    24.1060   -23.1080 
  237.0000     2.3290    82.8710    20.9820    19.5270    18.8340    24.1150   -23.1020 
  237.1250     2.3150    82.1070    20.5220    18.9340    20.9660    24.1180   -23.0800 
  237.2500     2.3130    86.0050    20.5010    18.8030    21.3910    24.0240   -23.0650 
  237.3750     2.3240    93.4140    20.6680    18.9050    20.1830    23.9220   -23.0410 
  237.5000     2.3400    99.1160    20.7610    18.9870    19.7960    23.8370   -23.0290 
  237.6250     2.3510    98.3590    20.4830    18.7440    20.4130    23.7740   -22.9480 
  237.7500     2.3500    94.7980    19.7170    18.0720    21.4790    23.6970   -22.8480 
  237.8750     2.3380    90.9980    18.5040    16.9820    23.0800    23.5900   -22.7030 
  238.0000     2.3310    87.1050    16.8960    15.5970    19.4760    23.5210   -22.5220 
  238.1250     2.3420    83.6670    15.1950    14.1110    14.0820    23.6480   -22.3560 
  238.2500     2.3730    79.4860    13.5020    12.7240    10.7570    23.8630   -22.1710 
  238.3750     2.4090    74.6920    12.0040    11.5290    10.1130    24.0500   -21.9950 
  238.5000     2.4290    70.9070    11.1110    10.5730     9.7450    24.1160   -21.8510 
  238.6250     2.4240    71.0910    10.6140     9.9190     9.0610    24.0860   -21.7760 
  238.7500     2.4030    73.8210    10.3650     9.5230     8.5240    24.1160   -21.7500 
  238.8750     2.3850    75.7890    10.3380     9.3650     8.2530    24.1860   -21.7700 
  239.0000     2.3810    77.0390    10.4850     9.4080     8.2570    24.2120   -21.8510 
  239.1250     2.3930    76.4290    10.7350     9.6040     8.7580    24.1610   -21.9440 
  239.2500     2.4140    74.6370    10.9800     9.8410     9.8840    24.1130   -22.0790 
  239.3750     2.4350    72.8450    11.1690    10.0510    11.8780    24.0980   -22.2290 
  239.5000     2.4470    72.5110    11.2920    10.1960    13.8770    24.1120   -22.4120 
  239.6250     2.4490    72.5110    11.3620    10.2570    13.2710    24.1560   -22.5710 
  239.7500     2.4420    72.5110    11.4020    10.2580    12.0510    24.1700   -22.7600 
  239.8750     2.4280    72.5110    11.4190    10.2140    11.3340    24.1530   -22.9310 
