~V
VERS. 2.00: Ver 2.00
~W
STRT.M 61.0000:
STOP.M 276.0000:
STEP.M 0.1250:
NULL. -999.2500:
UWI. DF3051:
~C
DEPT.M :
SP.MV :
GR.API :
CALI.CM :
RXO.OHMM :
RI. :
RML.OHMM :
DEN.GM/CC :
~A
# ...
  128.5000   -26.9340    60.2960    25.7840     9.4150     8.5990    10.2490     2.2220 
  128.6250   -27.3770    61.9390    25.5320     9.7560     8.6190    10.6330     2.2030 
  128.7500   -27.7670    60.1600    25.1360    10.3000     8.8910    11.2340     2.1900 
  128.8750   -28.1350    55.9390    24.8660    10.6740     9.2360    11.8000     2.1860 
  129.0000   -28.4640    52.3400    24.7790    10.7120     9.5040    12.1200     2.1830 
  129.1250   -28.6870    54.0680    24.7750    10.5160     9.5660    12.0280     2.1780 
  129.2500   -28.8050    59.3770    24.7860    10.3170     9.4510    11.6620     2.1800 
  129.3750   -28.7960    63.2900    24.8210    10.1340     9.2260    11.2000     2.1980 
  129.5000   -28.6910    63.5520    24.8900     9.9360     8.9730    10.8060     2.2250 
  129.6250   -28.5860    62.1650    24.9560     9.8190     8.7740    10.6020     2.2340 
  129.7500   -28.5370    62.4210    24.9510     9.8750     8.6540    10.5600     2.2200 
  129.8750   -28.5380    65.5710    24.8600     9.9760     8.6110    10.6200     2.1990 
  130.0000   -28.5670    69.2200    24.7350     9.8960     8.6120    10.7080     2.1910 
  130.1250   -28.5970    67.8390    24.6510     9.5800     8.6120    10.7490     2.2030 
  130.2500   -28.5810    64.7210    24.6100     9.2330     8.5750    10.7200     2.2200 
  130.3750   -28.5140    65.3300    24.5850     8.9300     8.4910    10.6230     2.2360 
  130.5000   -28.4310    68.4820    24.5660     8.6820     8.3730    10.4840     2.2440 
  130.6250   -28.3450    68.4500    24.5570     8.5540     8.2580    10.3460     2.2420 
  130.7500   -28.2230    66.9710    24.5540     8.5480     8.1690    10.2410     2.2350 
  130.8750   -28.0200    66.6110    24.5530     8.5790     8.1110    10.1690     2.2290 
  131.0000   -27.7540    66.1700    24.5520     8.5470     8.0730    10.1180     2.2280 
  131.1250   -27.4750    64.9010    24.5500     8.4790     8.0380    10.0650     2.2300 
  131.2500   -27.2380    64.3840    24.5390     8.4940     7.9920     9.9960     2.2320 
  131.3750   -27.0640    64.5240    24.5170     8.5940     7.9290     9.9010     2.2350 
  131.5000   -26.9050    65.0190    24.4890     8.6920     7.8460     9.7670     2.2390 
  131.6250   -26.7110    66.5530    24.4700     8.7130     7.7440     9.5940     2.2400 
  131.7500   -26.4820    68.0600    24.4670     8.6560     7.6480     9.4170     2.2380 
  131.8750   -26.2480    67.3750    24.4740     8.4540     7.5870     9.2870     2.2380 
  132.0000   -26.0490    66.7620    24.4840     8.0710     7.5860     9.2540     2.2460 
  132.1250   -25.8530    69.9550    24.4990     7.7190     7.6590     9.3420     2.2570 
  132.2500   -25.6020    73.6080    24.5190     7.6330     7.7570     9.4440     2.2530 
  132.3750   -25.3100    72.5510    24.5390     7.6970     7.8060     9.4250     2.2350 
  132.5000   -25.0680    68.7500    24.5540     7.5900     7.7340     9.1780     2.2210 
  132.6250   -24.9630    70.2360    24.5780     7.1250     7.4880     8.6810     2.2350 
  132.7500   -24.9490    74.3330    24.6270     6.5810     7.1310     8.0870     2.2620 
  132.8750   -24.9430    76.5010    24.6950     6.2020     6.7310     7.5120     2.2850 
  133.0000   -24.8260    77.1180    24.7850     6.0540     6.3540     7.0340     2.2960 
  133.1250   -24.5460    78.5710    24.9180     5.9620     6.0580     6.7080     2.3030 
  133.2500   -24.2220    79.8430    25.0550     5.7250     5.8370     6.4950     2.3150 
  133.3750   -23.8960    80.4040    25.1380     5.4230     5.6620     6.3370     2.3310 
  133.5000   -23.5820    82.3350    25.1560     5.2810     5.4920     6.1550     2.3440 
  133.6250   -23.2870    83.4700    25.1910     5.3470     5.2720     5.8500     2.3460 
  133.7500   -23.0200    81.7670    25.2770     5.3680     4.9940     5.4300     2.3470 
  133.8750   -22.8130    81.5920    25.3160     5.2340     4.6930     4.9810     2.3560 
  134.0000   -22.7000    86.5950    25.1590     5.0320     4.4360     4.6320     2.3710 
  134.1250   -22.7400    91.3480    24.7260     4.9820     4.3160     4.5340     2.3700 
  134.2500   -22.9160    89.7950    24.2320     5.2420     4.3520     4.6900     2.3410 
  134.3750   -23.2560    83.9040    23.9060     5.8650     4.5390     5.0560     2.2930 
  134.5000   -23.7500    78.9390    23.8770     6.6850     4.8310     5.5230     2.2520 
  134.6250   -24.3180    76.1150    24.1200     7.2490     5.1600     5.9540     2.2390 
  134.7500   -24.8720    73.6670    24.4140     7.3560     5.4900     6.3420     2.2460 
  134.8750   -25.3730    71.1100    24.6250     7.2160     5.8730     6.8250     2.2640 
  135.0000   -25.8690    68.2940    24.7330     7.3270     6.4000     7.5810     2.2930 
  135.1250   -26.3710    64.6020    24.8210     8.5300     7.1970     8.8080     2.3340 
  135.2500   -26.8320    60.0420    24.9310    10.9350     8.2150    10.3780     2.3650 
  135.3750   -27.2460    58.0520    25.0140    13.3500     9.2850    11.9550     2.3610 
  135.5000   -27.6150    59.8480    25.0090    13.8750    10.1040    13.0120     2.3190 
  135.6250   -27.9500    62.7350    24.9140    12.2150    10.3340    13.0640     2.2710 
  135.7500   -28.2890    64.6880    24.8140    10.6800    10.1470    12.5390     2.2430 
  135.8750   -28.6110    65.3460    24.7520    10.0720     9.8110    11.9380     2.2340 
  136.0000   -28.8740    64.9380    24.7270     9.9700     9.5540    11.5930     2.2400 
  136.1250   -29.0520    64.9540    24.7100     9.9210     9.4940    11.6020     2.2510 
  136.2500   -29.1760    68.2170    24.6780     9.8560     9.5390    11.7340     2.2540 
  136.3750   -29.2680    72.9820    24.6270     9.8840     9.5800    11.8110     2.2420 
  136.5000   -29.3240    74.5810    24.5660    10.1070     9.5530    11.7700     2.2190 
  136.6250   -29.3280    71.9720    24.5230    10.4210     9.4660    11.6490     2.2010 
  136.7500   -29.2770    68.0680    24.5190    10.5360     9.3850    11.5430     2.1910 
  136.8750   -29.2060    64.5870    24.5460    10.4130     9.3510    11.4970     2.1830 
  137.0000   -29.1380    62.4700    24.5700    10.2850     9.3680    11.5110     2.1760 
  137.1250   -29.0590    65.0520    24.5490    10.4650     9.3920    11.5230     2.1760 
  137.2500   -29.0040    69.1370    24.5040    10.8450     9.3600    11.4520     2.1870 
  137.3750   -28.9490    72.4550    24.4800    11.0480     9.2510    11.2790     2.2080 
  137.5000   -28.8380    74.0220    24.5160    10.7180     9.0930    11.0620     2.2240 
  137.6250   -28.6340    73.4960    24.6050     9.9240     8.9570    10.9230     2.2260 
  137.7500   -28.3780    71.8260    24.6930     9.3330     8.8990    10.9310     2.2300 
  137.8750   -28.0970    69.4300    24.7500     9.3110     8.9370    11.0910     2.2430 
  138.0000   -27.8130    67.8430    24.7740     9.7030     9.0560    11.3510     2.2580 
  138.1250   -27.5990    66.8450    24.7770     9.9140     9.2090    11.6170     2.2590 
  138.2500   -27.4340    66.3450    24.7720     9.7010     9.3350    11.8040     2.2490 
  138.3750   -27.3020    66.5320    24.7590     9.3620     9.4150    11.8790     2.2390 
  138.5000   -27.2490    66.5820    24.7430     9.2870     9.4600    11.8590     2.2340 
  138.6250   -27.3470    66.3580    24.7380     9.5700     9.5080    11.8030     2.2370 
  138.7500   -27.5550    64.8560    24.7360     9.9190     9.5850    11.7830     2.2380 
  138.8750   -27.8150    60.8850    24.7140    10.1930     9.6890    11.8300     2.2310 
  139.0000   -28.0580    57.5530    24.6650    10.3640     9.7940    11.9280     2.2120 
  139.1250   -28.2790    59.8930    24.6220    10.4200     9.8650    12.0270     2.1930 
  139.2500   -28.5170    65.6050    24.6210    10.3910     9.8920    12.0870     2.1890 
  139.3750   -28.7910    69.7840    24.6640    10.3170     9.8740    12.0900     2.2090 
  139.5000   -29.0640    71.4920    24.7220    10.2470     9.8110    12.0410     2.2410 
  139.6250   -29.2100    71.6900    24.7600    10.1870     9.6940    11.9420     2.2520 
