~V
VERS. 2.00: Ver 2.00
~W
STRT.M 61.0000:
STOP.M 279.0000:
STEP.M 0.1250:
NULL. -999.2500:
UWI. DF3040:
~C
DEPT.M :
GR.API :
CALI.CM :
RXO.OHMM :
RI. :
RML.OHMM :
DEN.GM/CC :
SP.MV :
~A
# ...
  151.0000    71.5830    23.1500    12.9010     8.6900    10.3890     2.5290   -15.7080 
  151.1250    70.1950    23.0760    13.9070     8.7810    10.4080     2.5400   -15.7550 
  151.2500    72.8250    22.8930    12.1150     8.6930    10.2510     2.5260   -15.7930 
  151.3750    78.9840    22.7920    10.0780     8.5870    10.1520     2.4990   -15.7760 
  151.5000    83.8640    22.7820     8.8630     8.6630    10.4070     2.4750   -15.6890 
  151.6250    81.8080    22.9850     8.8330     9.2210    11.3890     2.4720   -15.5700 
  151.7500    74.9290    23.4050    10.2730    10.2770    13.0140     2.5020   -15.4760 
  151.8750    66.2740    23.8500    14.4350    11.8750    15.2060     2.5640   -15.4180 
  152.0000    58.4340    23.9610    19.7100    13.9120    17.6840     2.6420   -15.4030 
  152.1250    52.6540    24.0040    22.0790    16.0650    20.0060     2.6980   -15.4240 
  152.2500    50.7840    23.9680    21.7590    17.8830    21.7210     2.7120   -15.4850 
  152.3750    50.3290    23.9730    22.1380    19.0970    22.6640     2.6890   -15.5600 
  152.5000    48.6770    23.9550    23.3820    19.6470    22.9060     2.6590   -15.6220 
  152.6250    48.3150    23.8190    24.2440    19.6380    22.6400     2.6560   -15.6480 
  152.7500    49.9260    23.7650    23.2750    19.4810    22.3810     2.6800   -15.6010 
  152.8750    51.6830    23.6850    22.5000    19.4060    22.3450     2.7070   -15.4850 
  153.0000    51.2930    23.7110    21.3490    19.4660    22.5710     2.7160   -15.3350 
  153.1250    47.6820    23.7700    21.0950    19.6890    22.9820     2.6930   -15.1940 
  153.2500    43.4470    23.6900    21.4420    20.0130    23.4250     2.6590   -15.0760 
  153.3750    41.3790    23.6180    22.9230    20.3930    23.7960     2.6430   -15.0270 
  153.5000    42.5960    23.6750    24.0290    20.7460    23.9590     2.6560   -15.0610 
  153.6250    43.7330    23.6830    24.0640    20.9680    23.8970     2.6800   -15.1430 
  153.7500    42.0240    23.6700    22.8940    21.0610    23.6670     2.6830   -15.2500 
  153.8750    40.7060    23.6890    22.4660    21.0520    23.3450     2.6660   -15.3660 
  154.0000    42.9720    23.6370    23.6040    20.9990    23.0490     2.6490   -15.5060 
  154.1250    46.3440    23.6900    25.5440    20.9910    22.9230     2.6440   -15.6370 
  154.2500    47.0020    23.6300    25.0360    21.1000    23.0880     2.6410   -15.7260 
  154.3750    46.5260    23.5290    23.5900    21.3700    23.5240     2.6330   -15.7500 
  154.5000    49.3160    23.6390    23.3000    21.7890    24.1670     2.6240   -15.7140 
  154.6250    54.4640    23.6970    23.3250    22.2410    24.7890     2.6200   -15.6240 
  154.7500    56.0680    23.6490    24.0990    22.6220    25.2440     2.6200   -15.5090 
  154.8750    52.8300    23.6130    25.2370    22.8140    25.4520     2.6230   -15.3900 
  155.0000    48.2340    23.4310    25.9380    22.6820    25.2240     2.6270   -15.2500 
  155.1250    48.4450    23.5270    25.0010    22.0910    24.4880     2.6260   -15.1100 
  155.2500    53.2100    23.3800    24.8650    21.2370    23.4560     2.6160   -15.0030 
  155.3750    57.7700    23.4670    23.2250    20.2720    22.3130     2.6000   -14.9470 
  155.5000    57.7390    23.5480    21.7750    19.3160    21.2200     2.5790   -14.9450 
  155.6250    55.3780    23.7330    20.7710    18.5580    20.3920     2.5520   -15.0080 
  155.7500    54.7230    23.7450    19.2550    18.0400    19.8880     2.5260   -15.1160 
  155.8750    55.9850    23.6740    17.7960    17.7610    19.6470     2.5130   -15.2470 
  156.0000    57.9030    23.6770    17.9490    17.7280    19.7150     2.5180   -15.3900 
  156.1250    58.5820    23.6320    18.8550    17.9630    20.0770     2.5320   -15.5350 
  156.2500    56.9000    23.3890    18.6870    18.3280    20.5660     2.5420   -15.6740 
  156.3750    55.4360    22.9080    18.5450    18.7720    21.1260     2.5450   -15.7620 
  156.5000    58.4510    22.5190    19.5540    19.2690    21.7010     2.5430   -15.7750 
  156.6250    62.4930    22.2710    20.6410    19.6960    22.1680     2.5390   -15.7180 
  156.7500    62.3910    22.2120    21.9920    19.9430    22.3740     2.5320   -15.6130 
  156.8750    59.1310    22.6250    22.5750    19.9150    22.2770     2.5200   -15.4890 
  157.0000    56.8390    23.1100    22.5710    19.5860    21.8300     2.5140   -15.3600 
  157.1250    55.7850    23.6950    22.4660    18.8490    20.9520     2.5270   -15.2390 
  157.2500    53.6930    23.7770    21.6030    17.8430    19.8240     2.5520   -15.1340 
  157.3750    51.5620    23.7440    20.0730    16.6990    18.5800     2.5690   -15.0970 
  157.5000    51.7500    23.7020    18.7940    15.5640    17.4030     2.5690   -15.1340 
  157.6250    56.6060    23.5540    16.6740    14.6110    16.4490     2.5590   -15.2210 
  157.7500    62.3100    23.4390    14.8180    13.9130    15.8160     2.5530   -15.3540 
  157.8750    63.9470    23.7270    13.9680    13.5040    15.5390     2.5520   -15.4960 
  158.0000    61.5640    23.9490    13.5630    13.3800    15.5840     2.5490   -15.6340 
  158.1250    57.2570    23.9830    14.0000    13.5390    15.9450     2.5420   -15.7610 
  158.2500    54.0190    23.9540    14.7760    13.8630    16.4420     2.5340   -15.8600 
  158.3750    53.1880    23.7700    15.7870    14.2450    16.9590     2.5300   -15.8860 
  158.5000    53.5210    23.6810    16.2500    14.6160    17.3910     2.5340   -15.8420 
  158.6250    53.8750    23.7070    16.1660    14.8760    17.6900     2.5480   -15.7670 
  158.7500    56.1470    23.7130    15.9990    15.0600    17.9080     2.5700   -15.6680 
  158.8750    59.6320    23.7100    16.2130    15.2110    18.0980     2.5960   -15.5730 
  159.0000    61.1190    23.7030    16.8420    15.4000    18.3770     2.6240   -15.4940 
  159.1250    58.0400    23.8180    17.9560    15.6840    18.7830     2.6430   -15.4240 
  159.2500    56.6650    23.9640    18.8550    16.0560    19.3240     2.6460   -15.3570 
  159.3750    57.7430    23.9670    18.8640    16.5070    19.9390     2.6310   -15.3350 
  159.5000    58.6660    23.9720    18.7550    16.9550    20.5140     2.6120   -15.3900 
  159.6250    57.8900    23.9690    18.9770    17.3030    20.8690     2.5990   -15.5110 
  159.7500    55.4880    23.9390    20.1740    17.4680    20.9450     2.5910   -15.6680 
  159.8750    52.7810    23.9370    20.4260    17.4210    20.7660     2.5820   -15.8480 
  160.0000    52.6020    23.9360    19.3360    17.1880    20.3470     2.5720   -16.0250 
  160.1250    55.3480    23.9800    18.2930    16.8300    19.7940     2.5660   -16.1830 
  160.2500    57.8720    23.9640    17.5810    16.4340    19.2340     2.5640   -16.3330 
  160.3750    57.8710    23.9960    16.9640    16.0440    18.7200     2.5650   -16.4550 
  160.5000    57.6910    24.0450    17.3010    15.7260    18.3400     2.5640   -16.5130 
  160.6250    56.9410    24.0090    16.6500    15.5530    18.1290     2.5620   -16.5250 
  160.7500    55.8350    23.8230    15.7270    15.4900    18.0450     2.5660   -16.5220 
  160.8750    55.8990    23.4690    15.3000    15.5000    18.0100     2.5750   -16.5100 
  161.0000    59.2790    23.1360    15.0850    15.5630    18.0160     2.5820   -16.4880 
  161.1250    65.1560    23.1230    14.8410    15.6470    18.0140     2.5810   -16.4930 
  161.2500    67.4140    23.4050    15.8720    15.7050    17.9520     2.5790   -16.5250 
  161.3750    65.3570    23.8420    17.6800    15.7430    17.8710     2.5750   -16.6030 
  161.5000    65.2430    23.9760    18.0640    15.7980    17.8100     2.5660   -16.7440 
  161.6250    69.0590    23.9870    16.5680    15.9320    17.8650     2.5590   -16.9470 
  161.7500    70.3170    23.9740    15.4970    16.1700    18.0150     2.5590   -17.1680 
  161.8750    67.5350    23.9560    16.0910    16.5350    18.3130     2.5610   -17.4170 
  162.0000    66.5860    23.7570    17.1100    17.0520    18.7800     2.5620   -17.7140 
  162.1250    69.4470    23.7460    17.7130    17.7290    19.3840     2.5560   -18.0390 
