~V
VERS. 2.00: Ver 2.00
~W
STRT.M 55.0000:
STOP.M 272.0000:
STEP.M 0.1250:
NULL. -999.2500:
UWI. DF3078:
~C
DEPT.M :
GR.API :
CALI.CM :
RXO.OHMM :
RI. :
RML.OHMM :
DEN.GM/CC :
SP.MV :
~A
# ...
  145.0000    87.0120    23.6680     9.0130     7.4430     8.1670     2.2870    -7.9360 
  145.1250    85.4350    23.4330     9.7070     8.2440     9.3330     2.2860    -7.5990 
  145.2500    81.0770    23.2340    11.4860     9.6390    11.1070     2.2810    -7.2560 
  145.3750    77.3090    23.1920    14.2620    11.6820    13.4020     2.2700    -6.8950 
  145.5000    75.2340    23.2620    17.4050    14.1800    15.8380     2.2690    -6.4970 
  145.6250    74.5260    23.3910    21.1140    16.2340    17.3150     2.3070    -6.0470 
  145.7500    74.9480    23.6190    24.9030    16.6980    16.9320     2.3790    -5.5720 
  145.8750    77.5620    23.9240    24.4130    15.1730    14.6750     2.4500    -5.1210 
  146.0000    82.9130    24.2750    17.7690    12.4100    11.5600     2.4750    -4.6910 
  146.1250    88.3540    24.4690    10.3810     9.6900     8.8810     2.4240    -4.3370 
  146.2500    90.4860    24.5440     7.0190     7.6430     7.0520     2.3500    -4.0380 
  146.3750    90.6200    24.5630     6.1760     6.2970     5.9900     2.3040    -3.7800 
  146.5000    91.4220    24.5520     6.0440     5.5110     5.4770     2.3040    -3.5930 
  146.6250    92.3800    24.5530     6.0000     5.1690     5.3150     2.3230    -3.4710 
  146.7500    93.9890    24.5770     5.9210     5.0680     5.3070     2.3290    -3.4250 
  146.8750    96.6910    24.6220     5.8720     5.1620     5.4590     2.3250    -3.4070 
  147.0000    98.4510    24.6860     6.0050     5.4910     5.8840     2.3290    -3.4220 
  147.1250    94.8260    24.7230     6.6980     6.2270     6.8090     2.3350    -3.4620 
  147.2500    88.6980    24.7480     8.3810     7.4220     8.2330     2.3200    -3.5230 
  147.3750    85.9310    24.7810    10.7820     9.0760    10.0490     2.2800    -3.6020 
  147.5000    86.5120    24.8380    12.8500    10.9580    11.8880     2.2310    -3.6660 
  147.6250    88.1310    24.8880    13.7110    12.2980    12.8900     2.2030    -3.7270 
  147.7500    90.7190    24.9090    13.6030    12.4040    12.5440     2.2020    -3.7480 
  147.8750    95.9480    24.9180    12.6920    11.1990    10.9640     2.2230    -3.7560 
  148.0000   102.2370    24.9090    10.6530     9.2600     8.8310     2.2530    -3.7450 
  148.1250   104.4260    24.8140     8.1340     7.3690     6.9500     2.2790    -3.7060 
  148.2500   102.5550    24.6930     6.2620     5.9170     5.6310     2.3040    -3.6630 
  148.3750   101.9930    24.6080     5.3450     4.9700     4.9040     2.3320    -3.6390 
  148.5000   104.7230    24.5510     4.8940     4.5020     4.7240     2.3570    -3.6600 
  148.6250   103.7070    24.5500     4.8190     4.5480     5.1160     2.3570    -3.7260 
  148.7500    94.4240    24.6280     5.3460     5.0030     5.9330     2.3250    -3.8280 
  148.8750    83.0420    24.7760     6.5920     5.8190     7.0750     2.2750    -3.9670 
  149.0000    78.0810    24.8790     8.3050     6.8950     8.3710     2.2370    -4.1170 
  149.1250    78.8620    24.9170    10.0720     8.0270     9.5220     2.2260    -4.3080 
  149.2500    79.2460    24.9290    11.4350     8.9280    10.2670     2.2270    -4.4900 
  149.3750    80.1640    24.9140    11.7180     9.4160    10.4900     2.2270    -4.6530 
  149.5000    84.5260    24.8890    10.8740     9.4640    10.2540     2.2220    -4.7760 
  149.6250    88.4080    24.8920     9.8410     9.1570     9.7370     2.2170    -4.8590 
  149.7500    86.3580    24.8950     9.5640     8.7360     9.2010     2.2130    -4.9140 
  149.8750    80.5390    24.8770     9.7020     8.3350     8.7810     2.2100    -4.9230 
  150.0000    76.1820    24.8450     9.6970     8.0430     8.5540     2.2100    -4.9290 
  150.1250    77.6170    24.8160     9.3690     7.9450     8.5950     2.2150    -4.8980 
  150.2500    80.4370    24.8410     9.1600     8.0350     8.8610     2.2220    -4.8740 
  150.3750    80.8780    24.8470     9.3330     8.3000     9.3040     2.2260    -4.8400 
  150.5000    79.1120    24.8210     9.8630     8.6880     9.8260     2.2300    -4.7890 
  150.6250    78.1250    24.8770    10.4240     9.0770    10.2380     2.2320    -4.7430 
  150.7500    78.8320    24.9090    10.6310     9.3080    10.3780     2.2280    -4.7030 
  150.8750    79.8060    24.9250    10.2460     9.2790    10.1780     2.2210    -4.6770 
  151.0000    82.3080    24.8830     9.3540     8.9930     9.7080     2.2160    -4.6360 
  151.1250    88.4600    24.7420     8.4280     8.5590     9.1620     2.2170    -4.6100 
  151.2500    92.7720    24.5510     8.0380     8.1610     8.7470     2.2220    -4.5900 
  151.3750    91.9810    24.4620     8.0870     7.9060     8.5610     2.2300    -4.5610 
  151.5000    87.6310    24.4790     8.3300     7.8380     8.6190     2.2400    -4.5690 
  151.6250    83.5590    24.5430     8.6690     7.9780     8.9200     2.2410    -4.5610 
  151.7500    81.3440    24.6070     9.1050     8.2730     9.3850     2.2320    -4.5570 
  151.8750    82.3630    24.6440     9.7020     8.7060     9.9720     2.2310    -4.5430 
  152.0000    87.7350    24.6390    10.2720     9.2400    10.6170     2.2560    -4.5380 
  152.1250    93.0000    24.6260    10.5600     9.8070    11.2480     2.3120    -4.5320 
  152.2500    93.5660    24.6490    10.9510    10.3740    11.8790     2.3760    -4.5140 
  152.3750    89.6800    24.6650    11.5500    11.0000    12.6130     2.4130    -4.5140 
  152.5000    83.8430    24.5970    11.9980    11.7830    13.5480     2.3930    -4.4900 
  152.6250    77.7140    24.6080    12.5830    12.7950    14.6770     2.3080    -4.4710 
  152.7500    72.4690    24.7730    16.0770    13.8450    15.6930     2.2180    -4.4320 
  152.8750    71.0350    25.0380    25.2580    14.6120    16.2010     2.1730    -4.3870 
  153.0000    75.8790    25.2540    40.9310    14.7820    15.9380     2.1820    -4.3310 
  153.1250    85.2380    25.2150    52.5290    14.2220    14.9600     2.2140    -4.2470 
  153.2500    91.9090    24.9910    47.5980    13.3230    13.8130     2.2300    -4.1600 
  153.3750    92.7160    24.7460    31.0930    12.3810    12.8180     2.2250    -4.0690 
  153.5000    90.1550    24.6180    18.8860    11.5830    12.0830     2.2170    -3.9830 
  153.6250    89.2470    24.6230    15.4720    10.9670    11.5030     2.2270    -3.9090 
  153.7500    91.0030    24.6270    14.3560    10.3660    10.8410     2.2510    -3.8520 
  153.8750    93.2250    24.6160    12.4030     9.6940    10.0670     2.2750    -3.8190 
  154.0000    92.6190    24.6050    10.5960     9.0550     9.4200     2.2940    -3.7820 
  154.1250    89.5870    24.6050    10.4110     8.8390     9.4660     2.3150    -3.7770 
  154.2500    86.4350    24.6300    10.5060     9.4060    10.5480     2.3520    -3.7790 
  154.3750    82.1060    24.6910    12.6390    11.1760    12.9780     2.4080    -3.7800 
  154.5000    75.6670    24.7420    20.2190    14.5580    16.9730     2.4760    -3.7880 
  154.6250    69.0470    24.7270    37.2090    19.7420    22.4090     2.5260    -3.7930 
  154.7500    66.1940    24.6650    53.7100    24.8200    27.0580     2.5310    -3.8090 
  154.8750    67.8810    24.6180    55.5620    26.9160    27.8260     2.4880    -3.8170 
  155.0000    72.4920    24.6030    41.5590    24.5910    23.9220     2.4280    -3.8370 
  155.1250    77.5670    24.6140    24.9790    19.8420    18.5680     2.3970    -3.8380 
  155.2500    79.9080    24.6350    16.1440    15.8680    14.8160     2.4010    -3.8550 
  155.3750    78.6100    24.6770    12.3010    13.5380    13.0770     2.4170    -3.8770 
  155.5000    73.1820    24.7720    11.4850    12.7920    12.9960     2.4330    -3.9040 
  155.6250    66.1050    24.8390    15.4540    13.4020    14.1020     2.4630    -3.9440 
  155.7500    62.1210    24.7760    20.8460    14.5250    15.3560     2.5040    -3.9590 
  155.8750    63.0450    24.6450    23.8240    15.3400    15.8390     2.5300    -3.9790 
  156.0000    68.0830    24.5310    21.4900    15.0930    14.9520     2.5180    -3.9950 
  156.1250    73.3160    24.4450    16.1170    13.5660    12.8600     2.4780    -4.0280 
