~V
VERS. 2.00: Ver 2.00
~W
STRT.M 61.0000:
STOP.M 276.0000:
STEP.M 0.1250:
NULL. -999.2500:
UWI. DF3051:
~C
DEPT.M :
SP.MV :
GR.API :
CALI.CM :
RXO.OHMM :
RI. :
RML.OHMM :
DEN.GM/CC :
~A
# ...
  139.7500   -29.2200    69.9130    24.7720    10.0600     9.5400    11.8060     2.2330 
  139.8750   -29.1340    66.1200    24.7730     9.8250     9.3700    11.6490     2.2070 
  140.0000   -28.9910    61.9430    24.7720     9.5530     9.2170    11.4950     2.2010 
  140.1250   -28.7550    60.2450    24.7720     9.4350     9.1240    11.3890     2.2150 
  140.2500   -28.4390    61.2710    24.7680     9.5620     9.1010    11.3610     2.2240 
  140.3750   -28.1000    61.8190    24.7550     9.8940     9.1400    11.4220     2.2170 
  140.5000   -27.7760    60.7190    24.7300    10.2850     9.2140    11.5570     2.2000 
  140.6250   -27.5360    61.2840    24.6920    10.5650     9.2950    11.7380     2.1870 
  140.7500   -27.3810    63.4980    24.6550    10.7240     9.3740    11.9340     2.1850 
  140.8750   -27.3090    63.8880    24.6300    10.8440     9.4600    12.1430     2.1910 
  141.0000   -27.3740    62.3980    24.6200    11.0740     9.5630    12.3710     2.1950 
  141.1250   -27.6210    63.1430    24.6200    11.5770     9.6670    12.5810     2.1940 
  141.2500   -27.9430    65.5140    24.6200    12.1370     9.7190    12.6740     2.1930 
  141.3750   -28.2260    67.2850    24.6230    12.3920     9.6630    12.5560     2.1970 
  141.5000   -28.3980    68.6180    24.6330    12.1430     9.4800    12.2230     2.2110 
  141.6250   -28.4020    68.5560    24.6540    11.5020     9.2170    11.8040     2.2310 
  141.7500   -28.3090    67.9750    24.6780    10.8940     8.9890    11.5050     2.2440 
  141.8750   -28.1660    67.1700    24.6930    10.7090     8.8800    11.4440     2.2390 
  142.0000   -27.9810    65.6040    24.6980    11.2790     8.9280    11.6420     2.2210 
  142.1250   -27.7610    63.2290    24.6980    12.5020     9.1170    12.0090     2.2020 
  142.2500   -27.5420    62.0330    24.6970    13.4560     9.3240    12.3250     2.1890 
  142.3750   -27.3260    62.6630    24.7030    13.5720     9.4450    12.4280     2.1820 
  142.5000   -27.0730    63.2460    24.7430    12.9300     9.4200    12.2540     2.1790 
  142.6250   -26.7620    62.3540    24.8510    12.0390     9.2490    11.8730     2.1790 
  142.7500   -26.4400    61.5130    24.9860    11.4140     9.0610    11.5470     2.1810 
  142.8750   -26.1730    61.7580    25.0810    11.2260     8.9670    11.4590     2.1900 
  143.0000   -26.0190    62.0410    25.1070    11.3740     9.0380    11.6690     2.2160 
  143.1250   -25.9660    62.3800    25.0920    11.6480     9.2940    12.1250     2.2650 
  143.2500   -25.9460    64.4880    25.0830    12.0120     9.6230    12.5990     2.3120 
  143.3750   -25.9450    67.6660    25.0870    12.4740     9.9120    12.9060     2.3250 
  143.5000   -25.9790    69.6860    25.0990    12.7680    10.0690    12.9520     2.2940 
  143.6250   -26.0660    68.6700    25.1150    12.5040    10.0460    12.7740     2.2420 
  143.7500   -26.1350    67.1360    25.1240    11.9930     9.8980    12.5070     2.2150 
  143.8750   -26.1100    68.4450    25.1210    11.7220     9.6230    12.1320     2.2230 
  144.0000   -25.8990    73.0280    25.1180    11.7810     9.1690    11.5350     2.2580 
  144.1250   -25.4770    79.9380    25.1410    11.3210     8.4350    10.5230     2.3010 
  144.2500   -24.9490    87.6950    25.2010     9.8330     7.4860     9.1530     2.3380 
  144.3750   -24.3410    95.6360    25.3120     7.8670     6.4530     7.6380     2.3640 
  144.5000   -23.6840   100.8080    25.4870     6.3540     5.5060     6.2820     2.3780 
  144.6250   -23.0570   101.3350    25.6960     5.7350     4.8240     5.3840     2.3840 
  144.7500   -22.5000   102.3910    25.8450     5.5750     4.4190     4.9420     2.3840 
  144.8750   -21.9990   103.5880    25.8800     5.6480     4.2770     4.9090     2.3740 
  145.0000   -21.5580    99.4590    25.8230     5.9130     4.3550     5.1760     2.3530 
  145.1250   -21.1480    90.6860    25.7430     6.3480     4.5960     5.5960     2.3280 
  145.2500   -20.7270    85.1170    25.6980     6.7280     4.8850     5.9870     2.3150 
  145.3750   -20.3470    85.0460    25.7090     6.8920     5.1440     6.2620     2.3230 
  145.5000   -20.0830    87.4630    25.7780     6.8640     5.3160     6.3870     2.3510 
  145.6250   -19.9500    87.3720    25.8900     6.7880     5.3550     6.3450     2.3790 
  145.7500   -19.8940    88.5610    25.9980     6.6700     5.2780     6.1660     2.3880 
  145.8750   -19.9070    93.1140    26.0740     6.4620     5.0980     5.8560     2.3780 
  146.0000   -19.9880    97.4940    26.1120     6.2210     4.8430     5.4530     2.3630 
  146.1250   -20.1470    97.4230    26.1230     6.0000     4.5690     5.0600     2.3530 
  146.2500   -20.3740    96.8060    26.1180     5.7500     4.3420     4.7830     2.3460 
  146.3750   -20.6010    98.3420    26.0920     5.5480     4.1980     4.6640     2.3400 
  146.5000   -20.7490    99.7910    26.0440     5.6130     4.1460     4.6850     2.3360 
  146.6250   -20.8350   101.4980    25.9920     5.9940     4.1630     4.7750     2.3370 
  146.7500   -20.9320   103.5820    25.9610     6.2430     4.1910     4.8310     2.3490 
  146.8750   -21.0670   102.7250    25.9580     6.0960     4.1950     4.8100     2.3700 
  147.0000   -21.2030    98.7170    25.9710     5.7070     4.1760     4.7370     2.3880 
  147.1250   -21.2580    96.0780    25.9820     5.4930     4.1660     4.7030     2.3930 
  147.2500   -21.1720    97.0940    25.9870     5.5740     4.2120     4.7930     2.3910 
  147.3750   -20.9620    97.7470    25.9890     5.8730     4.3440     5.0470     2.3920 
  147.5000   -20.6720    95.0180    25.9900     6.3080     4.5600     5.4380     2.3920 
  147.6250   -20.3510    92.5770    25.9890     6.8060     4.8140     5.8620     2.3760 
  147.7500   -20.0660    93.5990    25.9890     7.2030     5.0270     6.1780     2.3520 
  147.8750   -19.8780    95.6820    25.9890     7.3360     5.1470     6.3140     2.3360 
  148.0000   -19.8410    93.6450    25.9770     7.1810     5.1490     6.2490     2.3360 
  148.1250   -19.9910    86.9050    25.8990     6.9770     5.0370     6.0000     2.3380 
  148.2500   -20.2570    82.6390    25.7360     6.9990     4.9010     5.7250     2.3310 
  148.3750   -20.5930    83.7990    25.5310     7.2500     4.8600     5.6530     2.3260 
  148.5000   -20.9870    88.4860    25.3660     7.6730     5.0790     6.0760     2.3460 
  148.6250   -21.4010    88.3420    25.2900     8.8750     5.8720     7.4780     2.4150 
  148.7500   -21.7830    80.8160    25.2770    12.3240     7.4200    10.0420     2.5180 
  148.8750   -22.0460    72.1020    25.3700    20.3910     9.8510    13.8350     2.6160 
  149.0000   -22.1030    67.5860    25.6560    32.8050    12.8150    18.0520     2.6600 
  149.1250   -21.9320    69.0210    25.9590    36.4800    14.5990    19.5380     2.6110 
  149.2500   -21.6990    73.4110    25.9420    27.8150    13.9450    17.1200     2.5150 
  149.3750   -21.4980    79.0740    25.6130    15.8310    11.5810    13.0130     2.4240 
  149.5000   -21.3860    85.1460    25.2940     9.0860     9.0530     9.5900     2.3680 
  149.6250   -21.3300    87.2850    25.2520     6.8570     7.3350     7.7280     2.3360 
  149.7500   -21.2320    84.9940    25.3210     6.1630     6.3460     6.9030     2.3040 
  149.8750   -21.0790    83.8310    25.3660     6.0450     5.8870     6.7300     2.2740 
  150.0000   -20.9030    86.5290    25.3820     6.0170     5.7380     6.8410     2.2640 
  150.1250   -20.7310    88.1950    25.4130     5.9150     5.6990     6.8740     2.2810 
  150.2500   -20.5400    87.2000    25.4600     5.8030     5.6190     6.6740     2.3110 
  150.3750   -20.3390    87.9880    25.4890     5.7510     5.4870     6.3120     2.3420 
  150.5000   -20.1300    92.6440    25.4680     5.7940     5.3760     5.9820     2.3700 
  150.6250   -19.9300    93.5760    25.4050     6.1220     5.4450     5.9870     2.4020 
  150.7500   -19.7630    88.1860    25.3450     6.9870     5.8280     6.5390     2.4470 
  150.8750   -19.6030    78.9060    25.3110     8.6690     6.6900     7.8690     2.5070 
