~V
VERS. 2.00: Ver 2.00
~W
STRT.M 120.0000:
STOP.M 235.0000:
STEP.M 0.1250:
NULL. -999.2500:
UWI. DF3022:
~C
DEPT.M :
SP.MV :
GR.API :
CALI.CM :
RXO.OHMM :
RI. :
RML.OHMM :
DEN.GM/CC :
~A
# ...
  210.0000   -16.7210    52.9540    24.6480    18.7420    13.5960    14.3900     2.4410 
  210.1250   -16.4410    51.6550    24.6480     9.6580     9.8350    10.5180     2.4110 
  210.2500   -16.2140    52.2480    24.6480     7.0360     7.6640     8.1750     2.3940 
  210.3750   -16.0790    54.0460    24.6480     6.8090     6.4930     6.7920     2.3830 
  210.5000   -16.0280    58.3960    24.6480     6.8050     5.9360     6.0430     2.3830 
  210.6250   -16.1320    65.0060    24.6370     6.2780     5.8040     5.8050     2.3990 
  210.7500   -16.3970    71.1450    24.6120     5.8340     5.9260     5.9090     2.4200 
  210.8750   -16.7880    74.7830    24.6070     6.0210     6.2880     6.3130     2.4330 
  211.0000   -17.2780    75.1240    24.6560     7.2690     6.8850     6.9790     2.4360 
  211.1250   -17.8570    74.2640    24.7650     9.7680     7.6560     7.8230     2.4400 
  211.2500   -18.4600    77.1830    24.8130    11.6600     8.3760     8.6030     2.4420 
  211.3750   -19.0280    83.6610    24.8240    11.8490     8.8470     9.1000     2.4330 
  211.5000   -19.5500    87.0140    24.8240    10.9540     8.9680     9.2050     2.4120 
  211.6250   -19.9920    85.3750    24.8240    10.1690     8.7620     8.9500     2.3930 
  211.7500   -20.3550    87.3970    24.8240     9.9560     8.4510     8.5770     2.3860 
  211.8750   -20.6710    94.5600    24.8230     9.8810     8.1610     8.2140     2.3920 
  212.0000   -20.9380   101.9320    24.8210     9.7250     7.9880     7.8540     2.4010 
  212.1250   -21.1440   103.6170    24.8230     9.4910     7.7590     7.6920     2.4060 
  212.2500   -21.3380   101.9190    24.8240     9.4040     7.6260     7.6340     2.4040 
  212.3750   -21.5560   100.1620    24.8240     9.5070     7.6720     7.8060     2.3950 
  212.5000   -21.8150    98.0520    24.8240     9.7480     8.0170     8.3640     2.3750 
  212.6250   -22.1270    94.2270    24.8230    10.6040     8.8790     9.5530     2.3530 
  212.7500   -22.4710    88.3510    24.8210    12.9960    10.3110    11.3850     2.3370 
  212.8750   -22.8020    80.8820    24.8210    17.3690    12.3620    13.8650     2.3350 
  213.0000   -23.1340    73.6540    24.8210    22.7600    14.9590    16.8790     2.3440 
  213.1250   -23.4520    69.5690    24.8180    26.6110    17.8340    20.1160     2.3510 
  213.2500   -23.7360    68.0080    24.8180    28.8030    20.5090    23.0670     2.3480 
  213.3750   -23.9800    66.8410    24.8170    30.0740    22.7500    25.4660     2.3380 
  213.5000   -24.1790    65.6080    24.8160    31.5240    24.6310    27.4150     2.3310 
  213.6250   -24.3100    65.0030    24.8150    33.6530    26.4690    29.3530     2.3290 
  213.7500   -24.3770    64.6840    24.8150    36.0400    28.5150    31.6360     2.3260 
  213.8750   -24.3750    64.7430    24.8080    38.9150    30.7600    34.2760     2.3200 
  214.0000   -24.2700    64.9700    24.7870    42.5840    33.0180    37.0220     2.3140 
  214.1250   -24.0720    65.6000    24.7450    45.2300    34.9700    39.3960     2.3140 
  214.2500   -23.8320    66.4710    24.7270    45.7330    36.5080    41.1620     2.3170 
  214.3750   -23.5460    67.0940    24.7220    45.2650    37.6560    42.3250     2.3190 
  214.5000   -23.1720    66.0430    24.7220    45.8390    38.5000    43.0320     2.3190 
  214.6250   -22.6820    65.2270    24.7110    47.9510    39.0480    43.3650     2.3250 
  214.7500   -22.1120    67.5670    24.6850    49.9550    39.2970    43.3720     2.3440 
  214.8750   -21.4790    69.5150    24.6590    50.1670    39.1740    42.9610     2.3780 
  215.0000   -20.8240    67.6280    24.6480    48.0360    38.6620    42.0770     2.4160 
  215.1250   -20.1280    63.0420    24.6480    45.2540    37.8370    40.7780     2.4420 
  215.2500   -19.3830    60.8360    24.6480    43.4850    36.9430    39.3750     2.4530 
  215.3750   -18.6090    61.3760    24.6480    42.3360    36.1110    38.0580     2.4570 
  215.5000   -17.8270    61.5420    24.6480    40.9320    35.3840    36.9220     2.4690 
  215.6250   -17.1010    61.1030    24.6480    39.4060    34.6540    35.9110     2.4840 
  215.7500   -16.4130    60.9630    24.6480    38.0780    33.6070    34.6700     2.4910 
  215.8750   -15.7530    60.8530    24.6480    37.0550    31.8770    32.7700     2.4800 
  216.0000   -15.1350    60.4790    24.6480    35.8270    29.2630    29.9420     2.4480 
  216.1250   -14.5540    62.4910    24.6480    33.3760    25.8930    26.2930     2.4060 
  216.2500   -14.0340    66.0100    24.6480    29.3080    22.4710    22.6060     2.3600 
  216.3750   -13.5820    67.9180    24.6460    23.7380    19.5170    19.4660     2.3230 
  216.5000   -13.2140    67.6490    24.6440    18.7430    17.3220    17.1950     2.3090 
  216.6250   -12.8960    66.0110    24.6460    16.4180    16.0650    15.9830     2.3120 
  216.7500   -12.6150    63.4140    24.6460    16.0580    15.5190    15.5600     2.3180 
  216.8750   -12.3810    62.6350    24.6450    16.6610    15.5630    15.7690     2.3160 
  217.0000   -12.1850    63.9670    24.6460    17.4640    16.0580    16.4340     2.3050 
  217.1250   -12.0470    65.4360    24.6460    18.0360    16.8630    17.3710     2.2960 
  217.2500   -11.9330    67.6710    24.6450    19.1920    17.7480    18.3460     2.2950 
  217.3750   -11.8240    70.1260    24.6450    20.7970    18.5660    19.2200     2.2990 
  217.5000   -11.7120    67.9660    24.6440    22.0520    19.1810    19.8870     2.2980 
  217.6250   -11.5990    60.5200    24.6420    22.1110    19.4440    20.2130     2.2920 
  217.7500   -11.4980    57.1470    24.6420    21.5000    19.3950    20.2320     2.2850 
  217.8750   -11.3920    58.6790    24.6420    21.1720    19.1280    20.0350     2.2780 
  218.0000   -11.2700    59.0190    24.6410    21.3780    18.8290    19.8130     2.2720 
  218.1250   -11.1550    57.6950    24.6420    21.6740    18.7740    19.8570     2.2700 
  218.2500   -11.0370    56.8470    24.6410    21.7720    19.1010    20.3160     2.2810 
  218.3750   -10.9130    55.9430    24.6410    22.1840    19.8380    21.2310     2.3020 
  218.5000   -10.7890    54.5530    24.6420    23.8640    20.8610    22.4790     2.3210 
  218.6250   -10.6820    55.2270    24.6400    26.7400    21.7680    23.6030     2.3250 
  218.7500   -10.5680    58.8750    24.6400    28.9480    22.0540    23.9830     2.3150 
  218.8750   -10.4650    63.4770    24.6400    28.5330    21.4390    23.2500     2.3000 
  219.0000   -10.3470    65.3930    24.6420    25.4130    20.0540    21.5630     2.2880 
  219.1250   -10.2130    62.9740    24.6400    21.1400    18.4110    19.5960     2.2810 
  219.2500   -10.0800    60.1230    24.6390    18.1350    17.0920    18.0690     2.2810 
  219.3750    -9.9410    59.7030    24.6390    17.4040    16.3490    17.2640     2.2890 
  219.5000    -9.7830    60.4580    24.6390    18.4410    16.2160    17.1950     2.3070 
  219.6250    -9.5860    58.4340    24.6390    20.2810    16.5600    17.6820     2.3250 
  219.7500    -9.3630    55.4110    24.6350    21.3860    16.9440    18.1950     2.3360 
  219.8750    -9.1230    55.5080    24.6200    21.5070    17.0540    18.3470     2.3350 
  220.0000    -8.8830    60.2700    24.5870    20.6050    16.7390    17.9650     2.3220 
  220.1250    -8.6310    64.2140    24.5700    18.3940    15.9880    17.0740     2.3100 
  220.2500    -8.3610    64.3040    24.5640    15.8820    14.9790    15.9210     2.3090 
  220.3750    -8.0840    64.6240    24.5640    14.4620    13.7700    14.5900     2.3260 
  220.5000    -7.8310    67.7550    24.5640    14.3720    12.4020    13.1130     2.3590 
  220.6250    -7.5960    70.3580    24.5650    13.5720    10.9690    11.5720     2.3990 
  220.7500    -7.3850    68.2950    24.5700    11.4260     9.6540    10.1610     2.4330 
  220.8750    -7.2020    63.7530    24.5860     9.0360     8.5970     9.0430     2.4480 
  221.0000    -7.0530    60.1640    24.6180     7.6390     7.8720     8.3090     2.4320 
  221.1250    -6.9420    59.6780    24.6340     7.8780     7.5260     8.0080     2.4030 
