~V
VERS. 2.00: Ver 2.00
~W
STRT.M 125.0000:
STOP.M 275.0000:
STEP.M 0.1250:
NULL. -999.2500:
UWI. DF3074:
~C
DEPT.M :
GR.API :
CALI.CM :
RXO.OHMM :
RI. :
RML.OHMM :
DEN.GM/CC :
SP.MV :
~A
  125.0000    86.4230    24.3590    10.6660     7.5760     8.5070     2.3430   -12.4150 
  125.1250    84.3830    24.3050    10.4520     8.1090     9.5070     2.3290   -12.5920 
  125.2500    82.5280    24.0840     9.0030     8.2950    10.0700     2.2900   -12.8250 
  125.3750    79.3760    23.8730     7.9320     8.1270    10.0670     2.2470   -13.0630 
  125.5000    77.8460    23.7910     7.5920     7.6840     9.5860     2.2200   -13.1980 
  125.6250    81.8650    23.7110     7.3350     7.0680     8.7820     2.2190   -13.0700 
  125.7500    87.5160    23.5950     6.8680     6.4190     7.8730     2.2340   -12.8030 
  125.8750    92.5900    23.6000     6.3510     5.8170     6.9620     2.2580   -12.5140 
  126.0000    98.3080    23.7850     5.9920     5.3330     6.1430     2.2820   -12.2320 
  126.1250   103.3720    24.1220     5.8500     5.0670     5.5710     2.2950   -11.8990 
  126.2500   104.4940    24.4070     5.8090     5.0220     5.3160     2.2920   -11.7270 
  126.3750   101.3540    24.4180     5.8970     5.1830     5.4050     2.2820   -11.6970 
  126.5000    96.6130    24.1780     5.9800     5.4800     5.7710     2.2770   -11.7410 
  126.6250    90.8400    23.9400     5.9680     5.7800     6.2550     2.2690   -11.8800 
  126.7500    87.8900    23.8000     5.9560     5.9400     6.6110     2.2520   -12.0780 
  126.8750    89.9170    23.6740     5.9570     5.8880     6.6720     2.2350   -12.1330 
  127.0000    94.3150    23.6710     5.8310     5.6480     6.3860     2.2370   -12.0410 
  127.1250    97.0320    23.9870     5.6600     5.3260     5.8520     2.2630   -11.8140 
  127.2500    99.8940    24.5360     5.5710     5.0530     5.3280     2.3020   -11.4380 
  127.3750   103.6400    25.0020     5.6430     4.8730     4.9550     2.3470   -10.9340 
  127.5000   104.8820    25.2230     5.7740     4.7760     4.7670     2.3900   -10.3870 
  127.6250   102.6460    25.2090     5.8520     4.7180     4.7190     2.4110    -9.8980 
  127.7500   100.0610    25.1470     5.8650     4.6480     4.6730     2.4050    -9.5230 
  127.8750    97.2470    25.1310     5.7740     4.5730     4.5730     2.3830    -9.3510 
  128.0000    96.0960    25.1300     5.5060     4.5310     4.4570     2.3630    -9.3550 
  128.1250    97.5640    25.0710     5.3300     4.5680     4.4370     2.3550    -9.4890 
  128.2500    97.5830    24.8850     5.3740     4.6570     4.5440     2.3490    -9.7470 
  128.3750    93.3520    24.5170     5.6150     4.7440     4.7200     2.3350   -10.0540 
  128.5000    89.2110    24.0740     5.7820     4.7750     4.8430     2.3150   -10.3580 
  128.6250    90.5210    23.8900     5.6550     4.7440     4.8050     2.3130   -10.6870 
  128.7500    91.1600    23.9800     5.5360     4.7320     4.6810     2.3380   -10.9910 
  128.8750    88.8460    24.1920     5.7460     4.8260     4.6170     2.3740   -11.3990 
  129.0000    85.7760    24.3430     6.6340     5.0900     4.7610     2.3880   -11.9390 
  129.1250    82.7680    24.3810     7.6120     5.5630     5.2330     2.3540   -12.5210 
  129.2500    79.0060    24.3160     8.1000     6.1510     5.9390     2.2990   -13.0260 
  129.3750    76.4020    24.1560     8.1080     6.7500     6.7380     2.2530   -13.4930 
  129.5000    75.9260    23.9490     7.9980     7.2540     7.4480     2.2230   -13.9590 
  129.6250    74.6430    23.9420     7.9040     7.6040     7.9050     2.2080   -14.3780 
  129.7500    71.6420    24.0620     7.8380     7.8800     8.1980     2.2010   -14.7530 
  129.8750    68.6940    24.2120     7.8070     8.1480     8.4890     2.1970   -14.9140 
  130.0000    66.8460    24.3230     7.7590     8.3920     8.8950     2.1960   -14.7940 
  130.1250    68.1670    24.3710     7.7680     8.4220     9.3210     2.2050   -14.5390 
  130.2500    71.7340    24.3770     7.8300     8.0480     9.4250     2.2230   -14.1680 
  130.3750    74.6930    24.3570     7.8390     7.2000     8.8560     2.2450   -13.6980 
  130.5000    75.5390    24.3370     7.4770     6.0510     6.9370     2.2530   -13.1910 
  130.6250    76.7990    24.3960     6.3770     4.9900     5.3410     2.2370   -12.6380 
  130.7500    81.1160    24.5740     5.3210     4.3160     4.4320     2.2210   -12.1370 
  130.8750    87.8550    24.8130     4.8270     4.1820     4.4310     2.2350   -11.7780 
  131.0000    93.3220    24.9500     5.1750     4.6910     5.4590     2.2960   -11.6100 
  131.1250    92.3080    24.9540     7.0790     6.0570     7.7570     2.3960   -11.5950 
  131.2500    85.5630    24.8980    10.7650     8.0760    10.8850     2.4880   -11.7190 
  131.3750    76.4060    24.7910    14.1160    10.2380    13.8940     2.5290   -12.0080 
  131.5000    68.7430    24.5150    13.9810    11.6460    15.3340     2.4960   -12.4370 
  131.6250    65.8470    24.1510    10.8560    11.5450    14.3710     2.4020   -12.9140 
  131.7500    67.0520    23.8120     8.6960    10.6540    12.5700     2.3090   -13.3630 
  131.8750    70.4320    23.6610     8.0310     9.6580    11.0360     2.2520   -13.7840 
  132.0000    73.1770    23.6130     7.9890     8.9270    10.1730     2.2290   -14.1570 
  132.1250    74.9570    23.6190     8.0760     8.5690     9.9630     2.2180   -14.4590 
  132.2500    76.3890    23.6280     8.0860     8.4190    10.0270     2.2100   -14.6620 
  132.3750    77.0570    23.6320     7.9680     8.3770    10.1730     2.2070   -14.7720 
  132.5000    76.0030    23.6380     7.7850     8.4010    10.3460     2.2110   -14.8740 
  132.6250    72.2970    23.6980     7.7370     8.5170    10.6140     2.2140   -15.0480 
  132.7500    70.0460    23.7860     8.0810     8.7260    11.0070     2.2210   -15.1410 
  132.8750    71.9540    23.8690     9.0380     9.0110    11.4860     2.2440   -15.1190 
  133.0000    76.5730    23.9100    10.3310     9.3200    11.9410     2.2850   -15.0130 
  133.1250    78.8330    23.8810    10.4520     9.5680    12.2190     2.3160   -14.8180 
  133.2500    78.8680    23.7940     9.7110     9.7220    12.3090     2.3130   -14.6140 
  133.3750    81.6140    23.6500     9.0680     9.7950    12.2830     2.2820   -14.4390 
  133.5000    88.0920    23.4710     8.9490     9.8320    12.2420     2.2470   -14.2450 
  133.6250    92.1990    23.3000     9.0330     9.8840    12.2870     2.2230   -13.9430 
  133.7500    87.8540    23.1980     8.9980     9.9590    12.4040     2.2100   -13.6740 
  133.8750    78.6550    23.1440     8.8610     9.9850    12.4660     2.2090   -13.4540 
  134.0000    72.4540    23.0990     8.7090     9.8170    12.2340     2.2160   -13.2200 
  134.1250    73.4670    23.0070     8.5240     9.2550    11.4100     2.2210   -13.0150 
  134.2500    76.8330    22.9710     8.2520     8.3830    10.1300     2.2250   -12.7840 
  134.3750    78.6520    23.0570     7.7140     7.3750     8.6780     2.2370   -12.4990 
  134.5000    78.7360    23.3460     6.8470     6.4540     7.4010     2.2680   -12.1660 
  134.6250    78.6670    23.9080     6.1290     5.8540     6.6620     2.3100   -12.0180 
  134.7500    79.7850    24.4480     6.0120     5.6150     6.4920     2.3330   -12.0010 
  134.8750    81.2190    24.6220     6.4180     5.7300     6.8550     2.3230   -12.1220 
  135.0000    81.0740    24.3560     6.9870     6.1430     7.6230     2.2860   -12.3850 
  135.1250    79.2420    23.9480     7.5000     6.7520     8.5730     2.2490   -12.6640 
  135.2500    76.5130    23.7190     7.9360     7.3570     9.3930     2.2320   -13.0260 
  135.3750    74.4450    23.6650     8.2950     7.8360     9.9350     2.2330   -13.4490 
  135.5000    74.5380    23.6850     8.5280     8.1610    10.2230     2.2380   -13.8270 
  135.6250    75.6360    23.6970     8.7170     8.3740    10.3890     2.2360   -14.0030 
  135.7500    74.9260    23.6910     9.0280     8.5590    10.5610     2.2300   -14.0910 
  135.8750    72.5720    23.7030     9.5380     8.7340    10.7390     2.2240   -14.0640 
  136.0000    71.7770    23.7390     9.9960     8.8700    10.8470     2.2110   -13.8860 
  136.1250    72.2670    23.7220     9.8320     8.8920    10.7560     2.1940   -13.7120 
