~V
VERS. 2.00: Ver 2.00
~W
STRT.M 90.0000:
STOP.M 264.0000:
STEP.M 0.1250:
NULL. -999.2500:
UWI. DF3021:
~C
DEPT.M :
AC.US/MT :
DEN.GM/CC :
GR.API :
CALI.CM :
RXO.OHMM :
RI. :
RML.OHMM :
SP.MV :
~A
   90.0000   438.8970     2.1370    74.6620    22.2020    11.8850     8.5770    10.7740   -27.7060 
   90.1250   439.8220     2.1520    71.8890    22.2010    11.8250     8.5300    10.8030   -27.6450 
   90.2500   440.8870     2.1590    68.9530    22.1650    11.7140     8.4770    10.8070   -27.5450 
   90.3750   441.1230     2.1530    72.2650    22.0730    11.5790     8.4410    10.8110   -27.4160 
   90.5000   440.2340     2.1390    79.8610    21.9490    11.5500     8.4360    10.8330   -27.2790 
   90.6250   438.9590     2.1330    81.1420    21.9110    11.6260     8.4630    10.8670   -27.1300 
   90.7500   438.4050     2.1390    75.2840    21.9280    11.7260     8.4910    10.8790   -26.9530 
   90.8750   438.7780     2.1490    68.9010    21.9610    11.8190     8.4930    10.8270   -26.7440 
   91.0000   439.5320     2.1550    68.2860    22.0070    11.8810     8.4470    10.6870   -26.4980 
   91.1250   439.8740     2.1560    71.7100    22.0970    11.7370     8.3610    10.4630   -26.1800 
   91.2500   439.6950     2.1560    74.4810    22.1670    11.4210     8.2800    10.2310   -25.7880 
   91.3750   439.2350     2.1530    75.8120    22.2220    11.1140     8.2510    10.0720   -25.3410 
   91.5000   438.7660     2.1460    73.9970    22.3220    11.0590     8.3180    10.0650   -24.7970 
   91.6250   438.8150     2.1370    72.1100    22.5640    11.3100     8.5180    10.2700   -24.1360 
   91.7500   440.1460     2.1320    71.4340    22.8220    11.4760     8.7810    10.5710   -23.3940 
   91.8750   443.5400     2.1270    70.5690    22.9580    11.4180     8.9850    10.7850   -22.5590 
   92.0000   449.2120     2.1200    70.1990    22.8980    11.2670     8.9670    10.6860   -21.6430 
   92.1250   456.7060     2.1230    72.9900    22.6240    10.9650     8.5460    10.0500   -20.6700 
   92.2500   464.1760     2.1420    76.5600    22.3250    10.0650     7.8380     9.0520   -19.6730 
   92.3750   469.2230     2.1770    77.6810    22.1140     8.4330     7.0290     7.9620   -18.6660 
   92.5000   468.8790     2.2140    79.3050    22.1150     6.7260     6.3050     7.0500   -17.6840 
   92.6250   460.8760     2.2350    84.4810    22.4770     5.9300     5.8110     6.5210   -16.7980 
   92.7500   450.1140     2.2300    88.2630    22.7970     5.9290     5.5100     6.2800   -16.0060 
   92.8750   442.6720     2.2110    89.5120    22.7500     6.2230     5.3190     6.1650   -15.3340 
   93.0000   442.2820     2.2020    91.1900    22.4980     6.2500     5.1370     5.9910   -14.7990 
   93.1250   447.9320     2.2220    93.8580    22.5710     5.8040     4.9270     5.6810   -14.4390 
   93.2500   454.6830     2.2540    94.1050    23.1950     5.3260     4.7920     5.4380   -14.2530 
   93.3750   461.7440     2.2730    90.9820    23.9510     5.1110     4.8620     5.5120   -14.2400 
   93.5000   469.9520     2.2700    85.4100    24.5180     5.5900     5.2390     6.0800   -14.3900 
   93.6250   475.6380     2.2500    79.4610    24.7020     8.7060     5.9970     7.2370   -14.6520 
   93.7500   471.6960     2.2240    75.5880    24.4730    15.8550     6.9370     8.6150   -14.9630 
   93.8750   456.2310     2.2010    75.3040    23.8590    21.7380     7.7360     9.6950   -15.2930 
   94.0000   436.2690     2.1930    77.3730    23.1020    19.6800     8.0220     9.9480   -15.5980 
   94.1250   424.9640     2.2100    80.8540    22.5310    12.7510     7.6100     9.1610   -15.8900 
   94.2500   427.2540     2.2380    86.0560    22.2630     8.4060     6.9190     8.0120   -16.1830 
   94.3750   442.7300     2.2550    91.9200    22.3750     6.8840     6.2830     7.0320   -16.4440 
   94.5000   466.7420     2.2500    93.3780    22.7110     6.4110     5.8910     6.5050   -16.6770 
   94.6250   486.0890     2.2260    91.4010    23.1440     6.4100     5.8310     6.5110   -16.8850 
   94.7500   488.6360     2.2060    93.4030    23.2990     6.7550     5.9900     6.8120   -17.0920 
   94.8750   475.1070     2.1990    97.5910    23.0820     7.1870     6.2680     7.2250   -17.2720 
   95.0000   457.4340     2.2040    96.3420    22.7550     7.4700     6.5610     7.5980   -17.4340 
   95.1250   448.7160     2.2120    88.1860    22.5620     7.5900     6.7730     7.8210   -17.5410 
   95.2500   447.3860     2.2150    83.9640    22.5020     7.6540     6.8860     7.9130   -17.5620 
   95.3750   446.4840     2.2140    85.5270    22.5800     7.5430     6.9190     7.9300   -17.5010 
   95.5000   440.5980     2.2170    86.5440    22.8560     7.3000     6.9130     7.9360   -17.3730 
   95.6250   429.6750     2.2300    82.2880    23.0660     7.2630     6.9020     7.9830   -17.1970 
   95.7500   420.0710     2.2440    80.9120    23.0080     7.4870     6.8880     8.0590   -16.9980 
   95.8750   415.6090     2.2550    88.7690    22.8920     7.6510     6.8500     8.1220   -16.8210 
   96.0000   416.5720     2.2620    98.4130    22.9820     7.5860     6.7640     8.1280   -16.6840 
   96.1250   421.7740     2.2690    98.3750    23.3050     7.3330     6.5910     8.0290   -16.6090 
   96.2500   428.3630     2.2790    95.5060    23.6700     7.0890     6.3210     7.9120   -16.6350 
   96.3750   433.8750     2.2920    95.4300    23.9290     6.9370     5.9950     7.9020   -16.7570 
   96.5000   435.6490     2.2970    96.9850    24.0250     6.8900     5.7240     8.0650   -16.9880 
   96.6250   428.6680     2.2860    95.0330    24.0160     6.9040     5.7000     8.4270   -17.3620 
   96.7500   409.9270     2.2780    90.3890    24.0500     7.0810     5.9980     8.9500   -17.8730 
   96.8750   380.2430     2.3000    84.2930    24.0540     8.0980     6.6450     9.6530   -18.5260 
   97.0000   350.3410     2.3480    77.8260    23.9050    11.3950     7.5670    10.5210   -19.3130 
   97.1250   342.7820     2.3690    74.2610    23.4150    15.0340     8.5130    11.3560   -20.1600 
   97.2500   363.0070     2.3300    71.3170    22.7290    15.3360     9.1330    11.8150   -20.9690 
   97.3750   399.7890     2.2530    68.0210    22.2400    13.0090     9.2910    11.7000   -21.7180 
   97.5000   433.6240     2.1820    66.0810    22.0150    11.5600     9.1010    11.1850   -22.3690 
   97.6250   449.4180     2.1490    66.4500    21.9660    11.7060     8.8160    10.7560   -22.8800 
   97.7500   452.8540     2.1390    66.9660    21.9370    12.2280     8.6460    10.6740   -23.2620 
   97.8750   451.9080     2.1350    66.3490    21.8910    12.4440     8.6270    10.8940   -23.5170 
   98.0000   451.5820     2.1280    65.8380    21.8580    12.1500     8.6900    11.2000   -23.6370 
   98.1250   452.9800     2.1230    66.4670    21.9070    11.6030     8.7110    11.3150   -23.6740 
   98.2500   454.4240     2.1260    69.0210    22.0310    11.1920     8.6300    11.1900   -23.6680 
   98.3750   454.7410     2.1350    73.1310    22.1030    10.8710     8.4520    10.9030   -23.6530 
   98.5000   454.0980     2.1410    76.1510    22.0050    10.5120     8.2200    10.5610   -23.6370 
   98.6250   454.0650     2.1400    76.1840    21.6770    10.1130     8.0050    10.2720   -23.6310 
   98.7500   455.1220     2.1400    74.1090    21.2350     9.8080     7.8710    10.1130   -23.6220 
   98.8750   455.8860     2.1440    71.9370    20.6660     9.7440     7.8460    10.1290   -23.5900 
   99.0000   454.4000     2.1530    70.9860    20.4530    10.0330     7.9280    10.3050   -23.5160 
   99.1250   449.7260     2.1590    72.7510    21.1570    10.5340     8.0890    10.5740   -23.3480 
   99.2500   444.3900     2.1590    73.2910    21.9900    10.9300     8.2650    10.8210   -23.1190 
   99.3750   441.0720     2.1560    70.1980    22.4210    11.0690     8.4220    10.9670   -22.7850 
   99.5000   440.9630     2.1520    68.1090    22.4740    11.0540     8.5390    10.9780   -22.3440 
   99.6250   441.2360     2.1550    69.9840    22.4040    10.9740     8.6270    10.8950   -21.7480 
   99.7500   435.0520     2.1690    70.7900    22.3880    11.1850     8.7630    10.8920   -21.0150 
   99.8750   417.1720     2.2040    69.4030    22.3980    11.9060     9.0390    11.1500   -20.1620 
