~V
VERS. 2.00: Ver 2.00
~W
STRT.M 130.0000:
STOP.M 279.0000:
STEP.M 0.1250:
NULL. -999.2500:
UWI. DF307:
~C
DEPT.M :
DEN.GM/CC :
AC.US/MT :
GR.API :
CALI.CM :
RXO.OHMM :
RI. :
RML.OHMM :
SP.MV :
~A
# ...
  170.0000     2.5310   256.3060    64.7940    23.6330    14.7330    16.2690    19.5690   -14.4700 
  170.1250     2.5170   259.8920    65.7960    23.6430    14.5530    16.0490    19.1870   -14.3830 
  170.2500     2.5030   264.1280    66.3070    23.6540    14.1310    15.7980    18.8110   -14.3160 
  170.3750     2.4960   267.7020    66.3980    23.6690    13.1920    15.2670    18.0660   -14.2660 
  170.5000     2.4970   269.7160    66.0550    23.6840    12.0160    14.4830    17.0460   -14.2050 
  170.6250     2.5020   269.6200    67.9820    23.6880    11.4710    13.7650    16.2170   -14.1300 
  170.7500     2.5060   267.7090    69.8160    23.6870    11.4190    13.2410    15.7150   -14.0880 
  170.8750     2.5080   264.0060    67.9180    23.6770    11.5100    12.9460    15.5420   -14.0850 
  171.0000     2.5080   259.0910    64.6630    23.6540    11.5460    12.8440    15.6150   -14.0860 
  171.1250     2.5130   254.7810    65.3080    23.7040    11.6470    12.8710    15.8070   -14.0920 
  171.2500     2.5270   252.6170    69.0340    23.9260    12.0810    12.9310    15.9990   -14.1070 
  171.3750     2.5440   252.3230    70.6240    24.3680    12.7770    12.9960    16.1710   -14.1280 
  171.5000     2.5500   251.8070    69.0820    24.9300    13.2860    13.0770    16.3550   -14.1500 
  171.6250     2.5450   248.7080    66.3160    25.3540    13.2100    13.2140    16.6190   -14.1730 
  171.7500     2.5420   245.7870    64.2730    25.5490    13.0160    13.4440    17.0230   -14.1750 
  171.8750     2.5510   240.3910    64.3380    25.5870    13.1810    13.8090    17.6320   -14.1550 
  172.0000     2.5670   234.4060    64.9610    25.5870    13.8010    14.3340    18.4740   -14.1410 
  172.1250     2.5840   233.3830    64.0460    25.5890    14.7880    14.9920    19.4890   -14.1430 
  172.2500     2.5990   238.2580    62.6420    25.5820    16.0720    15.6000    20.3780   -14.1200 
  172.3750     2.6080   248.0570    61.4600    25.5750    17.4120    15.9180    20.7620   -14.0680 
  172.5000     2.6040   260.2950    61.6430    25.5760    17.9530    15.7340    20.3260   -14.0170 
  172.6250     2.5800   271.3910    64.7670    25.5840    16.6830    14.9370    18.9730   -13.9640 
  172.7500     2.5480   278.6620    69.8540    25.5890    14.4450    13.8580    17.2940   -13.9170 
  172.8750     2.5180   280.9720    73.7430    25.5890    12.4090    12.8090    15.8050   -13.8860 
  173.0000     2.5000   278.9410    74.3740    25.6020    11.2090    12.0460    14.8720   -13.8510 
  173.1250     2.4990   275.0980    72.6620    25.6350    10.8840    11.7430    14.6740   -13.8170 
  173.2500     2.5050   273.4620    69.8880    25.6700    11.0440    11.7150    14.8270   -13.8060 
  173.3750     2.5260   277.0300    67.4170    25.6960    11.5710    11.6800    14.8430   -13.8310 
  173.5000     2.5480   287.7480    69.6400    25.7170    12.0910    11.3050    14.2180   -13.8770 
  173.6250     2.5440   306.7920    81.0130    25.7330    11.4730    10.3350    12.6520   -13.9480 
  173.7500     2.5090   330.1970    95.7200    25.7350     9.6090     9.0330    10.6710   -14.0300 
  173.8750     2.4590   353.6790   106.4720    25.7210     7.4570     7.7090     8.7940   -14.1250 
  174.0000     2.4130   372.9520   109.6400    25.7020     6.0390     6.6010     7.3540   -14.2350 
  174.1250     2.3840   384.4750   107.3950    25.6950     5.5850     5.8560     6.5130   -14.3520 
  174.2500     2.3680   390.3380   106.6610    25.6940     5.4670     5.3990     6.0890   -14.4590 
  174.3750     2.3620   393.2660   107.4920    25.6780     5.3940     5.1640     5.9440   -14.5540 
  174.5000     2.3580   395.6580   108.4710    25.6370     5.3190     5.0720     5.9380   -14.6320 
  174.6250     2.3460   398.3560   108.3290    25.5850     5.2760     5.0510     5.9610   -14.6940 
  174.7500     2.3290   400.6550   107.8330    25.5370     5.2440     5.0390     5.9620   -14.7370 
  174.8750     2.3180   401.9510   107.3110    25.4960     5.2140     5.0240     5.9440   -14.7440 
  175.0000     2.3160   402.1750   106.5400    25.4660     5.2040     5.0040     5.9160   -14.7220 
  175.1250     2.3090   401.3240   104.4460    25.4480     5.2220     4.9790     5.8820   -14.6710 
  175.2500     2.2890   399.5260   101.9960    25.4340     5.2340     4.9560     5.8540   -14.6000 
  175.3750     2.2640   396.9050   100.5890    25.4170     5.2240     4.9390     5.8470   -14.5070 
  175.5000     2.2510   394.2690   102.2310    25.3910     5.2100     4.9310     5.8690   -14.4150 
  175.6250     2.2590   393.6800   103.6720    25.3550     5.2440     4.9290     5.9120   -14.3360 
  175.7500     2.2780   396.0760   101.7700    25.3130     5.3330     4.9230     5.9510   -14.2630 
  175.8750     2.2970   400.5970    99.8960    25.2680     5.4150     4.9030     5.9610   -14.2000 
  176.0000     2.3090   404.7460   102.6930    25.2360     5.3990     4.8640     5.9320   -14.1580 
  176.1250     2.3070   405.7150   108.5440    25.2380     5.2780     4.8060     5.8670   -14.1380 
  176.2500     2.2980   404.4530   111.9340    25.2670     5.1850     4.7390     5.7950   -14.1580 
  176.3750     2.2900   403.5050   111.7110    25.2930     5.1680     4.6750     5.7380   -14.2140 
  176.5000     2.2950   405.0470   108.4150    25.2920     5.1770     4.6220     5.7040   -14.2820 
  176.6250     2.3080   408.9860   104.0040    25.2790     5.1570     4.5910     5.7000   -14.3430 
  176.7500     2.3120   411.9700   103.0580    25.2760     5.1310     4.5760     5.7110   -14.4230 
  176.8750     2.3040   411.5180   107.4080    25.2790     5.1330     4.5750     5.7290   -14.5290 
  177.0000     2.2990   407.2070   113.3160    25.2760     5.1640     4.5910     5.7600   -14.6410 
  177.1250     2.3080   400.6870   114.9940    25.2600     5.2080     4.6390     5.8340   -14.7530 
  177.2500     2.3210   394.7170   113.6580    25.2340     5.2680     4.7270     5.9730   -14.8650 
  177.3750     2.3280   390.4430   111.6300    25.1940     5.4070     4.8580     6.1910   -14.9770 
  177.5000     2.3290   388.0250   109.3250    25.1400     5.6750     5.0300     6.4900   -15.0640 
  177.6250     2.3270   387.5340   107.5030    25.0590     5.9820     5.2210     6.8250   -15.1110 
  177.7500     2.3220   388.7860   105.3580    24.9690     6.1630     5.3780     7.0870   -15.1130 
  177.8750     2.3130   392.0210   104.2410    24.9060     6.1910     5.4450     7.1690   -15.0540 
  178.0000     2.3030   397.0580   105.7740    24.8740     6.0860     5.3840     7.0100   -14.9400 
  178.1250     2.2950   402.5360   107.9420    24.8470     5.7960     5.1820     6.6170   -14.7950 
  178.2500     2.2920   405.8160   105.6980    24.8160     5.4120     4.9220     6.1560   -14.6050 
  178.3750     2.2990   404.6080    99.5280    24.7970     5.0870     4.6740     5.7630   -14.3730 
  178.5000     2.3190   397.8670    96.4330    24.7950     4.8970     4.5040     5.5380   -14.1630 
  178.6250     2.3420   386.1490    98.1270    24.8390     4.8260     4.4770     5.5810   -14.0050 
  178.7500     2.3650   373.3080    99.5210    24.9340     4.8940     4.5930     5.8670   -13.9020 
  178.8750     2.3910   362.3840   100.4730    25.0410     5.1820     4.8450     6.3660   -13.8800 
  179.0000     2.4190   355.5020   101.7750    25.1000     5.6740     5.1970     6.9940   -13.9190 
  179.1250     2.4450   354.0010    99.4800    25.1210     6.2200     5.5690     7.5840   -13.9940 
  179.2500     2.4690   356.1440    94.1450    25.1890     6.6120     5.8580     7.9700   -14.1070 
  179.3750     2.4920   360.5040    92.3570    25.3090     6.7330     6.0020     8.0770   -14.2710 
  179.5000     2.5050   365.7630    94.5690    25.4240     6.6020     6.0040     7.9600   -14.4570 
  179.6250     2.4940   370.9650    95.0050    25.4670     6.4080     5.9410     7.8050   -14.6580 
  179.7500     2.4750   375.7550    93.3330    25.4720     6.3830     5.9360     7.8200   -14.8690 
  179.8750     2.4620   380.0830    92.7930    25.4710     6.5890     6.0630     8.1100   -15.0740 
