~V
VERS. 2.00: Ver 2.00
~W
STRT.M 65.0000:
STOP.M 270.0000:
STEP.M 0.1250:
NULL. -999.2500:
UWI. DF3062:
~C
DEPT.M :
SP.MV :
GR.API :
CALI.CM :
RXO.OHMM :
RI. :
RML.OHMM :
DEN.GM/CC :
~A
# ...
   98.7500   -40.0500    63.0900    22.8340    16.1320     9.0160    10.6430  -999.2500 
   98.8750   -40.0690    63.0310    22.7450    11.0960     8.9860    10.5630  -999.2500 
   99.0000   -40.1440    63.8760    22.6930     9.6760     8.9660    10.5160  -999.2500 
   99.1250   -40.2420    64.7080    22.8190    10.3310     8.9680    10.4980  -999.2500 
   99.2500   -40.3330    64.5050    22.9290    10.8270     8.9840    10.5040  -999.2500 
   99.3750   -40.4250    62.7560    23.0120    11.2880     8.9970    10.5290  -999.2500 
   99.5000   -40.5220    61.1820    22.9120    11.4520     9.0090    10.5400  -999.2500 
   99.6250   -40.5970    61.6680    22.8540    11.3300     9.0140    10.5340  -999.2500 
   99.7500   -40.6230    64.4900    22.7730    10.6910     9.0010    10.5230  -999.2500 
   99.8750   -40.5990    66.8800    22.7900     9.8600     8.9620    10.4960  -999.2500 
  100.0000   -40.4730    65.6510    22.7630     9.1110     8.9050    10.4730  -999.2500 
  100.1250   -40.2330    64.3170    22.4740     8.7790     8.8390    10.4650  -999.2500 
  100.2500   -39.9340    66.3930    22.2820     8.1490     8.7720    10.4510  -999.2500 
  100.3750   -39.6160    68.7220    22.1060     7.8870     8.7060    10.4140  -999.2500 
  100.5000   -39.2960    66.4490    22.0620     8.0180     8.6450    10.3740  -999.2500 
  100.6250   -38.9930    62.0890    22.1100     8.5830     8.5960    10.3310  -999.2500 
  100.7500   -38.7050    61.1970    22.3310     8.6640     8.5620    10.2700  -999.2500 
  100.8750   -38.4530    62.9170    22.7570     8.8280     8.5080    10.1710  -999.2500 
  101.0000   -38.2590    64.5060    22.8890     8.6820     8.4120    10.0230  -999.2500 
  101.1250   -38.1510    65.5020    22.8750     8.4280     8.2680     9.8350  -999.2500 
  101.2500   -38.1220    67.6250    22.8400     8.8900     8.0940     9.6370  -999.2500 
  101.3750   -38.1480    70.1070    22.8380     9.7710     7.9140     9.4470  -999.2500 
  101.5000   -38.1920    72.7890    22.9490    10.1860     7.7530     9.2920  -999.2500 
  101.6250   -38.2780    74.4640    23.3740     9.2810     7.6620     9.2590  -999.2500 
  101.7500   -38.4060    74.8430    23.5180     8.3700     7.6890     9.3870  -999.2500 
  101.8750   -38.5430    74.2880    23.4560     8.3210     7.8470     9.6490  -999.2500 
  102.0000   -38.6620    72.7760    23.4150     9.0680     8.0960     9.9790  -999.2500 
  102.1250   -38.7370    69.9250    23.3820     9.4490     8.3760    10.3120  -999.2500 
  102.2500   -38.7500    66.4470    23.3920    10.1780     8.6580    10.5890  -999.2500 
  102.3750   -38.7040    64.8740    23.3450    10.8640     8.8920    10.7670  -999.2500 
  102.5000   -38.6370    66.8740    23.1100    11.7750     9.0440    10.8310  -999.2500 
  102.6250   -38.5430    68.1760    23.0620    12.2460     9.1080    10.8110  -999.2500 
  102.7500   -38.4420    66.6700    23.0190    12.0970     9.1210    10.7580  -999.2500 
  102.8750   -38.3140    63.5880    22.8630    11.6050     9.0980    10.6960  -999.2500 
  103.0000   -38.1620    62.0090    22.8200    11.4130     9.0380    10.6000  -999.2500 
  103.1250   -38.0180    64.3690    23.0510    11.2900     8.9100    10.4330  -999.2500 
  103.2500   -37.8600    68.2890    23.0950    11.2110     8.7210    10.2110  -999.2500 
  103.3750   -37.7100    70.7090    23.0980    11.2120     8.4960     9.9740  -999.2500 
  103.5000   -37.5460    68.6180    23.0900    11.2250     8.2730     9.7510  -999.2500 
  103.6250   -37.3520    65.7780    23.0920    11.0200     8.0940     9.5880  -999.2500 
  103.7500   -37.0820    66.0520    23.0920    10.5570     7.9890     9.5350  -999.2500 
  103.8750   -36.7620    67.4010    23.1490    10.2280     7.9680     9.6040  -999.2500 
  104.0000   -36.4470    67.8630    23.0380    10.2520     8.0350     9.7650  -999.2500 
  104.1250   -36.1320    68.2070    22.8100    10.6090     8.1420     9.9270  -999.2500 
  104.2500   -35.8250    66.8900    22.8010    10.8020     8.1980     9.9800  -999.2500 
  104.3750   -35.5050    63.1210    22.8060    11.0570     8.1600     9.8790  -999.2500 
  104.5000   -35.1730    61.2710    22.7670    10.9860     8.0200     9.6370  -999.2500 
  104.6250   -34.8140    64.5850    22.7750    10.6200     7.7930     9.3380  -999.2500 
  104.7500   -34.4620    67.6220    22.8970     9.9710     7.5830     9.0890  -999.2500 
  104.8750   -34.1460    68.7870    23.0680     8.9830     7.4610     8.9860  -999.2500 
  105.0000   -33.8670    68.7740    23.2420     7.6430     7.4500     9.0760  -999.2500 
  105.1250   -33.6340    68.0440    23.2510     7.6000     7.5980     9.3720  -999.2500 
  105.2500   -33.4620    64.8470    23.2740     8.8830     7.8550     9.7590  -999.2500 
  105.3750   -33.3490    62.0690    23.1980    12.6530     8.1510    10.1330  -999.2500 
  105.5000   -33.2940    63.9470    22.8890    20.5740     8.4260    10.4150  -999.2500 
  105.6250   -33.2820    67.8400    22.7660    19.8220     8.6460    10.5850  -999.2500 
  105.7500   -33.2820    68.2670    22.6840    14.2940     8.8270    10.7020  -999.2500 
  105.8750   -33.2720    64.6410    22.5850    10.3720     8.9970    10.8190  -999.2500 
  106.0000   -33.2210    61.2160    22.4760     9.8140     9.1650    10.9340  -999.2500 
  106.1250   -33.0710    62.0270    22.1910     9.8310     9.2730    10.9990  -999.2500 
  106.2500   -32.8030    63.0500    22.1950    10.1220     9.2660    10.9720  -999.2500 
  106.3750   -32.4290    64.6510    22.4590    10.6820     9.0810    10.7940  -999.2500 
  106.5000   -31.9580    68.8350    22.8020    10.9850     8.6730    10.3630  -999.2500 
  106.6250   -31.3750    74.3900    23.0130    11.4950     8.0200     9.6440  -999.2500 
  106.7500   -30.7560    77.4440    22.9310    10.4560     7.2820     8.8180  -999.2500 
  106.8750   -30.1780    78.4920    22.9630     8.3510     6.5790     8.0470  -999.2500 
  107.0000   -29.6580    80.8780    23.0590     7.0850     5.9930     7.4790  -999.2500 
  107.1250   -29.2570    85.0650    23.0670     6.9770     5.5990     7.2190  -999.2500 
  107.2500   -29.0020    87.3620    23.1130     6.8680     5.3700     7.1900  -999.2500 
  107.3750   -28.8530    86.6660    23.3960     6.9640     5.2990     7.3430  -999.2500 
  107.5000   -28.7980    85.4390    23.4970     7.1730     5.3650     7.6250  -999.2500 
  107.6250   -28.8730    84.5650    23.5290     7.2890     5.5690     8.0070  -999.2500 
  107.7500   -29.0700    81.4280    23.8870     7.3400     5.8580     8.3790  -999.2500 
  107.8750   -29.3580    76.4100    24.1260     7.4920     6.2010     8.6840  -999.2500 
  108.0000   -29.7190    72.7350    24.2060     7.7410     6.5580     8.8880  -999.2500 
  108.1250   -30.0680    71.5730    23.8870     8.1680     6.8690     8.9420  -999.2500 
  108.2500   -30.3810    72.1540    23.5800     8.6980     7.0620     8.8690  -999.2500 
  108.3750   -30.6800    74.2670    23.4350     9.1920     7.0840     8.6570  -999.2500 
  108.5000   -30.9390    75.9910    23.4080     9.5070     6.9500     8.3750  -999.2500 
  108.6250   -31.1880    77.0160    23.5210     9.0920     6.7240     8.0880  -999.2500 
  108.7500   -31.4120    82.2600    23.6250     8.5550     6.5150     7.8740  -999.2500 
  108.8750   -31.6040    88.6720    23.6710     8.1730     6.4060     7.8330  -999.2500 
  109.0000   -31.7870    90.1940    23.6290     7.9580     6.4400     8.0000  -999.2500 
  109.1250   -32.0360    85.9420    23.5720     7.5760     6.6480     8.3820  -999.2500 
  109.2500   -32.3420    80.2730    23.5110     6.9370     6.9600     8.8830  -999.2500 
  109.3750   -32.6810    75.3640    23.1970     6.6150     7.3200     9.3880  -999.2500 
  109.5000   -33.0620    73.4730    22.7800     7.1090     7.6330     9.7770  -999.2500 
  109.6250   -33.4450    76.0290    22.3830     8.0560     7.7880     9.9200  -999.2500 
  109.7500   -33.7760    76.5480    22.2410     8.3190     7.7800     9.8740  -999.2500 
  109.8750   -33.9970    74.0380    22.4710     8.2820     7.6400     9.6720  -999.2500 
