~V
VERS. 2.00: Ver 2.00
~W
STRT.M 56.0000:
STOP.M 263.0000:
STEP.M 0.1250:
NULL. -999.2500:
UWI. DF3034:
~C
DEPT.M :
DEN.GM/CC :
GR.API :
RML.OHMM :
RI. :
RXO.OHMM :
CALI.CM :
SP.MV :
~A
# ...
  134.7500     2.1840    77.2540    10.1760     8.7280     9.9780    22.3790   -25.3630 
  134.8750     2.1810    72.5010    10.1740     8.7320     9.9410    22.1220   -25.3080 
  135.0000     2.1740    68.4590    10.1790     8.7310     9.9640    21.8780   -25.3420 
  135.1250     2.1710    71.0130    10.1800     8.7220     9.7510    21.8570   -25.2960 
  135.2500     2.1780    73.9530    10.1650     8.7040     9.6110    21.8930   -25.2470 
  135.3750     2.1940    74.2510    10.1330     8.6770     9.7790    21.8570   -25.1850 
  135.5000     2.2140    73.2240    10.0930     8.6450    10.1860    21.7560   -25.1590 
  135.6250     2.2310    73.2790    10.0640     8.6200    10.3550    21.6770   -25.1310 
  135.7500     2.2410    72.5870    10.0550     8.6090    10.0910    21.6780   -25.1190 
  135.8750     2.2420    71.5390    10.0600     8.6120     9.6980    21.7570   -25.2070 
  136.0000     2.2350    72.3980    10.0670     8.6250     9.7040    21.8730   -25.2680 
  136.1250     2.2230    73.7430    10.0600     8.6450    10.1940    22.0140   -25.4030 
  136.2500     2.2110    71.9530    10.0380     8.6640    10.8260    22.2270   -25.5160 
  136.3750     2.1990    68.0100    10.0000     8.6760    11.0800    22.4650   -25.6150 
  136.5000     2.1900    65.3390     9.9440     8.6710    10.8240    22.7240   -25.6710 
  136.6250     2.1840    64.8810     9.8600     8.6350    10.7440    22.9510   -25.6360 
  136.7500     2.1800    65.7120     9.7450     8.5710    10.7900    23.0790   -25.4880 
  136.8750     2.1800    68.8260     9.6090     8.4860    10.7940    23.1290   -25.2490 
  137.0000     2.1810    72.7230     9.4690     8.3920    10.6390    23.1480   -24.9270 
  137.1250     2.1830    74.6080     9.3430     8.2960    10.2750    23.1330   -24.5560 
  137.2500     2.1830    74.5720     9.2250     8.1910     9.7440    23.1520   -24.1640 
  137.3750     2.1810    74.4630     9.0980     8.0620     9.3490    23.1890   -23.7490 
  137.5000     2.1800    74.3020     8.9400     7.8970     9.2970    23.1570   -23.2850 
  137.6250     2.1810    73.0340     8.7400     7.6920     8.9480    22.9990   -22.9130 
  137.7500     2.1870    72.8430     8.5250     7.4720     8.1480    22.7650   -22.5310 
  137.8750     2.1960    75.5910     8.3200     7.2640     7.3570    22.6710   -22.2410 
  138.0000     2.2070    79.3410     8.1450     7.0910     6.9890    22.6980   -22.0460 
  138.1250     2.2180    80.4700     8.0200     6.9780     7.1010    22.8080   -21.8140 
  138.2500     2.2210    79.7130     7.9600     6.9360     7.4070    22.9440   -21.6800 
  138.3750     2.2140    78.5430     8.0160     6.9990     7.7260    23.1100   -21.5360 
  138.5000     2.1980    77.3980     8.2730     7.2230     8.0040    23.3020   -21.4840 
  138.6250     2.1870    75.4920     8.8740     7.7140     8.3470    23.4880   -21.3580 
  138.7500     2.2010    75.2070     9.7550     8.4320     8.9720    23.5670   -21.2800 
  138.8750     2.2460    76.6590    10.7340     9.2540    10.0640    23.6570   -21.0830 
  139.0000     2.3120    76.9290    11.4900     9.9370    11.3520    23.7910   -20.8130 
  139.1250     2.3650    73.3550    11.5480    10.0970    12.9250    24.0100   -20.5610 
  139.2500     2.3820    69.8070    10.8530     9.6440    14.4760    24.0250   -20.2540 
  139.3750     2.3650    72.7670     9.6110     8.6860    14.1510    23.8240   -20.0480 
  139.5000     2.3310    82.1190     8.2380     7.5260    10.7930    23.5450   -19.9160 
  139.6250     2.3010    91.9340     7.2080     6.5440     7.7550    23.5380   -19.9750 
  139.7500     2.2810    95.9100     6.6550     5.9160     6.3580    23.6460   -20.1630 
  139.8750     2.2640    92.4760     6.5800     5.6870     6.2010    23.6000   -20.5790 
  140.0000     2.2490    85.9690     6.9190     5.8410     6.6690    23.4350   -21.0940 
  140.1250     2.2360    82.3550     7.6150     6.3710     7.4930    23.3460   -21.7620 
  140.2500     2.2260    80.4860     8.4760     7.1200     8.3010    23.2870   -22.4610 
  140.3750     2.2190    77.6680     9.3610     7.9680     8.7560    23.2570   -23.1460 
  140.5000     2.2150    74.3530    10.1200     8.7800     9.2040    23.3350   -23.7430 
  140.6250     2.2150    71.6770    10.5750     9.3840    10.1910    23.5720   -24.2740 
  140.7500     2.2180    69.6950    10.7190     9.7240    10.7870    23.7750   -24.6640 
  140.8750     2.2210    69.3090    10.6050     9.8020    11.0080    23.7410   -24.8900 
  141.0000     2.2230    70.5230    10.3460     9.6870    11.0570    23.4420   -25.0610 
  141.1250     2.2230    70.3020    10.0970     9.4840    10.8440    23.2500   -24.9920 
  141.2500     2.2200    67.7620     9.9670     9.3190    10.6090    23.1830   -24.8930 
  141.3750     2.2130    64.5260     9.9890     9.2490    10.5140    23.1830   -24.6430 
  141.5000     2.2040    62.9720    10.1310     9.2840    10.6300    23.1920   -24.3410 
  141.6250     2.1950    63.6120    10.3120     9.3920    10.7370    23.2100   -23.8770 
  141.7500     2.1890    64.6380    10.4440     9.5040    10.7880    23.2390   -23.3060 
  141.8750     2.1920    66.5720    10.5170     9.6000    10.8830    23.2530   -22.6530 
  142.0000     2.2110    71.5120    10.6220     9.7280    11.1050    23.2500   -21.8020 
  142.1250     2.2550    76.8050    10.9920    10.0470    11.6320    23.2910   -20.9140 
  142.2500     2.3190    78.1830    11.7120    10.6390    12.5920    23.4640   -19.8490 
  142.3750     2.3920    75.7190    12.6560    11.4390    13.7860    23.7210   -18.7610 
  142.5000     2.4540    73.0960    13.4680    12.1910    14.5620    23.9380   -17.6150 
  142.6250     2.4770    72.8850    13.5250    12.3950    16.1390    24.0420   -16.5420 
  142.7500     2.4600    73.9860    12.6370    11.8170    20.7470    24.0900   -15.5790 
  142.8750     2.4170    78.0070    10.9720    10.4930    22.3080    24.1190   -14.7260 
  143.0000     2.3690    86.3410     9.0440     8.7750    15.3790    24.1340   -14.0560 
  143.1250     2.3390    95.6190     7.4550     7.1670     8.2690    24.1540   -13.5440 
  143.2500     2.3290   102.3060     6.3420     5.9190     6.1380    24.1960   -13.2230 
  143.3750     2.3290   105.6160     5.6190     5.0460     5.6430    24.2300   -13.0540 
  143.5000     2.3300   105.6290     5.1500     4.4810     5.4490    24.1570   -13.0430 
  143.6250     2.3300   103.1410     4.8890     4.2010     5.3000    24.0740   -13.1470 
  143.7500     2.3390   100.9200     4.8790     4.1950     5.3600    24.0540   -13.3700 
  143.8750     2.3680   100.0910     5.3320     4.6110     5.6240    24.1230   -13.6380 
  144.0000     2.4250    97.9360     6.4980     5.6750     6.3470    24.1920   -14.0690 
  144.1250     2.5030    92.8270     8.6330     7.6760     8.4520    24.2070   -14.5450 
  144.2500     2.5760    84.5540    11.3260    10.2920    12.8020    24.1180   -15.1670 
  144.3750     2.6160    74.5930    13.9280    12.9490    19.2240    24.0660   -15.8770 
  144.5000     2.6040    67.7430    15.5750    14.8140    24.1830    24.0540   -16.6630 
  144.6250     2.5330    67.9530    15.2800    14.8700    29.8990    24.0620   -17.4910 
  144.7500     2.4370    72.0220    13.5610    13.4530    29.4290    24.0790   -18.2310 
  144.8750     2.3450    77.8410    11.4010    11.3900    20.5090    24.0330   -18.9300 
  145.0000     2.2760    83.6500     9.6440     9.4970    11.5330    23.8740   -19.3850 
  145.1250     2.2410    87.2830     8.6350     8.2090     9.1060    23.8400   -19.6620 
  145.2500     2.2310    86.7190     8.0850     7.3780     8.6010    23.7840   -19.6440 
  145.3750     2.2300    84.3230     7.7790     6.8570     8.5640    23.6940   -19.3880 
  145.5000     2.2270    84.8200     7.5810     6.5360     8.1920    23.6840   -18.9390 
  145.6250     2.2180    88.9250     7.5020     6.4020     7.4590    23.8040   -18.3680 
  145.7500     2.2130    90.7710     7.6190     6.4580     6.8700    23.8990   -17.8340 
  145.8750     2.2250    87.9920     7.9810     6.7290     6.9180    23.9930   -17.2910 
