~V
VERS. 2.00: Ver 2.00
~W
STRT.M 67.0000:
STOP.M 279.0000:
STEP.M 0.1250:
NULL. -999.2500:
UWI. DF3057:
~C
DEPT.M :
GR.API :
CALI.CM :
RXO.OHMM :
RI. :
RML.OHMM :
DEN.GM/CC :
SP.MV :
~A
# ...
  134.5000    75.9610    24.3650    21.3890     8.4060    10.2550     2.3990   -34.6600 
  134.6250    69.7030    24.4640    19.2830     9.3150    11.3600     2.3560   -35.3600 
  134.7500    63.7580    24.4700    15.5730    10.1560    12.3360     2.2980   -36.0420 
  134.8750    59.1630    24.4980    13.8960    10.8360    13.0860     2.2450   -36.5590 
  135.0000    56.1500    24.5370    14.4600    11.2790    13.5460     2.2090   -36.8740 
  135.1250    57.2340    24.6670    14.9680    11.4060    13.6630     2.1890   -37.0410 
  135.2500    61.2780    24.4220    14.6890    11.2970    13.5350     2.1810   -37.2190 
  135.3750    66.1690    24.1630    14.2440    11.0310    13.2560     2.1880   -37.4020 
  135.5000    68.6330    23.9990    13.4780    10.6770    12.8770     2.2080   -37.4660 
  135.6250    67.7340    23.9610    12.2820    10.2870    12.4480     2.2280   -37.3340 
  135.7500    67.6240    23.7550    11.5700     9.9820    12.1380     2.2340   -37.0880 
  135.8750    69.2500    23.6530    11.3980     9.8480    12.0700     2.2300   -36.8650 
  136.0000    69.9350    23.8730    11.5200     9.9190    12.2630     2.2290   -36.7400 
  136.1250    67.5440    24.0560    11.6540    10.2060    12.6960     2.2440   -36.6700 
  136.2500    65.6010    24.0220    11.6780    10.6300    13.2630     2.2630   -36.4840 
  136.3750    67.0050    23.9970    12.3000    11.1310    13.8720     2.2730   -36.2160 
  136.5000    69.9380    23.9390    15.7130    11.6210    14.4080     2.2690   -36.0270 
  136.6250    69.1960    24.0700    20.7100    11.9630    14.6920     2.2570   -35.9900 
  136.7500    65.6020    23.9280    20.2170    12.0900    14.6700     2.2430   -36.0360 
  136.8750    64.7080    23.9820    15.6140    11.9900    14.3610     2.2320   -36.0820 
  137.0000    69.4800    24.1390    12.8980    11.7350    13.8930     2.2220   -36.0270 
  137.1250    73.3050    24.1520    12.2090    11.4900    13.5100     2.2200   -35.8700 
  137.2500    70.7350    24.1310    12.6340    11.4110    13.4150     2.2260   -35.8010 
  137.3750    66.1620    24.1590    12.7680    11.5540    13.6720     2.2330   -35.8100 
  137.5000    64.4600    24.1890    12.3820    11.9400    14.2510     2.2310   -35.7090 
  137.6250    63.8190    24.2770    12.5280    12.5480    15.0630     2.2270   -35.4330 
  137.7500    64.5380    24.4570    13.4640    13.1930    15.8260     2.2510   -35.1790 
  137.8750    68.1510    24.4760    16.2580    13.6580    16.2800     2.3050   -34.9970 
  138.0000    72.4090    24.1710    19.5900    13.8230    16.3220     2.3500   -34.8370 
  138.1250    72.0520    24.1100    18.8240    13.6560    15.9650     2.3330   -34.6570 
  138.2500    68.1280    23.9270    15.5790    13.3500    15.4710     2.2720   -34.4680 
  138.3750    66.4660    23.9110    13.8730    13.0880    15.0810     2.2160   -34.3160 
  138.5000    67.7990    23.9560    13.8950    12.9670    14.9590     2.1990   -34.1660 
  138.6250    70.2040    24.1920    15.1190    13.0800    15.1840     2.2220   -34.0230 
  138.7500    72.5250    24.2630    15.7620    13.3660    15.6080     2.2510   -33.8730 
  138.8750    75.7320    24.4250    15.7710    13.6770    16.0100     2.2660   -33.7150 
  139.0000    77.9450    24.4980    15.9120    13.7930    16.1170     2.2660   -33.6290 
  139.1250    73.7680    24.5330    15.8380    13.4850    15.6990     2.2680   -33.6400 
  139.2500    69.2730    24.5890    14.2930    12.8200    14.8700     2.2830   -33.6260 
  139.3750    69.7090    24.6260    13.1120    11.9240    13.7810     2.2980   -33.4980 
  139.5000    73.0450    24.5650    12.2550    11.0020    12.6850     2.2920   -33.3790 
  139.6250    74.2300    24.3970    11.1780    10.2530    11.8520     2.2610   -33.4080 
  139.7500    74.1230    24.1080    10.3070     9.7550    11.3740     2.2280   -33.4800 
  139.8750    74.7820    24.1430    10.1530     9.5570    11.2980     2.2090   -33.4830 
  140.0000    73.5210    24.2750    10.0390     9.6520    11.5850     2.2100   -33.3790 
  140.1250    68.8560    24.7340     9.9580    10.0190    12.1470     2.2260   -33.1780 
  140.2500    65.9830    24.9470    10.2990    10.5400    12.8400     2.2360   -32.9740 
  140.3750    67.4260    25.0610    11.8660    11.1510    13.5930     2.2280   -32.8200 
  140.5000    70.8600    25.0820    13.6600    11.7930    14.3370     2.2060   -32.7140 
  140.6250    70.9070    24.8780    14.2030    12.4460    15.0940     2.1900   -32.4760 
  140.7500    68.3180    24.9470    14.0500    13.2050    16.0590     2.1860   -32.0370 
  140.8750    65.9650    24.9110    14.3910    14.1920    17.3960     2.1850   -31.5430 
  141.0000    64.6320    24.6180    15.9790    15.4250    19.0800     2.1790   -31.1160 
  141.1250    64.1850    24.4940    18.1170    16.6300    20.6670     2.1690   -30.7490 
  141.2500    63.3160    24.3250    19.7960    17.4080    21.6650     2.1660   -30.3110 
  141.3750    60.9830    24.2380    21.4570    17.3930    21.6420     2.1890   -29.7500 
  141.5000    59.7780    24.2720    23.4550    16.3520    20.3410     2.2530   -29.0420 
  141.6250    64.6980    24.6320    24.9540    14.3220    17.7610     2.3440   -28.3180 
  141.7500    74.3380    24.9780    22.0070    12.0540    14.7860     2.4140   -27.7430 
  141.8750    83.4040    25.1120    14.5620     9.9930    12.0360     2.4290   -27.3050 
  142.0000    87.5940    25.1130     7.6650     8.3900     9.9380     2.3970   -26.8890 
  142.1250    88.2420    25.1050     6.8120     7.4340     8.8170     2.3510   -26.4530 
  142.2500    89.8350    24.9760     6.8690     6.9420     8.3660     2.3210   -26.0620 
  142.3750    92.2290    24.8340     7.4150     6.7910     8.3240     2.3070   -25.7820 
  142.5000    91.7160    24.7840     7.6090     6.8690     8.5000     2.3000   -25.6870 
  142.6250    87.6570    24.7260     7.3800     7.0480     8.6890     2.2980   -25.7050 
  142.7500    86.4790    24.7590     7.1670     7.1660     8.7220     2.3020   -25.6570 
  142.8750    90.3100    24.7620     7.3790     7.1550     8.5760     2.3120   -25.4660 
  143.0000    94.1380    24.5450     7.3950     7.0360     8.3140     2.3260   -25.2660 
  143.1250    94.0000    24.5650     7.0890     6.8540     8.0300     2.3420   -25.1760 
  143.2500    91.4830    24.7980     6.6610     6.6740     7.8050     2.3520   -25.1140 
  143.3750    88.8990    24.8790     6.5460     6.5310     7.6960     2.3540   -24.9870 
  143.5000    88.2410    24.7860     6.5230     6.4390     7.7050     2.3510   -24.7840 
  143.6250    92.6040    24.7770     6.5080     6.4150     7.8190     2.3490   -24.6290 
  143.7500    96.7060    24.7380     6.4780     6.4200     7.9600     2.3490   -24.5860 
  143.8750    95.7970    24.4960     6.4680     6.4060     8.0370     2.3470   -24.6070 
  144.0000    92.7760    24.1920     6.6850     6.3190     7.9810     2.3420   -24.5710 
  144.1250    92.4690    24.1980     7.0350     6.1480     7.7790     2.3340   -24.4590 
  144.2500    92.1120    24.3350     7.0740     5.9560     7.5330     2.3260   -24.4270 
  144.3750    90.3400    24.3200     6.8570     5.8050     7.3630     2.3250   -24.4500 
  144.5000    90.6980    24.3730     6.5080     5.7760     7.3950     2.3310   -24.4370 
  144.6250    94.2850    24.4850     6.1940     5.9450     7.8040     2.3410   -24.4090 
  144.7500    95.9710    24.4830     6.3680     6.3010     8.4990     2.3380   -24.4060 
  144.8750    94.6730    24.0150     7.6170     6.7900     9.3500     2.3120   -24.4350 
  145.0000    92.6700    23.7380     9.3150     7.3110    10.1480     2.2700   -24.4610 
  145.1250    90.8550    23.5050    10.2780     7.7100    10.6720     2.2340   -24.4370 
  145.2500    88.7990    23.3370     9.9870     7.9020    10.8560     2.2190   -24.3820 
  145.3750    88.0250    23.1260     9.1540     7.8800    10.7130     2.2310   -24.4050 
  145.5000    89.6480    22.9370     8.3410     7.7020    10.3530     2.2630   -24.5160 
  145.6250    91.2490    22.9720     8.0440     7.4820     9.9810     2.2940   -24.5270 
