~V
VERS. 2.00: Ver 2.00
~W
STRT.M 60.0000:
STOP.M 250.0000:
STEP.M 0.1250:
NULL. -999.2500:
UWI. DF3018:
~C
DEPT.M :
DEN.GM/CC :
GR.API :
RML.OHMM :
RI. :
RXO.OHMM :
CALI.CM :
SP.MV :
~A
# ...
  195.0000     2.4440    67.9010    10.1690     8.2620     7.6760    23.9690   -10.5590 
  195.1250     2.4440    62.9340     9.7310     7.8490     7.1780    23.9680   -10.0100 
  195.2500     2.4320    64.6630     9.5260     7.6050     6.9470    24.0610    -9.5640 
  195.3750     2.4030    66.7700     9.4880     7.5080     6.8030    24.2080    -9.1920 
  195.5000     2.3610    64.6540     9.5340     7.5110     6.6700    24.3480    -8.8870 
  195.6250     2.3190    61.5040     9.5980     7.5660     6.7010    24.4460    -8.6880 
  195.7500     2.2920    62.2720     9.6480     7.6300     6.7180    24.5240    -8.5050 
  195.8750     2.2840    68.9130     9.6850     7.6920     6.7120    24.5600    -8.3770 
  196.0000     2.2890    79.8020     9.7100     7.7440     6.7030    24.5590    -8.2700 
  196.1250     2.2920    86.8010     9.7040     7.7700     6.7250    24.5260    -8.2090 
  196.2500     2.2880    88.7810     9.6510     7.7540     6.8460    24.4950    -8.1300 
  196.3750     2.2830    90.1930     9.5330     7.6790     7.0060    24.4970    -8.0510 
  196.5000     2.2920    94.5270     9.3400     7.5340     7.1760    24.5370    -7.9890 
  196.6250     2.3230    95.9520     9.0600     7.3130     7.2960    24.5540    -7.8990 
  196.7500     2.3640    92.7980     8.7430     7.0590     7.2170    24.5480    -7.8580 
  196.8750     2.3990    91.4070     8.4590     6.8290     7.0490    24.5210    -7.8170 
  197.0000     2.4170    93.1410     8.3090     6.7010     6.9240    24.4890    -7.8120 
  197.1250     2.4190    94.4910     8.4530     6.7970     6.9800    24.4730    -7.7910 
  197.2500     2.4140    94.3920     8.9010     7.1410     7.2800    24.4680    -7.7940 
  197.3750     2.4060    94.2090     9.5990     7.7150     7.8920    24.4680    -7.8380 
  197.5000     2.3960    94.7540    10.4030     8.4330     8.8470    24.4680    -7.9040 
  197.6250     2.3860    94.0070    11.0630     9.1170    10.4750    24.4680    -8.0020 
  197.7500     2.3790    92.8840    11.4070     9.5890    12.1570    24.4680    -8.1020 
  197.8750     2.3740    92.4020    11.3900     9.7610    12.6570    24.4680    -8.2210 
  198.0000     2.3710    92.6220    11.1120     9.6600    11.7250    24.4680    -8.3680 
  198.1250     2.3660    92.2400    10.7800     9.4130    10.8650    24.4680    -8.6060 
  198.2500     2.3630    91.7190    10.5860     9.2120    10.6240    24.4680    -8.9230 
  198.3750     2.3630    92.8470    10.5920     9.1510    10.4610    24.4680    -9.2960 
  198.5000     2.3640    94.1970    10.7850     9.2410    10.8750    24.4680    -9.7290 
  198.6250     2.3640    91.3250    11.0130     9.4690    11.6530    24.4680   -10.2280 
  198.7500     2.3620    87.3620    11.2370     9.8440    12.9920    24.4680   -10.7570 
  198.8750     2.3610    85.2840    11.7900    10.5740    15.0110    24.4680   -11.3240 
  199.0000     2.3660    84.4320    13.3570    12.1370    16.7340    24.4680   -11.9140 
  199.1250     2.3800    82.7590    17.8130    15.6780    20.0390    24.4570   -12.5630 
  199.2500     2.3970    78.7920    25.7770    21.7380    25.9300    24.4310   -13.2050 
  199.3750     2.4080    73.0740    37.5200    30.3980    38.1850    24.4150   -13.8340 
  199.5000     2.4020    65.8070    51.1300    40.6430    63.0720    24.4390   -14.4230 
  199.6250     2.3760    61.4670    61.3100    49.7610    82.3820    24.5150   -15.0270 
  199.7500     2.3400    62.5200    66.5840    55.0720    80.6720    24.5530   -15.6100 
  199.8750     2.3060    67.4700    65.6850    55.4820    74.1940    24.5630   -16.2110 
  200.0000     2.2820    73.7130    60.4700    52.0820    72.1980    24.5610   -16.7850 
  200.1250     2.2710    79.1380    54.9120    47.5860    61.1760    24.5600   -17.3680 
  200.2500     2.2670    82.9070    51.6400    44.5050    48.7800    24.5570   -17.9470 
  200.3750     2.2680    84.5790    51.2590    43.6860    42.3220    24.5560   -18.5500 
  200.5000     2.2670    84.2610    53.7630    45.2420    42.5590    24.5570   -19.2020 
  200.6250     2.2620    83.1500    59.2750    49.2450    49.3760    24.5580   -19.8460 
  200.7500     2.2540    81.9090    66.8320    54.9690    59.4470    24.5590   -20.5050 
  200.8750     2.2460    79.0760    75.8970    62.1730    69.0780    24.5570   -21.1590 
  201.0000     2.2400    75.8170    86.1750    70.8020    75.7560    24.5570   -21.8380 
  201.1250     2.2340    73.8040    98.1110    81.2150    80.4550    24.5620   -22.4820 
  201.2500     2.2230    72.0160   111.7770    93.0820    86.7130    24.5880   -23.1110 
  201.3750     2.2030    69.9990   126.7530   105.7890    99.4560    24.6490   -23.7300 
  201.5000     2.1770    68.7690   141.6270   118.1230   119.5280    24.7360   -24.3470 
  201.6250     2.1550    69.2320   153.7410   128.0790   129.4730    24.8270   -24.9740 
  201.7500     2.1490    69.7350   161.9500   134.9580   128.1060    24.8870   -25.5830 
  201.8750     2.1660    69.7660   166.5810   139.0260   126.4450    24.8390   -26.1690 
  202.0000     2.1970    68.5320   169.3750   141.5490   126.5790    24.6850   -26.7150 
  202.1250     2.2250    66.4840   172.6250   144.3480   126.7410    24.6060   -27.1930 
  202.2500     2.2370    64.9530   177.2420   148.3900   124.7570    24.6450   -27.6610 
  202.3750     2.2270    63.8980   182.6790   153.4220   123.5660    24.7400   -28.0970 
  202.5000     2.2080    63.3940   187.5710   158.3620   130.8130    24.7610   -28.4610 
  202.6250     2.1920    63.5440   189.7680   161.3730   138.8580    24.7520   -28.8210 
  202.7500     2.1880    65.3700   188.5920   161.6890   141.9360    24.7600   -29.1010 
  202.8750     2.1940    69.3570   184.2980   159.3380   140.1060    24.8010   -29.3690 
  203.0000     2.2000    73.6200   178.1140   155.1790   135.4060    24.8390   -29.5780 
  203.1250     2.2020    75.2050   171.9210   150.6750   128.4850    24.8540   -29.8200 
  203.2500     2.2010    72.6160   167.3550   147.3410   123.1600    24.8680   -29.9860 
  203.3750     2.2050    67.9140   165.3710   146.1140   123.1510    24.8930   -30.1390 
  203.5000     2.2190    64.2910   166.5390   147.5680   127.6000    24.9160   -30.2370 
  203.6250     2.2410    64.1940   171.7160   152.4710   127.6770    24.8650   -30.2990 
  203.7500     2.2600    66.0810   180.1200   160.1400   124.4570    24.7310   -30.3370 
  203.8750     2.2600    67.3200   190.8080   169.7850   125.1210    24.5690   -30.3530 
  204.0000     2.2410    68.4050   201.9390   179.9150   133.4880    24.4210   -30.3470 
  204.1250     2.2120    69.6550   210.1110   187.8160   136.9970    24.3490   -30.2930 
  204.2500     2.1880    70.2390   212.8670   191.4230   135.5480    24.2040   -30.2000 
  204.3750     2.1790    68.9710   209.1410   189.6440   129.0560    23.9560   -30.0750 
  204.5000     2.1820    66.4660   200.0740   182.9900   124.6530    23.6960   -29.9250 
  204.6250     2.1940    64.0840   188.6210   173.3600   120.8410    23.4500   -29.7330 
  204.7500     2.2100    63.9240   178.3800   163.9640   115.2540    23.2840   -29.4950 
  204.8750     2.2270    65.7680   171.2360   156.7620   108.7330    23.1850   -29.2110 
  205.0000     2.2450    66.5960   168.3690   153.1350   105.7320    23.1630   -28.8940 
  205.1250     2.2620    66.0160   171.2020   154.6430   114.9770    23.2280   -28.5030 
  205.2500     2.2790    66.4600   178.5880   160.4400   127.1150    23.3830   -28.1190 
  205.3750     2.2910    68.1060   189.1410   169.4090   132.4610    23.6100   -27.6840 
  205.5000     2.2930    67.2690   200.3910   179.4830   143.6450    23.8970   -27.2520 
  205.6250     2.2800    62.4500   208.2380   187.2540   173.4310    24.1680   -26.6980 
  205.7500     2.2540    58.6790   210.3020   190.4580   202.2960    24.4230   -26.1960 
  205.8750     2.2250    58.5690   206.2680   188.4500   194.4780    24.6240   -25.6800 
  206.0000     2.2040    61.3050   198.0980   182.4260   173.6780    24.7180   -25.1890 
  206.1250     2.1950    63.9160   189.0930   174.8530   158.9560    24.7180   -24.7210 
