~V
VERS. 2.00: Ver 2.00
~W
STRT.M 60.0000:
STOP.M 238.0000:
STEP.M 0.1250:
NULL. -999.2500:
UWI. DF308:
~C
DEPT.M :
DEN.GM/CC :
SP.MV :
AC.US/MT :
GR.API :
CALI.CM :
RXO.OHMM :
RI. :
RML.OHMM :
~A
# ...
   80.0000  -999.2500   -26.3150  -999.2500    77.0400    23.7590    12.8140     8.6610    10.8680 
   80.1250  -999.2500   -27.2350  -999.2500    68.5600    23.3730    10.6770     8.9270    10.9030 
   80.2500  -999.2500   -28.1210  -999.2500    63.6570    22.9450     9.3300     8.6850    10.1530 
   80.3750  -999.2500   -28.9200  -999.2500    64.1750    22.6340     8.7560     8.1970     9.1420 
   80.5000  -999.2500   -29.5850  -999.2500    67.4490    22.5630     8.6490     7.7360     8.3340 
   80.6250  -999.2500   -30.0880  -999.2500    70.9510    22.6720     8.7580     7.4850     7.9790 
   80.7500  -999.2500   -30.4450  -999.2500    73.4230    22.7070     8.9100     7.4060     7.9160 
   80.8750  -999.2500   -30.6330  -999.2500    71.0840    22.6150     9.0480     7.4210     7.9870 
   81.0000  -999.2500   -30.6650  -999.2500    63.8290    22.4980     9.1170     7.4640     8.0910 
   81.1250  -999.2500   -30.5290  -999.2500    59.7920    22.4240     8.9820     7.5040     8.2060 
   81.2500  -999.2500   -30.2680  -999.2500    63.1910    22.3660     8.6390     7.5420     8.3500 
   81.3750  -999.2500   -29.8750  -999.2500    69.0790    22.3690     8.2200     7.5730     8.5250 
   81.5000  -999.2500   -29.3470  -999.2500    71.6670    22.4880     7.9820     7.5650     8.6800 
   81.6250  -999.2500   -28.6470  -999.2500    73.2200    22.7670     8.1310     7.4340     8.6700 
   81.7500  -999.2500   -27.7820  -999.2500    79.9850    23.0390     8.3150     7.1290     8.3740 
   81.8750  -999.2500   -26.8030  -999.2500    91.3980    23.2140     8.0530     6.6250     7.7050 
   82.0000  -999.2500   -25.8090  -999.2500   101.7820    23.3660     7.2240     5.9690     6.7160 
   82.1250  -999.2500   -24.9320  -999.2500   107.5040    23.6340     6.3800     5.3290     5.7110 
   82.2500  -999.2500   -24.2020  -999.2500   110.4490    23.9230     5.9020     4.9190     5.1370 
   82.3750  -999.2500   -23.6680  -999.2500   108.9760    24.1120     5.8820     4.9170     5.3600 
   82.5000  -999.2500   -23.3810  -999.2500   100.3910    24.1320     6.8620     5.4830     6.6650 
   82.6250  -999.2500   -23.4040  -999.2500    87.5040    23.9940    11.1310     6.8960     9.3980 
   82.7500  -999.2500   -23.7050  -999.2500    76.4860    23.8030    19.8760     9.0390    13.0410 
   82.8750  -999.2500   -24.2610  -999.2500    69.9910    23.8260    28.0300    11.4630    16.5170 
   83.0000  -999.2500   -24.9790  -999.2500    69.4400    23.9930    28.2650    13.1120    18.0840 
   83.1250  -999.2500   -25.7650  -999.2500    75.0660    23.9670    20.5300    12.7260    16.2970 
   83.2500  -999.2500   -26.5350  -999.2500    80.6440    23.6820    13.6840    11.0870    13.0190 
   83.3750  -999.2500   -27.2270  -999.2500    80.0760    23.2620    10.1350     9.2400    10.0170 
   83.5000  -999.2500   -27.7980  -999.2500    75.6420    22.9260     8.7600     7.8040     8.1140 
   83.6250  -999.2500   -28.2310  -999.2500    75.1110    22.7490     8.4100     7.0080     7.4420 
   83.7500  -999.2500   -28.5600  -999.2500    79.6660    22.6700     8.2510     6.6510     7.4450 
   83.8750  -999.2500   -28.7800  -999.2500    84.0550    22.6530     8.1100     6.5830     7.7760 
   84.0000  -999.2500   -28.9080  -999.2500    82.8210    22.6400     7.9750     6.6530     8.1510 
   84.1250  -999.2500   -28.9540  -999.2500    77.9520    22.5710     7.8630     6.7380     8.3850 
   84.2500  -999.2500   -28.9600  -999.2500    73.2950    22.5100     7.7860     6.7820     8.4900 
   84.3750  -999.2500   -28.9570  -999.2500    70.8870    22.4620     7.7620     6.7900     8.5290 
   84.5000  -999.2500   -28.9690  -999.2500    73.8120    22.4210     7.8170     6.7810     8.5630 
   84.6250  -999.2500   -29.0100  -999.2500    79.3450    22.4010     7.9600     6.7730     8.6270 
   84.7500  -999.2500   -29.0600  -999.2500    81.2300    22.3710     8.1290     6.7650     8.7000 
   84.8750  -999.2500   -29.0970  -999.2500    76.6840    22.3110     8.2450     6.7380     8.7200 
   85.0000  -999.2500   -29.1090  -999.2500    71.1760    22.2190     8.2940     6.6580     8.6000 
   85.1250  -999.2500   -29.0860  -999.2500    71.1900    22.1450     8.3610     6.5000     8.2700 
   85.2500  -999.2500   -29.0180  -999.2500    73.2160    22.1090     8.4050     6.3340     7.8930 
   85.3750  -999.2500   -28.8990  -999.2500    73.7840    22.1280     8.2190     6.2930     7.7640 
   85.5000  -999.2500   -28.6940  -999.2500    71.3980    22.1750     7.9260     6.5460     8.2350 
   85.6250  -999.2500   -28.3740  -999.2500    71.0830    22.1750     8.6700     7.3440     9.7240 
   85.7500  -999.2500   -28.0230  -999.2500    73.9120    22.2080    12.0440     8.6590    12.0180 
   85.8750  -999.2500   -27.6820  -999.2500    77.1460    22.3760    19.3520    10.2790    14.5670 
   86.0000  -999.2500   -27.3650  -999.2500    78.2150    22.7280    27.6020    11.6230    16.3080 
   86.1250  -999.2500   -27.1160  -999.2500    78.0910    23.1010    27.3900    11.7070    15.7910 
   86.2500  -999.2500   -26.9800  -999.2500    79.3900    23.1690    19.5850    10.6090    13.5170 
   86.3750  -999.2500   -26.9500  -999.2500    79.2050    23.0540    11.7210     8.9780    10.7280 
   86.5000  -999.2500   -27.0170  -999.2500    76.7180    22.9170     7.9380     7.4750     8.5160 
   86.6250  -999.2500   -27.1590  -999.2500    77.4980    22.8820     7.1370     6.4960     7.4440 
   86.7500  -999.2500   -27.2730  -999.2500    84.2730    22.9170     6.9000     5.9660     7.1660 
   86.8750  -999.2500   -27.3460  -999.2500    91.9880    22.9930     6.7690     5.7700     7.3330 
   87.0000  -999.2500   -27.3890  -999.2500    98.0340    23.0630     6.6770     5.7570     7.5920 
   87.1250  -999.2500   -27.3920  -999.2500   103.1980    23.0650     6.5830     5.7930     7.6790 
   87.2500  -999.2500   -27.3740  -999.2500   105.6560    23.0550     6.4220     5.8090     7.6190 
   87.3750  -999.2500   -27.3600  -999.2500   103.3740    23.1260     6.2460     5.8250     7.5390 
   87.5000  -999.2500   -27.3890  -999.2500    98.6740    23.2830     6.3340     5.8720     7.5380 
   87.6250  -999.2500   -27.5030  -999.2500    96.6650    23.2540     6.7120     5.9730     7.6530 
   87.7500  -999.2500   -27.7060  -999.2500    95.6870    23.0610     7.0860     6.1090     7.8220 
   87.8750  -999.2500   -27.9910  -999.2500    95.3610    22.8600     7.1750     6.2520     7.9950 
   88.0000  -999.2500   -28.3470  -999.2500    94.9860    22.7750     7.0310     6.3730     8.1390 
   88.1250  -999.2500   -28.7420  -999.2500    92.6140    22.7090     6.9220     6.4470     8.2410 
   88.2500  -999.2500   -29.1180  -999.2500    87.6360    22.5800     7.0000     6.4840     8.3190 
   88.3750  -999.2500   -29.4580  -999.2500    83.9750    22.4220     7.1550     6.4950     8.3800 
   88.5000  -999.2500   -29.7440  -999.2500    83.3590    22.3350     7.2820     6.4890     8.4180 
   88.6250  -999.2500   -29.9480  -999.2500    81.0830    22.3210     7.3330     6.4620     8.4120 
   88.7500  -999.2500   -30.1100  -999.2500    76.4140    22.3350     7.3180     6.4200     8.3760 
   88.8750  -999.2500   -30.2440  -999.2500    73.9150    22.3480     7.2740     6.3770     8.3350 
   89.0000  -999.2500   -30.3290  -999.2500    77.5440    22.3320     7.2380     6.3480     8.3270 
   89.1250  -999.2500   -30.3510  -999.2500    82.1140    22.3200     7.2570     6.3560     8.3920 
   89.2500  -999.2500   -30.3140  -999.2500    84.2460    22.3140     7.3100     6.4100     8.5390 
   89.3750  -999.2500   -30.2220  -999.2500    84.0770    22.3140     7.3710     6.5190     8.7740 
   89.5000  -999.2500   -30.1100  -999.2500    82.3670    22.3140     7.4120     6.6790     9.0770 
   89.6250  -999.2500   -30.0140  -999.2500    80.5550    22.3090     7.4040     6.8580     9.3780 
   89.7500  -999.2500   -29.9170  -999.2500    79.2170    22.2660     7.3510     6.9940     9.5700 
   89.8750  -999.2500   -29.7800  -999.2500    79.1940    22.1630     7.2950     7.0350     9.5690 
