~V
VERS. 2.00: Ver 2.00
~W
STRT.M 60.0000:
STOP.M 270.0000:
STEP.M 0.1250:
NULL. -999.2500:
UWI. DF3075:
~C
DEPT.M :
GR.API :
RML.OHMM :
RI. :
RXO.OHMM :
CALI.CM :
DEN.GM/CC :
SP.MV :
~A
# ...
  240.0000    95.9910   123.3630   102.0300   100.7930    23.8530     2.4660   -15.4040 
  240.1250    94.2760   118.1110    98.3800    97.0220    23.8240     2.4400   -15.8300 
  240.2500    88.1570   110.5130    92.4880    97.3860    23.8090     2.4300   -16.2130 
  240.3750    81.1180   101.9920    85.3870    94.3560    23.7910     2.4300   -16.5040 
  240.5000    76.2910    93.8740    78.1780    82.1380    23.7680     2.4300   -16.7350 
  240.6250    75.2320    87.4760    72.1140    71.3140    23.7580     2.4240   -16.7860 
  240.7500    76.3100    83.1240    67.7080    63.5470    23.7680     2.4180   -16.7770 
  240.8750    77.6270    81.0820    65.3480    59.1310    23.8490     2.4210   -16.6810 
  241.0000    77.0260    81.6540    65.3820    55.7640    24.0580     2.4400   -16.5090 
  241.1250    76.2980    85.7000    68.5670    50.5490    24.3500     2.4720   -16.2720 
  241.2500    77.1290    92.7520    74.4520    48.9830    24.6860     2.5070   -16.0360 
  241.3750    78.9560   102.1770    82.4320    57.3960    24.8550     2.5360   -15.8360 
  241.5000    80.8870   112.4220    91.2190    75.9550    24.5290     2.5590   -15.6420 
  241.6250    81.1280   120.4910    98.5330    97.0730    24.0470     2.5770   -15.5280 
  241.7500    79.8910   124.0830   102.6410   118.4580    23.8180     2.5890   -15.4250 
  241.8750    78.2790   122.0580   102.6040   153.4000    23.7680     2.5950   -15.3920 
  242.0000    76.9240   114.6290    98.2410   189.5900    23.7600     2.5920   -15.4040 
  242.1250    74.4720   102.5200    89.4980   159.8300    23.7560     2.5810   -15.5400 
  242.2500    69.5860    88.4220    78.2410    98.3320    23.7670     2.5680   -15.7180 
  242.3750    64.9310    73.8920    65.8400    65.4540    23.7980     2.5640   -15.9790 
  242.5000    64.7050    59.9140    53.4290    63.0320    23.8490     2.5680   -16.2950 
  242.6250    70.2040    47.0160    42.0530    79.3250    23.8680     2.5720   -16.7090 
  242.7500    78.2450    35.7430    32.1740    87.3350    23.8040     2.5550   -17.1340 
  242.8750    87.1310    26.3780    24.1370    53.5610    23.6560     2.5120   -17.5880 
  243.0000    95.7920    19.1260    18.0640    22.5600    23.4560     2.4490   -18.0280 
  243.1250   102.1070    15.2840    14.1120    13.2520    23.3080     2.3810   -18.4370 
  243.2500   102.1090    12.8030    11.6030     9.4900    23.3080     2.3280   -18.8430 
  243.3750    96.2980    11.3720    10.1720     8.1350    23.4280     2.2930   -19.2170 
  243.5000    89.5530    10.7320     9.5320     8.0790    23.5710     2.2770   -19.5970 
  243.6250    88.1120    10.6700     9.4700     9.1110    23.5450     2.2770   -19.8630 
  243.7500    89.7920    10.8440     9.6440    10.0870    23.4980     2.2850   -20.1220 
  243.8750    89.5940    11.0640     9.8640    10.2380    23.5580     2.2960   -20.3080 
  244.0000    88.3230    11.1950     9.9950     9.5370    23.7350     2.3080   -20.5250 
  244.1250    91.0450    11.1820     9.9820     9.0050    23.8180     2.3210   -20.7140 
  244.2500    95.4860    11.0930     9.8930     8.7400    23.8360     2.3320   -20.9120 
  244.3750    95.7060    10.9910     9.7910     8.5980    23.8320     2.3370   -21.1060 
  244.5000    91.5010    10.9320     9.7320     8.6710    23.8310     2.3340   -21.2820 
  244.6250    91.3000    10.9780     9.7780     8.9990    23.8310     2.3220   -21.4940 
  244.7500    95.1110    11.1230     9.9230     9.6090    23.8290     2.3050   -21.6840 
  244.8750    98.3530    11.3420    10.1420    10.1040    23.8160     2.2880   -21.8890 
  245.0000    99.9170    11.5820    10.3820    10.3030    23.7870     2.2750   -22.0510 
  245.1250    99.9290    11.7740    10.5740    10.1200    23.7060     2.2710   -22.1730 
  245.2500    98.4420    11.8770    10.6770     9.8960    23.5670     2.2760   -22.2220 
  245.3750    95.5480    11.8720    10.6720     9.6380    23.3700     2.2860   -22.2110 
  245.5000    92.8270    11.7540    10.5540     9.5910    23.1110     2.2950   -22.1300 
  245.6250    88.7440    11.5130    10.3130     9.3800    22.8010     2.2970   -22.0630 
  245.7500    83.0760    11.2230    10.0230     9.0980    22.5140     2.2880   -21.9960 
  245.8750    79.5960    10.9410     9.7410     8.9050    22.2820     2.2770   -21.9470 
  246.0000    79.9080    10.7160     9.5160     8.9020    22.1180     2.2710   -21.8980 
  246.1250    81.4350    10.6230     9.4230     8.9540    22.0750     2.2750   -21.8900 
  246.2500    80.1160    10.6480     9.4480     9.1390    22.1780     2.2900   -21.8920 
  246.3750    76.0960    10.7600     9.5600     9.4170    22.4330     2.3070   -21.8890 
  246.5000    70.8280    10.9180     9.7180     9.7410    22.7320     2.3200   -21.8920 
  246.6250    67.1390    11.0520     9.8520    10.0740    22.9900     2.3260   -21.7620 
  246.7500    64.7960    11.1000     9.9000    10.5900    23.2080     2.3300   -21.5690 
  246.8750    61.4980    11.0430     9.8430    10.9580    23.3510     2.3330   -21.2330 
  247.0000    57.6580    10.9110     9.7110    10.5790    23.4090     2.3340   -20.7690 
  247.1250    56.6480    10.7730     9.5730     9.7110    23.4250     2.3330   -20.0580 
  247.2500    59.4940    10.6720     9.4720     9.2730    23.4430     2.3320   -19.1940 
  247.3750    62.5590    10.6270     9.4270     9.2310    23.4720     2.3360   -18.2210 
  247.5000    63.1180    10.6260     9.4260     9.5480    23.5130     2.3500   -17.2170 
  247.6250    61.9190    10.6040     9.4040    11.5500    23.5550     2.3720   -16.2190 
  247.7500    60.7210    10.5220     9.3220    13.2840    23.5810     2.3910   -15.2820 
  247.8750    61.5330    10.3580     9.1580    11.2000    23.5870     2.3970   -14.4600 
  248.0000    64.6200    10.1250     8.9250     8.8670    23.5860     2.3880   -13.7740 
  248.1250    67.9450     9.8620     8.6620     8.1890    23.5860     2.3700   -13.3210 
  248.2500    68.7030     9.6410     8.4410     8.5160    23.5860     2.3530   -13.0210 
  248.3750    67.7870     9.5050     8.3050     8.3230    23.5860     2.3450   -12.8300 
  248.5000    67.7650     9.4700     8.2700     8.0460    23.5860     2.3480   -12.6880 
  248.6250    67.6440     9.5330     8.3330     7.9560    23.5860     2.3560   -12.6410 
  248.7500    67.6370     9.6430     8.4430     7.9880    23.5860     2.3640   -12.6120 
  248.8750    68.7100     9.7510     8.5510     7.8850    23.5850     2.3690   -12.6100 
  249.0000    70.2740     9.8230     8.6230     7.9350    23.5840     2.3710   -12.5960 
  249.1250    71.9840     9.8460     8.6460     8.1130    23.5820     2.3750   -12.5670 
  249.2500    72.4880     9.8300     8.6300     8.3950    23.5820     2.3840   -12.5510 
  249.3750    72.0380     9.7840     8.5840     8.7720    23.5830     2.3940   -12.5200 
  249.5000    71.0790     9.7190     8.5190     9.2480    23.5800     2.4030   -12.5540 
  249.6250    70.2110     9.6350     8.4350     9.8330    23.5650     2.4070   -12.6270 
  249.7500    70.3080     9.5470     8.3470    10.0380    23.5380     2.4070   -12.7000 
  249.8750    71.0700     9.4640     8.2640     9.6710    23.5010     2.4050   -12.7640 
  250.0000    73.4080     9.3900     8.1900     9.2440    23.4610     2.4050   -12.8410 
  250.1250    74.1560     9.3370     8.1370     8.8380    23.4550     2.4060   -12.9050 
  250.2500    72.2470     9.2930     8.0930     8.6790    23.4720     2.4020   -12.9440 
  250.3750    70.2870     9.2580     8.0580     8.3650    23.5050     2.3930   -12.9930 
  250.5000    69.6050     9.2280     8.0280     7.7390    23.5410     2.3810   -12.9750 
  250.6250    69.1810     9.1850     7.9850     7.6850    23.5680     2.3700   -12.9090 
  250.7500    67.9210     9.1330     7.9330     7.6630    23.5820     2.3670   -12.8650 
  250.8750    66.9660     9.0730     7.8730     7.5260    23.5870     2.3700   -12.8440 
  251.0000    66.8220     9.0100     7.8100     7.3160    23.5880     2.3760   -12.8160 
  251.1250    67.2690     8.9620     7.7620     7.5920    23.5860     2.3790   -12.7890 
