~V
VERS. 2.00: Ver 2.00
~W
STRT.M 65.0000:
STOP.M 273.0000:
STEP.M 0.1250:
NULL. -999.2500:
UWI. DF3011:
~C
DEPT.M :
DEN.GM/CC :
GR.API :
RML.OHMM :
RI. :
RXO.OHMM :
CALI.CM :
AC.US/MT :
SP.MV :
~A
# ...
  135.0000  -999.2500    95.0270     5.4780     4.8220     5.2750    24.7430   411.9540    -3.9980 
  135.1250  -999.2500    99.4110     5.4320     4.7230     5.2570    24.7350   414.9030    -3.9200 
  135.2500  -999.2500   102.7430     5.4090     4.6600     5.3890    24.6100   416.2060    -3.8060 
  135.3750  -999.2500   104.3880     5.3720     4.6150     5.5450    24.4310   415.7700    -3.7230 
  135.5000  -999.2500   103.8730     5.2990     4.5670     5.6200    24.2410   414.4870    -3.7230 
  135.6250  -999.2500   105.9110     5.1970     4.5090     5.4710    24.3310   413.7550    -3.8300 
  135.7500  -999.2500   112.6660     5.1220     4.4600     5.1700    24.7500   414.2360    -4.0190 
  135.8750  -999.2500   119.4050     5.1140     4.4410     4.9050    25.1650   415.5150    -4.2310 
  136.0000  -999.2500   118.5260     5.1730     4.4600     4.8760    24.8250   416.7030    -4.4070 
  136.1250  -999.2500   109.5560     5.2630     4.5000     5.0980    24.4010   417.0750    -4.5700 
  136.2500  -999.2500   102.7360     5.3310     4.5340     5.2980    24.3010   417.1470    -4.7360 
  136.3750  -999.2500   101.8810     5.3710     4.5580     5.3740    24.5240   417.4990    -4.8480 
  136.5000  -999.2500   104.5810     5.4200     4.5930     5.3870    24.9260   417.9750    -4.8770 
  136.6250  -999.2500   106.6490     5.5490     4.6870     5.3360    25.2890   417.6800    -4.8100 
  136.7500  -999.2500   104.8700     5.7710     4.8480     5.3730    25.4680   416.2720    -4.6750 
  136.8750  -999.2500   100.3590     6.0350     5.0450     5.5910    25.4940   413.3910    -4.5320 
  137.0000     0.0000    97.1070     6.2420     5.2110     5.8970    25.4510   408.7280    -4.4190 
  137.1250     0.0000    97.0760     6.2310     5.2340     6.0580    25.3750   403.0080    -4.3240 
  137.2500     0.0000    98.6510     5.9730     5.0820     5.9110    25.2960   397.4450    -4.2110 
  137.3750     1.6870   102.1330     5.5190     4.7710     5.5360    25.3860   394.4040    -4.0890 
  137.5000     2.2590   105.3420     4.9980     4.3740     5.0590    26.0810   399.6490    -3.9860 
  137.6250     2.2740   105.7220     4.5870     4.0090     4.6620    27.9030   415.9020    -3.9660 
  137.7500     2.2920   107.1560     4.3830     3.7650     4.4090    29.6000   431.8890    -3.9950 
  137.8750     2.3170   112.0220     4.4160     3.6870     4.3570    30.1410   438.3530    -4.0470 
  138.0000     2.3470   115.8100     4.6680     3.7800     4.4700    29.8270   434.7680    -4.1380 
  138.1250     2.3750   113.7370     5.0890     4.0360     4.7360    28.4890   425.5110    -4.2920 
  138.2500     2.3910   109.6100     5.5460     4.3690     5.1010    26.8340   413.5360    -4.5070 
  138.3750     2.3850   105.1650     5.9320     4.7110     5.4860    25.5930   401.3770    -4.7910 
  138.5000     2.3610   100.8820     6.1720     5.0040     5.8390    25.1460   393.5540    -5.0960 
  138.6250     2.3270    99.0900     6.2300     5.1990     6.0500    25.1550   394.1350    -5.3530 
  138.7500     2.2950    99.9970     6.2030     5.3240     6.2750    25.1270   399.3540    -5.6030 
  138.8750     2.2720   100.9220     6.1850     5.4160     6.5470    25.0450   404.6190    -5.8670 
  139.0000     2.2580    98.6380     6.2430     5.5130     6.8130    24.9640   407.7620    -6.1220 
  139.1250     2.2450    92.8690     6.3960     5.6350     7.0350    24.8330   409.9700    -6.2900 
  139.2500     2.2320    88.7750     6.5920     5.7750     7.2290    24.6470   413.4560    -6.3140 
  139.3750     2.2200    87.2850     6.8140     5.9370     7.5810    24.4870   417.2590    -6.2010 
  139.5000     2.2190    88.1870     7.0670     6.1340     7.7690    24.4730   418.3320    -6.0000 
  139.6250     2.2410    91.6690     7.3410     6.3580     7.6950    24.6040   413.1870    -5.7530 
  139.7500     2.2850    94.5830     7.5640     6.5500     7.5970    24.6190   400.5080    -5.4260 
  139.8750     2.3370    91.9500     7.6310     6.6320     7.9180    24.4480   379.7630    -4.9900 
  140.0000     2.3770    84.9380     7.4560     6.5460     8.6340    24.2070   356.7080    -4.4920 
  140.1250     2.3870    83.3600     6.9900     6.2850     8.6130    24.1070   345.4830    -4.0480 
  140.2500     2.3770    87.3610     6.5260     6.0130     7.2180    24.1000   350.1410    -3.7480 
  140.3750     2.3650    90.5820     6.3570     5.9300     6.3400    24.0630   361.8710    -3.5840 
  140.5000     2.3670    89.8250     6.9160     6.2610     6.8040    23.9580   366.3260    -3.4850 
  140.6250     2.3950    87.7180     8.5110     7.3250     8.5360    23.8800   351.6010    -3.3920 
  140.7500     2.4370    82.1270    11.1940     9.1100    11.2320    23.8720   323.6590    -3.3020 
  140.8750     2.4810    70.3420    14.6170    11.5030    14.6990    23.9660   292.0880    -3.2530 
  141.0000     2.5180    55.6410    17.7650    14.1810    18.4250    24.2570   263.9400    -3.2470 
  141.1250     2.5370    47.1370    20.0660    16.5530    20.7920    24.7190   244.1380    -3.2330 
  141.2500     2.5420    46.2100    21.2560    18.1850    21.7110    25.1380   233.9120    -3.1770 
  141.3750     2.5390    48.4010    21.4400    18.9620    21.8210    25.3640   232.5000    -3.0930 
  141.5000     2.5330    48.6430    21.0850    19.0710    21.4020    25.4330   235.9040    -3.0270 
  141.6250     2.5290    45.2010    20.6890    18.8310    20.9740    25.4390   239.2360    -2.9750 
  141.7500     2.5280    42.9320    20.4650    18.5790    20.0650    25.4310   242.0540    -2.9300 
  141.8750     2.5280    43.6790    20.4110    18.4380    19.2580    25.4110   245.0540    -2.8790 
  142.0000     2.5310    44.1310    20.4910    18.4540    19.1930    25.3230   247.7760    -2.8020 
  142.1250     2.5370    42.9130    20.7160    18.6630    19.3450    25.0940   248.7440    -2.7420 
  142.2500     2.5440    43.1510    21.0680    19.0080    19.7750    24.7990   247.9740    -2.7860 
  142.3750     2.5510    45.3280    21.5170    19.4390    20.0800    24.5870   246.4300    -2.9270 
  142.5000     2.5550    47.7700    21.9890    19.8910    20.3790    24.6460   244.8520    -3.1310 
  142.6250     2.5540    49.3830    22.3670    20.2880    20.6980    24.8840   243.1300    -3.3870 
  142.7500     2.5510    50.0490    22.6000    20.6000    20.9550    24.9340   240.9990    -3.6620 
  142.8750     2.5470    49.3470    22.6860    20.8180    21.0740    25.0400   237.9250    -3.9460 
  143.0000     2.5470    48.7830    22.6400    20.9330    21.3560    25.2210   236.0080    -4.2480 
  143.1250     2.5480    51.7970    22.4440    20.9020    21.1190    25.4000   239.0340    -4.5140 
  143.2500     2.5470    56.5410    22.1050    20.7160    21.0440    25.4380   244.8820    -4.6720 
  143.3750     2.5410    60.3260    21.6110    20.3650    20.9970    25.4210   249.0330    -4.7260 
  143.5000     2.5300    61.2180    20.9770    19.8590    20.5710    25.3840   249.6270    -4.7060 
  143.6250     2.5180    59.0000    20.2500    19.2280    19.7350    25.3110   249.3450    -4.6340 
  143.7500     2.5110    55.6870    19.5130    18.5530    19.1720    25.2630   250.1520    -4.5530 
  143.8750     2.5080    54.0030    18.8220    17.8940    18.9250    25.3440   251.7410    -4.4720 
  144.0000     2.5060    56.3620    18.2230    17.3030    18.7150    25.4340   254.1930    -4.3700 
  144.1250     2.5050    60.7540    17.7960    16.8540    18.0500    25.4540   257.6980    -4.2330 
  144.2500     2.5030    63.2410    17.5750    16.5750    17.1780    25.4010   261.4410    -4.1050 
  144.3750     2.5050    61.6110    17.6040    16.5040    16.6750    25.2380   264.2010    -4.0130 
  144.5000     2.5080    57.2060    17.8870    16.6580    16.6910    24.9750   264.9180    -3.9670 
  144.6250     2.5100    53.5330    18.3610    17.0190    16.8210    24.7810   263.5520    -3.9750 
  144.7500     2.5070    53.9600    18.7870    17.4140    16.5750    24.6950   261.6560    -4.0220 
  144.8750     2.4990    57.4870    18.9240    17.6450    16.4950    24.6160   260.4040    -4.0920 
