~V
VERS. 2.00: Ver 2.00
~W
STRT.M 56.0000:
STOP.M 270.0000:
STEP.M 0.1250:
NULL. -999.2500:
UWI. DF3053:
~C
DEPT.M :
GR.API :
CALI.CM :
RXO.OHMM :
RI. :
RML.OHMM :
DEN.GM/CC :
SP.MV :
~A
   56.0000    47.1330    25.4790     4.6510     0.7710 562221.3130  -999.2500  -999.2500 
   56.1250    49.5560    25.5330     1.2910     0.7600 562221.3130  -999.2500  -999.2500 
   56.2500    50.4680    25.5770     1.3220     0.7490 562221.3130  -999.2500  -999.2500 
   56.3750    49.2250    25.5850     1.2970     0.7390 562221.3130  -999.2500  -999.2500 
   56.5000    47.0970    25.5780     1.1400     0.7350 562221.3130  -999.2500  -999.2500 
   56.6250    44.0950    25.5790     1.3640     0.7410 562221.3130  -999.2500  -999.2500 
   56.7500    40.6270    25.5820     1.3910     0.7540 562221.3130  -999.2500  -999.2500 
   56.8750    39.6390    25.5830     1.2300     0.7710 562221.3130  -999.2500  -999.2500 
   57.0000    41.3870    25.5830     1.1920     0.7860 562221.3130  -999.2500  -999.2500 
   57.1250    42.8910    25.5850     1.0660     0.7970 562221.3130  -999.2500  -999.2500 
   57.2500    42.8060    25.5870     0.9960     0.8030 562221.3130  -999.2500  -999.2500 
   57.3750    41.9690    25.5880     1.0360     0.8080 562221.3130  -999.2500  -999.2500 
   57.5000    40.6070    25.5910     1.0580     0.8100 562221.3130  -999.2500  -999.2500 
   57.6250    38.0950    25.5950     1.0380     0.8070 562221.3130  -999.2500  -999.2500 
   57.7500    37.1270    25.5910     1.0340     0.7950 562221.3130  -999.2500  -999.2500 
   57.8750    39.0700    25.5810     1.0860     0.7770 562221.3130  -999.2500  -999.2500 
   58.0000    41.2050    25.5760     1.1420     0.7610 562221.3130  -999.2500  -999.2500 
   58.1250    40.4030    25.5910     1.1750     0.7520 562221.3130  -999.2500  -999.2500 
   58.2500    38.3050    25.5810     1.1840     0.7520 562221.3130  -999.2500  -999.2500 
   58.3750    37.5660    25.4170     1.2010     0.7620 562221.3130  -999.2500  -999.2500 
   58.5000    38.1980    25.1040     1.2660     0.7800 562221.3130  -999.2500  -999.2500 
   58.6250    37.9760    24.9460     1.3840     0.7950 562221.3130  -999.2500  -999.2500 
   58.7500    37.0550    25.0760     1.3830     0.8010 562221.3130  -999.2500  -999.2500 
   58.8750    36.8790    25.3010     1.2670     0.7970 562221.3130  -999.2500  -999.2500 
   59.0000    37.2070    25.3950     1.2620     0.7830 562221.3130  -999.2500  -999.2500 
   59.1250    37.6080    25.3850     1.2580     0.7700 562221.3130  -999.2500  -999.2500 
   59.2500    38.4710    25.4250     1.2760     0.7630 562221.3130  -999.2500  -999.2500 
   59.3750    39.8590    25.5040     1.2750     0.7630 562221.3130  -999.2500  -999.2500 
   59.5000    40.6520    25.5750     1.3320     0.7670 562221.3130  -999.2500  -999.2500 
   59.6250    39.3160    25.5940     1.4130     0.7690 562221.3130  -999.2500  -999.2500 
   59.7500    38.1340    25.5810     1.4590     0.7680 562221.3130  -999.2500  -999.2500 
   59.8750    38.2200    25.5560     1.4980     0.7650 562221.3130  -999.2500  -999.2500 
   60.0000    39.8950    25.5190     1.5270     0.7620 562221.3130  -999.2500  -999.2500 
   60.1250    42.7510    25.4710     1.5940     0.7630 562221.3130  -999.2500  -999.2500 
   60.2500    44.7830    25.4380     1.8710     0.7640 562221.3130  -999.2500  -999.2500 
   60.3750    44.9500    25.3880     2.5990     0.7630 562221.3130  -999.2500  -999.2500 
   60.5000    43.4480    25.2100     3.0850     0.7590 562221.3130  -999.2500  -999.2500 
   60.6250    42.5720    24.9910     3.1650     0.7570 562221.3130  -999.2500  -999.2500 
   60.7500    43.5910    25.0130     2.6380     0.7630 562221.3130  -999.2500  -999.2500 
   60.8750    45.5520    25.2830     2.1630     0.7760 562221.3130  -999.2500  -999.2500 
   61.0000    46.5120    25.5390     1.9180     0.7920 562221.3130  -999.2500  -999.2500 
   61.1250    45.3000    25.5760     1.8180     0.8020 562221.3130  -999.2500  -999.2500 
   61.2500    43.2570    25.5390     1.7170     0.8030 562221.3130  -999.2500  -999.2500 
   61.3750    41.4020    25.5060     1.5740     0.7950 562221.3130  -999.2500  -999.2500 
   61.5000    40.3250    25.4680     1.2180     0.7810 562221.3130  -999.2500  -999.2500 
   61.6250    40.9290    25.4380     1.4790     0.7660 562221.3130  -999.2500  -999.2500 
   61.7500    42.0000    25.4060     1.5940     0.7570 562221.3130  -999.2500  -999.2500 
   61.8750    42.5410    25.3580     1.5840     0.7580 562221.3130  -999.2500  -999.2500 
   62.0000    42.8110    25.3000     1.6210     0.7690 562221.3130  -999.2500  -999.2500 
   62.1250    42.7880    25.2710     1.6760     0.7790 562221.3130  -999.2500  -999.2500 
   62.2500    41.5430    25.2570     1.5860     0.7780 562221.3130  -999.2500  -999.2500 
   62.3750    38.9650    25.2110     1.4320     0.7670 562221.3130  -999.2500  -999.2500 
   62.5000    37.4700    25.1210     1.3190     0.7550 562221.3130  -999.2500  -999.2500 
   62.6250    38.4560    25.0490     1.2390     0.7540 562221.3130  -999.2500  -999.2500 
   62.7500    40.4240    25.0630     1.2080     0.7620 562221.3130  -999.2500  -999.2500 
   62.8750    41.5370    25.1500     1.2060     0.7730 562221.3130  -999.2500  -999.2500 
   63.0000    41.0320    25.2350     1.2080     0.7820 562221.3130  -999.2500  -999.2500 
   63.1250    39.8010    25.2620     1.1370     0.7820 562221.3130  -999.2500  -999.2500 
   63.2500    39.2010    25.2570     1.0230     0.7770 562221.3130  -999.2500  -999.2500 
   63.3750    39.4940    25.2660     0.9770     0.7680 562221.3130  -999.2500  -999.2500 
   63.5000    39.9350    25.3230     1.0760     0.7590 562221.3130  -999.2500  -999.2500 
   63.6250    39.5760    25.4190     1.3110     0.7500 562221.3130  -999.2500  -999.2500 
   63.7500    39.6210    25.4630     1.3780     0.7460 562221.3130  -999.2500  -999.2500 
   63.8750    40.4670    25.4140     1.4550     0.7480 562221.3130  -999.2500  -999.2500 
   64.0000    41.9790    25.3200     1.4990     0.7510 562221.3130  -999.2500  -999.2500 
   64.1250    43.3870    25.2740     1.5120     0.7550 562221.3130  -999.2500  -999.2500 
   64.2500    44.2330    25.2530     1.5050     0.7580 562221.3130  -999.2500  -999.2500 
   64.3750    44.5880    25.2310     1.5730     0.7630 562221.3130  -999.2500  -999.2500 
   64.5000    44.5830    25.2630     1.5780     0.7760 562221.3130  -999.2500  -999.2500 
   64.6250    42.9090    25.3950     1.6320     0.7990 562221.3130  -999.2500  -999.2500 
   64.7500    40.3950    25.5290     1.7760     0.8200 562221.3130  -999.2500  -999.2500 
   64.8750    38.7320    25.5880     1.9580     0.8250 562221.3130  -999.2500  -999.2500 
   65.0000    39.4950    25.5800     2.0620     0.8110 562221.3130  -999.2500    21.2850 
   65.1250    41.7110    25.5390     2.0980     0.7870 562221.3130  -999.2500    21.2850 
   65.2500    42.6550    25.4840     2.1050     0.7730 562221.3130  -999.2500    21.6700 
   65.3750    42.1850    25.4410     2.0610     0.7790 562221.3130  -999.2500    22.7330 
   65.5000    41.0690    25.4270     1.9500     0.8020 562221.3130  -999.2500    24.0400 
   65.6250    40.6120    25.4130     1.8260     0.8290 562221.3130  -999.2500    25.6220 
   65.7500    40.8340    25.1690     1.7640     0.8420 562221.3130  -999.2500    27.2910 
   65.8750    41.1430    24.4580     1.7220     0.8410 562221.3130  -999.2500    28.8390 
   66.0000    41.7020    23.4270     1.7030     0.8270 562221.3130  -999.2500    30.0640 
   66.1250    41.9530    22.7050     1.8070     0.8100 562221.3130  -999.2500    30.7900 
   66.2500    40.9980    22.5480     1.9740     0.7970 562221.3130  -999.2500    31.1510 
   66.3750    38.9130    22.7620     2.1570     0.7890 562221.3130  -999.2500    31.3090 
   66.5000    37.1550    23.1670     2.2580     0.7870 562221.3130  -999.2500    31.4410 
   66.6250    38.4590    23.7610     1.9990     0.7900 562221.3130  -999.2500    31.6380 
   66.7500    40.6590    24.1600     1.4580     0.7970 562221.3130  -999.2500    31.8290 
   66.8750    41.0110    23.9480     1.1360     0.8040 562221.3130  -999.2500    31.8910 
   67.0000    40.6400    23.2050     1.1710     0.8110 562221.3130  -999.2500    31.7010 
