~V
VERS. 2.00: Ver 2.00
~W
STRT.M 120.0000:
STOP.M 235.0000:
STEP.M 0.1250:
NULL. -999.2500:
UWI. DF3022:
~C
DEPT.M :
SP.MV :
GR.API :
CALI.CM :
RXO.OHMM :
RI. :
RML.OHMM :
DEN.GM/CC :
~A
# ...
  142.5000   -18.0020    49.1840    24.2030    15.3700    16.6520    18.8440     2.5060 
  142.6250   -17.9380    48.7950    24.2030    15.4190    17.1590    19.5370     2.5430 
  142.7500   -17.8840    48.1620    24.2030    15.4070    17.6800    20.2180     2.5770 
  142.8750   -17.8370    48.4610    24.2030    15.6470    18.0730    20.6990     2.6030 
  143.0000   -17.7890    47.3410    24.2030    16.0300    18.2280    20.8420     2.6170 
  143.1250   -17.7490    46.2080    24.2030    15.8740    18.0900    20.5800     2.6090 
  143.2500   -17.7050    47.9860    24.2030    15.2170    17.8070    20.1330     2.5850 
  143.3750   -17.6780    49.8780    24.2030    14.3950    17.5190    19.7100     2.5600 
  143.5000   -17.6670    48.4410    24.2030    13.9200    17.3420    19.4820     2.5480 
  143.6250   -17.6540    44.3340    24.2030    14.2340    17.3290    19.5380     2.5450 
  143.7500   -17.6750    42.5170    24.2030    14.9290    17.3800    19.7110     2.5390 
  143.8750   -17.7070    43.9870    24.2030    15.3860    17.3730    19.8130     2.5350 
  144.0000   -17.7360    47.3280    24.2050    15.1320    17.2170    19.6790     2.5390 
  144.1250   -17.7510    50.7390    24.2680    14.7560    16.8860    19.2550     2.5460 
  144.2500   -17.7510    51.5740    24.4630    14.7050    16.5020    18.7350     2.5410 
  144.3750   -17.7510    49.2440    24.7630    15.0800    16.1700    18.2900     2.5250 
  144.5000   -17.7430    45.9990    25.0030    15.6150    15.9590    18.0260     2.5090 
  144.6250   -17.7200    45.7860    25.0800    16.0980    15.9040    17.9740     2.5030 
  144.7500   -17.6710    48.7980    25.0930    16.3000    15.9380    18.0250     2.5020 
  144.8750   -17.5980    52.4140    25.0930    16.3190    15.9980    18.0890     2.5060 
  145.0000   -17.5140    54.4620    25.0930    16.5490    16.0170    18.0970     2.5140 
  145.1250   -17.4360    52.6460    25.0930    17.1410    15.9380    18.0060     2.5210 
  145.2500   -17.3470    49.6510    25.0930    17.4850    15.7610    17.8300     2.5190 
  145.3750   -17.2400    48.8110    25.0930    17.0750    15.4990    17.5730     2.5090 
  145.5000   -17.1260    49.8490    25.0930    16.2190    15.1800    17.2490     2.5020 
  145.6250   -17.0210    50.3150    25.0930    15.6840    14.8490    16.8850     2.5070 
  145.7500   -16.9230    49.2910    25.0930    15.5430    14.5700    16.5570     2.5190 
  145.8750   -16.8490    48.3340    25.0930    15.3040    14.4020    16.3410     2.5250 
  146.0000   -16.7900    48.4840    25.0930    14.9770    14.3840    16.2950     2.5250 
  146.1250   -16.7370    49.9610    25.0930    15.0990    14.5310    16.4440     2.5230 
  146.2500   -16.7020    51.2090    25.0930    15.7330    14.7580    16.6810     2.5250 
  146.3750   -16.6790    51.4950    25.0930    16.5810    14.9890    16.9090     2.5260 
  146.5000   -16.6760    52.5160    25.0930    16.9390    15.1530    17.0490     2.5260 
  146.6250   -16.6970    54.2350    25.0930    16.1390    15.1920    17.0430     2.5260 
  146.7500   -16.7250    53.6950    25.0930    15.0360    15.1390    16.9360     2.5280 
  146.8750   -16.7540    50.9120    25.0930    14.4990    15.0170    16.7530     2.5310 
  147.0000   -16.7900    48.3300    25.0930    14.7900    14.8020    16.4610     2.5320 
  147.1250   -16.8410    47.4040    25.0930    15.2710    14.3830    15.9250     2.5230 
  147.2500   -16.9120    47.1100    25.0930    15.0130    13.7270    15.1080     2.5060 
  147.3750   -16.9940    46.2270    25.0760    14.1580    12.8660    14.0580     2.4920 
  147.5000   -17.0800    45.0560    25.0090    13.2590    11.9260    12.9310     2.4920 
  147.6250   -17.1770    45.3490    24.8590    11.9050    11.1280    11.9940     2.5020 
  147.7500   -17.2780    46.4480    24.7380    10.7980    10.6310    11.4250     2.5050 
  147.8750   -17.3730    47.4850    24.6910    10.7030    10.5060    11.2980     2.5020 
  148.0000   -17.4760    47.8470    24.6770    11.3820    10.7440    11.5800     2.5010 
  148.1250   -17.5730    47.2700    24.6520    12.4130    11.2840    12.1560     2.5080 
  148.2500   -17.6820    45.8590    24.6180    13.6440    11.8990    12.7480     2.5140 
  148.3750   -17.8020    45.3330    24.6040    14.5720    12.4030    13.1410     2.5110 
  148.5000   -17.9180    45.1140    24.6020    14.2170    12.6600    13.2070     2.5020 
  148.6250   -18.0120    43.6150    24.6020    12.9380    12.6230    12.9410     2.4990 
  148.7500   -18.0980    43.2620    24.6020    12.0380    12.4270    12.5490     2.5080 
  148.8750   -18.1890    45.2230    24.6020    11.6800    12.1530    12.1530     2.5270 
  149.0000   -18.2690    46.8510    24.6020    11.4900    11.8560    11.8220     2.5430 
  149.1250   -18.3510    46.6240    24.6020    11.2890    11.5570    11.5860     2.5380 
  149.2500   -18.4140    46.9650    24.6020    11.0230    11.2440    11.3910     2.5200 
  149.3750   -18.4600    47.3090    24.6020    10.4380    10.9040    11.1940     2.4980 
  149.5000   -18.5060    46.2980    24.6020     9.8040    10.5360    10.9620     2.4750 
  149.6250   -18.5760    45.0530    24.6030     9.6570    10.1530    10.6860     2.4460 
  149.7500   -18.6770    45.2310    24.6130     9.7690     9.8340    10.4480     2.4150 
  149.8750   -18.8180    47.9910    24.6590     9.9790     9.7460    10.4480     2.3860 
  150.0000   -19.0160    52.9070    24.7720    10.5510    10.1370    11.0020     2.3580 
  150.1250   -19.2950    55.9910    24.9560    12.5250    11.5560    12.7530     2.3210 
  150.2500   -19.6340    54.4280    25.0980    17.1440    14.5830    16.1800     2.2740 
  150.3750   -20.0310    50.7180    25.1620    30.9360    20.4250    22.1910     2.2290 
  150.5000   -20.4880    47.9710    25.1770    60.8720    30.9240    32.2560     2.2020 
  150.6250   -20.9820    48.1450    25.1710   105.5460    49.5720    50.1000     2.2000 
  150.7500   -21.4720    50.1100    25.1680   148.9620    75.3710    76.9140     2.2110 
  150.8750   -21.9670    53.2410    25.1680   184.8300   103.4430   109.8440     2.2220 
  151.0000   -22.4480    56.7650    25.1680   201.0880   125.2690   137.5640     2.2270 
  151.1250   -22.8980    58.7450    25.1680   183.9220   133.5450   146.4880     2.2200 
  151.2500   -23.3090    58.6140    25.1680   157.7400   132.6800   143.2460     2.2070 
  151.3750   -23.6980    58.1950    25.1680   143.9130   126.7340   134.9000     2.1960 
  151.5000   -24.0640    58.7870    25.1680   142.4110   118.3430   124.8280     2.1950 
  151.6250   -24.4090    58.2920    25.1680   135.4900   109.1090   114.4960     2.2040 
  151.7500   -24.7470    56.6870    25.1680   117.0280    99.9330   104.4130     2.2130 
  151.8750   -25.0500    56.4340    25.1680    96.7000    90.8420    94.4440     2.2200 
  152.0000   -25.3300    57.9000    25.1680    86.8340    81.7160    84.4830     2.2310 
  152.1250   -25.5760    58.7690    25.1680    85.2940    72.8190    74.8770     2.2470 
  152.2500   -25.8070    58.7630    25.1680    80.2830    64.9040    66.3550     2.2570 
  152.3750   -26.0090    59.9290    25.1680    68.3990    58.8110    59.7260     2.2570 
  152.5000   -26.1760    63.1130    25.1680    55.0270    55.1010    55.5420     2.2510 
  152.6250   -26.3140    64.4930    25.1680    48.6750    54.3700    54.4370     2.2440 
  152.7500   -26.4240    61.7660    25.1680    51.4550    56.0240    55.8560     2.2330 
  152.8750   -26.5120    57.8590    25.1680    67.6200    59.6190    59.4240     2.2210 
  153.0000   -26.5650    57.4170    25.1680    89.6730    64.2740    64.3130     2.2160 
  153.1250   -26.5900    61.2730    25.1680    91.7060    68.2870    68.7740     2.2210 
  153.2500   -26.5920    65.8930    25.1680    79.0720    70.0830    70.9730     2.2310 
  153.3750   -26.5770    69.1940    25.1680    69.8870    68.9240    70.0010     2.2440 
  153.5000   -26.5500    70.7060    25.1680    65.2900    65.1640    66.2260     2.2580 
  153.6250   -26.4990    68.5700    25.1680    57.7300    60.0550    61.0670     2.2680 
