~V
VERS. 2.00: Ver 2.00
~W
STRT.M 105.0000:
STOP.M 269.0000:
STEP.M 0.1250:
NULL. -999.2500:
UWI. DF304:
~C
DEPT.M :
GR.API :
CALI.CM :
RXO.OHMM :
RI. :
RML.OHMM :
SP.MV :
DEN.GM/CC :
AC.US/MT :
~A
# ...
  165.0000    74.1170    24.0550    48.2810    49.4990    57.7020   -16.7810     2.3590   386.5360 
  165.1250    72.9610    24.0670    47.3010    51.4360    59.3770   -17.1260     2.3540   384.9930 
  165.2500    72.0200    24.1260    46.7870    53.0170    60.7650   -17.4000     2.3460   383.7820 
  165.3750    75.2730    24.2940    48.9320    55.2800    63.1240   -17.6240     2.3320   383.0470 
  165.5000    80.7220    24.5900    53.4860    59.0710    67.3690   -17.7880     2.3120   383.1630 
  165.6250    80.3820    24.9070    60.0070    65.5580    74.6460   -17.9220     2.2900   384.2290 
  165.7500    74.5230    25.0740    68.8320    75.1110    85.1290   -18.0410     2.2750   385.0780 
  165.8750    68.5240    25.1210    80.9480    88.3370    99.3020   -18.1410     2.2670   384.6280 
  166.0000    65.0120    25.1270    98.3090   105.3410   117.2880   -18.2270     2.2630   382.6850 
  166.1250    60.7660    25.1270   123.2490   124.7940   137.8810   -18.3120     2.2640   380.1650 
  166.2500    57.9210    25.1270   154.8630   142.1280   156.0070   -18.4040     2.2720   378.3450 
  166.3750    59.3600    25.1220   183.3980   152.6090   165.7630   -18.4810     2.2840   377.6810 
  166.5000    62.3070    25.1180   188.4050   153.4030   163.7650   -18.5440     2.2950   378.0130 
  166.6250    63.0740    25.1170   160.8740   144.5930   151.3080   -18.5880     2.3030   378.7070 
  166.7500    63.8870    25.1200   127.1710   131.9310   135.8800   -18.6290     2.3100   378.8890 
  166.8750    66.6320    25.1290   109.6970   118.9980   121.3640   -18.6840     2.3170   378.1960 
  167.0000    68.5330    25.1390   105.4690   108.1270   109.7530   -18.7510     2.3160   376.9790 
  167.1250    67.4380    25.1320    97.4560   101.5420   102.8600   -18.8220     2.3060   376.6190 
  167.2500    65.5360    25.1190    85.2780    99.9070   100.9500   -18.8950     2.2930   378.0680 
  167.3750    64.3330    25.1110    79.5060   104.5960   105.1070   -18.9820     2.2870   380.9530 
  167.5000    65.9970    25.1090    95.9110   117.4820   116.8630   -19.0930     2.2870   383.8710 
  167.6250    67.7310    25.1090   140.7990   141.7360   139.5620   -19.2100     2.2850   385.2570 
  167.7500    66.6000    25.1090   192.1800   173.8330   171.2710   -19.3370     2.2830   385.0470 
  167.8750    63.6380    25.1100   223.4790   206.3710   205.8640   -19.4540     2.2870   383.6900 
  168.0000    63.0780    25.1110   227.3180   227.9520   230.4670   -19.5810     2.2960   382.1030 
  168.1250    65.6910    25.1130   208.8400   228.3160   231.1710   -19.7260     2.2990   382.3560 
  168.2500    65.9200    25.1100   176.3030   216.9080   218.5370   -19.8710     2.2930   385.5340 
  168.3750    63.0460    25.1090   144.6190   205.1780   205.9330   -20.0020     2.2840   390.9380 
  168.5000    59.4340    25.1090   124.9170   201.4000   201.7560   -20.1240     2.2740   396.2050 
  168.6250    57.2190    25.1090   117.4000   210.3730   210.3540   -20.2460     2.2590   398.4700 
  168.7500    55.4340    25.1090   114.5980   228.0920   228.0250   -20.3620     2.2430   397.9520 
  168.8750    53.4010    25.1090   119.0700   247.6000   248.0870   -20.4550     2.2370   395.7590 
  169.0000    53.7440    25.1090   134.7430   257.2340   257.4830   -20.5140     2.2480   392.6840 
  169.1250    57.2280    25.1090   155.4350   241.6950   238.0490   -20.5300     2.2760   389.0280 
  169.2500    60.3600    25.1090   163.1980   206.3460   197.9240   -20.5420     2.3040   385.8360 
  169.3750    63.8300    25.1090   145.3400   164.0880   153.6480   -20.5490     2.3200   384.2640 
  169.5000    69.4120    25.1090   108.9070   127.0360   117.3760   -20.5390     2.3220   384.5780 
  169.6250    72.7320    25.1090    79.0070   102.3130    94.1660   -20.4960     2.3170   385.7100 
  169.7500    72.3350    25.1090    62.7250    87.4960    80.3270   -20.4350     2.3170   386.2050 
  169.8750    72.5180    25.1090    58.3840    80.3120    73.5540   -20.3830     2.3180   385.8160 
  170.0000    74.6920    25.1090    61.4950    78.5020    71.7930   -20.3370     2.3170   385.0570 
  170.1250    73.0820    25.1090    67.5710    80.2680    73.4080   -20.3150     2.3130   384.6290 
  170.2500    67.0520    25.1090    71.9820    83.0270    75.9730   -20.3040     2.3080   384.5280 
  170.3750    64.6540    25.1090    75.4560    85.3300    78.1350   -20.3210     2.3050   384.0310 
  170.5000    68.9000    25.1090    75.8230    86.4390    79.2480   -20.3680     2.3040   381.9670 
  170.6250    72.3240    25.1090    71.4580    86.6250    79.6700   -20.4500     2.3050   377.2720 
  170.7500    70.7800    25.1090    67.0950    87.3110    80.7800   -20.5360     2.3010   371.7210 
  170.8750    66.3400    25.1090    67.6720    89.7460    83.7950   -20.6390     2.2940   368.0780 
  171.0000    62.8780    25.1100    72.5920    94.8320    89.5960   -20.7580     2.2900   368.2850 
  171.1250    60.5050    25.1110    85.5050   103.3510    99.0420   -20.8880     2.2960   371.7790 
  171.2500    59.7390    25.1120   103.2430   114.0670   110.9980   -21.0080     2.3070   375.0550 
  171.3750    60.4090    25.1100   120.7550   125.4000   123.9480   -21.1110     2.3150   376.3790 
  171.5000    60.7470    25.1130   132.5090   135.5390   135.9270   -21.2100     2.3170   376.0700 
  171.6250    62.2080    25.1190   135.4660   143.0330   145.1040   -21.3060     2.3090   375.8950 
  171.7500    63.8620    25.1200   134.4020   148.8200   152.2390   -21.4110     2.2970   376.9830 
  171.8750    63.8710    25.0920   134.8320   154.4010   158.9180   -21.4930     2.2840   378.9550 
  172.0000    62.5160    25.0200   141.8620   161.2180   166.7720   -21.5640     2.2720   380.7960 
  172.1250    61.5990    24.8740   156.6450   169.8670   176.6080   -21.6170     2.2660   381.8410 
  172.2500    60.0900    24.7630   172.1470   178.5810   186.5910   -21.6670     2.2660   382.5120 
  172.3750    58.1700    24.7220   182.3350   184.9100   193.9050   -21.7080     2.2740   382.9830 
  172.5000    59.1870    24.7310   183.8610   186.3240   195.4690   -21.7220     2.2890   382.9300 
  172.6250    61.5830    24.7860   175.2470   180.2440   188.2070   -21.7210     2.3020   381.8120 
  172.7500    61.7590    24.8950   158.8930   168.4710   174.4990   -21.7100     2.3090   379.9380 
  172.8750    61.0940    25.0150   143.9840   153.0930   157.0740   -21.6900     2.3120   377.8760 
  173.0000    63.6800    25.1030   134.5490   136.4980   138.7560   -21.6610     2.3110   376.3880 
  173.1250    67.7420    25.1800   122.1870   121.2510   122.3050   -21.6210     2.3090   376.4090 
  173.2500    68.7560    25.2640   103.7210   108.7740   108.9870   -21.5820     2.3070   377.6520 
  173.3750    67.8860    25.3480    84.7760    99.5510    99.1890   -21.5510     2.3070   379.2260 
  173.5000    67.0520    25.4610    71.3430    93.3900    92.6610   -21.5390     2.3090   380.2380 
  173.6250    65.1940    25.5680    68.5230    90.0970    89.1740   -21.5410     2.3090   380.2520 
  173.7500    62.7250    25.6460    72.3690    88.4280    87.3860   -21.5540     2.3140   379.8090 
  173.8750    62.3200    25.6760    75.6340    87.4500    86.3090   -21.5910     2.3280   379.5050 
  174.0000    64.6530    25.6430    75.3920    86.3010    85.0620   -21.6490     2.3460   379.7920 
  174.1250    65.5800    25.5410    74.2990    84.5050    83.1910   -21.7110     2.3530   380.6420 
  174.2500    63.8970    25.4320    76.1310    82.4990    81.1850   -21.7740     2.3480   381.2900 
  174.3750    62.4810    25.3870    76.3160    80.9180    79.7350   -21.8270     2.3370   381.4330 
  174.5000    62.7800    25.3800    69.1720    80.3460    79.4700   -21.8750     2.3270   381.5670 
  174.6250    64.2300    25.3800    64.4940    81.1710    80.8450   -21.9200     2.3230   382.6140 
  174.7500    64.7560    25.3800    70.1120    82.5240    82.9430   -21.9570     2.3230   384.3280 
  174.8750    63.2560    25.3800    78.6140    83.1690    84.4140   -21.9750     2.3290   385.7000 
