~V
VERS. 2.00: Ver 2.00
~W
STRT.M 60.0000:
STOP.M 250.0000:
STEP.M 0.1250:
NULL. -999.2500:
UWI. DF3018:
~C
DEPT.M :
DEN.GM/CC :
GR.API :
RML.OHMM :
RI. :
RXO.OHMM :
CALI.CM :
SP.MV :
~A
# ...
  217.5000     2.2320    67.2150   108.3150    99.0500    89.5300    24.1700   -19.4210 
  217.6250     2.2570    67.7200   117.4950   108.5920    92.6370    24.2410   -19.0730 
  217.7500     2.3140    69.8760   117.4920   110.8070   103.5670    24.2080   -18.7710 
  217.8750     2.4010    71.2780   103.4060   100.8120   121.7770    24.0470   -18.5470 
  218.0000     2.4870    69.4040    76.9870    78.7760   131.7980    23.7900   -18.4200 
  218.1250     2.5410    67.3100    49.2670    52.4650   115.7600    23.5280   -18.5040 
  218.2500     2.5480    66.4570    29.6790    31.9260    61.8440    23.2970   -18.7740 
  218.3750     2.5230    66.8560    18.5020    19.4410    22.7820    23.1780   -19.2640 
  218.5000     2.5050    67.9920    13.0900    13.1590     9.8850    23.3290   -19.8910 
  218.6250     2.5060    69.8100    11.3800    10.8940     8.3350    23.6800   -20.7060 
  218.7500     2.5200    71.0530    11.2490    10.3150     9.3360    24.0050   -21.5450 
  218.8750     2.5250    71.5120    11.8420    10.6270    11.7940    24.1980   -22.4070 
  219.0000     2.5110    75.4500    12.5600    11.3080    14.0900    24.3020   -23.2050 
  219.1250     2.4830    83.3610    12.9410    11.9020    13.2660    24.3910   -23.9230 
  219.2500     2.4550    91.9240    12.9050    12.1670    11.9360    24.4620   -24.5300 
  219.3750     2.4370    99.8870    12.5420    12.0920    11.3660    24.5190   -25.0320 
  219.5000     2.4300   105.0920    12.0320    11.7970    10.7680    24.5640   -25.4450 
  219.6250     2.4300   106.7370    11.6140    11.4650    10.5820    24.6120   -25.7870 
  219.7500     2.4340   107.9070    11.4960    11.2980    10.6580    24.6260   -26.1380 
  219.8750     2.4350   111.8840    11.8660    11.4640    11.0550    24.6220   -26.5400 
  220.0000     2.4300   115.7220    12.8580    12.0950    11.7200    24.6070   -27.0080 
  220.1250     2.4180   114.6850    14.5470    13.2940    13.1660    24.6260   -27.5300 
  220.2500     2.4020   109.1880    16.5910    14.8250    15.3120    24.6320   -28.0520 
  220.3750     2.3870    99.6920    18.6550    16.4300    18.5270    24.6160   -28.5410 
  220.5000     2.3770    90.8170    20.4330    17.8400    23.3740    24.5730   -29.0280 
  220.6250     2.3750    90.2830    21.7470    18.8500    25.5860    24.5520   -29.5030 
  220.7500     2.3790    93.5260    22.8820    19.6420    25.0250    24.5460   -29.9740 
  220.8750     2.3840    92.5000    24.2130    20.5060    23.5650    24.5460   -30.4180 
  221.0000     2.3880    86.5890    26.0770    21.7360    23.7110    24.5460   -30.8650 
  221.1250     2.3880    82.1940    28.6710    23.5660    27.5080    24.5460   -31.2740 
  221.2500     2.3860    79.5740    31.6570    25.8000    32.2450    24.5460   -31.6860 
  221.3750     2.3820    77.8080    34.6470    28.1630    36.1560    24.5460   -32.0980 
  221.5000     2.3780    77.0530    37.2850    30.3510    39.1760    24.5460   -32.5010 
  221.6250     2.3740    78.2400    39.3650    32.1340    40.7550    24.5460   -32.8830 
  221.7500     2.3690    80.5030    41.1850    33.6740    41.6470    24.5460   -33.2550 
  221.8750     2.3620    82.3580    43.0690    35.2130    42.2970    24.5460   -33.6000 
  222.0000     2.3540    82.1710    45.2100    36.9390    43.0240    24.5460   -33.8870 
  222.1250     2.3470    80.1140    47.4920    38.8440    44.4910    24.5460   -34.1640 
  222.2500     2.3430    78.3920    49.5000    40.6490    47.7350    24.5460   -34.4120 
  222.3750     2.3440    77.5980    50.9290    42.1000    52.5840    24.5400   -34.6590 
  222.5000     2.3470    76.9450    51.7380    43.0840    56.3370    24.5220   -34.8690 
  222.6250     2.3520    77.3020    52.1610    43.6560    56.1770    24.4820   -35.1010 
  222.7500     2.3550    78.4690    52.6080    44.1080    52.1220    24.4320   -35.2870 
  222.8750     2.3540    79.0570    53.1880    44.5730    49.2460    24.3360   -35.4740 
  223.0000     2.3490    79.8270    53.7690    45.0380    51.6190    24.2370   -35.6380 
  223.1250     2.3420    79.8390    54.0860    45.3840    56.9640    24.1380   -35.7990 
  223.2500     2.3340    77.7950    54.1970    45.6550    57.8350    24.1240   -35.9310 
  223.3750     2.3280    74.8790    54.4810    46.1060    55.3950    24.1780   -36.0730 
  223.5000     2.3250    74.8210    55.5410    47.1700    52.2300    24.2860   -36.2180 
  223.6250     2.3250    79.1120    58.2350    49.5540    51.9800    24.3600   -36.3420 
  223.7500     2.3270    82.2560    62.5440    53.3140    55.3600    24.3870   -36.4320 
  223.8750     2.3280    80.8560    68.1060    58.2110    63.7600    24.3990   -36.4850 
  224.0000     2.3230    76.2290    74.0530    63.5430    72.2690    24.4210   -36.5110 
  224.1250     2.3140    72.6490    78.7680    67.9660    78.8900    24.4550   -36.4990 
  224.2500     2.3000    70.9640    80.9880    70.3750    82.7070    24.4750   -36.4560 
  224.3750     2.2890    70.7780    79.9860    70.1050    84.5570    24.4760   -36.3490 
  224.5000     2.2850    70.7020    75.9190    67.1780    84.5300    24.4050   -36.2300 
  224.6250     2.2890    70.5240    69.8420    62.2720    80.9680    24.3170   -36.0550 
  224.7500     2.2980    71.9410    64.0110    57.2180    73.9690    24.2360   -35.9040 
  224.8750     2.3060    74.7400    59.9880    53.3700    63.2960    24.2080   -35.7340 
  225.0000     2.3110    77.8200    58.7180    51.6690    54.9090    24.2040   -35.6200 
  225.1250     2.3140    78.8320    60.8190    52.8370    50.0880    24.1750   -35.4800 
  225.2500     2.3180    77.6850    65.1160    56.0370    51.8100    24.0690   -35.3640 
  225.3750     2.3220    75.3920    70.5120    60.4090    60.4260    23.8390   -35.2250 
  225.5000     2.3270    74.2920    75.8160    64.9490    74.1520    23.5170   -35.0520 
  225.6250     2.3300    75.9080    79.9530    68.6920    84.8750    23.2210   -34.8360 
  225.7500     2.3330    75.9670    83.0510    71.5610    88.7090    23.0870   -34.5790 
  225.8750     2.3340    73.6480    85.7090    73.9420    84.8960    23.1110   -34.2820 
  226.0000     2.3340    72.2820    88.5040    76.2980    82.6450    23.3140   -33.8930 
  226.1250     2.3320    73.9850    91.2670    78.6010    85.6240    23.5990   -33.4090 
  226.2500     2.3240    74.9860    92.8760    80.0780    89.4250    23.6570   -32.8520 
  226.3750     2.3090    72.7780    92.1150    79.7770    90.8980    23.4210   -32.2680 
  226.5000     2.2900    70.0630    88.3870    77.1310    91.0670    23.1410   -31.6340 
  226.6250     2.2740    71.8630    81.9820    72.1660    89.8970    23.0530   -31.0070 
  226.7500     2.2640    74.9960    74.8980    66.3740    81.3150    23.1050   -30.3130 
  226.8750     2.2660    74.4820    68.4380    60.8280    65.6760    23.2110   -29.5910 
  227.0000     2.2740    71.6940    63.2020    56.1540    53.3640    23.2220   -28.8210 
  227.1250     2.2850    73.8110    59.2890    52.6080    50.4340    23.1270   -28.0820 
  227.2500     2.2970    81.3870    56.0670    49.7620    51.6460    23.1060   -27.3190 
  227.3750     2.3160    88.5480    53.0960    47.2670    52.9580    23.3650   -26.5330 
  227.5000     2.3450    91.5310    50.0100    44.7830    49.9840    23.6710   -25.7510 
  227.6250     2.3810    88.8490    46.5880    42.0440    44.5720    23.9080   -24.9430 
  227.7500     2.4120    83.9950    43.0010    39.0980    43.3370    24.0620   -24.1970 
  227.8750     2.4240    81.7690    39.5380    36.1370    43.5640    24.1200   -23.5020 
  228.0000     2.4180    82.4750    36.5010    33.4140    40.5220    24.1420   -22.9250 
  228.1250     2.4040    82.0780    34.1650    31.1960    33.1830    24.2020   -22.4030 
  228.2500     2.3950    79.1550    32.3690    29.4190    29.8590    24.2530   -21.9880 
  228.3750     2.3950    75.2880    30.9110    27.9550    28.9660    24.2700   -21.6690 
  228.5000     2.3940    71.3990    29.5660    26.6390    29.5740    24.2810   -21.4230 
  228.6250     2.3840    69.0190    28.1720    25.3470    30.5850    24.3100   -21.2810 
