~V
VERS. 2.00: Ver 2.00
~W
STRT.M 56.0000:
STOP.M 296.0000:
STEP.M 0.1250:
NULL. -999.2500:
UWI. DF301:
~C
DEPT.M :
DEN.GM/CC :
SP.MV :
AC.US/MT :
GR.API :
CALI.CM :
RXO.OHMM :
RI. :
RML.OHMM :
~A
# ...
  256.0000     2.2480   -19.5220   396.0200    61.0180    24.4390   121.3850   120.1650   124.8220 
  256.1250     2.2520   -19.5320   395.2890    64.3760    24.4400   115.9150   116.1080   118.9750 
  256.2500     2.2610   -19.6450   394.9890    66.1780    24.4730   113.3680   108.7240   109.7980 
  256.3750     2.2660   -19.5320   395.1300    66.9150    24.4920   105.9190    98.4010    98.1060 
  256.5000     2.2620   -19.2150   395.2110    68.3010    24.4690    91.1230    85.9990    85.0820 
  256.6250     2.2580   -18.8400   393.2910    69.2960    24.4150    75.9130    73.4340    72.5230 
  256.7500     2.2740   -18.2920   385.8340    69.1590    24.3910    64.1930    63.5900    62.9230 
  256.8750     2.3190   -17.5440   369.1060    69.5290    24.3950    52.8710    57.5660    57.0880 
  257.0000     2.3920   -16.7030   342.0030    69.1060    24.3840    46.4940    55.4520    55.0290 
  257.1250     2.4860   -15.8010   312.8960    66.3380    24.3230    59.2700    56.4320    55.8270 
  257.2500     2.5820   -14.8860   291.2300    64.0580    24.2430    98.9510    58.6590    57.5520 
  257.3750     2.6400   -14.0650   284.5330    65.3410    24.1500   110.7210    59.2050    57.6850 
  257.5000     2.6350   -13.3450   295.0790    69.0780    24.1030    80.7370    56.4460    55.0700 
  257.6250     2.5780   -12.7300   311.2700    72.2850    24.1210    45.9110    50.8990    50.2080 
  257.7500     2.5060   -12.1910   322.1920    73.3010    24.2130    35.2130    45.1490    45.2550 
  257.8750     2.4610   -11.7080   320.7020    73.1520    24.3080    33.2480    41.7060    42.5030 
  258.0000     2.4600   -11.3700   307.0090    73.7110    24.3140    32.4740    41.9420    43.2340 
  258.1250     2.5040   -11.0740   291.7080    73.5460    24.2590    39.8430    46.7800    48.1630 
  258.2500     2.5790   -10.7870   282.5680    70.1720    24.1790    67.1160    57.3890    58.2500 
  258.3750     2.6470   -10.5960   282.0790    65.7540    24.1130   103.8260    71.6740    71.6470 
  258.5000     2.6830   -10.4340   285.7300    63.2640    24.0840   133.3340    86.2770    85.3380 
  258.6250     2.6730   -10.2790   286.6290    63.2100    24.0740   141.8580    96.4880    95.1640 
  258.7500     2.6140   -10.1960   283.7230    65.1810    24.0640   126.9680    97.9530    97.2680 
  258.8750     2.5380   -10.1660   280.5950    67.9110    24.0380   105.1050    94.0830    94.3460 
  259.0000     2.4690   -10.1110   282.8750    70.3850    23.9990    88.1690    89.3320    90.2700 
  259.1250     2.4300   -10.0910   290.2420    73.3490    23.9800    78.6250    87.0510    88.3750 
  259.2500     2.4160   -10.0090   299.9850    77.3130    23.9520    74.5370    89.1740    90.5490 
  259.3750     2.4020    -9.8070   308.6580    78.2740    23.9510    74.7630    94.0210    94.5810 
  259.5000     2.3900    -9.5660   312.0100    74.8080    23.9920    83.9120    98.0800    96.4180 
  259.6250     2.4030    -9.2700   308.6870    70.3760    24.0780   102.7540    95.9700    91.4820 
  259.7500     2.4500    -8.8630   298.3600    69.3000    24.2040   104.9010    82.7300    77.3590 
  259.8750     2.4990    -8.4100   283.5280    70.1170    24.2550    81.8790    64.0750    59.9090 
  260.0000     2.5370    -7.9580   270.7000    71.4270    24.1790    49.6960    46.7390    44.5200 
  260.1250     2.5630    -7.5440   265.4340    71.4760    24.1310    27.3630    34.5860    34.1050 
  260.2500     2.5660    -7.2400   268.8500    70.4980    24.1390    21.1420    28.9000    29.5650 
  260.3750     2.5400    -7.0690   277.4450    70.7100    24.1200    22.9590    27.9950    29.2930 
  260.5000     2.5020    -7.0280   283.8420    71.6310    24.0870    33.2220    31.9650    33.3430 
  260.6250     2.4830    -7.0070   282.4880    69.5320    23.9900    51.4950    42.0960    42.7890 
  260.7500     2.4990    -6.9650   271.8310    64.5450    23.8640    71.7420    62.4700    61.4670 
  260.8750     2.5320    -6.9810   253.8370    62.3180    23.8070    95.9260    93.9040    90.8330 
  261.0000     2.5730    -7.0360   233.0040    64.6850    23.8720   126.8600   135.4270   129.7150 
  261.1250     2.6200    -6.9550   214.8420    68.5010    23.9930   171.9070   179.6010   167.6240 
  261.2500     2.6670    -6.7820   201.8230    69.3120    24.0820   235.9860   203.5440   179.4550 
  261.3750     2.7040    -6.6000   193.8510    68.0490    24.1250   318.3970   189.0030   157.7030 
  261.5000     2.7220    -6.3250   189.5660    65.6240    24.1220   378.8240   140.4550   114.0400 
  261.6250     2.7230    -6.0180   187.8300    61.2250    24.0870   361.4940    85.1180    69.8540 
  261.7500     2.7050    -5.8270   190.8070    52.4550    24.0030   251.5930    47.7570    41.3780 
  261.8750     2.6630    -5.6980   202.6560    41.2400    23.9520   136.6890    26.6940    25.0850 
  262.0000     2.5870    -5.5590   231.2220    33.0210    23.8470    57.2480    15.8600    15.7170 
  262.1250     2.4860    -5.5520   275.3640    31.0480    23.5760    18.3230    10.4040    10.1190 
  262.2500     2.3940    -5.5670   330.0500    36.4840    23.1260     8.2090     7.8780     7.3840 
  262.3750     2.3360    -5.5170   385.7520    43.0020    23.0050     5.7010     6.5960     6.2860 
  262.5000     2.3100    -5.5150   426.6300    46.5640    23.1940     5.2700     6.0350     5.9780 
  262.6250     2.2980    -5.5390   445.5160    47.2140    23.4010     5.1460     5.8570     5.8580 
  262.7500     2.2880    -5.4600   443.1620    45.9500    23.4790     4.9740     5.7980     5.7470 
  262.8750     2.2870    -5.3390   427.9600    44.3520    23.5950     4.7660     5.6780     5.5570 
  263.0000     2.2990    -5.2660   412.6780    41.3650    23.7360     4.6210     5.4740     5.3060 
  263.1250     2.3170    -5.1970   405.4880    37.6160    23.8330     4.5300     5.2290     5.0500 
  263.2500     2.3230    -5.1380   407.6890    34.3670    23.7920     4.4630     5.0060     4.8440 
  263.3750     2.3140    -5.1320   416.6060    31.0450    23.6370     4.4400     4.8360     4.7060 
  263.5000     2.2960    -5.2080   428.3090    27.0030    23.4440     4.5040     4.7300     4.6380 
  263.6250     2.2840    -5.3450   440.1060    22.7440    23.2840     4.6070     4.6910     4.6390 
  263.7500     2.2970    -5.5460   450.1480    21.3960    23.0350     4.7390     4.7130     4.7020 
  263.8750     2.3320    -5.7690   456.1240    23.2700    22.8760     4.7960     4.7490     4.7920 
  264.0000     2.3740    -5.9290   455.7590    25.1010    22.9480     4.7800     4.7600     4.8770 
  264.1250     2.4060    -5.9790   451.0310    24.9560    23.2190     4.7060     4.7230     4.9300 
  264.2500     2.4190    -6.0240   444.6840    24.7870    23.5370     4.6500     4.6380     4.9340 
  264.3750     2.4200    -6.0240   439.6250    26.2480    23.7990     4.6440     4.5310     4.8950 
  264.5000     2.4160    -5.9370   438.1510    28.6110    23.9310     4.6730     4.4150     4.8120 
  264.6250     2.4050    -5.7920   439.6040    30.8620    23.9830     4.6820     4.2940     4.6840 
  264.7500     2.3840    -5.5980   442.7940    32.3880    24.0080     4.5960     4.1680     4.5190 
  264.8750     2.3630    -5.3970   446.5360    32.1460    24.0610     4.4590     4.0420     4.3610 
  265.0000     2.3490    -5.1770   450.2240    30.0730    24.1050     4.3640     3.9300     4.2560 
  265.1250     2.3420    -4.9640   453.8910    27.0200    24.0930     4.3280     3.8410     4.2330 
  265.2500     2.3490    -4.7810   457.5380    23.8040    24.0010     4.3310     3.7900     4.2890 
  265.3750     2.3730    -4.5920   460.5970    21.2080    23.9280     4.3180     3.7720     4.3740 
  265.5000     2.3930    -4.3540   461.7090    21.0250    23.9030     4.2970     3.7810     4.4590 
  265.6250     2.3880    -4.1560   460.3560    23.1940    23.9090     4.2740     3.8080     4.5340 
  265.7500     2.3660    -4.0310   456.5800    24.8760    23.9160     4.2320     3.8350     4.6020 
  265.8750     2.3620    -3.8910   451.2340    25.3290    23.9730     4.1760     3.8470     4.6610 
