~V
VERS. 2.00: Ver 2.00
~W
STRT.M 67.0000:
STOP.M 279.0000:
STEP.M 0.1250:
NULL. -999.2500:
UWI. DF3057:
~C
DEPT.M :
GR.API :
CALI.CM :
RXO.OHMM :
RI. :
RML.OHMM :
DEN.GM/CC :
SP.MV :
~A
# ...
  224.5000    66.0590    25.1500    81.3670   105.4250   121.4450     2.2110   -28.4690 
  224.6250    63.4220    25.3710    82.4420   100.3420   115.1160     2.2260   -28.3730 
  224.7500    62.3880    25.4030    75.3040    94.8310   108.6720     2.2290   -28.3590 
  224.8750    62.4500    25.3810    66.8370    89.6730   102.9520     2.2230   -28.3360 
  225.0000    61.9230    25.4720    58.2990    85.3920    98.5120     2.2190   -28.2430 
  225.1250    61.5590    25.4220    53.9900    82.3840    95.7920     2.2260   -28.0260 
  225.2500    61.9570    25.4370    58.1440    80.4100    94.4350     2.2370   -27.7280 
  225.3750    61.9410    25.5380    64.2360    79.1100    93.9460     2.2470   -27.4290 
  225.5000    61.9790    25.6910    64.6830    78.1440    93.6170     2.2530   -27.1630 
  225.6250    63.5050    25.7180    61.9260    77.3120    93.2600     2.2520   -26.9650 
  225.7500    62.6310    25.7240    59.2310    76.6980    93.0840     2.2480   -26.7490 
  225.8750    57.5990    25.7270    58.4520    76.4250    93.1920     2.2480   -26.4770 
  226.0000    52.4000    25.7430    58.6850    76.6030    93.9410     2.2510   -26.1510 
  226.1250    52.9650    25.7550    60.8950    77.5290    95.7020     2.2520   -25.7940 
  226.2500    56.4920    25.7160    59.6930    79.1700    98.4570     2.2500   -25.5250 
  226.3750    58.9640    25.6460    59.1400    81.5730   102.1710     2.2520   -25.3940 
  226.5000    58.8410    25.4920    62.3450    84.5230   106.7880     2.2630   -25.3090 
  226.6250    57.6990    25.4380    67.9260    87.6480   111.6740     2.2830   -25.1030 
  226.7500    58.1870    25.5450    72.2670    90.3990   116.1050     2.2960   -24.7840 
  226.8750    59.8780    25.5340    72.9130    92.5750   119.8810     2.2980   -24.4340 
  227.0000    60.5270    25.7030    73.1580    94.1450   122.6490     2.2950   -24.1320 
  227.1250    59.2930    25.7140    75.6850    94.7020   123.7920     2.2930   -23.9530 
  227.2500    59.6980    25.7220    76.9500    94.5990   124.0390     2.2870   -23.8240 
  227.3750    62.7170    25.7090    71.3770    94.3050   123.9520     2.2760   -23.6570 
  227.5000    64.6110    25.6430    65.4250    93.8380   123.2500     2.2640   -23.4060 
  227.6250    62.6870    25.4670    68.2030    92.5450   121.1650     2.2590   -23.1110 
  227.7500    59.3200    25.2790    72.0950    90.0450   117.4110     2.2620   -22.8540 
  227.8750    57.1320    25.1720    71.2730    85.9450   111.4230     2.2740   -22.6740 
  228.0000    57.7420    25.3010    69.7790    80.2550   103.4850     2.2900   -22.5400 
  228.1250    61.3610    25.3950    72.7700    73.8980    95.0040     2.3010   -22.4160 
  228.2500    64.3570    25.4220    68.7070    67.9900    87.4650     2.2970   -22.2470 
  228.3750    64.7360    25.4720    55.3730    63.4470    82.0970     2.2850   -21.9810 
  228.5000    65.0630    25.5320    43.8370    61.2300    79.9330     2.2770   -21.6860 
  228.6250    65.8140    25.4310    40.9650    61.9380    81.2460     2.2850   -21.4190 
  228.7500    65.6690    25.2950    44.8120    64.2470    84.1930     2.3000   -21.2310 
  228.8750    64.8710    25.3100    58.0470    67.2160    87.5350     2.3200   -21.0570 
  229.0000    63.9090    25.4980    72.4300    69.9800    89.9930     2.3520   -20.8440 
  229.1250    61.5270    25.5860    76.0140    71.3630    90.3330     2.4160   -20.5540 
  229.2500    58.4420    25.6990    71.3780    71.4540    89.3410     2.5060   -20.1880 
  229.3750    58.2280    25.6900    64.1110    71.2810    88.6330     2.5970   -19.7990 
  229.5000    61.6640    25.6890    54.8470    71.8280    89.0120     2.6580   -19.4470 
  229.6250    66.3400    25.5330    59.9010    72.4440    89.2880     2.6720   -19.1620 
  229.7500    68.6720    25.1790    68.6790    70.4890    86.2720     2.6740   -18.8890 
  229.8750    67.0040    25.1180    79.3240    63.9290    78.0760     2.6970   -18.5880 
  230.0000    63.1390    25.1170    86.2330    52.7120    64.7340     2.7410   -18.2570 
  230.1250    62.4350    25.1390    79.0600    39.4880    48.5130     2.7750   -17.8610 
  230.2500    64.3810    24.9330    59.3040    27.7350    33.4390     2.7730   -17.5160 
  230.3750    65.4900    24.5740    36.6180    18.8070    21.7180     2.7320   -17.3180 
  230.5000    63.1810    24.2450    19.4240    12.7260    13.8810     2.6640   -17.2450 
  230.6250    63.4590    24.2080     8.6280     9.4220     9.9090     2.5820   -17.2430 
  230.7500    74.3890    24.2290     6.4180     7.8700     8.2130     2.5010   -17.1810 
  230.8750    90.6780    24.2440     6.0510     7.3910     7.9220     2.4380   -17.0820 
  231.0000    99.9950    24.5410     7.0930     7.6150     8.4240     2.4120   -17.0190 
  231.1250   100.1490    25.0620     8.7940     8.3180     9.2890     2.4270   -17.0940 
  231.2500   101.1020    25.3400     9.6380     9.1530    10.0860     2.4520   -17.2660 
  231.3750   101.2370    25.1610     9.3400     9.8270    10.5430     2.4700   -17.4610 
  231.5000    96.7210    24.8460     9.0590    10.1750    10.5650     2.4810   -17.6170 
  231.6250    94.8740    24.7340     9.1140    10.2140    10.2600     2.4930   -17.6870 
  231.7500    98.6950    24.7420     9.0030    10.0670     9.8370     2.5070   -17.7360 
  231.8750   102.4200    24.7520     8.7040     9.8470     9.4510     2.5180   -17.7980 
  232.0000   102.5280    24.5700     8.5350     9.6700     9.2320     2.5250   -17.8730 
  232.1250   102.4680    24.6990     8.5070     9.5790     9.1850     2.5190   -18.0030 
  232.2500   105.8870    24.7500     8.5420     9.5420     9.2680     2.5040   -18.1570 
  232.3750   110.2880    24.7840     8.6190     9.5330     9.4440     2.4840   -18.2740 
  232.5000   111.9350    24.7930     8.5840     9.5430     9.6730     2.4690   -18.3370 
  232.6250   108.4970    24.7210     8.5540     9.5360     9.8890     2.4640   -18.3730 
  232.7500   104.4180    24.7500     8.8210     9.4970    10.0350     2.4690   -18.4620 
  232.8750   101.7260    24.7820     9.1060     9.3860    10.0740     2.4810   -18.6280 
  233.0000   101.8060    24.7760     9.0740     9.1820     9.9860     2.4900   -18.8550 
  233.1250   106.8060    24.6990     8.7550     8.9110     9.7990     2.4880   -19.0790 
  233.2500   112.2110    24.7880     8.5540     8.6250     9.5760     2.4760   -19.2210 
  233.3750   113.6010    24.7950     8.4340     8.3510     9.3630     2.4640   -19.2850 
  233.5000   111.4450    24.8050     8.4350     8.1600     9.2710     2.4570   -19.3550 
  233.6250   109.4390    24.8390     8.4200     8.2010     9.5300     2.4560   -19.5150 
  233.7500   106.4210    24.7780     8.7670     8.5810    10.3340     2.4600   -19.7490 
  233.8750   101.1420    24.7770     9.3260     9.4570    11.9840     2.4690   -20.0000 
  234.0000    95.1860    24.7880     9.8970    11.1350    14.9760     2.4750   -20.2340 
  234.1250    91.9930    24.8370    10.7990    14.2990    20.1190     2.4720   -20.3060 
  234.2500    88.5750    24.7910    15.3270    19.3540    27.5870     2.4670   -20.3830 
  234.3750    80.6740    24.7790    26.2120    26.9420    37.8130     2.4690   -20.4900 
  234.5000    70.6330    24.8360    43.5580    37.4420    50.8710     2.4730   -20.6670 
  234.6250    67.4520    25.0580    62.0600    50.8900    66.3800     2.4550   -20.9110 
  234.7500    68.3030    25.1300    78.0990    65.4620    82.5930     2.4080   -21.1790 
  234.8750    68.4470    24.9740    82.3710    79.3300    98.1480     2.3510   -21.4110 
  235.0000    68.0800    25.1090    79.3850    90.9830   111.5130     2.3090   -21.5940 
  235.1250    69.3940    25.4100    81.2550   100.0090   122.1160     2.2950   -21.6930 
  235.2500    71.1670    25.5490    87.5710   108.6950   132.6090     2.2910   -21.7710 
  235.3750    70.1100    25.4550    91.6630   118.0950   144.1010     2.2810   -21.8760 
  235.5000    66.2200    25.3880    92.4880   128.4960   156.6280     2.2620   -21.9900 
  235.6250    62.8420    25.2460    97.3740   138.4880   168.4090     2.2400   -22.1080 
