~V
VERS. 2.00: Ver 2.00
~W
STRT.M 64.0000:
STOP.M 268.0000:
STEP.M 0.1250:
NULL. -999.2500:
UWI. DF3002:
~C
DEPT.M :
GR.API :
RML.OHMM :
RI. :
RXO.OHMM :
DEN.GM/CC :
SP.MV :
~A
   64.0000    68.4260     5.2290     1.5800    -0.3230  -999.2500    37.5430 
   64.1250    70.0810     4.6360     1.3760    -0.3260  -999.2500    37.6570 
   64.2500    70.7520     3.6040     1.0750    -0.3380  -999.2500    37.6340 
   64.3750    69.2940     2.3710     0.7320    -0.3300  -999.2500    36.8970 
   64.5000    69.1560     1.3210     0.4320    -0.2960  -999.2500    35.1010 
   64.6250    69.8050     0.7320     0.2460    -0.2250  -999.2500    31.9200 
   64.7500    67.5780     0.4720     0.1580     0.0190  -999.2500    27.5020 
   64.8750    64.1500     0.4550     0.1690     0.4880  -999.2500    21.8540 
   65.0000    65.1500     0.6500     0.3140     1.3940  -999.2500    15.1610 
   65.1250    73.0040     1.0980     0.7070     3.3950  -999.2500     7.9480 
   65.2500    80.3000     1.7440     1.3770     7.1490  -999.2500     0.7750 
   65.3750    84.6470     2.5150     2.3170     8.6730  -999.2500    -5.9400 
   65.5000    85.8640     3.2900     3.4350     9.3300  -999.2500   -11.9930 
   65.6250    84.4660     3.9230     4.5440     9.4190  -999.2500   -17.0030 
   65.7500    81.7230     4.4090     5.5040     9.3750  -999.2500   -20.9810 
   65.8750    79.4170     4.8240     6.3070     9.2680  -999.2500   -23.8140 
   66.0000    80.4730     5.2460     7.0140     9.3470  -999.2500   -25.6530 
   66.1250    82.2350     5.6870     7.6490     9.6680  -999.2500   -26.7380 
   66.2500    79.5900     6.0700     8.1720     9.9910  -999.2500   -27.4080 
   66.3750    73.5840     6.3050     8.4870    10.2200  -999.2500   -27.7660 
   66.5000    70.5690     6.3200     8.5080    10.3480  -999.2500   -27.8380 
   66.6250    75.3470     6.0740     8.1660    10.0750  -999.2500   -27.8000 
   66.7500    83.2040     5.6850     7.6050     9.3650  -999.2500   -27.5970 
   66.8750    90.5450     5.2670     6.9700     8.4610  -999.2500   -27.3530 
   67.0000    94.6990     4.9370     6.4080     7.5960  -999.2500   -27.1850 
   67.1250    94.5300     4.8190     6.0750     7.0040  -999.2500   -27.0030 
   67.2500    94.5740     4.9120     5.9860     7.1400  -999.2500   -26.8920 
   67.3750    96.6070     5.1870     6.1230     7.1980  -999.2500   -26.9820 
   67.5000    98.7910     5.5690     6.4270     7.0240  -999.2500   -27.1970 
   67.6250    96.8040     5.9560     6.8060     7.4950  -999.2500   -27.3670 
   67.7500    90.2410     6.2610     7.1530     8.2620  -999.2500   -27.6820 
   67.8750    82.6830     6.4620     7.4260     8.6100  -999.2500   -27.9750 
   68.0000    77.8930     6.5890     7.6270     8.4860  -999.2500   -28.1370 
   68.1250    79.4310     6.7130     7.8020     8.2430  -999.2500   -28.3630 
   68.2500    83.9510     6.8840     8.0000     8.2010  -999.2500   -28.4450 
   68.3750    87.2540     7.0860     8.2140     8.6210  -999.2500   -28.2810 
   68.5000    87.9070     7.2510     8.3830     9.1480  -999.2500   -28.0460 
   68.6250    86.6210     7.2640     8.3910     9.3490  -999.2500   -27.6670 
   68.7500    86.7440     7.1210     8.2250     9.0920  -999.2500   -27.1360 
   68.8750    89.4840     6.9020     7.9490     8.6390  -999.2500   -26.5870 
   69.0000    93.8080     6.7410     7.6930     7.9790  -999.2500   -25.9700 
   69.1250    98.0960     6.7740     7.6050     7.4190  -999.2500   -25.3520 
   69.2500   100.6930     6.9500     7.6730     7.6010  -999.2500   -24.8530 
   69.3750   100.9650     7.1520     7.8040     8.3370  -999.2500   -24.3640 
   69.5000    99.8330     7.2370     7.8640     9.6230  -999.2500   -23.9140 
   69.6250    99.6530     7.0680     7.6960    10.0690  -999.2500   -23.7620 
   69.7500   104.6680     6.7060     7.3160     8.6670  -999.2500   -23.6510 
   69.8750   113.5170     6.2630     6.8170     7.0140  -999.2500   -23.5850 
   70.0000   119.4760     5.8670     6.3310     6.2970  -999.2500   -23.7490 
   70.1250   117.0950     5.6410     6.0030     6.1550  -999.2500   -23.9350 
   70.2500   111.5830     5.6110     5.8820     6.1050  -999.2500   -24.1150 
   70.3750   107.2320     5.7930     5.9890     6.1330  -999.2500   -24.4920 
   70.5000   103.5740     6.1670     6.3110     6.3620  -999.2500   -24.9820 
   70.6250    99.9430     6.6660     6.7980     7.0080  -999.2500   -25.3340 
   70.7500    96.4550     7.1310     7.3000     8.1000  -999.2500   -25.7810 
   70.8750    91.8400     7.4480     7.7000     9.5530  -999.2500   -26.2600 
   71.0000    87.3430     7.5980     7.9430    11.2980  -999.2500   -26.5750 
   71.1250    85.9500     7.7430     8.1060    12.6260  -999.2500   -26.9320 
   71.2500    86.4930     8.1580     8.4190    11.8790  -999.2500   -27.3500 
   71.3750    87.4590     9.0040     9.0520    11.8550  -999.2500   -27.6580 
   71.5000    87.4110    10.2290    10.0260    14.0100  -999.2500   -27.9850 
   71.6250    83.4420    11.5060    11.1370    17.9400  -999.2500   -28.5190 
   71.7500    76.5160    12.3710    11.9830    20.3110  -999.2500   -29.0650 
   71.8750    71.4500    12.5530    12.2710    20.4630  -999.2500   -29.7580 
   72.0000    71.0270    12.0890    11.9380    17.2820  -999.2500   -30.6090 
   72.1250    73.7370    11.3500    11.2260    14.1690  -999.2500   -31.4440 
   72.2500    76.2000    10.8180    10.5950    13.3790  -999.2500   -32.3450 
   72.3750    75.9320    10.6430    10.2350    15.8420  -999.2500   -33.2290 
   72.5000    71.5090    10.7400    10.1380    20.6280  -999.2500   -33.9660 
   72.6250    66.7510    10.8890    10.1660    29.4210  -999.2500   -34.5950 
   72.7500    65.0620    10.8830    10.1230    35.8340  -999.2500   -35.0650 
   72.8750    66.4640    10.6670     9.9270    25.5910  -999.2500   -35.3380 
   73.0000    68.4130    10.3010     9.5940    13.9290  -999.2500   -35.5470 
   73.1250    69.2500     9.9220     9.2220    10.7750  -999.2500   -35.5790 
   73.2500    68.7060     9.6460     8.9240     9.8870  -999.2500   -35.3700 
   73.3750    65.9520     9.5160     8.7520     9.5980  -999.2500   -35.1740 
   73.5000    63.8980     9.5260     8.7150     9.5560  -999.2500   -34.9970 
   73.6250    65.8240     9.6380     8.8000     9.7320  -999.2500   -34.5870 
   73.7500    69.0110     9.7520     8.9180     9.8120  -999.2500   -34.1520 
   73.8750    69.2300     9.7730     8.9850     9.7170  -999.2500   -33.7080 
   74.0000    67.2330     9.6260     8.9210     9.5410  -999.2500   -33.0570 
   74.1250    70.6870     9.2650     8.6540     9.4540  -999.2500   -32.3680 
   74.2500    80.7820     8.8040     8.2550     9.1110  -999.2500   -31.7900 
   74.3750    91.8160     8.3670     7.8230     8.3820  -999.2500   -31.1250 
   74.5000    97.5160     8.0740     7.4670     7.6860  -999.2500   -30.4500 
   74.6250    95.7050     8.0090     7.2860     7.4250  -999.2500   -30.0050 
   74.7500    92.6630     8.0960     7.2510     7.5310  -999.2500   -29.5930 
   74.8750    91.7020     8.2340     7.3020     7.7640  -999.2500   -29.2270 
   75.0000    93.7510     8.3110     7.3530     7.8470  -999.2500   -29.0340 
   75.1250    96.9080     8.2280     7.3180     7.8250  -999.2500   -28.8990 
   75.2500    99.2980     8.0320     7.1980     7.8030  -999.2500   -28.8390 
   75.3750   102.6570     7.8230     7.0530     7.9640  -999.2500   -28.9670 
   75.5000   106.0230     7.7400     6.9850     8.0090  -999.2500   -29.1080 
   75.6250   104.9130     7.9490     7.1320     8.1740  -999.2500   -29.3400 
   75.7500    98.3780     8.4280     7.5070     8.1960  -999.2500   -29.7420 
   75.8750    90.3640     9.0850     8.0660     8.1620  -999.2500   -30.1130 
   76.0000    84.6300     9.7510     8.6920     8.3720  -999.2500   -30.5540 
   76.1250    82.1960    10.1830     9.1850     8.8350  -999.2500   -31.1220 
   76.2500    81.8650    10.2870     9.4190     9.0580  -999.2500   -31.5400 
   76.3750    81.4680    10.0800     9.3650     9.0730  -999.2500   -31.8530 
   76.5000    81.5090     9.6820     9.0990     9.0130  -999.2500   -32.1960 
   76.6250    83.2050     9.2740     8.7630     8.9630  -999.2500   -32.2940 
   76.7500    83.2050     8.9970     8.4980     8.8850  -999.2500   -32.2140 
