~V
VERS. 2.00: Ver 2.00
~W
STRT.M 115.0000:
STOP.M 288.0000:
STEP.M 0.1250:
NULL. -999.2500:
UWI. DF3049:
~C
DEPT.M :
GR.API :
CALI.CM :
RXO.OHMM :
RI. :
RML.OHMM :
SP.MV :
DEN.GM/CC :
AC.US/MT :
~A
# ...
  215.0000    63.8380    24.4460    86.0980    87.5180    91.8260   -24.3630     2.2880   366.0300 
  215.1250    62.4430    24.3930    99.6100    95.4240    99.8570   -24.4820     2.2770   375.9660 
  215.2500    63.8150    24.3680   100.9120    98.6190   102.4750   -24.5860     2.2700   380.5020 
  215.3750    67.5990    24.3310    94.4190    96.7190    99.4180   -24.6710     2.2640   383.9360 
  215.5000    69.3580    24.2990    82.8970    91.1360    92.6160   -24.7170     2.2580   387.1590 
  215.6250    68.5750    24.2770    73.5380    84.0730    84.6970   -24.7580     2.2590   389.7840 
  215.7500    66.3410    24.2480    72.2190    77.3030    77.5590   -24.7630     2.2740   391.0680 
  215.8750    67.8120    24.1980    67.8090    71.5300    71.7040   -24.7450     2.2910   391.1270 
  216.0000    73.5190    24.1480    58.3670    67.0740    67.3240   -24.7170     2.2920   390.1830 
  216.1250    79.2860    24.1180    50.5810    64.0840    64.4940   -24.6590     2.2750   386.2600 
  216.2500    77.4190    24.0860    51.0480    62.6980    63.3360   -24.6100     2.2540   384.0330 
  216.3750    70.3990    24.0220    55.1460    62.4580    63.3540   -24.5530     2.2450   383.4620 
  216.5000    65.6370    23.9360    58.4880    63.1060    64.2380   -24.5160     2.2450   384.9890 
  216.6250    64.8790    23.8760    59.5800    64.3180    65.6000   -24.4760     2.2460   387.5770 
  216.7500    64.6870    23.8810    58.8170    65.8130    67.0950   -24.4400     2.2410   386.5210 
  216.8750    64.0150    23.8950    59.2980    67.5240    68.7080   -24.4210     2.2370   371.4910 
  217.0000    63.5170    23.9200    60.9540    69.8340    70.8950   -24.4120     2.2370   335.4840 
  217.1250    64.3850    23.9810    60.8050    73.4330    74.3980   -24.4140     2.2590   290.5680 
  217.2500    64.9460    24.1300    57.4180    79.3270    80.2460   -24.4240     2.3180   253.8570 
  217.3750    64.7980    24.2930    56.6520    86.7860    87.7690   -24.4400     2.3960   236.3480 
  217.5000    64.7290    24.4510    68.9410    93.8350    95.0390   -24.4670     2.4640   243.0190 
  217.6250    64.3600    24.5730   116.6020    97.3810    98.7800   -24.5390     2.4870   269.6340 
  217.7500    64.1610    24.6130   171.2030    93.8430    95.0020   -24.6200     2.4470   305.3530 
  217.8750    65.5700    24.5680   167.3940    85.1720    85.8090   -24.7050     2.3780   337.8830 
  218.0000    68.7230    24.5040   110.5960    74.8300    75.0480   -24.8150     2.3170   370.5290 
  218.1250    72.5330    24.4250    63.4510    66.1360    66.2590   -24.9400     2.2820   392.9400 
  218.2500    74.7120    24.3160    52.4270    61.4450    61.8580   -25.0890     2.2710   400.6270 
  218.3750    73.6210    24.2530    53.5570    60.3310    61.3040   -25.2570     2.2630   402.8720 
  218.5000    68.6900    24.2650    58.8750    62.3100    64.0180   -25.4190     2.2480   402.1690 
  218.6250    63.5440    24.2470    64.4730    66.6840    69.1700   -25.5820     2.2340   397.8660 
  218.7500    61.8640    24.1330    68.5800    72.7620    75.9410   -25.7600     2.2310   390.9650 
  218.8750    60.4210    23.9760    72.8620    79.5220    83.2780   -25.9300     2.2340   386.0820 
  219.0000    58.6480    23.8900    77.4050    86.6280    90.8720   -26.0770     2.2360   385.7090 
  219.1250    58.0370    23.8200    83.1580    94.0140    98.6990   -26.1950     2.2360   388.8900 
  219.2500    59.2110    23.6540    91.8930   101.7360   106.8360   -26.2970     2.2390   391.8680 
  219.3750    59.7220    23.3380   100.1530   109.7050   115.1860   -26.4040     2.2490   392.0420 
  219.5000    59.8120    23.0330   107.2140   117.8290   123.6490   -26.4800     2.2650   389.9710 
  219.6250    59.5370    22.9150   117.1090   125.7560   131.8930   -26.5270     2.2780   387.8150 
  219.7500    58.8610    22.9660   130.8470   132.0850   138.4630   -26.5350     2.2770   387.5110 
  219.8750    59.6950    23.0230   142.0310   135.1300   141.4580   -26.5200     2.2680   388.6390 
  220.0000    61.2930    23.0300   145.8610   133.3950   139.0930   -26.5170     2.2610   389.3610 
  220.1250    62.3460    22.9870   141.0560   126.4850   130.9400   -26.5260     2.2580   387.2710 
  220.2500    65.1140    22.8910   124.5830   114.8160   117.7400   -26.5040     2.2580   381.3840 
  220.3750    69.2470    22.8370   100.8770   100.9970   102.5430   -26.4740     2.2590   375.9800 
  220.5000    70.3860    22.8200    80.6640    86.9070    87.3690   -26.4190     2.2610   375.4380 
  220.6250    67.7410    22.8240    70.1270    74.1830    73.8460   -26.3570     2.2640   380.4990 
  220.7500    66.8910    22.8520    63.4010    64.5090    63.6190   -26.3000     2.2660   386.7680 
  220.8750    68.8960    22.9160    54.4290    58.0440    56.7520   -26.2670     2.2670   389.4770 
  221.0000    73.8010    23.0300    46.8690    54.8590    53.3110   -26.2300     2.2660   388.5310 
  221.1250    81.1680    23.2510    45.7800    54.7470    53.0870   -26.1960     2.2630   387.0280 
  221.2500    84.6330    23.5650    52.2260    57.6280    55.9620   -26.1540     2.2620   391.4540 
  221.3750    79.5460    23.9320    60.8630    62.2250    60.5600   -26.1340     2.2650   405.3400 
  221.5000    72.3590    24.2720    68.4760    67.3520    65.6440   -26.1380     2.2670   425.9740 
  221.6250    70.4830    24.5070    72.7550    71.5380    69.7320   -26.1540     2.2650   444.7850 
  221.7500    70.7710    24.6360    71.3820    73.1400    71.2140   -26.1750     2.2630   452.4110 
  221.8750    69.7020    24.6790    66.3130    72.3120    70.3340   -26.2150     2.2650   450.5000 
  222.0000    68.5170    24.6870    61.2380    69.7730    67.8780   -26.2480     2.2710   443.1650 
  222.1250    68.6190    24.6870    58.3650    66.6540    64.9850   -26.3050     2.2800   434.5890 
  222.2500    69.3930    24.6870    57.0430    64.4050    63.0930   -26.4100     2.2880   428.4460 
  222.3750    69.6230    24.6870    55.8950    63.8820    63.0430   -26.5240     2.2880   422.6210 
  222.5000    68.8360    24.6870    56.6610    65.5490    65.3120   -26.6510     2.2760   412.9450 
  222.6250    66.9580    24.6870    64.0940    69.5620    70.0610   -26.8030     2.2540   399.1400 
  222.7500    64.8000    24.6870    78.5850    75.8870    77.3410   -26.9440     2.2380   387.3130 
  222.8750    62.9920    24.6870    91.4540    83.1420    85.8340   -27.0790     2.2360   381.5700 
  223.0000    61.8540    24.6870    92.4430    90.0020    94.1510   -27.2550     2.2460   380.5870 
  223.1250    62.0880    24.6870    87.0540    95.2470   100.7800   -27.3690     2.2590   380.1650 
  223.2500    62.2280    24.6870    88.4110    97.8500   104.2860   -27.4130     2.2640   374.9550 
  223.3750    61.1270    24.6870    93.7210    98.4140   105.3470   -27.4210     2.2590   366.4070 
  223.5000    60.2540    24.6870    95.9000    97.4100   104.6540   -27.3650     2.2470   360.7360 
  223.6250    60.7930    24.6860    93.9210    95.0290   102.4850   -27.2530     2.2370   362.0380 
  223.7500    61.8280    24.6830    90.2680    90.9550    98.3720   -27.1210     2.2400   367.1810 
  223.8750    62.5140    24.6850    87.6590    85.5770    92.6600   -26.9700     2.2510   368.8730 
  224.0000    63.2320    24.7050    84.0420    79.4380    85.9870   -26.7850     2.2620   363.3530 
  224.1250    62.6930    24.7470    78.6760    73.3090    79.2920   -26.6050     2.2700   346.5390 
  224.2500    60.9260    24.7680    73.2250    68.2620    73.8420   -26.4400     2.2720   315.8790 
  224.3750    61.8450    24.7740    65.6850    64.8560    70.2640   -26.2890     2.2670   282.7990 
  224.5000    64.4700    24.7740    58.4010    63.4090    68.9030   -26.1570     2.2580   256.6830 
  224.6250    64.5830    24.7740    54.2830    63.9260    69.7790   -26.0650     2.2540   237.8670 
  224.7500    61.9880    24.7740    53.4210    66.2550    72.7860   -26.0010     2.2690   225.2900 
  224.8750    61.6730    24.7740    50.9670    69.2860    76.7130   -25.9230     2.2910   227.3280 
