~V
VERS. 2.00: Ver 2.00
~W
STRT.M 64.0000:
STOP.M 268.0000:
STEP.M 0.1250:
NULL. -999.2500:
UWI. DF3073:
~C
DEPT.M :
SP.MV :
GR.API :
CALI.CM :
RXO.OHMM :
RI. :
RML.OHMM :
DEN.GM/CC :
~A
# ...
  120.2500   -26.4530    86.8820    24.3770     6.7410     6.0640     7.2740  -999.2500 
  120.3750   -26.9650    74.6970    24.1960     8.6150     6.6600     7.9330  -999.2500 
  120.5000   -27.4740    62.8560    23.9200     9.8310     7.1970     8.5030  -999.2500 
  120.6250   -27.9150    62.3240    23.8130     9.1910     7.4800     8.7650  -999.2500 
  120.7500   -28.2370    67.2580    23.8220     8.2700     7.5360     8.7780  -999.2500 
  120.8750   -28.4950    70.9770    23.9230     7.9290     7.4470     8.6640  -999.2500 
  121.0000   -28.6210    71.8570    23.9200     7.8330     7.2920     8.5230  -999.2500 
  121.1250   -28.6000    72.5400    23.9340     7.7680     7.1740     8.4750  -999.2500 
  121.2500   -28.5080    73.8120    23.9360     7.5860     7.1880     8.5590  -999.2500 
  121.3750   -28.3890    73.8370    23.9480     7.5300     7.3030     8.7390  -999.2500 
  121.5000   -28.2610    73.1400    23.9180     7.8260     7.4560     8.9510  -999.2500 
  121.6250   -28.2170    73.6600    23.9080     8.2830     7.6070     9.1320  -999.2500 
  121.7500   -28.2250    74.7500    23.9120     8.3990     7.7300     9.2450  -999.2500 
  121.8750   -28.2000    75.5000    23.9120     8.3370     7.8210     9.3130  -999.2500 
  122.0000   -28.2190    74.4120    23.9420     8.2160     7.9200     9.4010  -999.2500 
  122.1250   -28.2950    72.3530    23.9170     8.0700     8.0910     9.5760  -999.2500 
  122.2500   -28.3470    70.8260    23.9370     8.0210     8.3140     9.8330  -999.2500 
  122.3750   -28.3350    71.0570    23.9250     8.2760     8.5280    10.1030  -999.2500 
  122.5000   -28.3040    71.5490    23.9460     8.6920     8.6270    10.2620  -999.2500 
  122.6250   -28.1730    71.4460    23.9200     8.7810     8.4100    10.0940  -999.2500 
  122.7500   -27.9780    71.8540    23.9340     8.7080     7.8750     9.5450  -999.2500 
  122.8750   -27.7690    73.7300    23.9410     8.6150     7.0950     8.6620  -999.2500 
  123.0000   -27.5110    76.7570    23.9330     8.3810     6.2310     7.6370  -999.2500 
  123.1250   -27.2380    81.8990    24.0560     7.4420     5.4830     6.7340  -999.2500 
  123.2500   -26.9990    87.2310    24.3950     6.2950     4.9860     6.1280  -999.2500 
  123.3750   -26.8550    88.8950    24.7050     5.5240     4.8160     5.9390  -999.2500 
  123.5000   -26.7970    86.5340    24.7980     5.3740     4.9910     6.1790  -999.2500 
  123.6250   -26.8320    83.0940    24.4160     6.0970     5.5210     6.8090  -999.2500 
  123.7500   -26.9410    79.1890    24.0200     7.4290     6.2670     7.6440  -999.2500 
  123.8750   -27.1500    74.2310    23.7500     8.6480     7.1200     8.5330  -999.2500 
  124.0000   -27.4620    70.3360    23.6840     9.1910     7.9280     9.2890  -999.2500 
  124.1250   -27.7550    69.3020    23.7290     9.0850     8.5020     9.7720  -999.2500 
  124.2500   -28.0720    67.0740    23.7130     9.0270     8.8200    10.0420  -999.2500 
  124.3750   -28.3760    63.6910    23.7120     9.7320     8.8790    10.1050  -999.2500 
  124.5000   -28.6030    62.6370    23.8070    14.7710     8.7510    10.0160  -999.2500 
  124.6250   -28.7600    65.8860    23.8560    20.7130     8.5330     9.8600  -999.2500 
  124.7500   -28.8960    70.1300    23.8320    19.1360     8.2980     9.7050  -999.2500 
  124.8750   -28.9810    72.7660    23.8730    12.6000     8.0790     9.5700  -999.2500 
  125.0000   -28.9870    72.2270    23.8390     9.3490     7.9310     9.5130  -999.2500 
  125.1250   -28.9780    69.4150    23.8600     8.2220     7.9110     9.5750  -999.2500 
  125.2500   -28.8990    67.1470    23.7430     7.9860     8.0020     9.7340  -999.2500 
  125.3750   -28.7690    67.3320    23.6320     8.4000     8.1800     9.9680  -999.2500 
  125.5000   -28.6460    68.4430    23.6390     9.0280     8.3940    10.2230  -999.2500 
  125.6250   -28.5370    67.6350    23.5740     9.1780     8.5600    10.3910  -999.2500 
  125.7500   -28.4110    64.8090    23.6040     9.0510     8.6380    10.4400  -999.2500 
  125.8750   -28.2700    62.7720    23.5930     8.9030     8.6230    10.3900  -999.2500 
  126.0000   -28.1390    62.8640    23.6280     8.7670     8.5380    10.2930  -999.2500 
  126.1250   -28.0070    63.5750    23.5260     8.5640     8.3950    10.1660  -999.2500 
  126.2500   -27.9040    64.3910    23.4700     8.3340     8.2100    10.0200  -999.2500 
  126.3750   -27.8160    67.0510    23.4340     8.1870     7.9600     9.7940  -999.2500 
  126.5000   -27.7060    72.4860    23.3750     8.0740     7.6250     9.4640  -999.2500 
  126.6250   -27.5610    75.6930    23.2740     7.9980     7.1940     8.9780  -999.2500 
  126.7500   -27.4200    75.8250    23.2430     7.8520     6.7190     8.4140  -999.2500 
  126.8750   -27.2870    75.9250    23.3740     7.4130     6.2610     7.8420     2.3080 
  127.0000   -27.2180    76.2910    23.5120     6.6520     5.8920     7.3470     2.3080 
  127.1250   -27.2010    75.9420    23.6300     6.1700     5.7310     7.0780     2.2950 
  127.2500   -27.1880    75.7610    23.5720     6.2470     5.7850     7.0710     2.2600 
  127.3750   -27.2010    76.7370    23.1570     6.5910     6.0490     7.3120     2.2360 
  127.5000   -27.2490    76.7920    23.0180     6.8760     6.5000     7.7500     2.2520 
  127.6250   -27.3450    74.6550    23.0200     7.1040     7.0950     8.3130     2.2990 
  127.7500   -27.4740    72.9470    23.2710     7.6200     7.7030     8.8790     2.3260 
  127.8750   -27.6360    71.8130    23.4730     8.9410     8.2430     9.3680     2.3100 
  128.0000   -27.7490    70.7270    23.6200    10.0440     8.6460     9.7510     2.2660 
  128.1250   -27.8190    69.8540    23.5110    10.1140     8.8530     9.9560     2.2230 
  128.2500   -27.8860    68.8200    23.4740     9.3670     8.9270    10.0330     2.1970 
  128.3750   -27.9530    67.6310    23.4770     9.1150     8.9270    10.0540     2.1850 
  128.5000   -28.0540    67.2100    23.4360     8.9920     8.8850    10.0540     2.1780 
  128.6250   -28.1590    68.2290    23.4760     8.8970     8.8600    10.0700     2.1670 
  128.7500   -28.2460    68.7410    23.4990     8.7900     8.9080    10.1300     2.1550 
  128.8750   -28.2960    67.9660    23.6150     8.8030     9.0340    10.2600     2.1500 
  129.0000   -28.3160    66.5650    23.6780     8.9310     9.2360    10.4630     2.1550 
  129.1250   -28.2700    67.1190    23.6740     9.1500     9.5120    10.7090     2.1630 
  129.2500   -28.1880    67.2040    23.7110     9.2800     9.7980    10.9560     2.1660 
  129.3750   -28.0550    64.6030    23.7180     9.3640     9.9960    11.1060     2.1620 
  129.5000   -27.8160    61.5170    23.7720     9.4430    10.0000    11.0610     2.1570 
  129.6250   -27.4940    61.5520    23.8770     9.4410     9.6900    10.7110     2.1540 
  129.7500   -27.1150    65.2150    23.8880     9.3140     9.1010    10.1030     2.1570 
  129.8750   -26.6620    71.0530    23.9000     9.0800     8.3020     9.2760     2.1770 
  130.0000   -26.1570    76.6300    23.9340     8.6920     7.4080     8.3300     2.2170 
  130.1250   -25.7130    80.0500    24.1080     7.6960     6.5710     7.4290     2.2650 
  130.2500   -25.3520    84.2290    24.5950     6.5760     5.8830     6.6660     2.2940 
  130.3750   -25.0860    88.8250    24.8480     5.8980     5.3800     6.0920     2.3010 
  130.5000   -24.9610    90.2680    24.9000     5.7740     5.0660     5.7220     2.3000 
  130.6250   -24.9610    88.0490    24.8990     5.8470     4.9430     5.5730     2.3100 
  130.7500   -25.0800    86.9150    24.8820     5.8410     4.9600     5.5560     2.3220 
  130.8750   -25.3870    87.4450    24.8190     5.9960     5.0860     5.6310     2.3200 
  131.0000   -25.8460    86.6400    24.6650     6.2940     5.2910     5.7700     2.2980 
  131.1250   -26.3930    85.4160    24.5880     6.4610     5.5530     5.9460     2.2730 
  131.2500   -26.9620    84.8330    24.4410     6.5920     5.8570     6.1470     2.2600 
  131.3750   -27.5030    84.7520    24.0400     6.8550     6.1970     6.3770     2.2580 
