~V
VERS. 2.00: Ver 2.00
~W
STRT.M 65.0000:
STOP.M 267.0000:
STEP.M 0.1250:
NULL. -999.2500:
UWI. DF3007:
~C
DEPT.M :
GR.API :
RML.OHMM :
RI. :
RXO.OHMM :
CALI.CM :
DEN.GM/CC :
SP.MV :
~A
# ...
  200.0000    68.7300    83.7750    74.4740    59.4720    24.1710     2.2080   -22.1370 
  200.1250    66.3710    89.2160    79.9120    58.5540    24.1770     2.2120   -22.1510 
  200.2500    66.3490    94.4190    85.1600    58.9620    24.2240     2.2170   -22.2080 
  200.3750    67.0130   100.1320    90.9140    61.1730    24.2870     2.2230   -22.2410 
  200.5000    68.3530   106.3870    97.2990    64.5410    24.3140     2.2280   -22.1980 
  200.6250    72.6500   111.8540   103.3660    66.5670    24.3130     2.2310   -22.1500 
  200.7500    76.3390   114.6700   107.5020    67.7830    24.2990     2.2320   -22.1560 
  200.8750    75.5380   113.5710   108.3000    67.4340    24.2780     2.2290   -22.0660 
  201.0000    71.0060   108.1410   105.1050    65.0890    24.2960     2.2230   -21.8930 
  201.1250    68.0860    99.5190    97.9030    60.2230    24.4080     2.2170   -21.8140 
  201.2500    67.8780    89.7790    88.7670    56.7260    24.5860     2.2130   -21.6310 
  201.3750    69.4580    80.7400    79.2620    54.1760    24.6990     2.2140   -21.4840 
  201.5000    72.0700    73.5880    70.7980    50.7410    24.7210     2.2210   -21.4480 
  201.6250    75.0960    67.3570    64.8910    50.2420    24.6760     2.2320   -21.4050 
  201.7500    78.0200    64.0230    61.8270    46.7560    24.6330     2.2400   -21.4020 
  201.8750    79.6100    63.9710    61.8080    43.7830    24.6020     2.2420   -21.5410 
  202.0000    78.1480    66.9850    64.7760    43.9480    24.5900     2.2380   -21.7960 
  202.1250    74.1530    75.0470    70.9240    51.3900    24.5490     2.2310   -22.0380 
  202.2500    72.1860    86.7480    79.4780    62.4670    24.4470     2.2240   -22.4610 
  202.3750    71.7240   102.5940    90.1630    70.1480    24.3460     2.2180   -22.8840 
  202.5000    69.8350   122.0160   102.6680    74.6760    24.3690     2.2110   -23.1570 
  202.6250    68.0210   138.3400   116.5900    87.3480    24.5260     2.2000   -23.4710 
  202.7500    67.9950   154.9470   130.6340   106.5580    24.6900     2.1880   -23.6330 
  202.8750    67.3100   170.0780   143.3290   131.5430    24.8130     2.1810   -23.6940 
  203.0000    65.2500   181.6400   152.9770   152.2860    24.8720     2.1820   -23.7430 
  203.1250    65.9940   186.9950   157.4570   157.9640    24.8910     2.1910   -23.6340 
  203.2500    67.3560   187.0490   157.5630   154.2980    24.8960     2.2030   -23.4620 
  203.3750    65.8010   183.5090   154.7180   149.8060    24.9060     2.2130   -23.2890 
  203.5000    62.0780   178.7300   150.9300   148.4470    24.9160     2.2190   -23.1380 
  203.6250    60.6300   175.0660   148.3750   144.9340    24.9160     2.2210   -23.0130 
  203.7500    62.7370   173.5790   148.1050   137.8500    24.8810     2.2210   -22.9520 
  203.8750    65.9830   174.6990   150.5890   134.9460    24.8140     2.2180   -22.9230 
  204.0000    67.0960   178.5540   155.9360   141.9870    24.7600     2.2110   -22.8090 
  204.1250    65.2530   185.3330   164.2770   153.5000    24.7230     2.2030   -22.8770 
  204.2500    64.1060   193.5600   174.1850   161.4620    24.6940     2.1950   -22.8790 
  204.3750    66.0350   200.7680   183.7100   166.5700    24.6860     2.1890   -22.8480 
  204.5000    67.9770   203.4660   189.7210   166.8800    24.6770     2.1880   -22.9250 
  204.6250    66.4020   195.7440   186.5900   159.6980    24.6720     2.1920   -22.9190 
  204.7500    65.2240   177.0180   172.6850   149.4130    24.6730     2.1990   -22.9130 
  204.8750    67.6280   149.4260   148.7910   140.5240    24.6750     2.2070   -22.8610 
  205.0000    71.5710   119.2340   119.1570   127.6860    24.6670     2.2170   -22.7420 
  205.1250    72.3580    92.7090    90.6850   102.5580    24.6430     2.2300   -22.5430 
  205.2500    71.9580    72.0740    68.2580    71.4350    24.6150     2.2440   -22.3420 
  205.3750    73.1910    56.9790    53.4200    48.8270    24.5990     2.2610   -22.0900 
  205.5000    75.5120    50.1620    46.0620    39.8650    24.5930     2.2800   -21.7830 
  205.6250    76.5060    52.4700    47.0270    37.2780    24.5950     2.2930   -21.5510 
  205.7500    75.7720    62.4470    55.1460    43.2160    24.6150     2.2970   -21.2830 
  205.8750    72.7540    79.3780    70.0070    60.9630    24.6460     2.2870   -21.0880 
  206.0000    68.4720   101.1450    89.8360    95.5870    24.6680     2.2670   -21.1000 
  206.1250    65.5440   123.3270   110.6120   130.0010    24.6720     2.2440   -21.0630 
  206.2500    63.6620   140.5730   127.1230   143.3490    24.6720     2.2270   -21.1090 
  206.3750    62.5210   149.8880   136.3810   140.5600    24.6720     2.2200   -21.2830 
  206.5000    62.7200   151.6480   138.4500   134.3830    24.6750     2.2250   -21.3870 
  206.6250    65.3210   148.9280   135.7830   124.9250    24.6820     2.2440   -21.5240 
  206.7500    68.2190   145.6580   132.1050   116.8100    24.6920     2.2660   -21.6800 
  206.8750    69.8850   142.4020   128.2330   111.1850    24.6870     2.2800   -21.7670 
  207.0000    71.6670   138.2150   123.6210   107.4230    24.6330     2.2760   -21.7410 
  207.1250    72.4450   131.2780   116.8980   103.9930    24.6020     2.2540   -21.7640 
  207.2500    70.4580   121.3380   107.8330   106.7550    24.5910     2.2280   -21.7130 
  207.3750    66.9030   109.0020    96.8660   106.3970    24.6020     2.2090   -21.5800 
  207.5000    65.0970    95.8200    85.2130    92.1730    24.6270     2.2020   -21.5640 
  207.6250    69.0740    84.1840    74.8180    75.2750    24.6570     2.2040   -21.4350 
  207.7500    75.4490    75.5670    66.9310    61.8770    24.6670     2.2100   -21.3620 
  207.8750    78.5760    70.6940    62.2020    52.4920    24.6680     2.2160   -21.3440 
  208.0000    75.3610    69.7340    60.8240    48.8600    24.6680     2.2200   -21.3130 
  208.1250    70.6090    73.1200    63.2510    51.7030    24.6700     2.2220   -21.2680 
  208.2500    70.4580    79.8930    68.7000    56.0910    24.6840     2.2210   -21.2980 
  208.3750    72.1530    89.6400    76.8130    58.4630    24.7170     2.2180   -21.3240 
  208.5000    71.3880   101.7090    86.9810    57.6510    24.7360     2.2140   -21.2340 
  208.6250    68.9450   114.8970    98.1460    58.5350    24.7210     2.2090   -21.2690 
  208.7500    67.2770   127.1340   108.4030    64.6660    24.6900     2.2040   -21.2370 
  208.8750    66.4910   136.1950   115.8920    75.2900    24.6780     2.2000   -21.1780 
  209.0000    66.2730   139.7150   118.9000    85.4480    24.6750     2.1990   -21.2580 
  209.1250    65.9140   135.3350   115.5910    84.1840    24.6700     2.1990   -21.3060 
  209.2500    64.4540   124.4150   107.5960    77.3450    24.6660     2.1990   -21.3560 
  209.3750    64.7690   109.5250    96.9020    67.6010    24.6560     2.1970   -21.4710 
  209.5000    68.8550    94.1120    85.9570    56.9770    24.6310     2.1950   -21.5940 
  209.6250    72.9680    81.9190    77.4150    50.6810    24.6220     2.1930   -21.7500 
  209.7500    73.2350    77.1420    72.2610    48.0880    24.6320     2.1950   -21.9180 
  209.8750    71.2560    76.4300    70.8730    48.1330    24.6540     2.2000   -22.0720 
  210.0000    69.8860    79.5400    73.0870    50.7340    24.6710     2.2060   -22.1740 
  210.1250    69.2260    85.9540    78.5360    57.2070    24.6910     2.2120   -22.3330 
  210.2500    67.7590    93.5460    85.3070    69.6080    24.7290     2.2150   -22.4700 
  210.3750    64.7840   100.5260    91.7730    87.6800    24.7740     2.2150   -22.5660 
  210.5000    61.6830   105.2790    96.4010   100.9090    24.8320     2.2110   -22.7360 
  210.6250    62.2410   106.4070    97.7900   100.6580    24.8500     2.2060   -22.7630 
  210.7500    64.2730   104.8360    96.6250    95.8000    24.8290     2.2040   -22.8640 
  210.8750    64.9160   101.7170    93.8780    93.8790    24.7640     2.2060   -22.9550 
  211.0000    64.4200    98.3190    90.7030    93.7130    24.6910     2.2140   -22.9130 
  211.1250    64.5330    95.9580    88.3440    93.1830    24.6330     2.2270   -22.9160 
