~V
VERS. 2.00: Ver 2.00
~W
STRT.M 115.0000:
STOP.M 241.0000:
STEP.M 0.1250:
NULL. -999.2500:
UWI. DF3064:
~C
DEPT.M :
GR.API :
CALI.CM :
RXO.OHMM :
RI. :
RML.OHMM :
DEN.GM/CC :
SP.MV :
~A
# ...
  171.2500    56.0570    25.0350   113.2750    79.5090    84.3670     2.1420   -26.6880 
  171.3750    56.9790    24.8590    95.2550    75.3140    79.5450     2.1430   -26.3470 
  171.5000    58.0610    24.4270    77.7350    70.5820    74.2620     2.1740   -25.9980 
  171.6250    55.4810    24.4770    69.6660    66.4600    70.0300     2.2620   -25.6310 
  171.7500    51.7430    24.3180    66.8230    63.7870    67.3520     2.3900   -25.2480 
  171.8750    50.9750    24.2860    66.7790    62.6340    65.9880     2.5180   -24.8470 
  172.0000    53.7640    24.2430    65.3710    62.1470    64.8100     2.6100   -24.4370 
  172.1250    55.3840    24.1530    69.7690    60.1370    61.7830     2.6590   -24.0140 
  172.2500    55.0410    24.1350    74.6200    54.9520    55.8950     2.6900   -23.6130 
  172.3750    54.2230    24.1860    70.8270    46.5600    47.3800     2.7110   -23.2070 
  172.5000    53.9220    24.2600    60.6260    36.3190    37.5170     2.7140   -22.8080 
  172.6250    55.0300    24.5670    64.6810    26.6880    28.1490     2.6880   -22.4360 
  172.7500    55.8400    24.7820    60.8410    18.9440    20.3180     2.6380   -22.0850 
  172.8750    55.8540    24.8880    37.0510    13.2970    14.4270     2.5720   -21.7850 
  173.0000    54.3890    24.8540    14.1190     9.5080    10.5190     2.5090   -21.5270 
  173.1250    50.9060    24.8250     6.9400     7.3620     8.4500     2.4690   -21.3330 
  173.2500    46.9460    24.7800     5.2940     6.1180     7.4220     2.4530   -21.1730 
  173.3750    45.3290    24.8520     4.8890     5.4640     7.0470     2.4510   -21.0720 
  173.5000    47.1220    24.9280     5.1760     5.1940     7.0360     2.4490   -21.0150 
  173.6250    51.1300    24.9900     5.9740     5.1820     7.2240     2.4280   -20.9810 
  173.7500    54.2170    25.0880     6.4950     5.2710     7.4630     2.3920   -20.9690 
  173.8750    53.0640    25.0750     6.2610     5.3940     7.6820     2.3560   -20.9660 
  174.0000    48.7250    25.0210     5.9930     5.5500     7.8970     2.3340   -20.9900 
  174.1250    45.5720    25.0810     5.7630     5.7930     8.1950     2.3330   -21.0310 
  174.2500    45.3560    25.1360     5.6090     6.1180     8.6200     2.3420   -21.0880 
  174.3750    46.9700    25.1030     5.6960     6.4800     9.0960     2.3560   -21.1440 
  174.5000    51.2270    25.1270     6.4930     6.8050     9.5170     2.3690   -21.2160 
  174.6250    57.9650    25.1050     7.4970     6.9690     9.7130     2.3800   -21.3090 
  174.7500    62.1170    25.0520     8.0620     6.9170     9.6570     2.3830   -21.4080 
  174.8750    61.8610    25.0010     8.2070     6.6720     9.3880     2.3730   -21.5020 
  175.0000    60.9080    24.9990     7.6300     6.3120     9.0000     2.3550   -21.5940 
  175.1250    62.1390    25.0140     6.7190     5.9520     8.6450     2.3420   -21.6870 
  175.2500    62.9000    24.9680     5.9450     5.6990     8.4660     2.3360   -21.7860 
  175.3750    60.3750    24.9750     5.5540     5.5990     8.5080     2.3350   -21.8850 
  175.5000    55.3960    24.8200     5.4640     5.6350     8.7620     2.3350   -21.9840 
  175.6250    50.7610    24.8380     5.7590     5.7760     9.1340     2.3350   -22.0760 
  175.7500    48.6140    24.8870     6.2420     5.9560     9.5080     2.3420   -22.1770 
  175.8750    48.2880    24.8460     6.4870     6.1180     9.8050     2.3580   -22.3050 
  176.0000    49.4360    24.7880     6.4750     6.2190     9.9840     2.3760   -22.4420 
  176.1250    51.8710    24.7880     6.2000     6.2430    10.0280     2.3810   -22.5140 
  176.2500    54.4630    24.7630     6.0590     6.2130     9.9760     2.3740   -22.6100 
  176.3750    55.3770    24.7520     6.0730     6.1620     9.8780     2.3630   -22.7440 
  176.5000    53.7430    24.7590     6.0690     6.1180     9.7570     2.3600   -22.8930 
  176.6250    49.3590    24.6960     5.9340     6.0890     9.6520     2.3610   -23.0410 
  176.7500    44.4550    24.6500     5.9490     6.0640     9.5830     2.3580   -23.2040 
  176.8750    42.0720    24.6710     6.0490     6.0410     9.5190     2.3490   -23.3720 
  177.0000    43.2320    24.7410     6.0450     6.0230     9.4670     2.3460   -23.5400 
  177.1250    43.0760    24.7720     6.0350     6.0180     9.4590     2.3520   -23.7180 
  177.2500    40.8590    24.7770     6.1140     6.0260     9.4890     2.3570   -23.9210 
  177.3750    40.7880    24.7500     6.2360     6.0660     9.5540     2.3560   -24.1510 
  177.5000    44.2390    24.7610     6.1370     6.1420     9.6540     2.3520   -24.4000 
  177.6250    47.9330    24.7800     6.0570     6.2530     9.7870     2.3530   -24.6870 
  177.7500    51.2210    24.7660     6.3560     6.3850     9.9280     2.3620   -25.0010 
  177.8750    55.2250    24.8130     7.0580     6.5210    10.0790     2.3790   -25.3380 
  178.0000    59.5350    24.8370     7.4220     6.6440    10.2170     2.3920   -25.6930 
  178.1250    64.7680    25.0020     7.4310     6.7430    10.3400     2.3820   -26.0770 
  178.2500    71.3890    25.0510     7.2650     6.8320    10.4870     2.3550   -26.4740 
  178.3750    76.5470    25.0240     7.0730     6.9220    10.6660     2.3300   -26.8750 
  178.5000    77.5150    24.8320     6.7560     7.0330    10.8720     2.3190   -27.2910 
  178.6250    79.3650    24.6150     6.9920     7.1970    11.1400     2.3230   -27.7140 
  178.7500    84.8460    24.4620     8.1950     7.4060    11.4570     2.3330   -28.1000 
  178.8750    89.8690    24.6500     9.7470     7.6250    11.7560     2.3400   -28.4400 
  179.0000    90.4990    24.7360    10.8110     7.8200    11.9950     2.3360   -28.7680 
  179.1250    86.8980    24.7850    11.0660     7.9350    12.0760     2.3220   -29.0410 
  179.2500    83.9750    24.7800    11.1770     7.9590    12.0380     2.3140   -29.2770 
  179.3750    83.4070    24.7820    11.2520     7.9020    11.9080     2.3150   -29.5040 
  179.5000    84.7040    24.7900    11.6060     7.8100    11.7650     2.3170   -29.7010 
  179.6250    84.9650    24.7970    11.4520     7.7710    11.7530     2.3140   -29.8500 
  179.7500    85.2440    24.7560    10.7300     7.8450    11.9480     2.3180   -29.9940 
  179.8750    87.3050    24.7290     9.7470     8.0570    12.3840     2.3320   -30.1550 
  180.0000    88.6800    24.6570     9.7350     8.3930    12.9930     2.3530   -30.2930 
  180.1250    86.5520    24.3730    11.4010     8.8050    13.6050     2.3750   -30.3950 
  180.2500    84.3550    24.1910    13.5570     9.1840    14.0550     2.3950   -30.4480 
  180.3750    83.1960    23.9840    16.0660     9.4630    14.2800     2.4090   -30.4150 
  180.5000    81.5430    23.8830    16.6900     9.6100    14.2860     2.4100   -30.3110 
  180.6250    81.4920    23.7830    15.3000     9.5950    14.0410     2.3960   -30.1140 
  180.7500    84.4870    23.6200    14.0600     9.4810    13.6770     2.3840   -29.8410 
  180.8750    89.4990    23.4100    14.1010     9.3170    13.2930     2.3830   -29.4810 
  181.0000    92.8780    23.1840    13.9640     9.1220    12.9440     2.3900   -29.0180 
  181.1250    93.6270    22.7850    13.7210     8.8620    12.5930     2.3920   -28.4890 
  181.2500    93.3970    22.2740    13.2260     8.5360    12.2050     2.3860   -27.9010 
  181.3750    92.1570    22.3560    12.4080     8.1460    11.7310     2.3780   -27.2780 
  181.5000    88.5030    23.2410    10.8670     7.6980    11.1600     2.3730   -26.6200 
  181.6250    80.9140    24.3250     9.6800     7.2520    10.5990     2.3730   -25.9390 
  181.7500    72.0030    24.8940     8.3690     6.8810    10.1630     2.3780   -25.2540 
  181.8750    64.5840    25.0500     7.4340     6.6170     9.8920     2.3820   -24.6150 
  182.0000    60.0560    24.8180     7.0810     6.4590     9.7550     2.3840   -24.0520 
  182.1250    58.5420    24.8640     7.3140     6.4060     9.7150     2.3850   -23.5700 
  182.2500    56.9260    24.9590     7.3270     6.4040     9.7080     2.3860   -23.1710 
  182.3750    52.8110    25.0250     7.8540     6.4080     9.6760     2.3840   -22.8490 
