~V
VERS. 2.00: Ver 2.00
~W
STRT.M 61.0000:
STOP.M 279.0000:
STEP.M 0.1250:
NULL. -999.2500:
UWI. DF3040:
~C
DEPT.M :
GR.API :
CALI.CM :
RXO.OHMM :
RI. :
RML.OHMM :
DEN.GM/CC :
SP.MV :
~A
# ...
   83.5000    63.6380    25.2470    11.2900     9.2570     9.4300  -999.2500   -23.2780 
   83.6250    67.3700    25.3040    11.5860     9.0940     9.3510  -999.2500   -23.0090 
   83.7500    69.1180    25.3450    11.8970     8.9660     9.3380  -999.2500   -22.6980 
   83.8750    70.0620    25.3720    11.6830     8.8400     9.3220  -999.2500   -22.3730 
   84.0000    73.0800    25.4460    11.2200     8.6880     9.2450  -999.2500   -22.0640 
   84.1250    77.4300    25.6140    10.8770     8.4720     9.0830  -999.2500   -21.7970 
   84.2500    81.0290    25.7410    10.4800     8.2030     8.8850  -999.2500   -21.5730 
   84.3750    84.3520    25.7640     9.5980     7.9440     8.7360  -999.2500   -21.3810 
   84.5000    89.6570    25.7770     8.4360     7.7380     8.6370  -999.2500   -21.2220 
   84.6250    94.8900    25.7790     8.5140     7.6000     8.5840  -999.2500   -21.1300 
   84.7500    95.8830    25.7810     9.4890     7.5420     8.5800  -999.2500   -21.0790 
   84.8750    92.4500    25.7770     9.8160     7.5630     8.6160  -999.2500   -21.0540 
   85.0000    87.9170    25.7100     9.4150     7.6300     8.6860  -999.2500   -21.0210 
   85.1250    84.2170    25.3590     9.7970     7.7620     8.7790  -999.2500   -20.9580 
   85.2500    82.0410    24.8650     9.8670     7.9260     8.8720  -999.2500   -20.8830 
   85.3750    81.0460    24.4340     9.7260     8.0400     8.9120  -999.2500   -20.7990 
   85.5000    79.8100    24.1620    10.0530     8.0510     8.8730  -999.2500   -20.7400 
   85.6250    79.2700    24.1180    10.4090     7.9140     8.6800  -999.2500   -20.6730 
   85.7500    83.1790    24.1110    10.2580     7.5860     8.2660  -999.2500   -20.5720 
   85.8750    92.4340    24.1230     9.4910     7.0850     7.6770  -999.2500   -20.4530 
   86.0000   101.6690    24.2070     8.6740     6.5490     7.0780  -999.2500   -20.3920 
   86.1250   103.1730    23.7380     8.0530     6.1760     6.7270  -999.2500   -20.3970 
   86.2500    98.2380    23.7590     7.6130     6.0670     6.7310  -999.2500   -20.4320 
   86.3750    92.8380    23.7750     7.3400     6.2760     7.1290  -999.2500   -20.4720 
   86.5000    91.0000    23.7790     7.8620     6.8130     7.8920  -999.2500   -20.4720 
   86.6250    90.4600    23.7810    10.8360     7.6090     8.8160  -999.2500   -20.5010 
   86.7500    86.0640    23.7790    17.5960     8.4420     9.6580  -999.2500   -20.6180 
   86.8750    81.4930    23.7270    23.9390     9.1100    10.2320  -999.2500   -20.8220 
   87.0000    82.8050    23.4390    23.3430     9.4410    10.4260  -999.2500   -21.0570 
   87.1250    87.1390    22.9910    15.8920     9.3340    10.1680  -999.2500   -21.3100 
   87.2500    86.3010    22.4940    12.0890     8.9730     9.6900  -999.2500   -21.5730 
   87.3750    81.2620    22.2150    11.0380     8.5350     9.1890  -999.2500   -21.8440 
   87.5000    77.2050    22.1210    11.1410     8.1380     8.7860  -999.2500   -22.0820 
   87.6250    77.3920    22.1090    11.5660     7.8660     8.6050  -999.2500   -22.2350 
   87.7500    81.0160    22.1200    11.3980     7.7550     8.6030  -999.2500   -22.3600 
   87.8750    86.5770    22.1860    10.5770     7.7560     8.7070  -999.2500   -22.4850 
   88.0000    89.0050    22.2220     9.4840     7.8380     8.8930  -999.2500   -22.6070 
   88.1250    85.6620    22.2350     9.5700     8.0120     9.1650  -999.2500   -22.7760 
   88.2500    80.8730    22.1760    10.4170     8.2370     9.4770  -999.2500   -22.9210 
   88.3750    77.5770    22.1180    11.5430     8.4830     9.7670  -999.2500   -23.1020 
   88.5000    75.1080    22.1140    11.7500     8.7150    10.0210  -999.2500   -23.3450 
   88.6250    74.9290    22.1510    11.5720     8.8760    10.1340  -999.2500   -23.5920 
   88.7500    76.7180    22.2210    11.5470     8.9180    10.1090  -999.2500   -23.7470 
   88.8750    77.8670    22.2250    11.7820     8.8480     9.9490  -999.2500   -23.8110 
   89.0000    78.6320    22.1930    12.0030     8.7170     9.7230  -999.2500   -23.8450 
   89.1250    79.0330    21.9620    12.0960     8.5900     9.5400  -999.2500   -23.8480 
   89.2500    77.7260    21.8400    12.1560     8.5170     9.4390  -999.2500   -23.8970 
   89.3750    74.8050    21.6770    12.0930     8.5030     9.4410  -999.2500   -23.9320 
   89.5000    71.3530    21.4500    11.5790     8.5530     9.5140  -999.2500   -23.9610 
   89.6250    70.8110    21.2560    10.9980     8.6690     9.6740  -999.2500   -24.0400 
   89.7500    69.8680    21.0720    11.4600     8.8200     9.8600  -999.2500   -24.1650 
   89.8750    66.1980    21.0900    12.2570     8.9690    10.0300  -999.2500   -24.2810 
   90.0000    62.3410    21.7040    12.6260     9.0860    10.1610  -999.2500   -24.3330 
   90.1250    63.9790    22.5020    12.3670     9.1620    10.2110  -999.2500   -24.2760 
   90.2500    69.2830    22.8300    12.4410     9.1990    10.2300  -999.2500   -24.1620 
   90.3750    73.7160    22.8880    12.4640     9.2230    10.2170  -999.2500   -24.0110 
   90.5000    75.0260    22.8600    12.5700     9.2460    10.2130  -999.2500   -23.8390 
   90.6250    74.9430    22.8510    12.3700     9.2850    10.2280  -999.2500   -23.6540 
   90.7500    72.8830    22.8150    12.3050     9.3280    10.2330  -999.2500   -23.5030 
   90.8750    70.0400    22.7250    11.9200     9.3190    10.1810  -999.2500   -23.3610 
   91.0000    70.6350    22.6900    11.3860     9.2010     9.9990  -999.2500   -23.2530 
   91.1250    73.3440    22.6990    11.0230     8.9480     9.6920  -999.2500   -23.2100 
   91.2500    73.9740    22.6830    11.1950     8.6100     9.2970  -999.2500   -23.2350 
   91.3750    72.9640    22.6540    11.6080     8.2430     8.8890  -999.2500   -23.3050 
   91.5000    74.2210    22.6840    11.2020     7.9250     8.5470  -999.2500   -23.3690 
   91.6250    77.6610    22.8250     9.6690     7.7640     8.3970  -999.2500   -23.4210 
   91.7500    78.4670    22.9260     8.3470     7.7640     8.4660  -999.2500   -23.4670 
   91.8750    76.3220    22.7760     8.8860     7.9210     8.7500  -999.2500   -23.5120 
   92.0000    72.9070    22.6960    10.6660     8.2020     9.2410  -999.2500   -23.5580 
   92.1250    68.0070    22.7350    11.9530     8.5360     9.8690  -999.2500   -23.6130 
   92.2500    62.4940    22.7770    12.1740     8.8310    10.5270  -999.2500   -23.6340 
   92.3750    59.5430    22.8290    12.0560     9.0410    11.1280  -999.2500   -23.6420 
   92.5000    60.2710    22.8350    11.9200     9.1470    11.5130  -999.2500   -23.6560 
   92.6250    62.3620    22.7660    12.2060     9.1290    11.6410  -999.2500   -23.6590 
   92.7500    61.4270    22.6870    12.8930     9.0800    11.6190  -999.2500   -23.5830 
   92.8750    59.8330    22.6720    13.2980     9.0350    11.5570  -999.2500   -23.4330 
   93.0000    62.2600    22.6690    13.2470     9.0080    11.4960  -999.2500   -23.2230 
   93.1250    65.7350    22.6810    12.7730     8.9960    11.5200  -999.2500   -22.9280 
   93.2500    65.7150    22.7390    12.6050     9.0060    11.6470  -999.2500   -22.6070 
   93.3750    63.2960    22.7910    12.8150     9.0170    11.8390  -999.2500   -22.2670 
   93.5000    62.0350    22.7810    12.9490     9.0100    12.0710  -999.2500   -21.9420 
   93.6250    61.3940    22.7460    12.7870     8.9780    12.2440  -999.2500   -21.6000 
   93.7500    59.8140    22.7050    12.3880     8.9190    12.2890  -999.2500   -21.2310 
   93.8750    59.9350    22.7840    11.9310     8.8370    12.2380  -999.2500   -20.8440 
   94.0000    61.7920    22.8520    11.6080     8.7450    12.1540  -999.2500   -20.4290 
   94.1250    63.9530    22.7440    11.3190     8.6490    12.0470  -999.2500   -20.0310 
   94.2500    66.9210    22.4980    10.7420     8.5210    11.8840  -999.2500   -19.6730 
   94.3750    71.5770    22.3830     9.5860     8.3240    11.6590  -999.2500   -19.3140 
   94.5000    77.8680    22.3640     8.3070     8.0450    11.3230  -999.2500   -18.8490 
   94.6250    81.5600    22.0840     7.6590     7.7050    10.8890  -999.2500   -18.3020 
