~V
VERS. 2.00: Ver 2.00
~W
STRT.M 64.0000:
STOP.M 257.0000:
STEP.M 0.1250:
NULL. -999.2500:
UWI. DF3069:
~C
DEPT.M :
GR.API :
CALI.CM :
RXO.OHMM :
RI. :
RML.OHMM :
DEN.GM/CC :
SP.MV :
~A
   64.0000    52.8490    25.2440     4.0210     1.2600     0.6080  -999.2500     2.0740 
   64.1250    53.3360    25.3870     4.0350     1.2740     0.6750  -999.2500     2.7980 
   64.2500    51.3900    25.3890     4.0370     1.2960     0.6490  -999.2500     3.5170 
   64.3750    48.8800    25.3780     3.9910     1.3070     0.5670  -999.2500     4.2070 
   64.5000    48.3260    25.1660     3.9280     1.3120     0.4660  -999.2500     4.8430 
   64.6250    51.3740    24.8520     3.8790     1.3030     0.4380  -999.2500     5.2810 
   64.7500    53.7790    24.0250     3.8450     1.2400     0.4590  -999.2500     5.4560 
   64.8750    53.8420    23.5770     3.8230     1.0960     0.3790  -999.2500     5.3530 
   65.0000    53.5220    23.3790     3.8210     0.8610     0.1640  -999.2500     4.9590 
   65.1250    53.8580    23.5090     3.8290     0.6200    -0.0660  -999.2500     4.2810 
   65.2500    52.1330    23.4320     3.8470     0.4290    -0.2620  -999.2500     3.3610 
   65.3750    48.5990    23.4290     3.8150     0.2960    -0.4050  -999.2500     2.1850 
   65.5000    46.4180    23.4140     3.7260     0.2180    -0.4950  -999.2500     0.7870 
   65.6250    49.3570    23.7830     3.7210     0.2140    -0.5080  -999.2500    -0.8110 
   65.7500    55.4990    23.7580     3.8750     0.2900    -0.4420  -999.2500    -2.5740 
   65.8750    64.3080    23.8050     4.6420     0.4740    -0.2590  -999.2500    -4.5020 
   66.0000    73.4710    24.1090     6.2520     0.8040     0.0560  -999.2500    -6.5640 
   66.1250    78.1880    25.3410     7.9680     1.3790     0.6070  -999.2500    -8.6730 
   66.2500    79.0660    27.3790     8.7500     2.1980     1.3940  -999.2500   -10.7510 
   66.3750    79.3980    30.8970     8.8820     3.2370     2.3900  -999.2500   -12.7610 
   66.5000    82.5040    34.1510     8.9280     4.3920     3.4760  -999.2500   -14.6640 
   66.6250    86.7430    34.7590     9.4220     5.5520     4.5500  -999.2500   -16.3680 
   66.7500    84.7630    34.9120    10.0530     6.6660     5.5740  -999.2500   -17.7970 
   66.8750    77.1930    34.2900    11.5450     7.7130     6.5770  -999.2500   -18.9150 
   67.0000    73.2900    32.4670    15.0500     8.6460     7.5650  -999.2500   -19.7760 
   67.1250    79.0140    28.6520    17.6200     9.2900     8.3470  -999.2500   -20.5170 
   67.2500    82.0110    25.4440    15.5430     9.5330     8.7450  -999.2500   -21.2280 
   67.3750    78.4800    24.1300    11.8500     9.3790     8.7250  -999.2500   -21.9340 
   67.5000    75.2970    23.7950    10.5760     9.0000     8.4540  -999.2500   -22.6430 
   67.6250    80.0920    24.1950    10.5320     8.5770     8.1170  -999.2500   -23.3490 
   67.7500    84.5450    24.7290    10.5560     8.2160     7.8280  -999.2500   -24.0280 
   67.8750    82.5710    24.7140    10.4240     7.9850     7.6840  -999.2500   -24.6560 
   68.0000    78.2610    24.0580    10.2060     7.8980     7.7200  -999.2500   -25.2110 
   68.1250    79.6150    23.7290    10.2830     7.9050     7.8880  -999.2500   -25.6400 
   68.2500    86.0360    23.7210    10.3790     7.9110     8.0700  -999.2500   -25.9400 
   68.3750    89.1160    23.9220    10.0450     7.9000     8.2250  -999.2500   -26.1260 
   68.5000    85.2950    24.2100     9.6670     7.8850     8.3060  -999.2500   -26.2420 
   68.6250    80.4730    24.2210     9.5850     7.8690     8.3890  -999.2500   -26.3150 
   68.7500    79.2800    24.1500     9.8910     7.8420     8.4310  -999.2500   -26.3700 
   68.8750    80.1730    24.0220    10.2050     7.7780     8.4180  -999.2500   -26.4110 
   69.0000    79.3760    23.9790    10.4200     7.7030     8.4410  -999.2500   -26.4500 
   69.1250    76.3140    24.0850    10.4290     7.7500     8.6740  -999.2500   -26.4980 
   69.2500    73.1420    24.3270    10.4290     7.9230     9.1050  -999.2500   -26.5530 
   69.3750    71.2120    24.3520    10.5170     8.1840     9.6370  -999.2500   -26.5720 
   69.5000    71.6230    24.2360    10.7010     8.4860    10.1650  -999.2500   -26.4980 
   69.6250    74.8400    24.1510    11.5440     8.7320    10.5020  -999.2500   -26.2940 
   69.7500    81.0890    24.4950    16.7890     8.7830    10.5050  -999.2500   -26.0200 
   69.8750    88.5120    24.4310    26.1790     8.5420    10.1040  -999.2500   -25.7080 
   70.0000    94.3590    24.3820    27.6530     8.0370     9.3650  -999.2500   -25.3880 
   70.1250    97.3540    24.6510    16.3700     7.3350     8.4340  -999.2500   -25.0510 
   70.2500   100.3480    24.8110     8.5090     6.6620     7.5870  -999.2500   -24.7320 
   70.3750   103.3080    24.7670     6.9080     6.1660     7.0170  -999.2500   -24.5100 
   70.5000   103.8890    24.9220     6.8130     5.8870     6.7730  -999.2500   -24.4310 
   70.6250   102.7510    24.8560     6.8070     5.8580     6.8300  -999.2500   -24.5250 
   70.7500   103.8920    24.5830     6.8470     6.0220     7.0780  -999.2500   -24.7140 
   70.8750   104.9650    24.0080     7.0780     6.3010     7.3960  -999.2500   -24.9540 
   71.0000   103.7610    23.7040     7.2820     6.5790     7.6060  -999.2500   -25.2050 
   71.1250   102.7290    23.3870     7.4690     6.7300     7.5910  -999.2500   -25.4660 
   71.2500   105.9890    23.2030     7.7210     6.7470     7.4230  -999.2500   -25.7270 
   71.3750   112.6700    23.1040     7.8560     6.6360     7.1260  -999.2500   -25.9460 
   71.5000   117.3640    23.1810     7.5830     6.4170     6.7510  -999.2500   -26.1020 
   71.6250   115.1650    23.7350     6.9810     6.0980     6.3600  -999.2500   -26.2320 
   71.7500   108.5740    24.5370     6.6690     5.7560     6.0190  -999.2500   -26.3760 
   71.8750   103.8990    24.8610     6.4070     5.4620     5.7430  -999.2500   -26.5900 
   72.0000   105.0670    24.9290     6.3300     5.2470     5.5850  -999.2500   -26.8950 
   72.1250   108.4580    24.8570     6.3710     5.1780     5.6600  -999.2500   -27.3360 
   72.2500   108.0350    24.7850     6.4410     5.3270     6.0420  -999.2500   -27.8980 
   72.3750   102.0010    24.6950     6.6080     5.7700     6.8950  -999.2500   -28.5800 
   72.5000    91.8660    24.6740     7.3680     6.5530     8.2190  -999.2500   -29.3470 
   72.6250    80.5630    24.7000     9.7650     7.7290    10.0180  -999.2500   -30.0820 
   72.7500    73.1060    24.7040    12.5760     9.1690    12.0280  -999.2500   -30.7350 
   72.8750    72.0610    24.6630    14.6940    10.6130    13.8730  -999.2500   -31.2780 
   73.0000    73.4720    24.6050    20.8260    11.7060    15.1270  -999.2500   -31.7380 
   73.1250    71.2560    24.4030    27.8520    12.0260    15.3350  -999.2500   -32.1210 
   73.2500    67.5520    24.3840    27.6790    11.6320    14.6800  -999.2500   -32.4180 
   73.3750    66.9450    24.3620    20.1240    10.7550    13.4680  -999.2500   -32.6240 
   73.5000    68.4660    24.3630    13.1150     9.7750    12.1780  -999.2500   -32.7750 
   73.6250    67.5080    24.4130    11.2150     8.9910    11.2500  -999.2500   -32.9140 
   73.7500    64.2600    24.5100    10.7650     8.4620    10.7080  -999.2500   -33.0710 
   73.8750    61.5270    24.6210    10.6190     8.2070    10.5810  -999.2500   -33.2560 
   74.0000    62.1350    24.6170    10.6640     8.2110    10.7560  -999.2500   -33.4160 
   74.1250    67.2010    24.5350    10.8740     8.3680    11.0740  -999.2500   -33.5030 
   74.2500    70.3090    24.2500    11.0040     8.5410    11.3580  -999.2500   -33.5160 
   74.3750    69.3370    23.8980    11.0240     8.6750    11.5760  -999.2500   -33.4480 
   74.5000    67.4910    23.7870    10.9530     8.7660    11.7180  -999.2500   -33.3060 
   74.6250    67.3260    23.9390    10.9620     8.7950    11.7980  -999.2500   -33.1060 
   74.7500    67.0060    24.1920    11.0550     8.7580    11.7610  -999.2500   -32.8580 
   74.8750    65.9240    24.8490    11.1280     8.6440    11.5990  -999.2500   -32.5770 
   75.0000    66.6870    25.7970    11.0300     8.4610    11.3610  -999.2500   -32.2810 
   75.1250    69.5730    26.2860    10.8670     8.2360    11.0380  -999.2500   -31.9960 
