~V
VERS. 2.00: Ver 2.00
~W
STRT.M 125.0000:
STOP.M 276.0000:
STEP.M 0.1250:
NULL. -999.2500:
UWI. DF3039:
~C
DEPT.M :
SP.MV :
GR.API :
CALI.CM :
RXO.OHMM :
RI. :
RML.OHMM :
DEN.GM/CC :
~A
# ...
  192.5000   -23.2780    57.8350    24.8070   351.5200   245.4300   254.9820     2.2520 
  192.6250   -23.0890    56.8580    24.6900   300.6970   211.9350   216.6740     2.2380 
  192.7500   -22.9450    56.4430    24.3450   239.4200   178.9750   181.4280     2.2230 
  192.8750   -22.9340    56.7710    23.9980   182.2130   149.4120   151.3440     2.2180 
  193.0000   -22.9970    56.7700    23.8950   130.5150   124.9140   127.4200     2.2300 
  193.1250   -23.0050    59.3740    24.0620    98.2810   107.5600   111.3710     2.2530 
  193.2500   -22.9240    64.8250    24.1280    85.1890    96.6880   102.0500     2.2740 
  193.3750   -22.7790    67.2430    24.1300    81.1280    92.3360    99.2420     2.2920 
  193.5000   -22.6550    63.7160    24.2450    80.3820    94.7220   103.1640     2.3090 
  193.6250   -22.6740    59.7380    24.5350    82.1590   105.8050   115.6060     2.3220 
  193.7500   -22.7650    58.4410    24.7500    87.1890   125.2580   135.7880     2.3230 
  193.8750   -22.7970    56.4310    24.8660   109.2310   152.9130   163.6730     2.3050 
  194.0000   -22.6920    53.4430    24.9750   168.3230   185.9820   197.1560     2.2710 
  194.1250   -22.4820    54.7900    25.0670   325.8390   216.5950   228.7940     2.2350 
  194.2500   -22.3260    57.4630    25.0360   485.3710   235.1930   247.2940     2.2110 
  194.3750   -22.2990    55.6120    24.9290   550.6140   236.1710   245.4200     2.1990 
  194.5000   -22.3440    50.1700    24.7010   454.1990   219.5400   223.7970     2.1990 
  194.6250   -22.2860    48.6510    24.5400   295.8320   190.7370   190.6820     2.2190 
  194.7500   -22.0760    52.5680    24.5190   194.7760   160.1220   158.7140     2.2530 
  194.8750   -21.7880    58.4570    24.5750   146.6640   133.4160   132.7330     2.2860 
  195.0000   -21.5510    61.0790    24.7290   106.0270   112.8600   113.3080     2.2990 
  195.1250   -21.4610    58.8830    24.7500    96.6540    98.8790    99.9400     2.2920 
  195.2500   -21.3840    56.2860    24.7400   105.9970    88.9570    90.3520     2.2880 
  195.3750   -21.2050    55.5350    24.6960   107.1840    82.7750    84.4990     2.2970 
  195.5000   -20.8930    55.7320    24.4200    86.2330    80.4890    82.4410     2.3080 
  195.6250   -20.5490    55.3080    23.9490    66.7100    82.5260    84.5300     2.3120 
  195.7500   -20.3100    54.3270    23.9000    61.8030    87.7310    89.5400     2.3190 
  195.8750   -20.1760    54.0480    24.0920    76.1450    95.1080    96.4110     2.3280 
  196.0000   -20.0750    56.2090    24.3550    96.9430   102.6080   103.1110     2.3250 
  196.1250   -19.9090    58.7520    24.5230   165.7690   106.4600   105.7810     2.2970 
  196.2500   -19.6690    58.6890    24.5450   217.5790   104.1780   102.1720     2.2650 
  196.3750   -19.4030    58.1810    24.5350   192.3550    94.8560    91.9230     2.2510 
  196.5000   -19.1720    60.5740    24.5620   123.9160    80.8910    77.7780     2.2610 
  196.6250   -19.0030    65.7790    24.5500    97.5170    67.0690    64.5000     2.2850 
  196.7500   -18.8670    69.9420    24.5870    84.9020    56.2250    54.6170     2.3040 
  196.8750   -18.7450    71.6360    24.4800    67.0770    49.4890    49.3300     2.3130 
  197.0000   -18.5560    71.9170    24.4850    49.5370    48.1700    49.6260     2.3200 
  197.1250   -18.2730    70.0990    24.5590    33.9100    54.6310    56.8650     2.3290 
  197.2500   -17.9980    65.6030    24.6180    34.6640    67.6430    70.1720     2.3230 
  197.3750   -17.8060    59.6950    24.6060    79.1880    87.1510    90.0530     2.2900 
  197.5000   -17.7330    56.8540    24.5290   165.6480   112.8410   116.8600     2.2380 
  197.6250   -17.6990    57.9290    24.7340   229.4320   141.8040   148.7110     2.1910 
  197.7500   -17.5800    56.2030    24.7730   260.3340   166.2010   176.6670     2.1650 
  197.8750   -17.3380    51.7360    24.7710   282.1370   178.5840   190.5370     2.1680 
  198.0000   -17.0560    50.4620    24.7830   272.3730   176.3830   186.4990     2.2080 
  198.1250   -16.8180    54.0780    24.5770   219.2610   162.6920   170.0290     2.2880 
  198.2500   -16.6290    55.8030    24.4660   218.4280   147.3110   153.5100     2.3690 
  198.3750   -16.4670    55.1250    24.5650   282.2410   133.7350   139.1790     2.4080 
  198.5000   -16.2440    55.9170    24.8020   289.5970   121.9830   126.8940     2.3950 
  198.6250   -15.9520    57.5470    24.8060   186.0530   112.2980   116.6470     2.3720 
  198.7500   -15.5980    57.9480    24.7530   124.8790   104.3840   107.8820     2.3940 
  198.8750   -15.2300    58.8950    24.5060   116.8750    96.8310    98.9280     2.4750 
  199.0000   -14.9270    59.6130    24.3950   106.6050    86.1340    87.1440     2.5890 
  199.1250   -14.7130    57.4940    24.3080    80.7100    70.5510    71.9860     2.6900 
  199.2500   -14.5180    55.6070    24.3380    57.1400    53.7720    56.1020     2.7420 
  199.3750   -14.2680    57.1610    24.2810    55.4580    38.4850    41.1260     2.7420 
  199.5000   -13.9510    58.8000    24.1850    58.8060    26.2020    28.4100     2.7120 
  199.6250   -13.6260    57.2970    24.0850    48.8870    17.8680    19.3310     2.6840 
  199.7500   -13.3830    56.2110    23.9200    27.2740    12.4180    13.3250     2.6630 
  199.8750   -13.2600    55.8810    24.0430    10.9170     9.0760     9.7260     2.6380 
  200.0000   -13.2190    52.9910    24.0550     7.2940     7.2500     7.9500     2.6030 
  200.1250   -13.2030    47.8840    23.8940     7.0930     6.5310     7.4800     2.5720 
  200.2500   -13.1880    44.8030    24.0260     7.0150     6.3700     7.5850     2.5540 
  200.3750   -13.1820    44.1620    24.3600     6.8530     6.5730     7.9960     2.5400 
  200.5000   -13.2130    43.2960    24.4440     6.4970     6.9510     8.4790     2.5200 
  200.6250   -13.2890    40.9520    24.4670     6.6240     7.2890     8.8030     2.4990 
  200.7500   -13.4170    40.8230    24.5210     6.3930     7.4780     8.8950     2.4830 
  200.8750   -13.5910    43.4230    24.7610     6.3530     7.5290     8.8230     2.4650 
  201.0000   -13.7860    46.3020    24.6910     6.0880     7.4770     8.6750     2.4410 
  201.1250   -14.0030    48.4650    24.5010     5.8740     7.3310     8.5200     2.4170 
  201.2500   -14.2430    50.9720    24.0600     6.3350     7.1520     8.4220     2.4010 
  201.3750   -14.5260    53.0230    23.8840     7.1080     7.0110     8.4310     2.3900 
  201.5000   -14.8350    53.3690    23.9480     7.1650     6.9560     8.5950     2.3830 
  201.6250   -15.1630    54.2630    24.6880     7.7050     7.0320     8.9670     2.3740 
  201.7500   -15.4760    59.1060    25.4310     8.0830     7.2220     9.5240     2.3650 
  201.8750   -15.7520    63.9890    26.2570     8.8530     7.5330    10.2490     2.3660 
  202.0000   -16.0060    65.0050    26.3960     9.4740     7.9440    11.0710     2.3820 
  202.1250   -16.2580    65.0830    25.5970    10.8970     8.4190    11.9040     2.4130 
  202.2500   -16.5650    71.9010    25.2260    12.4840     8.8840    12.6800     2.4480 
  202.3750   -16.9260    84.5290    25.3010    13.3370     9.2710    13.3040     2.4840 
  202.5000   -17.3360    95.4550    25.3400    12.9340     9.5000    13.6930     2.5120 
  202.6250   -17.7600    97.1300    25.2070    13.4910     9.5270    13.7750     2.5210 
  202.7500   -18.1720    95.4220    25.0300    13.9990     9.4250    13.6730     2.5130 
  202.8750   -18.5740    94.7010    25.1440    14.3010     9.2370    13.4760     2.4960 
  203.0000   -18.9590    93.4180    25.4030    14.5180     9.0350    13.2840     2.4800 
  203.1250   -19.3280    87.4950    25.7260    14.1500     8.9130    13.2360     2.4660 
  203.2500   -19.6760    82.0790    25.8040    13.6260     8.9060    13.3660     2.4500 
  203.3750   -20.0510    82.0620    25.5940    13.5150     9.0240    13.6590     2.4280 
  203.5000   -20.4780    84.1570    24.9840    14.4020     9.2630    14.0870     2.4030 
  203.6250   -20.9430    83.8510    24.1990    15.5740     9.5990    14.5840     2.3860 
