~V
VERS. 2.00: Ver 2.00
~W
STRT.M 115.0000:
STOP.M 288.0000:
STEP.M 0.1250:
NULL. -999.2500:
UWI. DF3049:
~C
DEPT.M :
GR.API :
CALI.CM :
RXO.OHMM :
RI. :
RML.OHMM :
SP.MV :
DEN.GM/CC :
AC.US/MT :
~A
# ...
  195.0000    67.1500    24.6110    40.8050    55.4300    53.6990   -30.9450     2.3400   386.0730 
  195.1250    66.8440    24.7470    38.6390    51.1980    49.6940   -30.6770     2.3430   386.5100 
  195.2500    67.4430    24.7740    39.1310    48.8380    47.6750   -30.4910     2.3480   388.3290 
  195.3750    68.1530    24.7680    39.6500    47.6020    46.8280   -30.3690     2.3500   390.1920 
  195.5000    68.6760    24.7370    39.3630    47.2500    46.8830   -30.3050     2.3450   391.3080 
  195.6250    69.3900    24.6510    38.6010    47.7920    47.8430   -30.3050     2.3300   391.5590 
  195.7500    69.6510    24.5280    39.7060    49.8050    50.3110   -30.3470     2.3140   391.0540 
  195.8750    69.5960    24.3660    43.9090    53.7250    54.7490   -30.4130     2.2990   390.0170 
  196.0000    69.5490    24.2050    49.3120    60.3480    61.9470   -30.4880     2.2830   388.6600 
  196.1250    68.4620    24.0820    55.4530    70.7390    72.9370   -30.5290     2.2650   387.5870 
  196.2500    63.9860    24.0700    68.5830    87.1660    90.1010   -30.5460     2.2520   387.7800 
  196.3750    58.2090    24.0950    95.1900   109.7700   114.1680   -30.5490     2.2490   389.1360 
  196.5000    54.9110    24.1100   132.4510   138.1420   145.9610   -30.5430     2.2550   391.1640 
  196.6250    56.4710    24.1200   162.9880   169.7500   184.3360   -30.4980     2.2650   393.5010 
  196.7500    60.0200    24.1500   178.4490   198.2920   222.9940   -30.4240     2.2720   396.0590 
  196.8750    60.5500    24.2180   182.6870   217.5240   251.5210   -30.3080     2.2750   398.3390 
  197.0000    57.7910    24.3290   183.3250   224.3300   263.5350   -30.1220     2.2750   399.3400 
  197.1250    55.4730    24.4820   183.7320   220.0150   260.1500   -29.9100     2.2750   398.1430 
  197.2500    55.8420    24.5830   195.2700   209.1110   247.8660   -29.6490     2.2710   394.6870 
  197.3750    57.1750    24.6640   199.3700   198.5880   235.8590   -29.3380     2.2630   391.1340 
  197.5000    58.4090    24.7330   189.3070   192.0680   228.2780   -28.9870     2.2540   389.5160 
  197.6250    57.1910    24.7690   173.4260   191.3300   226.9190   -28.5880     2.2470   390.9790 
  197.7500    52.8240    24.7740   172.5150   197.2810   232.5750   -28.1180     2.2430   395.2760 
  197.8750    50.1610    24.7740   182.6770   207.1460   242.0230   -27.6030     2.2460   399.6860 
  198.0000    50.8940    24.7740   189.6930   218.4000   252.0630   -27.0540     2.2590   400.5670 
  198.1250    53.2420    24.7650   186.7820   228.5790   259.7150   -26.4220     2.2870   393.3440 
  198.2500    54.9340    24.7390   182.0990   235.7990   263.2570   -25.7570     2.3410   371.7350 
  198.3750    55.6550    24.7050   185.2400   239.3470   262.8570   -25.0470     2.4270   337.8300 
  198.5000    54.2500    24.6980   189.3780   234.8330   253.0270   -24.2900     2.5360   297.0630 
  198.6250    50.7070    24.7180   190.8850   212.8010   221.2440   -23.5030     2.6370   258.8490 
  198.7500    49.3060    24.7560   196.8680   162.9830   160.9550   -22.7130     2.6890   237.6150 
  198.8750    51.7270    24.7880   195.0930   104.5820   100.2570   -21.9230     2.6900   239.9500 
  199.0000    55.5330    24.8290   151.7460    58.1620    56.6500   -21.1730     2.6580   267.0750 
  199.1250    59.3670    24.8600    77.0950    30.1400    30.7340   -20.5110     2.6120   310.9670 
  199.2500    63.4520    24.8710    29.7520    17.1990    17.8730   -19.9260     2.5600   352.7250 
  199.3750    64.8850    24.8720    11.7370    10.8050    11.0400   -19.4680     2.5160   376.6010 
  199.5000    63.0130    24.8720     6.0490     7.7200     7.6880   -19.1300     2.4950   381.1850 
  199.6250    61.2030    24.8720     4.6530     6.3520     6.3640   -18.9310     2.5000   375.3420 
  199.7500    61.8520    24.8720     4.7320     6.0790     6.3270   -18.8700     2.5170   369.9300 
  199.8750    65.2480    24.8700     5.1120     6.3310     6.8180   -18.9370     2.5270   369.1720 
  200.0000    71.8500    24.8680     5.5490     6.8220     7.4630   -19.0810     2.5290   373.5230 
  200.1250    81.5020    24.8700     5.9600     7.2970     7.9770   -19.3080     2.5280   383.0820 
  200.2500    88.8750    24.8710     6.2480     7.5590     8.1840   -19.5960     2.5290   393.4500 
  200.3750    92.8600    24.8720     6.4420     7.6430     8.2010   -19.9160     2.5360   397.1250 
  200.5000    96.9570    24.8720     6.5740     7.6440     8.1820   -20.2760     2.5420   392.6460 
  200.6250   104.2600    24.8710     6.7340     7.6560     8.2570   -20.6590     2.5390   385.1090 
  200.7500   112.3030    24.8690     7.0530     7.7360     8.5190   -21.0510     2.5230   381.3020 
  200.8750   116.5970    24.8690     7.3930     7.8520     8.9060   -21.4520     2.5090   381.7080 
  201.0000   115.7840    24.8710     7.6500     7.9350     9.3090   -21.8810     2.4990   384.6100 
  201.1250   112.3850    24.8710     7.8470     7.9110     9.5880   -22.3350     2.4870   388.3340 
  201.2500   109.5740    24.8690     7.8820     7.7200     9.6040   -22.7800     2.4750   392.3560 
  201.3750   106.3870    24.8670     7.8670     7.4430     9.4340   -23.2300     2.4690   396.4020 
  201.5000   104.4590    24.8670     7.8190     7.1900     9.2350   -23.6800     2.4720   398.5500 
  201.6250   103.7420    24.8700     7.8530     7.0750     9.2000   -24.1380     2.4800   395.6020 
  201.7500   100.9110    24.8700     8.2270     7.2320     9.5630   -24.5860     2.4940   385.8300 
  201.8750    94.7860    24.8690     9.0500     7.6620    10.3470   -25.0120     2.5120   374.1580 
  202.0000    89.0420    24.8690    10.2030     8.3280    11.4820   -25.3940     2.5250   364.8910 
  202.1250    86.9570    24.8710    11.1930     9.1040    12.7540   -25.6730     2.5230   360.1970 
  202.2500    87.5300    24.8720    11.4450     9.7410    13.7620   -25.8790     2.5120   361.2380 
  202.3750    88.1800    24.8710    11.5670    10.0500    14.2410   -25.9840     2.5040   366.8640 
  202.5000    88.8490    24.8700    11.5480     9.9710    14.1290   -25.9620     2.4980   375.5180 
  202.6250    90.7570    24.8660    11.0400     9.5660    13.5410   -25.7360     2.4900   384.0280 
  202.7500    94.8350    24.8660    10.4970     8.9430    12.6560   -25.3580     2.4820   389.3080 
  202.8750    99.1150    24.8640    10.4040     8.2800    11.7270   -24.8740     2.4840   392.6220 
  203.0000   100.5330    24.8640    10.5660     7.7130    10.9510   -24.3330     2.4950   395.7310 
  203.1250    98.3590    24.8590    10.3330     7.3730    10.5350   -23.7700     2.5040   398.3930 
  203.2500    94.8720    24.8440     9.5650     7.4260    10.7460   -23.2200     2.4980   398.2270 
  203.3750    90.5780    24.8200     9.5100     7.8660    11.5500   -22.6920     2.4810   395.7000 
  203.5000    85.4330    24.8100    10.9160     8.6940    12.8850   -22.2160     2.4610   392.7560 
  203.6250    82.9690    24.8610    13.2540     9.8800    14.6300   -21.8460     2.4450   390.2710 
  203.7500    86.2690    25.0000    14.9530    11.4330    16.7200   -21.5180     2.4430   386.0140 
  203.8750    88.2430    25.1100    15.8770    13.3140    19.1580   -21.1810     2.4640   377.1170 
  204.0000    82.9820    25.1500    17.4780    15.5770    22.1250   -20.8190     2.5050   362.2200 
  204.1250    74.5830    25.1540    21.4450    18.1620    25.6220   -20.3950     2.5540   342.2060 
  204.2500    73.5780    25.1540    27.3900    20.3060    28.5980   -19.8920     2.5930   321.9580 
  204.3750    78.3870    25.1540    32.3850    20.6200    28.9660   -19.3020     2.6230   310.1520 
  204.5000    81.7580    25.1540    33.3350    18.3200    25.4350   -18.6420     2.6430   313.5010 
  204.6250    80.1280    25.1540    28.0080    14.2910    19.2270   -17.8970     2.6450   332.5170 
  204.7500    74.5860    25.1530    17.9610    10.4050    13.3070   -17.1410     2.6150   359.3550 
  204.8750    67.4230    25.1420     9.8010     7.5700     9.1730   -16.3850     2.5600   381.5080 
