~V
VERS. 2.00: Ver 2.00
~W
STRT.M 65.0000:
STOP.M 270.0000:
STEP.M 0.1250:
NULL. -999.2500:
UWI. DF3062:
~C
DEPT.M :
SP.MV :
GR.API :
CALI.CM :
RXO.OHMM :
RI. :
RML.OHMM :
DEN.GM/CC :
~A
   65.0000    15.0910    39.3130    25.3390     9.4170     1.6610     7.9220  -999.2500 
   65.1250    14.5550    39.5570    25.4130     5.5090     1.6480     7.7780  -999.2500 
   65.2500    14.0000    39.2770    25.4050    12.6190     1.6430     7.6870  -999.2500 
   65.3750    13.4080    39.6940    25.4440    42.1010     1.6440     7.5490  -999.2500 
   65.5000    12.8770    39.9370    25.3660   157.5000     1.6490     7.3840  -999.2500 
   65.6250    12.5190    39.0060    25.4160   205.2980     1.6710     7.2280  -999.2500 
   65.7500    12.3220    39.4650    25.3860   223.7600     1.6900     7.0910  -999.2500 
   65.8750    12.1940    41.9600    25.3220   272.5690     1.7200     6.9600  -999.2500 
   66.0000    12.1450    43.9410    25.2860   323.0330     1.7550     6.8790  -999.2500 
   66.1250    12.2050    42.2830    25.3810   427.6300     1.7860     6.8020  -999.2500 
   66.2500    12.4380    39.2350    25.3590   389.5010     1.8170     6.7450  -999.2500 
   66.3750    12.9320    38.5380    25.3290   274.9910     1.8450     6.6640  -999.2500 
   66.5000    13.6760    41.8360    25.4190   296.6060     1.8650     6.5610  -999.2500 
   66.6250    14.5960    46.4810    25.3400   181.9030     1.8680     6.4200  -999.2500 
   66.7500    15.6070    47.0920    25.4310   156.8730     1.8500     6.3220  -999.2500 
   66.8750    16.6220    44.7310    25.3400   177.6900     1.8020     6.2970  -999.2500 
   67.0000    17.5500    44.4280    25.4180   209.3930     1.7060     6.2490  -999.2500 
   67.1250    18.3340    46.5950    25.3240   117.6780     1.5190     5.7770  -999.2500 
   67.2500    18.8860    48.0150    25.3490    42.3920     1.2030     4.5620  -999.2500 
   67.3750    19.0950    49.1520    25.3690    26.7000     0.8520     3.0200  -999.2500 
   67.5000    18.8490    52.4860    25.1950    33.4630     0.5550     1.7080  -999.2500 
   67.6250    17.8260    54.2530    25.2020    27.4030     0.3540     0.8320  -999.2500 
   67.7500    15.8940    54.1260    25.1440    18.5710     0.2270     0.2940  -999.2500 
   67.8750    12.9500    55.2470    25.1020    10.9500     0.1820     0.0570  -999.2500 
   68.0000     9.0040    59.2190    24.9930     5.9200     0.2360     0.1220  -999.2500 
   68.1250     4.1750    66.9700    24.0710     4.8430     0.4730     0.5500  -999.2500 
   68.2500    -1.0400    76.5620    23.2520     7.1470     0.9780     1.3970  -999.2500 
   68.3750    -6.4340    83.3140    22.9610     9.8830     1.9040     2.7700  -999.2500 
   68.5000   -11.8400    81.1320    22.8600    11.3850     3.3200     4.6210  -999.2500 
   68.6250   -16.9900    73.7560    22.8660    10.6470     5.1180     6.5970  -999.2500 
   68.7500   -21.5850    71.5800    22.6640    10.5170     6.8200     8.1330  -999.2500 
   68.8750   -25.3970    73.3200    22.6550     9.7840     8.0840     8.9270  -999.2500 
   69.0000   -28.2920    72.0470    22.7020     9.5190     8.7640     9.0020  -999.2500 
   69.1250   -30.3460    68.7960    22.8320     9.2410     9.0060     8.8160  -999.2500 
   69.2500   -31.9210    69.3750    22.8600     8.9260     9.1490     8.7520  -999.2500 
   69.3750   -33.1580    72.5280    22.8080     8.7010     9.2690     8.8050  -999.2500 
   69.5000   -34.1300    73.8120    22.6720     8.4710     9.3970     8.9510  -999.2500 
   69.6250   -34.8460    72.8580    22.6890     8.7300     9.5410     9.1510  -999.2500 
   69.7500   -35.3980    71.5690    22.6790     8.9070     9.6370     9.2880  -999.2500 
   69.8750   -35.8410    69.6730    22.6740     8.8330     9.6540     9.3300  -999.2500 
   70.0000   -36.1850    67.5450    22.5860     8.6450     9.6270     9.3190  -999.2500 
   70.1250   -36.4510    65.7630    22.6010     8.7950     9.5880     9.3200  -999.2500 
   70.2500   -36.6460    64.8000    22.5120     9.2600     9.5410     9.3390  -999.2500 
   70.3750   -36.8090    65.0490    22.5940     9.7450     9.5090     9.4160  -999.2500 
   70.5000   -36.9230    66.6220    22.5300     9.6740     9.5090     9.5340  -999.2500 
   70.6250   -36.9750    68.4950    22.6040     8.9760     9.5270     9.6620  -999.2500 
   70.7500   -36.9720    71.3210    22.5180     8.1990     9.4980     9.7200  -999.2500 
   70.8750   -36.9140    74.0350    22.5020     7.9130     9.3650     9.6720  -999.2500 
   71.0000   -36.8680    76.1360    22.5830     7.5540     9.0830     9.4700  -999.2500 
   71.1250   -36.7600    79.1820    22.4700     6.8000     8.6280     9.0610  -999.2500 
   71.2500   -36.6730    83.2630    22.3050     6.3140     8.0770     8.5420  -999.2500 
   71.3750   -36.6050    87.2650    22.3390     6.3880     7.5450     8.0770  -999.2500 
   71.5000   -36.5570    89.0020    22.3970     6.4110     7.1930     7.8910  -999.2500 
   71.6250   -36.6000    88.1920    22.5800     5.7060     7.2510     8.3700  -999.2500 
   71.7500   -36.7190    84.7380    22.5780     5.8480     7.8410     9.6760  -999.2500 
   71.8750   -36.9250    78.1960    22.6970     7.2750     9.0790    11.8380  -999.2500 
   72.0000   -37.1250    70.3570    22.9080    10.0580    10.9500    14.6000  -999.2500 
   72.1250   -37.4460    64.6060    23.4330    18.2430    13.2980    17.4560  -999.2500 
   72.2500   -37.8470    64.1070    23.9060    27.2590    15.5000    19.6760  -999.2500 
   72.3750   -38.3630    65.1160    24.1230    34.0690    16.7950    20.5620  -999.2500 
   72.5000   -38.9300    62.8630    24.1690    36.4360    16.6650    19.7830  -999.2500 
   72.6250   -39.4730    60.3920    23.8070    29.5730    15.2240    17.5680  -999.2500 
   72.7500   -40.0040    61.7200    23.3590    19.2500    13.3870    14.9690  -999.2500 
   72.8750   -40.5300    64.0310    23.1450    13.1490    11.6480    12.6510  -999.2500 
   73.0000   -41.0650    63.1470    23.0850    11.6230    10.3120    11.0550  -999.2500 
   73.1250   -41.5790    63.0150    23.0840    11.3150     9.5200    10.3220  -999.2500 
   73.2500   -41.9710    64.9620    23.1090    11.1460     9.1010    10.0910  -999.2500 
   73.3750   -42.2760    63.5390    23.2330    11.1870     8.9510    10.1620  -999.2500 
   73.5000   -42.5110    58.5070    23.1150    11.2020     8.9630    10.3630  -999.2500 
   73.6250   -42.7050    57.8340    23.0490    11.0950     9.0350    10.5560  -999.2500 
   73.7500   -42.8590    62.6610    23.0290    10.9020     9.1030    10.6960  -999.2500 
   73.8750   -42.9350    66.1970    23.0610    10.9990     9.1710    10.7750  -999.2500 
   74.0000   -43.0360    64.0630    23.0690    11.2640     9.2440    10.8000  -999.2500 
   74.1250   -43.0640    61.5670    23.1260    11.1990     9.3080    10.7570  -999.2500 
   74.2500   -43.0660    62.5750    23.1870    11.0920     9.3540    10.6590  -999.2500 
   74.3750   -42.9810    64.0800    23.1580    11.0590     9.3710    10.5120  -999.2500 
   74.5000   -42.8340    62.8550    23.2590    10.9500     9.3540    10.3560  -999.2500 
   74.6250   -42.6150    60.4250    23.1250    10.8310     9.3100    10.2520  -999.2500 
   74.7500   -42.4290    60.5430    23.1230    10.5470     9.2510    10.2020  -999.2500 
   74.8750   -42.2290    61.6350    23.0750    10.2090     9.1900    10.2040  -999.2500 
   75.0000   -41.9620    62.0250    23.0460    10.0830     9.1450    10.2150  -999.2500 
   75.1250   -41.7550    62.6120    22.8330    10.4230     9.1170    10.2040  -999.2500 
   75.2500   -41.5440    63.0430    22.8210    11.1040     9.1090    10.1790  -999.2500 
   75.3750   -41.3750    62.4480    22.9000    11.3500     9.0990    10.1440  -999.2500 
   75.5000   -41.2600    60.9870    23.0570    11.1040     9.0810    10.1100  -999.2500 
   75.6250   -41.1090    60.4190    23.1380    10.8560     9.0300    10.0980  -999.2500 
   75.7500   -40.9130    61.3580    23.1560    11.0220     8.9790    10.1200  -999.2500 
   75.8750   -40.7710    63.6590    23.1270    11.2530     8.9310    10.1820  -999.2500 
   76.0000   -40.5830    65.9450    23.1310    11.4240     8.8840    10.2900  -999.2500 
   76.1250   -40.2310    64.9180    23.1270    11.3220     8.8360    10.5130  -999.2500 
