~V
VERS. 2.00: Ver 2.00
~W
STRT.M 60.0000:
STOP.M 268.0000:
STEP.M 0.1250:
NULL. -999.2500:
UWI. DF3035:
~C
DEPT.M :
GR.API :
CALI.CM :
RXO.OHMM :
RI. :
RML.OHMM :
SP.MV :
DEN.GM/CC :
AC.US/MT :
~A
# ...
  190.0000    59.1480    25.3540   203.5330   173.6520   217.6870   -33.4160     2.2470   375.0640 
  190.1250    61.5870    25.3820   254.7670   203.7530   253.5810   -33.3370     2.2300   373.6580 
  190.2500    63.4960    25.3870   283.1410   221.4020   269.3670   -33.1470     2.2230   371.7220 
  190.3750    64.8400    25.3510   289.3790   214.4090   249.9470   -32.8900     2.2160   368.1940 
  190.5000    66.6210    25.2520   261.3550   184.6120   205.3030   -32.6050     2.2000   363.1880 
  190.6250    68.1490    25.0690   190.8590   147.5750   160.7760   -32.3570     2.1800   358.6320 
  190.7500    68.0390    24.8800   120.1500   117.7260   128.7620   -32.1910     2.1740   356.9480 
  190.8750    67.6200    24.7380    78.7560    98.4100   109.5860   -32.0980     2.1890   359.4120 
  191.0000    69.1040    24.6400    64.6320    88.8740   101.0130   -32.0880     2.2180   365.7470 
  191.1250    72.9700    24.5560    71.7770    88.1710   101.8200   -32.1670     2.2440   374.3160 
  191.2500    75.0480    24.4840    89.2570    92.9250   108.5660   -32.3020     2.2570   382.2840 
  191.3750    74.2380    24.4600   106.1930   101.5090   119.5500   -32.4910     2.2620   388.0470 
  191.5000    72.3730    24.5230   113.6810   112.2960   132.9480   -32.7370     2.2650   391.1540 
  191.6250    70.0590    24.7100   114.6140   123.7830   147.0700   -33.0290     2.2680   392.2560 
  191.7500    68.6330    24.9470   122.3180   135.2530   161.3200   -33.3350     2.2600   393.2750 
  191.8750    68.2600    25.1440   142.2000   147.2390   176.5690   -33.6440     2.2370   395.2440 
  192.0000    69.0140    25.2510   167.6260   160.4790   193.8060   -33.9540     2.2080   398.3130 
  192.1250    68.7320    25.2780   182.4380   175.1880   213.2230   -34.2570     2.1940   401.5100 
  192.2500    65.5880    25.2820   189.0580   190.2050   233.0060   -34.5560     2.1970   403.2870 
  192.3750    61.5350    25.2780   201.4670   204.1700   250.9820   -34.8420     2.2040   402.8010 
  192.5000    59.7060    25.2700   220.9820   215.3400   264.2970   -35.0900     2.2090   400.1830 
  192.6250    61.2720    25.2650   226.6970   220.3580   267.6140   -35.2950     2.2120   396.3810 
  192.7500    63.2460    25.2710   213.5990   217.1520   258.3230   -35.4360     2.2160   392.9810 
  192.8750    64.8620    25.2800   195.0980   203.1860   234.2330   -35.4870     2.2180   391.0290 
  193.0000    67.3260    25.2750   182.6090   178.2880   197.9160   -35.4530     2.2130   391.1530 
  193.1250    68.8710    25.2630   172.6490   146.9830   158.6020   -35.3360     2.2070   393.7410 
  193.2500    67.8480    25.2590   151.5000   117.9960   125.7920   -35.1940     2.2090   398.0290 
  193.3750    65.5390    25.2590   116.1820    95.8000   102.5890   -35.0200     2.2210   403.4070 
  193.5000    64.7840    25.2520    80.2170    81.8150    88.9310   -34.8170     2.2420   409.0700 
  193.6250    66.1030    25.2320    65.5610    76.7070    84.7200   -34.5980     2.2630   413.7850 
  193.7500    66.7490    25.2110    72.5510    77.7890    86.9500   -34.3830     2.2740   416.7000 
  193.8750    66.6570    25.2060    90.5850    83.6080    94.1280   -34.1940     2.2700   417.3810 
  194.0000    67.9610    25.2260   103.2750    92.5320   104.5100   -34.0440     2.2550   416.0110 
  194.1250    69.2860    25.2500   103.4370   102.4590   115.7340   -33.9330     2.2410   413.3450 
  194.2500    67.1040    25.2560   102.9710   111.2330   125.5460   -33.8280     2.2370   410.7810 
  194.3750    64.0550    25.2450   107.4170   118.4240   133.7450   -33.7390     2.2400   409.1360 
  194.5000    64.2360    25.2350   116.8930   124.9540   141.6890   -33.6760     2.2420   408.7330 
  194.6250    65.6540    25.2290   133.3460   132.2570   151.2120   -33.6420     2.2370   409.3490 
  194.7500    64.8510    25.2250   153.0700   140.4590   162.2060   -33.6680     2.2350   410.0670 
  194.8750    64.3730    25.2340   168.8800   148.6410   173.3520   -33.7610     2.2400   410.4150 
  195.0000    66.5310    25.2550   174.5050   155.4260   182.7330   -33.9110     2.2480   410.4140 
  195.1250    68.2450    25.2600   168.8360   159.2690   188.2250   -34.0980     2.2480   410.4430 
  195.2500    66.2050    25.2380   160.3850   160.7030   190.4750   -34.2850     2.2420   410.7710 
  195.3750    61.9920    25.2100   153.9080   160.7910   190.7640   -34.4690     2.2320   411.3110 
  195.5000    59.8220    25.1990   149.8000   160.6470   190.3430   -34.6290     2.2250   411.6460 
  195.6250    62.2180    25.2000   147.7970   160.6250   189.3790   -34.7230     2.2190   411.0270 
  195.7500    65.6470    25.2020   149.2550   159.9470   186.9690   -34.7160     2.2100   409.3880 
  195.8750    66.2290    25.1970   155.0450   157.5460   181.9370   -34.6490     2.1950   406.9760 
  196.0000    65.1340    25.1760   160.4800   152.6780   173.6530   -34.5310     2.1840   404.0460 
  196.1250    65.0830    25.1310   157.8260   144.9120   162.0020   -34.3890     2.1920   400.7390 
  196.2500    64.4050    25.0670   149.9900   135.2700   148.5140   -34.2570     2.2090   397.5370 
  196.3750    62.2890    25.0050   142.7200   124.4920   134.2410   -34.1480     2.2160   395.1830 
  196.5000    60.9270    24.9760   135.5130   113.3830   120.2310   -34.0990     2.2100   394.4900 
  196.6250    62.6280    24.9590   120.2510   103.1830   108.0040   -34.1500     2.2070   396.1590 
  196.7500    66.9220    24.8770    98.5700    94.9120    98.4140   -34.2960     2.2130   399.0050 
  196.8750    72.2000    24.7250    80.1230    89.2020    91.9370   -34.4630     2.2230   401.4320 
  197.0000    74.6450    24.6110    73.1810    86.0990    88.4450   -34.6290     2.2280   402.2440 
  197.1250    71.8140    24.6660    80.3600    85.1870    87.3680   -34.7570     2.2300   401.4850 
  197.2500    69.1350    24.8280    91.0510    84.7390    86.7930   -34.8490     2.2310   400.7470 
  197.3750    70.4230    24.9720    93.5570    83.4130    85.3160   -34.8700     2.2360   400.8720 
  197.5000    73.1890    25.0180    84.2890    80.5150    82.3000   -34.8290     2.2470   401.5570 
  197.6250    73.7180    24.9650    71.7590    76.5230    78.4880   -34.7540     2.2600   401.0120 
  197.7500    73.3870    24.8940    65.0770    73.8200    76.2430   -34.5330     2.2680   397.5030 
  197.8750    72.8630    24.8460    62.7880    72.7410    75.6090   -34.2510     2.2720   389.9410 
  198.0000    70.2710    24.7880    61.7590    73.1460    77.1250   -33.9840     2.2780   378.0470 
  198.1250    65.9220    24.8220    64.5390    78.8720    84.5240   -33.7660     2.2990   362.4600 
  198.2500    62.3930    24.9170    73.7430    90.4580    98.2550   -33.6100     2.3390   347.0380 
  198.3750    61.0910    24.9750    97.5710   107.8950   118.5730   -33.5120     2.3890   336.3150 
  198.5000    60.5750    24.9600   144.9490   129.1340   143.6190   -33.5060     2.4230   334.3560 
  198.6250    61.9960    24.9500   199.3600   147.5140   165.3670   -33.5910     2.4120   343.5690 
  198.7500    65.9810    25.0160   222.2160   155.4230   173.3940   -33.7300     2.3660   358.4410 
  198.8750    69.4480    25.1320   205.4080   149.7760   164.3890   -33.8940     2.3090   373.6450 
  199.0000    70.1790    25.2290   166.7150   134.1470   145.0030   -34.0780     2.2680   385.3050 
  199.1250    68.7280    25.2360   125.9380   116.3430   125.8670   -34.2780     2.2570   392.0920 
  199.2500    68.2750    25.1610    97.2770   102.6450   112.5360   -34.4920     2.2630   396.6570 
  199.3750    67.1790    25.0460    86.4410    94.8460   105.8620   -34.7030     2.2740   400.6900 
  199.5000    64.7010    24.9300    91.9740    92.7820   105.2360   -34.8680     2.2830   404.6670 
  199.6250    63.3850    24.8720   109.1350    95.9590   110.1200   -34.9690     2.2850   408.1850 
  199.7500    63.6720    24.9120   125.2940   101.7970   117.8610   -35.0130     2.2820   411.2100 
  199.8750    63.0770    25.0280   134.7520   108.5450   126.5120   -34.9830     2.2800   414.0810 
