~V
VERS. 2.00: Ver 2.00
~W
STRT.M 63.0000:
STOP.M 272.0000:
STEP.M 0.1250:
NULL. -999.2500:
UWI. DF3013:
~C
DEPT.M :
DEN.GM/CC :
SP.MV :
AC.US/MT :
GR.API :
CALI.CM :
RXO.OHMM :
RI. :
RML.OHMM :
~A
# ...
  183.0000     2.2600   -18.7720   414.6870    66.9160    24.8500    63.4910    87.5480    83.8870 
  183.1250     2.2650   -18.8780   414.7810    72.2310    24.8050    60.3210    76.1240    72.9800 
  183.2500     2.2730   -19.0030   414.9740    73.5170    24.7560    56.5910    68.8300    66.0810 
  183.3750     2.2790   -19.1260   414.9810    70.3560    24.7290    53.1680    64.8420    62.3030 
  183.5000     2.2820   -19.2350   414.7780    68.1540    24.7250    50.7810    63.4480    60.9090 
  183.6250     2.2810   -19.3330   414.4160    71.8230    24.7240    53.4260    64.3240    61.4760 
  183.7500     2.2790   -19.4270   414.3020    76.6370    24.7210    58.9870    66.3140    62.8650 
  183.8750     2.2750   -19.5290   415.1720    77.2300    24.7120    61.5160    68.3380    64.0690 
  184.0000     2.2690   -19.6440   417.4500    73.6540    24.6840    61.0300    69.2500    64.1190 
  184.1250     2.2680   -19.7610   420.5500    69.8500    24.6590    79.2660    68.0570    62.3090 
  184.2500     2.2720   -19.8740   422.7100    67.3970    24.6630    81.4700    65.4070    59.4370 
  184.3750     2.2770   -19.9780   423.5290    66.0940    24.6690    61.6150    62.3400    56.5620 
  184.5000     2.2810   -20.0700   423.5770    66.2540    24.6340    44.5620    59.9990    54.7150 
  184.6250     2.2820   -20.1510   422.8550    69.1830    24.5590    46.8750    59.3640    54.7050 
  184.7500     2.2810   -20.2230   421.5850    72.5410    24.4970    51.3210    60.1570    56.0890 
  184.8750     2.2750   -20.2920   420.5700    73.2620    24.4750    54.7170    61.8130    58.2170 
  185.0000     2.2680   -20.3690   420.5440    71.1520    24.5050    57.3890    63.4890    60.2470 
  185.1250     2.2620   -20.4650   421.2460    70.7790    24.5630    59.3580    64.3770    61.5240 
  185.2500     2.2540   -20.5700   422.1870    73.8480    24.5800    59.9460    64.9700    62.7570 
  185.3750     2.2350   -20.6630   423.3030    75.4880    24.5460    57.2720    66.6420    65.4260 
  185.5000     2.2100   -20.7300   424.3250    73.6810    24.5140    55.6750    71.1520    71.1870 
  185.6250     2.1940   -20.7580   424.2380    71.7080    24.4660    70.7840    81.1010    82.2590 
  185.7500     2.1860   -20.7550   422.9900    71.2050    24.2630   129.6130    96.4430    98.3000 
  185.8750     2.1810   -20.7170   422.0110    68.8240    23.9070   205.2050   115.4060   117.5020 
  186.0000     2.1860   -20.6440   422.2930    64.9430    23.6160   231.8960   132.8210   134.5290 
  186.1250     2.2140   -20.5290   422.9100    62.8560    23.6620   180.2490   139.2130   139.3010 
  186.2500     2.2460   -20.3880   422.4280    61.6320    23.9620   137.8970   133.6710   132.1650 
  186.3750     2.2620   -20.2290   421.2220    61.0950    24.2990   112.8080   121.8330   120.5610 
  186.5000     2.2590   -20.0660   420.9000    63.8420    24.5050    92.6290   111.5960   112.4920 
  186.6250     2.2510   -19.9190   421.9940    69.0940    24.5330    85.3560   110.4040   113.9490 
  186.7500     2.2450   -19.8040   423.7790    70.5340    24.5060   122.7600   119.9840   125.3510 
  186.8750     2.2370   -19.7370   424.7870    67.9390    24.4770   210.9920   141.3270   147.6260 
  187.0000     2.2240   -19.7300   423.6540    65.7170    24.3830   299.0160   173.4950   180.7300 
  187.1250     2.2110   -19.7770   420.0850    66.7980    24.1430   316.5990   211.0840   220.5690 
  187.2500     2.2010   -19.8420   415.9530    67.3260    23.8540   298.5020   241.6170   253.4850 
  187.3750     2.2020   -19.9020   412.3150    65.7370    23.6280   266.4170   256.2330   268.6090 
  187.5000     2.2120   -19.9420   409.5380    63.9830    23.5010   232.4520   255.3390   266.8510 
  187.6250     2.2270   -19.9470   409.1950    64.0690    23.5340   195.0080   248.0800   259.6770 
  187.7500     2.2360   -19.9290   411.9730    64.3010    23.8680   189.3790   244.4710   257.2430 
  187.8750     2.2380   -19.9020   416.6270    62.3960    24.4870   199.2360   247.1360   261.4900 
  188.0000     2.2340   -19.8790   420.5630    59.0630    25.0980   230.2630   254.9510   270.7430 
  188.1250     2.2260   -19.8660   421.3160    55.2210    25.3610   272.7890   263.9400   280.0950 
  188.2500     2.2150   -19.8550   420.0350    51.1830    25.3920   308.7920   268.2120   282.7350 
  188.3750     2.2060   -19.8310   418.7130    50.0510    25.3580   304.1720   263.6690   274.2430 
  188.5000     2.2020   -19.7870   419.1310    53.6630    25.3090   275.9290   249.7000   255.0690 
  188.6250     2.2030   -19.7250   420.6820    57.3910    25.2810   219.6710   229.1490   229.8700 
  188.7500     2.2060   -19.6650   420.9050    57.7770    25.2880   181.2590   208.1790   205.4420 
  188.8750     2.2090   -19.6210   419.4660    57.7110    25.2830   162.4020   190.4940   185.2000 
  189.0000     2.2130   -19.5990   417.3300    59.1390    25.2330   150.1060   178.3880   170.7650 
  189.1250     2.2190   -19.5890   414.6740    60.1000    25.1750   131.3280   172.8050   162.1420 
  189.2500     2.2230   -19.5790   410.5070    60.5990    25.1500   123.4000   169.2550   154.5810 
  189.3750     2.2310   -19.5650   403.5690    61.9740    25.1490   132.9620   162.2790   143.1790 
  189.5000     2.2450   -19.5480   393.8570    63.4710    25.1570   158.6790   147.6120   125.2570 
  189.6250     2.2600   -19.5350   385.2690    63.3580    25.1740   149.6340   125.3070   103.2340 
  189.7500     2.2720   -19.5210   383.3210    63.7590    25.1490   104.3820   102.1790    83.0430 
  189.8750     2.2830   -19.4980   389.2470    65.5860    25.0530    63.4450    82.0860    66.6540 
  190.0000     2.2980   -19.4530   398.7210    67.7130    24.9120    42.9980    65.5900    53.3530 
  190.1250     2.3110   -19.3760   405.5970    70.9080    24.7660    42.2870    51.5650    41.8870 
  190.2500     2.3200   -19.2850   409.8950    74.4490    24.6260    45.5790    38.9750    31.6570 
  190.3750     2.3290   -19.1880   414.4680    77.3560    24.5010    42.2140    28.5700    23.3360 
  190.5000     2.3460   -19.0850   420.1720    80.9280    24.4140    28.7920    21.1380    17.5370 
  190.6250     2.3710   -18.9740   424.0820    86.9260    24.3880    15.4210    17.2210    14.8260 
  190.7500     2.3900   -18.8610   424.3320    91.2280    24.3970    10.5290    15.9890    14.6500 
  190.8750     2.3840   -18.7610   421.3540    89.1120    24.3860    12.1280    17.5620    17.1260 
  191.0000     2.3470   -18.6910   417.6290    82.4420    24.3100    19.5190    22.8800    22.7820 
  191.1250     2.2950   -18.6480   416.3650    76.5430    24.1910    31.4730    35.0050    33.6140 
  191.2500     2.2570   -18.6090   418.5800    71.7500    24.1080    41.5760    54.8750    50.5140 
  191.3750     2.2430   -18.5440   422.3920    67.8840    24.0770    44.4190    81.3910    73.8150 
  191.5000     2.2460   -18.4340   423.2890    66.3300    24.0710    42.0390   108.8940   100.0790 
  191.6250     2.2550   -18.2720   418.8320    66.7150    24.0580    39.5410   127.2090   118.9230 
  191.7500     2.2620   -18.0740   413.3650    65.9370    24.0120    39.6840   132.4980   123.8850 
  191.8750     2.2630   -17.8530   410.7240    63.9320    23.9340    41.5840   124.7320   114.7940 
  192.0000     2.2560   -17.6220   411.7460    63.9590    23.8510    42.1210   106.7820    95.9250 
  192.1250     2.2520   -17.3840   415.2090    68.0200    23.7980    42.4830    84.1490    74.6470 
  192.2500     2.2640   -17.1500   418.4560    72.3340    23.7760    38.5110    64.0550    57.5810 
  192.3750     2.2940   -16.9180   418.6820    76.3260    23.8340    31.1860    49.6420    46.4840 
  192.5000     2.3260   -16.6880   415.3000    80.3530    24.0460    22.7450    41.2750    40.7730 
  192.6250     2.3400   -16.4660   411.3320    80.9280    24.3970    21.6270    38.1880    39.4040 
  192.7500     2.3350   -16.2490   409.4300    76.7630    24.7040    33.1990    37.3840    39.7430 
  192.8750     2.3240   -16.0350   409.1560    71.3820    24.8530    38.7120    36.9060    39.8900 
