~V
VERS. 2.00: Ver 2.00
~W
STRT.M 125.0000:
STOP.M 273.0000:
STEP.M 0.1250:
NULL. -999.2500:
UWI. DF3072:
~C
DEPT.M :
DEN.GM/CC :
GR.API :
CALI.CM :
RXO.OHMM :
RI. :
RML.OHMM :
SP.MV :
~A
# ...
  248.7500     2.3910    63.0830    25.1550     4.7150     5.5170     5.8100   -11.5900 
  248.8750     2.4010    63.6010    24.7980     4.6270     5.4150     5.7080   -11.5000 
  249.0000     2.4000    64.0400    24.3730     4.6030     5.3340     5.6420   -11.3910 
  249.1250     2.3860    62.7820    24.2670     4.6840     5.2920     5.6740   -11.2900 
  249.2500     2.3760    61.3170    24.4690     4.8460     5.2920     5.8060   -11.2230 
  249.3750     2.3770    62.4970    24.6960     5.0000     5.3370     6.0190   -11.2030 
  249.5000     2.3870    64.9040    24.7690     5.0520     5.4310     6.2870   -11.2680 
  249.6250     2.4010    65.6830    24.7560     5.0330     5.5880     6.6090   -11.4290 
  249.7500     2.4130    67.3490    24.7250     5.0930     5.7990     6.9790   -11.6580 
  249.8750     2.4220    71.2120    24.6390     5.3290     6.0560     7.4000   -11.9390 
  250.0000     2.4290    74.5710    24.2860     5.8260     6.3510     7.8710   -12.2500 
  250.1250     2.4340    73.5170    23.4950     6.7350     6.6750     8.3690   -12.5530 
  250.2500     2.4340    70.3150    22.6720     7.9660     7.0030     8.8500   -12.8130 
  250.3750     2.4290    67.7780    22.3630     9.3140     7.3160     9.2630   -13.0190 
  250.5000     2.4220    67.5640    22.7690    10.4790     7.5930     9.5690   -13.1630 
  250.6250     2.4150    70.7460    23.5230    11.1300     7.8010     9.7570   -13.2400 
  250.7500     2.4060    73.8630    24.1300    11.3380     7.9400     9.8730   -13.2680 
  250.8750     2.4040    75.8260    24.5000    11.2390     8.0170     9.9430   -13.2570 
  251.0000     2.4170    77.5600    24.7070    10.9370     8.0460     9.9670   -13.2270 
  251.1250     2.4390    76.5980    24.7930    10.5540     8.0390     9.9420   -13.2030 
  251.2500     2.4420    71.9970    24.7890    10.3240     8.0140     9.8930   -13.1910 
  251.3750     2.4220    66.2390    24.7730    10.2740     7.9760     9.8390   -13.2020 
  251.5000     2.4020    62.9780    24.7830    10.2020     7.9170     9.7670   -13.2270 
  251.6250     2.4090    62.2520    24.8110     9.9020     7.8210     9.6220   -13.2510 
  251.7500     2.4300    62.2790    24.8240     9.4990     7.6800     9.3740   -13.2790 
  251.8750     2.4460    63.7650    24.8280     9.1330     7.4950     9.0500   -13.2870 
  252.0000     2.4520    66.7550    24.8600     8.9160     7.2880     8.7220   -13.2830 
  252.1250     2.4480    69.2490    24.9480     9.0120     7.1140     8.5040   -13.2780 
  252.2500     2.4360    69.3700    25.0490     9.2690     7.0260     8.4490   -13.2720 
  252.3750     2.4160    66.3990    25.1140     9.3200     7.0610     8.5790   -13.2610 
  252.5000     2.4000    62.6830    25.1300     8.9120     7.2400     8.8860   -13.2570 
  252.6250     2.4110    61.8850    25.1360     8.1850     7.5620     9.3270   -13.2870 
  252.7500     2.4490    62.1560    25.1580     7.5580     7.9210     9.7460   -13.3380 
  252.8750     2.5010    61.5170    25.1870     7.1880     8.2110    10.0030   -13.4150 
  253.0000     2.5480    60.9770    25.2040     7.0370     8.3420    10.0160   -13.5010 
  253.1250     2.5660    62.6010    25.2040     7.0480     8.2810     9.8230   -13.5640 
  253.2500     2.5500    64.6040    25.2010     7.3770     8.1570     9.6460   -13.5930 
  253.3750     2.5060    66.9110    25.2070     8.5980     8.0900     9.6440   -13.5990 
  253.5000     2.4580    71.9410    25.2280    11.1210     8.1650     9.8850   -13.5690 
  253.6250     2.4360    76.3600    25.2540    13.7730     8.4150    10.3500   -13.4890 
  253.7500     2.4340    75.8170    25.2730    14.6170     8.7370    10.8660   -13.3830 
  253.8750     2.4360    72.1250    25.2920    13.7660     9.0230    11.2840   -13.2520 
  254.0000     2.4360    69.2770    25.3250    12.7920     9.1760    11.5040   -13.0990 
  254.1250     2.4350    69.4410    25.3590    12.7160     9.1460    11.4980   -12.9570 
  254.2500     2.4320    69.9810    25.3600    13.0600     9.0180    11.3910   -12.8240 
  254.3750     2.4290    69.3790    25.3290    13.5210     8.8590    11.2500   -12.6870 
  254.5000     2.4290    69.1780    25.3050    14.2420     8.7130    11.0920   -12.5530 
  254.6250     2.4320    70.8690    25.3210    15.5710     8.6000    10.8880   -12.4190 
  254.7500     2.4320    72.0470    25.3520    16.6480     8.5200    10.6690   -12.2800 
  254.8750     2.4290    71.2790    25.3800    16.0120     8.4800    10.5080   -12.1360 
  255.0000     2.4250    69.7850    25.4020    13.4800     8.4900    10.4780   -12.0020 
  255.1250     2.4300    69.8820    25.3990    10.7540     8.5650    10.6110   -11.8710 
  255.2500     2.4510    70.0780    25.3540     8.9680     8.6850    10.8120   -11.7520 
  255.3750     2.4820    70.0230    25.2770     7.8500     8.8270    10.9870   -11.6590 
  255.5000     2.5020    71.1530    25.2180     7.0700     8.9570    11.0600   -11.5960 
  255.6250     2.4920    72.6470    25.2270     6.6140     9.0350    11.0120   -11.5620 
  255.7500     2.4740    72.1620    25.2760     6.3710     9.0610    10.9430   -11.5510 
  255.8750     2.4650    68.4520    25.3220     6.2590     9.0520    10.9290   -11.5730 
  256.0000     2.4680    64.1040    25.3430     6.2530     9.0420    11.0000   -11.6090 
  256.1250     2.4740    63.3180    25.3450     6.4120     9.0740    11.1290   -11.6480 
  256.2500     2.4780    64.7840    25.3450     6.8710     9.1590    11.2590   -11.6990 
  256.3750     2.4810    67.7070    25.3410     7.8400     9.2950    11.3770   -11.7560 
  256.5000     2.4810    70.9280    25.3190     9.3950     9.4640    11.5060   -11.8010 
  256.6250     2.4780    70.6490    25.2920    11.2400     9.6430    11.6880   -11.8260 
  256.7500     2.4730    68.4140    25.2890    12.8390     9.8040    11.9120   -11.8420 
  256.8750     2.4700    67.8460    25.3010    14.0660     9.9290    12.1150   -11.8420 
  257.0000     2.4700    70.0000    25.2900    14.9360    10.0090    12.2300   -11.8310 
  257.1250     2.4720    72.1110    25.2330    14.9870    10.0330    12.2070   -11.8210 
  257.2500     2.4800    73.6630    25.1640    13.9700    10.0120    12.0850   -11.8100 
  257.3750     2.4940    74.2070    25.1190    12.1900     9.9560    11.9160   -11.8020 
  257.5000     2.5090    73.0150    25.1200    10.3750     9.8850    11.7690   -11.8140 
  257.6250     2.5150    71.3690    25.1810     9.1910     9.8300    11.7180   -11.8550 
  257.7500     2.5100    70.1380    25.2510     8.6780     9.8160    11.7510   -11.9080 
  257.8750     2.5010    67.8600    25.2720     8.8780     9.8550    11.8480   -11.9710 
  258.0000     2.4950    66.6580    25.2260     9.8760     9.9500    12.0050   -12.0400 
  258.1250     2.4820    69.3850    25.1580    11.6030    10.1030    12.2300   -12.1080 
  258.2500     2.4500    72.1440    25.0890    13.2620    10.2930    12.4980   -12.1580 
  258.3750     2.4090    72.5530    24.9670    14.1780    10.4880    12.7620   -12.1950 
  258.5000     2.3850    72.5090    24.7830    14.1970    10.6420    12.9580   -12.2110 
  258.6250     2.4020    73.3530    24.6800    13.6980    10.6860    12.9920   -12.2040 
  258.7500     2.4320    74.2140    24.7660    13.1640    10.6050    12.8790   -12.1880 
  258.8750     2.4550    73.4820    24.9980    12.6730    10.4190    12.6700   -12.1690 
  259.0000     2.4620    70.8190    25.2430    12.2380    10.1920    12.4410   -12.1470 
  259.1250     2.4630    67.9010    25.3590    11.9990    10.0250    12.2900   -12.1400 
  259.2500     2.4650    67.1490    25.3520    11.9940     9.9790    12.2700   -12.1540 
  259.3750     2.4730    68.9460    25.3070    12.1860    10.0800    12.4160   -12.1740 
  259.5000     2.4930    70.8630    25.3090    12.5500    10.3150    12.7390   -12.2030 
  259.6250     2.5170    70.3590    25.3570    13.2840    10.6460    13.2110   -12.2460 
  259.7500     2.5290    68.6220    25.3700    14.5080    10.9920    13.7100   -12.2940 
  259.8750     2.5220    69.1110    25.3430    15.9740    11.2850    14.1220   -12.3430 
