~V
VERS. 2.00: Ver 2.00
~W
STRT.M 64.0000:
STOP.M 259.0000:
STEP.M 0.1250:
NULL. -999.2500:
UWI. DF3067:
~C
DEPT.M :
DEN.GM/CC :
GR.API :
CALI.CM :
RXO.OHMM :
RI. :
RML.OHMM :
SP.MV :
~A
   64.0000  -999.2500    65.4430    24.9890     0.9040     0.0700     0.5020  -999.2500 
   64.1250  -999.2500    68.9730    25.0390     1.1110     0.0870     0.5640  -999.2500 
   64.2500  -999.2500    76.3510    25.1130     1.9150     0.1560     0.8300  -999.2500 
   64.3750  -999.2500    87.2870    25.0760     3.2770     0.3270     1.3400  -999.2500 
   64.5000  -999.2500    98.7880    24.7130     4.4370     0.6610     2.1500  -999.2500 
   64.6250  -999.2500   105.3990    23.9790     4.6220     1.2330     3.2250  -999.2500 
   64.7500  -999.2500   107.4730    23.0030     4.7810     1.9730     4.2220  -999.2500 
   64.8750  -999.2500   107.9340    21.8040     4.8790     2.7990     4.9410  -999.2500 
   65.0000  -999.2500   106.8650    20.6210     5.4080     3.6600     5.4740  -999.2500 
   65.1250  -999.2500   101.0670    20.0690     6.8120     4.5540     6.0460  -999.2500 
   65.2500  -999.2500    91.3970    20.1960     8.0710     5.4440     6.7040  -999.2500 
   65.3750  -999.2500    81.3130    20.5840     8.4650     6.2230     7.3220  -999.2500 
   65.5000  -999.2500    75.4580    20.8580     8.3050     6.7630     7.7220  -999.2500 
   65.6250  -999.2500    76.0190    20.9660     7.7860     6.9450     7.7530  -999.2500 
   65.7500  -999.2500    78.0230    21.0740     7.1360     6.8830     7.5560  -999.2500 
   65.8750  -999.2500    78.2140    21.3340     6.8450     6.6940     7.2840  -999.2500 
   66.0000  -999.2500    77.8020    21.7120     7.0210     6.4770     7.0470  -999.2500 
   66.1250  -999.2500    76.7030    21.9750     7.1340     6.3000     6.8990  -999.2500 
   66.2500  -999.2500    73.3540    22.0350     7.3370     6.1760     6.8140  -999.2500 
   66.3750  -999.2500    70.0260    21.9820     7.8630     6.0900     6.7550  -999.2500 
   66.5000  -999.2500    68.8200    21.9350     8.5770     6.0140     6.6920  -999.2500 
   66.6250  -999.2500    70.5590    21.9260     9.0120     5.9850     6.6790  -999.2500 
   66.7500  -999.2500    73.3000    21.9240     9.2100     6.1500     6.8750  -999.2500 
   66.8750  -999.2500    75.5700    21.9280     9.2700     6.7270     7.4970  -999.2500 
   67.0000  -999.2500    75.9400    21.9920     9.5980     7.9170     8.7940  -999.2500 
   67.1250  -999.2500    73.6470    22.1960    13.0020     9.8950    11.2210  -999.2500 
   67.2500  -999.2500    71.2130    22.4280    27.7070    12.1350    14.4460  -999.2500 
   67.3750  -999.2500    70.8660    22.3870    45.0790    13.5690    16.7700  -999.2500 
   67.5000  -999.2500    74.3730    21.9140    44.7360    13.0850    15.7540  -999.2500 
   67.6250  -999.2500    81.5110    21.5170    22.9140    10.7520    12.1230  -999.2500 
   67.7500  -999.2500    87.9220    21.9800     9.0000     8.2510     9.0530  -999.2500 
   67.8750  -999.2500    93.8130    23.2940     5.4220     6.3400     7.1730  -999.2500 
   68.0000  -999.2500   101.2160    24.6640     4.9900     5.1860     6.2780  -999.2500 
   68.1250  -999.2500   106.8900    25.2580     4.9750     4.8110     6.1840  -999.2500 
   68.2500  -999.2500   107.9780    25.1680     5.0670     4.9530     6.5550  -999.2500 
   68.3750  -999.2500   106.4640    24.6590     5.2980     5.4560     7.2010  -999.2500 
   68.5000  -999.2500   103.2550    23.9840     5.6910     6.1320     7.8860  -999.2500 
   68.6250  -999.2500    96.9780    23.4230     6.5130     6.6930     8.2630  -999.2500 
   68.7500  -999.2500    90.9950    23.1690     7.0930     6.9020     8.1790  -999.2500 
   68.8750  -999.2500    90.6310    23.2890     6.8220     6.6830     7.6830  -999.2500 
   69.0000  -999.2500    94.6050    23.7170     6.0130     6.1550     7.0000  -999.2500 
   69.1250  -999.2500    98.2780    24.1760     5.1290     5.5680     6.4280  -999.2500 
   69.2500  -999.2500   103.9170    24.3970     4.7560     5.1290     6.1090  -999.2500 
   69.3750  -999.2500   111.1460    24.4330     4.6950     4.9130     6.0760  -999.2500 
   69.5000  -999.2500   114.8850    24.4260     4.8250     4.9240     6.3050  -999.2500 
   69.6250  -999.2500   112.1750    24.4220     5.0640     5.1400     6.7400  -999.2500 
   69.7500  -999.2500   108.5880    24.3270     5.4260     5.4330     7.2100  -999.2500 
   69.8750  -999.2500   104.2930    24.0840     5.8560     5.6940     7.5690  -999.2500 
   70.0000  -999.2500    98.4430    23.8330     6.0780     5.8230     7.7020  -999.2500 
   70.1250  -999.2500    96.2370    23.8950     5.7460     5.7370     7.5260  -999.2500 
   70.2500  -999.2500   100.6310    24.2040     5.3530     5.4880     7.1510  -999.2500 
   70.3750  -999.2500   107.6350    24.4720     5.1990     5.1660     6.7240  -999.2500 
   70.5000  -999.2500   112.6070    24.5150     5.2440     4.9050     6.4480  -999.2500 
   70.6250  -999.2500   113.2330    24.4100     5.3160     4.9090     6.5990  -999.2500 
   70.7500  -999.2500   110.6180    24.1810     5.5380     5.2710     7.2550  -999.2500 
   70.8750  -999.2500   104.5580    23.6220     6.2640     6.0510     8.4580  -999.2500 
   71.0000  -999.2500    95.5620    22.7100     9.0850     7.2050    10.1030  -999.2500 
   71.1250  -999.2500    85.5660    21.7200    12.5040     8.4290    11.6670  -999.2500 
   71.2500  -999.2500    79.1390    20.9970    12.2410     9.1690    12.3460  -999.2500 
   71.3750  -999.2500    78.4400    20.6430     9.4050     9.1150    11.8470  -999.2500 
   71.5000  -999.2500    80.7670    20.5880     7.9480     8.4230    10.6370  -999.2500 
   71.6250  -999.2500    84.3840    20.7130     7.6130     7.5420     9.4800  -999.2500 
   71.7500  -999.2500    88.5190    20.9110     7.4560     6.8370     8.7280  -999.2500 
   71.8750  -999.2500    90.2000    21.5470     7.4260     6.3870     8.3790  -999.2500 
   72.0000  -999.2500    87.6800    23.1250     7.4610     6.1550     8.2970  -999.2500 
   72.1250  -999.2500    82.8920    25.3340     7.4240     6.0660     8.3160  -999.2500 
   72.2500  -999.2500    79.8310    26.9620     7.2850     6.0310     8.3170  -999.2500 
   72.3750  -999.2500    78.4670    27.4750     7.2240     6.0200     8.2890  -999.2500 
   72.5000  -999.2500    77.9550    27.0970     7.2280     6.0240     8.2660  -999.2500 
   72.6250  -999.2500    78.9500    26.2700     7.2550     6.0550     8.3050  -999.2500 
   72.7500  -999.2500    80.5850    25.4010     7.3080     6.1390     8.4390  -999.2500 
   72.8750  -999.2500    83.1300    24.8020     7.5100     6.3070     8.6940  -999.2500 
   73.0000  -999.2500    85.3490    24.5650     7.9900     6.5780     9.0820  -999.2500 
   73.1250  -999.2500    85.8330    24.4300     9.0200     6.9420     9.5930  -999.2500 
   73.2500  -999.2500    85.3860    24.0800    10.1140     7.3240    10.1320  -999.2500 
   73.3750  -999.2500    83.7480    23.5170    11.7460     7.6590    10.5870  -999.2500 
   73.5000  -999.2500    80.8730    23.0160    12.7680     7.8850    10.8400  -999.2500 
   73.6250  -999.2500    78.2960    22.8520    11.8800     7.9310    10.7850  -999.2500 
   73.7500  -999.2500    77.9580    22.7310     9.7860     7.8290    10.5270  -999.2500 
   73.8750  -999.2500    79.0150    22.3400     8.6810     7.6390    10.2050  -999.2500 
   74.0000  -999.2500    78.8310    21.7190     8.1950     7.4500     9.9560  -999.2500 
   74.1250  -999.2500    77.0040    21.2250     8.0980     7.3610     9.9020  -999.2500 
   74.2500  -999.2500    75.5600    21.0030     8.3790     7.3960    10.0230  -999.2500 
   74.3750  -999.2500    74.1900    21.0270     9.0040     7.5300    10.2510  -999.2500 
   74.5000  -999.2500    71.7290    21.2550     9.5720     7.6860    10.4590  -999.2500 
   74.6250  -999.2500    69.5620    21.5620     9.4820     7.7320    10.4490  -999.2500 
   74.7500  -999.2500    71.3760    21.7230     9.3030     7.5900    10.1410  -999.2500 
   74.8750  -999.2500    75.5510    21.6740     9.0150     7.2390     9.5560  -999.2500 
   75.0000  -999.2500    77.5440    21.6200     8.0220     6.7270     8.8190  -999.2500 
   75.1250  -999.2500    79.9020    21.9630     6.8100     6.1660     8.1220  -999.2500 
