~V
VERS. 2.00: Ver 2.00
~W
STRT.M 60.0000:
STOP.M 238.0000:
STEP.M 0.1250:
NULL. -999.2500:
UWI. DF308:
~C
DEPT.M :
DEN.GM/CC :
SP.MV :
AC.US/MT :
GR.API :
CALI.CM :
RXO.OHMM :
RI. :
RML.OHMM :
~A
# ...
  200.0000     2.3890   -21.2950   355.7380    58.4890    23.4530     7.2960     8.6570     9.1690 
  200.1250     2.3920   -21.1500   382.1510    57.9080    23.4000     6.9720     7.6570     8.3320 
  200.2500     2.3960   -21.0850   396.5260    56.3500    23.2270     7.0870     7.2680     8.1850 
  200.3750     2.3980   -21.0690   400.6220    52.5780    23.0420     7.3560     7.3100     8.4400 
  200.5000     2.3990   -21.1120   398.1400    50.6020    23.1560     7.6450     7.5800     8.8310 
  200.6250     2.4060   -21.2020   390.5220    52.1870    23.2670     7.9190     7.8870     9.1540 
  200.7500     2.4200   -21.3290   381.3010    54.6640    23.3530     8.1430     8.1330     9.3750 
  200.8750     2.4360   -21.4830   374.9430    58.1260    23.4290     8.2020     8.3260     9.5440 
  201.0000     2.4450   -21.6550   372.4390    60.5460    23.4790     8.1150     8.5070     9.7190 
  201.1250     2.4410   -21.8290   369.1280    57.1980    23.5480     8.2350     8.7040     9.9240 
  201.2500     2.4390   -21.9970   363.0160    51.4150    23.5920     8.5860     8.8880    10.1130 
  201.3750     2.4510   -22.1550   356.1410    47.8830    23.5720     8.9910     8.9960    10.2160 
  201.5000     2.4740   -22.2950   350.9790    48.2010    23.5010     9.2750     8.9740    10.1840 
  201.6250     2.4870   -22.4280   349.5210    49.8540    23.3030     9.2290     8.7930    10.0020 
  201.7500     2.4810   -22.5270   351.2240    50.6910    22.9370     8.9510     8.5270     9.7630 
  201.8750     2.4610   -22.5850   355.6080    51.3070    22.6660     8.6820     8.2510     9.5540 
  202.0000     2.4380   -22.6190   361.7580    51.6430    22.8270     8.5560     8.0290     9.4370 
  202.1250     2.4220   -22.6200   367.2270    52.0810    23.0880     8.4280     7.9090     9.4400 
  202.2500     2.4150   -22.5910   369.3620    52.2190    23.0400     8.1630     7.8730     9.5170 
  202.3750     2.4160   -22.5440   367.6000    51.8760    22.9860     7.9850     7.8980     9.6210 
  202.5000     2.4210   -22.4660   363.7740    52.3330    23.2560     8.0200     7.9480     9.7080 
  202.6250     2.4210   -22.3410   360.9720    52.6640    23.6150     8.1650     7.9870     9.7460 
  202.7500     2.4130   -22.2070   360.4630    52.6560    23.7920     8.2830     7.9910     9.7470 
  202.8750     2.4000   -22.0770   361.8600    53.0000    23.8410     8.3100     7.9540     9.7230 
  203.0000     2.3940   -21.9420   364.3490    54.5690    23.8260     8.2870     7.8770     9.6730 
  203.1250     2.4020   -21.8140   367.5770    56.7530    23.7640     8.3600     7.7720     9.5900 
  203.2500     2.4190   -21.7010   371.4620    57.5480    23.7140     8.5430     7.6670     9.4860 
  203.3750     2.4360   -21.6250   375.9510    55.2720    23.6470     8.6740     7.5800     9.3850 
  203.5000     2.4470   -21.5700   380.4230    50.6930    23.5500     8.6250     7.5290     9.3280 
  203.6250     2.4510   -21.5390   383.0310    48.1560    23.4160     8.5730     7.5330     9.3710 
  203.7500     2.4500   -21.5360   382.3410    49.5070    23.3720     8.6680     7.5860     9.5030 
  203.8750     2.4420   -21.5150   378.0580    50.6930    23.4180     8.7500     7.6750     9.6910 
  204.0000     2.4300   -21.4840   371.6940    48.5690    23.4380     8.6780     7.7770     9.8830 
  204.1250     2.4200   -21.4580   366.3160    45.9460    23.4320     8.6120     7.8590    10.0110 
  204.2500     2.4130   -21.4080   364.1280    47.1300    23.4440     8.6310     7.9050    10.0560 
  204.3750     2.4090   -21.3350   362.9370    51.2650    23.4580     8.6940     7.9160    10.0310 
  204.5000     2.4010   -21.2590   362.4700    55.3770    23.4280     8.6970     7.9070     9.9710 
  204.6250     2.3980   -21.1640   361.6980    57.8690    23.3670     8.7750     7.9020     9.9260 
  204.7500     2.4060   -21.0570   360.5350    59.4730    23.3390     8.8460     7.9230     9.9260 
  204.8750     2.4210   -20.9460   359.6880    59.7360    23.3750     8.8330     7.9820     9.9870 
  205.0000     2.4350   -20.8320   359.8080    57.7540    23.4070     8.7760     8.0750    10.1140 
  205.1250     2.4420   -20.7170   360.8330    54.4880    23.4080     8.8700     8.1830    10.2900 
  205.2500     2.4490   -20.6060   362.8080    51.9480    23.3820     9.0790     8.2770    10.4730 
  205.3750     2.4540   -20.4940   365.7410    51.1320    23.3040     9.2270     8.3410    10.6240 
  205.5000     2.4530   -20.3680   369.6190    52.7500    23.1820     9.1640     8.3620    10.7080 
  205.6250     2.4480   -20.2120   373.8570    56.6460    23.0730     9.0200     8.3130    10.6660 
  205.7500     2.4480   -20.0450   377.3610    60.2320    23.0250     8.8470     8.1900    10.4970 
  205.8750     2.4550   -19.8720   378.7450    62.0700    23.0300     8.6290     8.0090    10.2390 
  206.0000     2.4660   -19.6790   377.7620    63.4090    23.0540     8.3520     7.8300     9.9890 
  206.1250     2.4790   -19.4730   376.5860    66.6760    23.1800     8.1100     7.7670     9.9170 
  206.2500     2.4910   -19.2580   374.6040    72.6630    23.2990     8.0030     7.8710    10.0930 
  206.3750     2.4980   -19.0240   367.2720    79.2330    23.3300     8.2130     8.1500    10.5100 
  206.5000     2.4970   -18.8120   350.1400    82.4350    23.3570     9.0120     8.5540    11.0620 
  206.6250     2.4890   -18.6260   331.6000    79.3800    23.3920    10.1150     8.9590    11.5200 
  206.7500     2.4830   -18.4220   322.8590    74.4010    23.4230    10.5010     9.2240    11.7060 
  206.8750     2.4850   -18.2130   328.7340    71.5290    23.4400     9.9840     9.2800    11.5900 
  207.0000     2.4960   -18.0010   343.0420    70.6880    23.4170     9.3170     9.1300    11.2550 
  207.1250     2.5030   -17.7660   354.4960    72.3560    23.3690     8.8100     8.8190    10.8230 
  207.2500     2.4960   -17.5410   360.9700    78.0390    23.4130     8.4040     8.4520    10.3950 
  207.3750     2.4800   -17.3100   365.4980    85.8450    23.5270     8.1950     8.0710     9.9730 
  207.5000     2.4710   -17.0680   370.9640    90.8140    23.6840     8.0710     7.6930     9.5340 
  207.6250     2.4760   -16.8240   376.7320    91.6870    23.8260     7.8860     7.3420     9.0970 
  207.7500     2.4830   -16.5890   381.6170    95.4350    23.9490     7.6180     7.0560     8.7400 
  207.8750     2.4810   -16.3820   384.4820   100.3800    23.9910     7.3970     6.8690     8.5230 
  208.0000     2.4720   -16.1960   381.8490   101.0130    23.8860     7.3170     6.7960     8.4640 
  208.1250     2.4650   -16.0460   373.8770    97.8170    23.5970     7.5360     6.8450     8.5620 
  208.2500     2.4620   -15.9150   365.6550    96.5380    23.4130     7.8920     6.9560     8.7200 
  208.3750     2.4620   -15.8070   362.8060    98.2060    23.5740     8.0530     7.0690     8.8490 
  208.5000     2.4710   -15.7080   364.6500   100.3550    23.9040     7.9270     7.1280     8.8700 
  208.6250     2.4890   -15.6330   365.3180   101.2290    24.1230     7.5630     7.0800     8.7310 
  208.7500     2.5030   -15.6010   364.5650   100.7720    24.1930     7.1730     6.9430     8.4940 
  208.8750     2.5010   -15.5780   365.7690    98.4060    24.1740     6.8550     6.7510     8.2260 
  209.0000     2.4920   -15.5670   370.2880    96.0860    24.1030     6.7740     6.5500     7.9930 
  209.1250     2.4900   -15.5870   375.4920    97.6270    24.0350     6.9100     6.3830     7.8360 
  209.2500     2.4890   -15.6310   379.7000    98.2300    24.0300     7.0750     6.2600     7.7370 
  209.3750     2.4670   -15.6940   382.6010    97.2570    24.0910     7.1020     6.1770     7.6830 
  209.5000     2.4300   -15.7680   383.7650    96.0110    24.1530     7.0030     6.1320     7.6620 
  209.6250     2.4070   -15.8450   382.7270    96.7250    24.1490     6.9430     6.1360     7.6670 
  209.7500     2.4140   -15.9150   379.4270    98.2290    24.0940     7.0050     6.1880     7.7010 
  209.8750     2.4300   -15.9620   374.6220    96.6380    24.0080     7.1040     6.2910     7.7890 
