~V
VERS. 2.00: Ver 2.00
~W
STRT.M 125.0000:
STOP.M 247.0000:
STEP.M 0.1250:
NULL. -999.2500:
UWI. DF3017:
~C
DEPT.M :
DEN.GM/CC :
GR.API :
RML.OHMM :
RI. :
RXO.OHMM :
CALI.CM :
SP.MV :
~A
# ...
  215.0000     2.1830    72.4640    81.4780    74.6970    74.5090    24.4060   -20.4590 
  215.1250     2.1920    71.7200    80.2480    73.2570    75.2490    24.4060   -20.7640 
  215.2500     2.2140    71.0460    78.6170    71.5010    72.6030    24.4060   -21.0170 
  215.3750     2.2330    70.8590    76.3410    69.2340    69.8710    24.4060   -21.1930 
  215.5000     2.2420    68.3130    73.5610    66.5420    71.4800    24.4060   -21.3130 
  215.6250     2.2410    64.2210    71.1020    64.0830    72.2670    24.4060   -21.4190 
  215.7500     2.2390    64.4840    69.8720    62.6910    67.4000    24.4060   -21.4840 
  215.8750     2.2420    69.2590    70.2540    62.8340    58.8240    24.4060   -21.4860 
  216.0000     2.2530    72.4450    71.9220    64.4030    55.2280    24.4570   -21.4290 
  216.1250     2.2730    70.7670    73.8690    66.7000    62.8990    24.4700   -21.3760 
  216.2500     2.3040    69.3150    75.0760    68.6790    82.8850    24.5070   -21.2680 
  216.3750     2.3380    71.3870    75.5910    70.0980   102.3420    24.5730   -21.1410 
  216.5000     2.3670    77.1470    76.5240    71.5870   104.2030    24.5970   -20.9410 
  216.6250     2.3820    80.9000    79.5550    74.4610    85.0710    24.6000   -20.6760 
  216.7500     2.3780    77.8530    84.0520    78.5660    72.1020    24.6030   -20.3610 
  216.8750     2.3730    72.1020    87.3490    81.9860    70.5990    24.6200   -20.0240 
  217.0000     2.3820    69.5920    85.4100    81.3320    82.8160    24.7260   -19.6470 
  217.1250     2.4130    68.9680    73.4070    72.0110    99.5850    24.8140   -19.2490 
  217.2500     2.4610    65.6100    54.5680    55.7840   117.1740    24.8980   -18.9120 
  217.3750     2.5000    62.4320    35.2870    37.5500   114.2250    24.9720   -18.6200 
  217.5000     2.5080    63.6130    20.9580    22.7420    77.7770    24.9970   -18.4330 
  217.6250     2.4750    69.4880    13.2620    14.2480    33.8450    25.0000   -18.3780 
  217.7500     2.4120    75.8800     9.4220     9.8630    13.8620    24.9950   -18.4360 
  217.8750     2.3540    81.1110     7.9470     8.0160     7.9010    24.9690   -18.5670 
  218.0000     2.3230    84.3090     7.8540     7.6370     7.4660    24.8040   -18.7680 
  218.1250     2.3260    85.9640     8.5550     8.1770     8.9560    24.6420   -19.0380 
  218.2500     2.3560    89.4000     9.4390     9.0490     9.9650    24.5100   -19.3570 
  218.3750     2.3890    95.1480    10.1780     9.9030    10.2760    24.4240   -19.6900 
  218.5000     2.4130   101.5830    10.5630    10.4590    10.3290    24.3820   -19.9950 
  218.6250     2.4250   106.8100    10.4840    10.5240    10.4630    24.2840   -20.2420 
  218.7500     2.4320   110.3950    10.1300    10.2560    10.4490    24.2700   -20.4680 
  218.8750     2.4380   112.3480     9.6960     9.8340    10.4970    24.2620   -20.7080 
  219.0000     2.4430   112.5390     9.4150     9.4700    10.5690    24.2460   -20.9900 
  219.1250     2.4460   111.4290     9.6540     9.4550    10.8590    24.1510   -21.3200 
  219.2500     2.4410   109.5330    10.6250     9.9780    11.2160    24.1370   -21.6520 
  219.3750     2.4300   106.6250    12.5270    11.2310    12.4250    24.1330   -21.9800 
  219.5000     2.4130   103.3680    15.4460    13.3510    14.7700    24.1330   -22.2720 
  219.6250     2.3920   100.4030    19.3900    16.4570    19.2030    24.1330   -22.5330 
  219.7500     2.3710    96.8770    23.7780    20.1180    24.5940    24.1350   -22.6780 
  219.8750     2.3520    91.9850    28.0300    23.8500    30.0060    24.1420   -22.7080 
  220.0000     2.3380    86.0450    31.5600    27.1020    33.9170    24.1890   -22.6010 
  220.1250     2.3300    82.3540    33.8140    29.3030    36.1160    24.1980   -22.3400 
  220.2500     2.3300    80.8990    35.0610    30.5810    37.0110    24.1980   -21.9210 
  220.3750     2.3330    79.8670    35.6840    31.2140    36.7450    24.1910   -21.3960 
  220.5000     2.3380    79.4350    36.0990    31.5520    35.9690    24.1440   -20.8130 
  220.6250     2.3400    79.5860    36.6080    31.8700    35.8950    24.1360   -20.1890 
  220.7500     2.3370    77.6620    37.2280    32.2610    35.3860    24.1370   -19.6110 
  220.8750     2.3300    74.4680    37.8300    32.6690    35.3280    24.1530   -19.0920 
  221.0000     2.3220    73.7290    38.2680    33.0150    35.7150    24.2630   -18.6520 
  221.1250     2.3160    75.4360    38.5280    33.3120    36.9640    24.3530   -18.3210 
  221.2500     2.3130    75.2900    38.9120    33.7720    38.0930    24.3810   -18.1460 
  221.3750     2.3140    74.6250    39.8230    34.6970    37.7440    24.3170   -18.1030 
  221.5000     2.3160    76.6000    41.6360    36.3750    36.2040    24.1860   -18.1640 
  221.6250     2.3160    79.1190    44.6270    39.0510    37.8860    24.0090   -18.2620 
  221.7500     2.3150    78.5580    48.2330    42.2850    43.1480    23.9450   -18.3320 
  221.8750     2.3150    75.2910    51.6800    45.4510    50.0600    23.9320   -18.3060 
  222.0000     2.3180    71.9240    54.0350    47.7670    54.5700    23.9230   -18.1580 
  222.1250     2.3240    70.3860    54.2440    48.2970    56.3040    23.8750   -17.8790 
  222.2500     2.3300    69.9590    52.6690    47.2460    55.9190    23.8680   -17.5750 
  222.3750     2.3270    71.7010    50.1480    45.2260    53.1760    23.8640   -17.3400 
  222.5000     2.3160    74.7520    47.8800    43.2300    48.9470    23.8560   -17.2420 
  222.6250     2.2970    75.6360    47.3570    42.5940    44.0960    23.8090   -17.4320 
  222.7500     2.2830    74.0520    49.1180    43.9290    41.7710    23.8020   -17.8950 
  222.8750     2.2810    72.1960    53.3460    47.4830    43.5900    23.8000   -18.6110 
  223.0000     2.2930    70.5820    59.6760    52.9720    50.7520    23.8000   -19.4640 
  223.1250     2.3110    67.6290    67.0350    59.4770    63.4610    23.8050   -20.3860 
  223.2500     2.3240    65.7220    73.4590    65.2570    77.9250    23.8330   -21.2920 
  223.3750     2.3250    66.8570    77.3740    68.9420    85.1240    23.8640   -22.0890 
  223.5000     2.3150    69.5980    77.8950    69.7380    82.1230    23.8770   -22.6990 
  223.6250     2.2980    69.5050    74.8610    67.3820    75.8270    23.9300   -23.0120 
  223.7500     2.2810    68.0300    70.1110    63.3460    69.6070    23.9680   -23.1080 
  223.8750     2.2700    69.2010    64.9130    58.6990    64.5590    24.0030   -23.0480 
  224.0000     2.2670    74.0840    60.1980    54.3060    60.5580    23.8900   -22.9310 
  224.1250     2.2710    77.9440    56.8700    51.0250    56.1190    23.8430   -22.7940 
  224.2500     2.2790    77.9100    55.2800    49.2340    52.3120    23.8050   -22.6200 
  224.3750     2.2850    75.9640    55.7700    49.2700    49.3410    23.7900   -22.4230 
  224.5000     2.2870    74.4640    58.4240    51.2350    48.1700    23.7850   -22.1980 
  224.6250     2.2850    73.8050    63.0540    55.0170    50.6290    23.7840   -21.9160 
  224.7500     2.2810    73.4330    68.2710    59.4410    58.6810    23.7820   -21.6000 
  224.8750     2.2790    73.2390    72.7410    63.3940    71.8040    23.7820   -21.2890 
  225.0000     2.2780    72.7690    75.2610    65.8500    85.9800    23.7840   -20.9780 
  225.1250     2.2770    72.7830    74.9160    65.9530    86.5820    23.7820   -20.6440 
  225.2500     2.2790    73.3490    72.7540    64.4060    77.7920    23.7800   -20.2970 
  225.3750     2.2870    73.1890    69.8630    62.0300    70.3820    23.7810   -19.9190 
  225.5000     2.3080    73.0690    67.0620    59.5600    66.9520    23.7750   -19.5370 
  225.6250     2.3410    74.5980    64.5260    57.3090    63.3800    23.7560   -19.1800 
  225.7500     2.3800    75.3060    61.7820    55.0020    60.2680    23.7270   -18.8380 
  225.8750     2.4110    72.4440    58.3930    52.2780    59.1800    23.7140   -18.4650 
  226.0000     2.4220    67.6400    54.2010    48.9320    59.1620    23.7130   -18.0850 
  226.1250     2.4120    65.2930    49.3890    44.9890    54.7710    23.7140   -17.7580 
