~V
VERS. 2.00: Ver 2.00
~W
STRT.M 130.0000:
STOP.M 271.0000:
STEP.M 0.1250:
NULL. -999.2500:
UWI. DF3076:
~C
DEPT.M :
DEN.GM/CC :
GR.API :
CALI.CM :
RXO.OHMM :
RI. :
RML.OHMM :
SP.MV :
~A
# ...
  265.0000     2.3690    63.2430    23.5520     6.3730     4.6920     6.2090    -6.8930 
  265.1250     2.3780    63.2430    23.5680     6.0870     4.6940     6.2050    -6.7120 
  265.2500     2.3960    63.2430    23.5640     5.7580     4.6960     6.2040    -6.5420 
  265.3750     2.4100    63.2430    23.5620     5.5450     4.6980     6.1990    -6.4000 
  265.5000     2.4090    63.2430    23.5780     5.4840     4.7010     6.1890    -6.3010 
  265.6250     2.3910    63.2430    23.6170     5.4400     4.7030     6.1800    -6.2360 
  265.7500     2.3660    63.2430    23.6340     5.3200     4.7030     6.1760    -6.1920 
  265.8750     2.3500    63.2430    23.6510     5.2720     4.7010     6.1770    -6.1750 
  266.0000     2.3480    63.2430    23.6810     5.3470     4.6980     6.1800    -6.1670 
  266.1250     2.3560    63.2430    23.7330     5.5630     4.6960     6.1830    -6.1520 
  266.2500     2.3670    63.2430    23.7260     5.7700     4.6960     6.1830    -6.1370 
  266.3750     2.3720    63.2430    23.6700     5.8190     4.6960     6.1830    -6.1260 
  266.5000     2.3710    63.2430    23.6080     5.6750     4.6960     6.1830    -6.1240 
  266.6250     2.3630    63.2430    23.5800     5.4810     4.6960     6.1830    -6.1410 
  266.7500     2.3540    63.2430    23.5680     5.4090     4.6960     6.1830    -6.1550 
  266.8750     2.3490    63.2430    23.5560     5.3900     4.6960     6.1830    -6.1460 
  267.0000     2.3500    63.2430    23.5040     5.4050     4.6960     6.1830    -6.1370 
  267.1250     2.3560    63.2430    23.3800     5.4490     4.6960     6.1830    -6.1270 
  267.2500     2.3690    63.2430    23.2480     5.4620     4.6960     6.1830    -6.1090 
  267.3750     2.3840    63.2430    23.1900     5.3750     4.6960     6.1830    -6.0770 
  267.5000     2.3950    63.2430    23.1990     5.2150     4.6960     6.1830    -6.0330 
  267.6250     2.3960    63.2430    23.2100     5.1430     4.6960     6.1830    -5.9720 
  267.7500     2.3880    63.2430    23.2060     5.2140     4.6960     6.1830    -5.9170 
  267.8750     2.3760    63.2430    23.1830     5.4970     4.6960     6.1830    -5.8710 
  268.0000     2.3580    63.2430    23.1390     6.2120     4.6960     6.1830    -5.8190 
  268.1250     2.3350    63.2430    23.1140     7.2880     4.6960     6.1830    -5.7660 
  268.2500     2.3160    63.2430    23.0720     9.0170     4.6960     6.1830    -5.7190 
  268.3750     2.2900    63.2430    22.9470    10.7530     4.6960     6.1830    -5.6900 
  268.5000     2.2140    63.2430    22.6950    10.7770     4.6960     6.1830    -5.6670 
  268.6250     2.0540    63.2430    22.0490     8.7830     4.6960     6.1830    -5.6610 
  268.7500     1.8480    63.2430    20.6780     6.3590     4.6960     6.1830    -5.6670 
  268.8750     1.6930    63.2430    18.5770     5.4430     4.6960     6.1830    -5.6910 
  269.0000     1.6280    63.2430    17.1800     5.1850     4.6960     6.1830    -5.7220 
  269.1250     1.6250    63.2430    16.6980     5.1550     4.6960     6.1830    -5.7550 
  269.2500     1.6360    63.2430    16.6460     5.1520     4.6960     6.1830    -5.8070 
  269.3750     1.6400    63.2430    16.6440     5.1530     4.6960     6.1830    -5.8730 
  269.5000     1.6400    63.2430    16.6450     5.1540     4.6960     6.1830    -5.8860 
  269.6250     1.6400    63.2430    16.6440     5.1540     4.6960     6.1830    -5.8860 
  269.7500     1.6360    63.2430    16.6440     5.1540     4.6960     6.1830  -999.2500 
  269.8750     1.6310    63.2430    16.6450     5.1560     4.6960     6.1830  -999.2500 
  270.0000     1.6350    63.2430    16.6440     5.1560     4.6960     6.1830  -999.2500 
  270.1250     1.6490    63.2430    16.6450     5.1550     4.6960     6.1830  -999.2500 
  270.2500     1.6610    63.2430    16.6440     5.1530     4.6960     6.1830  -999.2500 
  270.3750     1.6510    63.2430    16.6450     5.1520     4.6960     6.1830  -999.2500 
  270.5000     1.6220    63.2430    16.6460     5.1510     4.6960     6.1830  -999.2500 
  270.6250     1.7020    63.2430    16.6460     5.1500     4.6960     6.1830  -999.2500 
  270.7500     2.0190    63.2430    16.6450     5.1490     4.6960     6.1830  -999.2500 
  270.8750     2.3830    63.2430    16.6450     5.1490     4.6960     6.1830  -999.2500 
  271.0000     2.5940    63.2430    16.6430     5.1500     4.6960     6.1830  -999.2500 
