~V
VERS. 2.00: Ver 2.00
~W
STRT.M 62.0000:
STOP.M 282.0000:
STEP.M 0.1250:
NULL. -999.2500:
UWI. DF3054:
~C
DEPT.M :
DEN.GM/CC :
GR.API :
CALI.CM :
RXO.OHMM :
RI. :
RML.OHMM :
SP.MV :
~A
# ...
  219.5000     2.2020    72.5490    25.5960    57.3600    65.7790    65.6720   -17.6160 
  219.6250     2.2090    69.9450    25.5180    53.7490    61.7980    61.2360   -17.6510 
  219.7500     2.2160    67.4870    25.4470    51.1610    58.0940    57.4300   -17.7580 
  219.8750     2.2280    68.3960    25.4000    48.5880    55.4060    55.0490   -17.9820 
  220.0000     2.2390    71.9330    25.3720    46.5550    54.4520    54.7860   -18.2750 
  220.1250     2.2410    74.7060    25.4140    47.8940    56.3320    57.6800   -18.5190 
  220.2500     2.2340    73.9880    25.4920    55.0750    61.1610    63.5430   -18.6790 
  220.3750     2.2180    70.3430    25.5720    67.7890    69.0170    72.7960   -18.8200 
  220.5000     2.1980    66.3440    25.6250    81.0690    79.3950    85.4790   -19.0350 
  220.6250     2.1800    63.8180    25.6690    87.8170    91.1890   100.2240   -19.3790 
  220.7500     2.1700    63.2290    25.6860    90.9130   102.7130   114.2060   -19.7400 
  220.8750     2.1670    64.3860    25.6780    96.2380   113.3080   126.4990   -20.0190 
  221.0000     2.1690    67.6340    25.6140   106.0390   123.2820   137.9170   -20.2200 
  221.1250     2.1720    69.9160    25.5230   117.6120   133.8020   149.9070   -20.4660 
  221.2500     2.1700    69.3840    25.4580   128.6960   145.4500   162.6210   -20.8340 
  221.3750     2.1630    66.9360    25.4520   136.6000   157.4460   174.6590   -21.2730 
  221.5000     2.1590    64.2430    25.4770   142.1150   167.5270   182.8940   -21.6740 
  221.6250     2.1610    64.7130    25.5270   147.2960   171.0240   182.0510   -21.9410 
  221.7500     2.1620    66.2000    25.5900   149.6940   166.2150   172.0680   -22.1240 
  221.8750     2.1600    66.6390    25.6290   141.8200   153.9650   155.4860   -22.3050 
  222.0000     2.1610    66.6690    25.5930   122.7220   137.9720   136.8810   -22.5230 
  222.1250     2.1750    67.9030    25.4210   100.4020   122.9930   121.0150   -22.7300 
  222.2500     2.1920    69.6580    25.2320    85.4900   111.2710   109.1040   -22.8420 
  222.3750     2.2020    69.7700    25.1430    81.5250   102.7450   100.4500   -22.8360 
  222.5000     2.2040    68.1610    25.0740    83.8390    96.1790    93.5360   -22.7640 
  222.6250     2.2040    66.1820    24.9760    82.2920    89.8920    86.9140   -22.7060 
  222.7500     2.2060    65.4310    24.9110    72.6770    83.1040    80.1980   -22.6840 
  222.8750     2.2090    67.2310    24.8870    61.4290    76.6140    74.2430   -22.6660 
  223.0000     2.2110    69.6960    24.8880    54.6130    72.0040    70.4390   -22.6130 
  223.1250     2.2080    71.5610    24.8760    52.4540    71.4750    70.8670   -22.5170 
  223.2500     2.2050    72.0750    24.8950    54.6990    75.4710    75.9030   -22.4390 
  223.3750     2.2010    70.7520    24.9470    69.8540    84.4080    85.8500   -22.4390 
  223.5000     2.1940    68.0830    25.0330   100.6980    97.9790   100.2960   -22.5120 
  223.6250     2.1860    65.7590    25.0670   119.3190   114.9180   118.0970   -22.5960 
  223.7500     2.1860    65.3070    25.0590   113.2350   132.0590   136.4390   -22.6520 
  223.8750     2.1940    65.0960    25.0020   104.4930   147.5900   153.5860   -22.7110 
  224.0000     2.2100    63.2840    25.0470   114.0370   160.9790   168.6850   -22.8200 
  224.1250     2.2370    59.9760    25.1690   133.3840   172.1120   181.0090   -22.9960 
  224.2500     2.2630    57.9030    25.2270   142.2800   180.8150   190.1250   -23.1680 
  224.3750     2.2680    58.4600    25.1200   142.0030   185.4860   194.7130   -23.2780 
  224.5000     2.2460    60.9230    24.9590   138.2240   184.7000   194.0140   -23.3350 
  224.6250     2.2140    63.2040    24.7970   131.8250   178.7600   188.5930   -23.4160 
  224.7500     2.1940    63.9040    24.7670   126.8800   171.6510   181.9280   -23.5520 
  224.8750     2.1880    63.2810    24.8240   122.4760   165.8530   176.1740   -23.6750 
  225.0000     2.1890    63.5600    24.8750   118.0730   162.2810   172.1200   -23.6960 
  225.1250     2.1920    65.2290    24.8580   115.9370   160.3690   169.0090   -23.6080 
  225.2500     2.1920    64.4870    24.8250   117.7050   157.7600   164.7360   -23.5360 
  225.3750     2.1930    61.4490    24.7820   123.4770   152.2800   157.6120   -23.5420 
  225.5000     2.1980    59.7910    24.7420   127.7310   142.7960   146.9710   -23.5820 
  225.6250     2.2050    60.0790    24.8110   119.3940   129.9140   133.5880   -23.5280 
  225.7500     2.2010    59.7250    25.0440   101.3290   116.9210   120.3760   -23.3630 
  225.8750     2.1870    59.9550    25.3040    83.6760   106.2880   109.6180   -23.1560 
  226.0000     2.1770    62.3270    25.4460    75.2350    99.5830   102.8830   -23.0220 
  226.1250     2.1890    65.3140    25.5040    76.7200    98.0730   101.5700   -23.0210 
  226.2500     2.2070    65.2250    25.5460    82.9630   100.5760   104.4700   -23.0250 
  226.3750     2.2180    62.1220    25.5610    92.6230   106.0420   110.4090   -22.9350 
  226.5000     2.2170    58.9820    25.5640   103.7930   112.9660   117.6890   -22.7530 
  226.6250     2.2100    58.8320    25.5630   109.8610   119.3710   124.0120   -22.6020 
  226.7500     2.2050    61.1130    25.5440   108.4140   123.6980   127.5880   -22.5450 
  226.8750     2.2000    63.2740    25.4860   103.3590   124.7410   127.1410   -22.5360 
  227.0000     2.1860    63.6240    25.3800    99.7050   121.4010   121.8820   -22.4620 
  227.1250     2.1510    62.5810    25.2710    98.9130   112.3090   111.1920   -22.2170 
  227.2500     2.1200    62.5620    25.1990    94.2470    99.3230    97.4250   -21.9000 
  227.3750     2.1280    63.4800    25.1910    79.7570    84.7390    82.8980   -21.6350 
  227.5000     2.1860    63.5980    25.2420    60.5650    71.1220    69.8840   -21.4630 
  227.6250     2.2590    63.6210    25.2740    48.6390    60.8300    60.4450   -21.2850 
  227.7500     2.3010    65.7650    25.3200    44.2520    53.8650    54.4110   -20.9980 
  227.8750     2.3060    69.0840    25.3420    43.6940    49.8840    51.4040   -20.6220 
  228.0000     2.2940    71.3880    25.3460    45.6510    48.3790    50.8660   -20.2720 
  228.1250     2.2850    71.4720    25.3400    47.1800    49.1920    52.5960   -20.0670 
  228.2500     2.2780    69.6800    25.3390    47.5130    51.7030    56.0370   -19.9540 
  228.3750     2.2690    67.6170    25.3340    48.0400    55.8770    61.2770   -19.8470 
  228.5000     2.2590    66.9800    25.3100    50.9670    61.8680    68.5460   -19.7030 
  228.6250     2.2510    67.6490    25.2560    63.9870    70.1140    78.3020   -19.5860 
  228.7500     2.2430    67.3540    25.1500    86.0730    79.9100    89.7020   -19.5950 
  228.8750     2.2250    66.9800    25.0550   106.1890    90.2450   101.6590   -19.7590 
  229.0000     2.1930    66.8210    25.0360   113.2870    99.7230   112.8210   -20.0070 
  229.1250     2.1710    65.9280    25.1330   109.7750   106.8000   121.8300   -20.1910 
  229.2500     2.1880    65.2680    25.2510   108.1870   111.6900   128.9190   -20.2530 
  229.3750     2.2450    65.0870    25.2390   108.9040   115.0250   134.6110   -20.2340 
  229.5000     2.3030    63.3610    25.0070   113.7250   117.4430   139.3100   -20.2140 
  229.6250     2.3140    60.6800    24.8620   131.1110   118.9580   142.5310   -20.2510 
  229.7500     2.2820    60.1530    24.9720   143.4720   119.2640   143.6260   -20.2840 
  229.8750     2.2400    61.1940    25.2180   141.3570   117.9670   142.0320   -20.2180 
  230.0000     2.2280    61.3090    25.4520   132.6860   115.1810   138.0180   -20.0040 
  230.1250     2.2900    59.8260    25.5080   139.0980   111.7490   132.9090   -19.6880 
  230.2500     2.4070    59.0420    25.4050   152.2870   108.9810   128.7540   -19.4010 
  230.3750     2.5340    58.5240    25.3020   147.5760   107.5640   126.2360   -19.1790 
  230.5000     2.6250    57.9240    25.2630   121.2920   107.0450   123.6060   -18.9680 
  230.6250     2.6630    56.5610    25.2120    98.4620   103.4570   115.0010   -18.6100 
