~V
VERS. 2.00: Ver 2.00
~W
STRT.M 105.0000:
STOP.M 269.0000:
STEP.M 0.1250:
NULL. -999.2500:
UWI. DF304:
~C
DEPT.M :
GR.API :
CALI.CM :
RXO.OHMM :
RI. :
RML.OHMM :
SP.MV :
DEN.GM/CC :
AC.US/MT :
~A
# ...
  115.0000    79.9230    24.7220     5.3910     4.3290     5.4140   -11.9190     2.3550   406.4880 
  115.1250    77.2290    24.5940     5.9640     4.5970     5.7610   -12.6390     2.3370   389.3150 
  115.2500    76.3160    24.5450     6.2380     4.9500     6.1870   -13.3160     2.3360   359.1060 
  115.3750    74.3430    24.5350     6.3750     5.4720     6.8390   -13.9200     2.3650   312.2100 
  115.5000    70.6070    24.5330     6.7140     6.2610     7.8830   -14.4330     2.4260   259.1100 
  115.6250    65.1340    24.5200     7.3580     7.4150     9.4400   -14.8140     2.4990   220.5530 
  115.7500    59.3230    24.4910     8.0460     8.7390    11.1890   -15.0700     2.5450   205.4840 
  115.8750    56.3470    24.4630     8.6410     9.8690    12.6000   -15.2210     2.5380   215.9570 
  116.0000    59.4900    24.4390     9.0060    10.3410    13.0470   -15.2680     2.4760   250.6860 
  116.1250    66.6890    24.4120     8.9470     9.8320    12.1270   -15.2070     2.3890   303.5170 
  116.2500    72.6910    24.3810     8.6100     8.8600    10.6050   -15.0640     2.3140   355.8300 
  116.3750    75.1950    24.3830     8.2580     7.8980     9.1840   -14.8520     2.2650   393.8390 
  116.5000    74.6520    24.4200     7.9940     7.2410     8.2900   -14.5850     2.2390   412.3910 
  116.6250    74.1180    24.4370     7.9380     7.0760     8.1500   -14.2340     2.2270   416.1810 
  116.7500    74.3080    24.4390     8.1930     7.3030     8.5490   -13.7890     2.2220   416.6510 
  116.8750    74.2680    24.4410     8.6540     7.7830     9.2440   -13.2430     2.2280   416.4700 
  117.0000    72.1430    24.4440     9.0810     8.2650     9.8810   -12.6150     2.2400   414.6670 
  117.1250    68.3050    24.4460     9.3090     8.3370     9.9400   -11.9180     2.2450   411.1090 
  117.2500    67.0420    24.4500     9.3280     7.8390     9.2610   -11.2120     2.2440   409.8010 
  117.3750    71.9240    24.4780     8.9040     6.8650     7.9740   -10.5420     2.2540   415.3680 
  117.5000    83.6150    24.5560     7.7590     5.7200     6.4770    -9.9740     2.2870   429.9210 
  117.6250    94.7610    24.6580     6.1030     4.7710     5.2910    -9.6260     2.3370   449.5910 
  117.7500    96.6060    24.7040     4.8550     4.1710     4.6260    -9.5250     2.3720   463.8950 
  117.8750    87.9930    24.6450     4.4610     3.9720     4.5430    -9.6720     2.3760   465.9030 
  118.0000    77.0670    24.4550     4.9440     4.1820     5.0260   -10.0410     2.3510   454.7330 
  118.1250    73.2260    24.1900     6.0030     4.8300     6.0590   -10.6370     2.3110   435.2970 
  118.2500    73.3710    23.9980     6.9700     5.7460     7.3480   -11.3670     2.2790   416.7740 
  118.3750    72.5600    23.8990     7.6640     6.7370     8.5850   -12.1760     2.2620   403.6460 
  118.5000    69.7300    23.8700     8.3790     7.5560     9.4540   -12.9750     2.2560   397.1020 
  118.6250    68.6490    23.8700     9.0380     7.9410     9.6880   -13.6720     2.2570   396.5540 
  118.7500    68.6520    23.8700     9.2520     7.9570     9.4850   -14.2620     2.2610   398.8940 
  118.8750    69.7400    23.8700     8.9760     7.7450     9.0810   -14.7740     2.2630   402.3740 
  119.0000    72.2840    23.8700     8.5090     7.4630     8.6970   -15.2380     2.2590   405.5350 
  119.1250    74.0760    23.8700     8.2090     7.2640     8.5210   -15.6710     2.2530   406.7730 
  119.2500    71.8120    23.8700     8.2030     7.2260     8.6010   -16.1010     2.2530   405.8310 
  119.3750    65.7900    23.8700     8.5390     7.3660     8.9280   -16.5450     2.2580   403.5840 
  119.5000    61.1070    23.8700     9.0930     7.6510     9.4250   -17.0370     2.2620   401.8100 
  119.6250    60.6760    23.8700     9.6380     8.0060     9.9620   -17.5730     2.2620   402.1940 
  119.7500    62.9150    23.8700    10.0970     8.3230    10.3970   -18.1050     2.2560   403.9920 
  119.8750    65.7290    23.8700    10.4510     8.5320    10.6520   -18.6100     2.2460   405.8620 
  120.0000    67.0020    23.8700    10.5740     8.6060    10.7120   -19.0690     2.2320   406.9280 
  120.1250    66.9790    23.8700    10.3830     8.5550    10.6140   -19.4480     2.2220   407.1360 
  120.2500    69.6260    23.8700    10.0950     8.4580    10.4760   -19.7640     2.2240   407.1350 
  120.3750    73.4170    23.8700     9.8980     8.3700    10.3670   -19.9970     2.2370   407.2120 
  120.5000    73.5550    23.8700     9.8940     8.3220    10.3270   -20.1240     2.2520   407.4390 
  120.6250    69.0760    23.8700    10.0070     8.3290    10.3650   -20.1530     2.2590   407.7240 
  120.7500    64.4650    23.8700    10.0750     8.3600    10.4280   -20.1240     2.2580   407.7450 
  120.8750    61.8520    23.8700    10.0420     8.3870    10.4680   -20.0400     2.2530   407.2720 
  121.0000    60.8220    23.8700     9.9620     8.3820    10.4520   -19.9350     2.2490   406.4310 
  121.1250    61.5790    23.8700     9.8570     8.3240    10.3600   -19.8450     2.2480   405.7850 
  121.2500    62.3920    23.8700     9.6980     8.2310    10.2250   -19.7700     2.2510   405.7270 
  121.3750    64.5150    23.8700     9.5260     8.1300    10.0870   -19.7230     2.2560   406.2400 
  121.5000    69.2180    23.8700     9.3730     8.0590     9.9880   -19.7030     2.2570   407.0240 
  121.6250    72.5550    23.8700     9.2560     8.0620     9.9790   -19.6970     2.2530   407.4970 
  121.7500    71.3910    23.8700     9.2520     8.1370    10.0620   -19.7060     2.2500   407.3230 
  121.8750    67.9390    23.8700     9.4200     8.2650    10.2170   -19.7330     2.2500   406.6660 
  122.0000    65.7500    23.8700     9.7130     8.4030    10.3880   -19.7700     2.2570   406.0200 
  122.1250    65.6740    23.8700     9.8580     8.4730    10.4710   -19.7960     2.2670   405.8510 
  122.2500    66.6620    23.8700     9.7720     8.4250    10.3970   -19.7910     2.2730   406.3450 
  122.3750    67.9860    23.8700     9.5720     8.2530    10.1520   -19.7590     2.2680   408.0540 
  122.5000    69.1520    23.8700     9.4400     8.0020     9.7980   -19.7330     2.2600   411.5610 
  122.6250    71.0300    23.8700     9.2880     7.7640     9.4670   -19.7300     2.2550   416.3420 
  122.7500    73.8100    23.8700     9.0580     7.6240     9.2850   -19.7520     2.2550   419.8560 
  122.8750    73.9540    23.8700     8.8950     7.6190     9.3080   -19.7960     2.2550   420.3040 
  123.0000    70.7900    23.8700     8.9800     7.7470     9.5130   -19.8620     2.2530   417.9000 
  123.1250    75.5410    23.8700     9.3230     7.9670     9.8130   -19.9450     2.2530   414.6700 
  123.2500    87.2730    23.8700     9.5760     8.1820    10.0590   -20.0320     2.2550   412.2710 
  123.3750    91.2750    23.8710     9.6360     8.3230    10.1490   -20.1240     2.2550   410.7310 
  123.5000    79.2980    23.8820     9.5000     8.3450    10.0370   -20.1730     2.2500   409.8220 
  123.6250    65.1310    23.9130     9.2730     8.2440     9.7420   -20.1410     2.2440   409.9390 
  123.7500    62.0660    23.9560     9.0070     8.1090     9.4080   -20.0080     2.2430   411.4930 
  123.8750    63.3200    23.9910     8.7370     8.0250     9.1610   -19.7610     2.2460   414.3550 
  124.0000    62.8660    24.0310     8.5100     8.0710     9.1090   -19.3920     2.2510   416.3440 
  124.1250    63.3010    24.0490     8.3650     8.2850     9.3010   -18.9120     2.2680   410.8000 
  124.2500    67.3570    24.0550     8.3640     8.5350     9.5590   -18.3340     2.2990   395.2690 
  124.3750    71.9910    24.0550     8.5400     8.6330     9.6490   -17.6370     2.3360   374.8830 
  124.5000    73.7290    24.0550     8.7180     8.4010     9.3580   -16.8480     2.3640   362.0490 
  124.6250    74.8840    24.0840     8.4020     7.7490     8.5860   -16.0130     2.3740   371.4400 
  124.7500    81.2700    24.2320     7.4630     6.9090     7.6150   -15.2160     2.3770   396.5510 
  124.8750    92.3970    24.5700     6.2240     6.0840     6.7100   -14.5210     2.3780   423.0840 
