~V
VERS. 2.00: Ver 2.00
~W
STRT.M 105.0000:
STOP.M 269.0000:
STEP.M 0.1250:
NULL. -999.2500:
UWI. DF304:
~C
DEPT.M :
GR.API :
CALI.CM :
RXO.OHMM :
RI. :
RML.OHMM :
SP.MV :
DEN.GM/CC :
AC.US/MT :
~A
# ...
  135.0000    95.6030    24.5620     5.7950     5.1360     5.9720   -12.6270     2.3280   414.5010 
  135.1250    86.2380    24.5630     6.0220     5.1680     5.9830   -12.6180     2.3250   414.7030 
  135.2500    84.3740    24.6470     5.8810     5.1170     5.8720   -12.6420     2.3330   415.5370 
  135.3750    87.7160    24.8200     5.5090     5.0040     5.6910   -12.6850     2.3540   416.4770 
  135.5000    92.6870    24.9650     5.2650     4.8780     5.5210   -12.7370     2.3800   417.6200 
  135.6250    97.9720    25.0150     5.1090     4.7990     5.4510   -12.7870     2.3950   418.8390 
  135.7500   100.7740    25.0220     5.0830     4.7740     5.4800   -12.8680     2.3900   418.5990 
  135.8750    98.7090    25.0220     5.2230     4.7780     5.5590   -12.9810     2.3720   416.0590 
  136.0000    93.8820    25.0220     5.5270     4.7720     5.6200   -13.1330     2.3550   412.9820 
  136.1250    92.4770    25.0220     5.7700     4.7320     5.6140   -13.2980     2.3530   413.0730 
  136.2500    95.7770    25.0220     5.7470     4.6870     5.5800   -13.4990     2.3680   415.2610 
  136.3750   102.6940    25.0220     5.5050     4.6820     5.5910   -13.7600     2.3950   414.7370 
  136.5000   107.3430    25.0130     5.4810     4.7590     5.7250   -14.0910     2.4140   408.0070 
  136.6250   103.7050    24.9490     6.2360     4.9560     6.0450   -14.5010     2.4010   398.2330 
  136.7500    94.5540    24.8080     6.9260     5.2320     6.4830   -14.9420     2.3660   393.8940 
  136.8750    86.0920    24.6500     7.2110     5.5350     6.9460   -15.4060     2.3300   397.9040 
  137.0000    82.5290    24.5570     7.3000     5.8060     7.3340   -15.8720     2.3020   406.6150 
  137.1250    83.8670    24.5350     7.3710     5.9900     7.5600   -16.3330     2.2830   413.5460 
  137.2500    87.5110    24.5330     7.4270     6.1090     7.6770   -16.7570     2.2710   416.9570 
  137.3750    90.5380    24.5330     7.4150     6.2010     7.7650   -17.1260     2.2670   418.4300 
  137.5000    88.6890    24.5330     7.3940     6.2990     7.8810   -17.4220     2.2630   419.3080 
  137.6250    82.7200    24.5330     7.4320     6.4090     8.0380   -17.6230     2.2540   419.6320 
  137.7500    79.7680    24.5330     7.5470     6.5090     8.1910   -17.7540     2.2480   419.4810 
  137.8750    82.5210    24.5330     7.6450     6.5750     8.2940   -17.8120     2.2530   419.1180 
  138.0000    86.1450    24.5330     7.6060     6.5880     8.3180   -17.8000     2.2520   418.7220 
  138.1250    84.7830    24.5330     7.4310     6.5420     8.2620   -17.7490     2.2480   418.1690 
  138.2500    81.4830    24.5330     7.2620     6.4740     8.1870   -17.6690     2.2420   417.2450 
  138.3750    81.4510    24.5330     7.1530     6.4080     8.1330   -17.5470     2.2400   415.9760 
  138.5000    85.6610    24.5330     7.1220     6.3610     8.1130   -17.3970     2.2490   414.7960 
  138.6250    92.1590    24.5330     7.1890     6.3300     8.1190   -17.2310     2.2700   414.3010 
  138.7500    96.6760    24.5330     7.3140     6.2980     8.1150   -17.1090     2.2880   414.1820 
  138.8750    97.3720    24.5330     7.3660     6.2610     8.0820   -17.0440     2.2900   413.1330 
  139.0000    96.9560    24.5330     7.3070     6.2220     8.0310   -16.9820     2.2750   411.3390 
  139.1250   100.9170    24.5330     7.2630     6.2010     8.0010   -16.9980     2.2530   412.3140 
  139.2500   105.1040    24.5330     7.3300     6.2120     8.0230   -17.0650     2.2360   413.1960 
  139.3750   103.1800    24.5330     7.4040     6.2610     8.1080   -17.1780     2.2290   413.5940 
  139.5000    96.3210    24.5330     7.4420     6.3450     8.2450   -17.3000     2.2360   413.3980 
  139.6250    92.6610    24.5330     7.4610     6.4530     8.4100   -17.4030     2.2500   412.7210 
  139.7500    91.9340    24.5330     7.5100     6.5690     8.5690   -17.4800     2.2580   411.8280 
  139.8750    91.3550    24.5330     7.5840     6.6860     8.7150   -17.4920     2.2510   410.9140 
  140.0000    89.9960    24.5330     7.6470     6.8060     8.8560   -17.3970     2.2360   410.3260 
  140.1250    87.1760    24.5340     7.7030     6.9140     8.9820   -17.1470     2.2270   410.9630 
  140.2500    82.9950    24.5460     7.7630     6.9810     9.0580   -16.7630     2.2400   412.6740 
  140.3750    84.1850    24.5760     7.8370     6.9800     9.0520   -16.2460     2.2800   412.9140 
  140.5000    95.5370    24.6150     7.7940     6.9020     8.9470   -15.6340     2.3380   407.6280 
  140.6250   103.9600    24.6700     7.4860     6.7470     8.7240   -14.9480     2.3880   395.8240 
  140.7500    99.5820    24.7640     7.0770     6.5460     8.4230   -14.2220     2.4060   386.1560 
  140.8750    88.8730    24.8650     7.0180     6.3240     8.0850   -13.4960     2.3920   386.2320 
  141.0000    83.0560    24.9160     7.5220     6.1020     7.7490   -12.8100     2.3600   396.0690 
  141.1250    84.9560    24.9240     7.4380     5.9020     7.4590   -12.2080     2.3370   407.0020 
  141.2500    88.5350    24.9240     6.8430     5.7460     7.2470   -11.6970     2.3280   411.8070 
  141.3750    91.3060    24.9240     6.2790     5.6410     7.1220   -11.2870     2.3260   411.6590 
  141.5000    92.7160    24.9240     6.1170     5.5700     7.0480   -10.9740     2.3240   411.4010 
  141.6250    92.3900    24.9240     6.1480     5.4930     6.9500   -10.7740     2.3270   414.6080 
  141.7500    92.1710    24.9240     6.1120     5.3810     6.7780   -10.6540     2.3420   418.8950 
  141.8750    93.3710    24.9240     5.9750     5.2320     6.5310   -10.5840     2.3640   420.2020 
  142.0000    95.0760    24.9240     5.6620     5.0670     6.2530   -10.5470     2.3830   416.2720 
  142.1250    95.1170    24.9240     5.3400     4.9200     6.0220   -10.5560     2.3920   410.0560 
  142.2500    94.1120    24.9240     5.3120     4.8150     5.8770   -10.5800     2.3920   407.9970 
  142.3750    93.6060    24.9240     5.6700     4.7520     5.8080   -10.6280     2.3840   411.5170 
  142.5000    94.7510    24.9240     6.0590     4.7270     5.7930   -10.6930     2.3720   416.5170 
  142.6250    97.2600    24.9240     6.0300     4.7540     5.8340   -10.7730     2.3560   416.5550 
  142.7500    97.9200    24.9240     5.8370     4.8420     5.9420   -10.8730     2.3400   411.4710 
  142.8750    94.2380    24.9240     5.8090     4.9970     6.1420   -11.0060     2.3310   404.5810 
  143.0000    89.4550    24.9240     5.9320     5.2050     6.4210   -11.1630     2.3290   399.6280 
  143.1250    88.8860    24.9240     6.1030     5.4000     6.6810   -11.3170     2.3290   399.7260 
  143.2500    90.8560    24.9240     6.2450     5.5040     6.7900   -11.4770     2.3280   403.3800 
  143.3750    94.2680    24.9240     6.2820     5.4810     6.6950   -11.6330     2.3390   406.6870 
  143.5000   101.5580    24.9240     6.1940     5.3640     6.4530   -11.7730     2.3750   405.3360 
  143.6250   106.0520    24.9240     6.0580     5.2290     6.2100   -11.8830     2.4250   398.3620 
  143.7500   101.5240    24.9260     6.2220     5.1450     6.0890   -11.9650     2.4510   392.2120 
  143.8750    93.9910    24.9310     7.1820     5.1250     6.1030   -12.0250     2.4390   391.7530 
  144.0000    91.3600    24.9340     7.9030     5.1380     6.1800   -12.0540     2.4100   397.0640 
  144.1250    92.1340    24.9350     7.4250     5.1260     6.1970   -12.0780     2.3990   403.7580 
  144.2500    93.7170    24.9350     6.3150     5.0620     6.1030   -12.1150     2.4080   407.5480 
  144.3750    97.5040    24.9350     5.7600     4.9660     5.9320   -12.1880     2.4190   407.7750 
  144.5000    99.1750    24.9350     5.5460     4.8900     5.7760   -12.3100     2.4160   405.6620 
  144.6250    96.0650    24.9350     5.4260     4.9170     5.7770   -12.4990     2.3950   403.4480 
  144.7500    96.1710    24.9350     5.4940     5.0660     5.9610   -12.7250     2.3740   402.8410 
  144.8750    96.8080    24.9350     5.8400     5.3150     6.2820   -12.9820     2.3620   403.7450 
