~V
VERS. 2.00: Ver 2.00
~W
STRT.M 57.0000:
STOP.M 272.0000:
STEP.M 0.1250:
NULL. -999.2500:
UWI. DF3055:
~C
DEPT.M :
SP.MV :
GR.API :
RML.OHMM :
RI. :
RXO.OHMM :
CALI.CM :
DEN.GM/CC :
~A
# ...
  214.5000   -20.6900    58.4020    84.9020    79.2770    81.7390    24.9010     2.2310 
  214.6250   -20.7350    57.0090    85.7650    79.7900    77.7380    24.9010     2.2220 
  214.7500   -20.7850    57.2910    87.5630    80.9820    78.2830    24.9010     2.2180 
  214.8750   -20.8360    60.7960    88.9750    81.9260    82.4670    24.8990     2.2220 
  215.0000   -20.8770    64.3360    88.6340    81.5370    87.5630    24.8970     2.2310 
  215.1250   -20.9060    64.4880    85.3040    78.9060    88.9890    24.8970     2.2420 
  215.2500   -20.9690    62.9540    78.7400    73.5360    81.2330    24.8960     2.2500 
  215.3750   -21.0320    62.5420    70.7420    66.9380    69.4790    24.8950     2.2500 
  215.5000   -21.0990    62.9010    63.4600    60.7400    57.8350    24.8930     2.2460 
  215.6250   -21.1520    64.8740    59.1930    56.4030    49.2750    24.8930     2.2430 
  215.7500   -21.2420    67.9780    58.7440    55.2620    46.9060    24.8940     2.2470 
  215.8750   -21.3230    67.8230    61.3230    56.9660    49.6560    24.8950     2.2600 
  216.0000   -21.4130    63.6830    66.4450    61.1300    56.9270    24.8940     2.2750 
  216.1250   -21.5250    59.7830    73.3080    67.1030    66.5460    24.8930     2.2850 
  216.2500   -21.6360    59.3710    80.8920    74.1780    75.8050    24.8920     2.2790 
  216.3750   -21.7270    58.5680    88.2570    81.5480    82.8160    24.8920     2.2630 
  216.5000   -21.8080    56.1350    95.4680    89.1560    86.9730    24.8920     2.2420 
  216.6250   -21.9160    54.6060   103.5170    97.5570    88.6710    24.8910     2.2240 
  216.7500   -21.9790    57.2470   114.5470   108.1660    93.1060    24.8880     2.2140 
  216.8750   -22.0420    59.8400   129.2530   121.4270   105.4960    24.8810     2.2100 
  217.0000   -22.0910    58.8220   147.2760   137.0490   121.9850    24.8680     2.2090 
  217.1250   -22.1490    55.9490   166.7950   153.7350   138.4920    24.8480     2.2090 
  217.2500   -22.1690    56.0350   184.0370   169.0350   152.9350    24.8320     2.2100 
  217.3750   -22.1990    57.1540   197.0140   181.1030   161.7950    24.8100     2.2090 
  217.5000   -22.2190    58.0250   204.8130   189.1580   162.0530    24.7760     2.2070 
  217.6250   -22.2240    59.3120   208.9130   193.3400   157.3380    24.7510     2.2040 
  217.7500   -22.2150    60.7320   207.2260   193.1710   155.8520    24.7340     2.2040 
  217.8750   -22.1870    60.1180   200.4340   188.3930   157.6290    24.7160     2.2060 
  218.0000   -22.1650    59.1720   186.5960   177.8290   161.0070    24.7020     2.2140 
  218.1250   -22.0960    61.1480   162.9280   161.3980   159.2640    24.6960     2.2250 
  218.2500   -22.0260    64.6920   138.1920   141.2410   144.2770    24.6960     2.2370 
  218.3750   -21.9410    66.8270   118.7620   122.4960   119.6230    24.6960     2.2440 
  218.5000   -21.8470    67.3260   106.4310   108.5540    94.3010    24.6960     2.2410 
  218.6250   -21.7370    66.7810   100.6940   100.6980    81.5340    24.6960     2.2250 
  218.7500   -21.6290    65.0340   100.0920    98.7310    88.8370    24.6960     2.1980 
  218.8750   -21.5060    63.6860   101.0950    99.4050   101.6070    24.6960     2.1750 
  219.0000   -21.3550    63.6890   101.5160   100.4840   111.4670    24.6960     2.1760 
  219.1250   -21.2380    64.7830   100.1690   100.4130   111.5780    24.6930     2.2170 
  219.2500   -21.1100    66.4630    97.3740    98.7140    98.6670    24.6830     2.2960 
  219.3750   -20.9850    66.3700    95.2900    96.8790    87.7360    24.6640     2.3720 
  219.5000   -20.8690    63.0220    95.6700    96.5390    85.6050    24.6220     2.4060 
  219.6250   -20.7750    58.0380    99.3500    98.8090    92.7470    24.5680     2.3830 
  219.7500   -20.6620    56.6950   106.2450   104.0260   106.4850    24.5400     2.3200 
  219.8750   -20.5770    57.2610   114.0830   110.3940   116.5140    24.6360     2.2620 
  220.0000   -20.4920    57.1070   120.6450   116.0630   119.8030    24.7210     2.2280 
  220.1250   -20.4030    58.0880   123.8790   119.2080   120.8570    24.7520     2.2170 
  220.2500   -20.3180    63.2780   122.1470   118.0920   118.3180    24.7520     2.2190 
  220.3750   -20.2450    67.9000   117.3630   113.8910   113.1160    24.7520     2.2210 
  220.5000   -20.1590    67.9520   111.9280   108.4910   105.8190    24.7520     2.2200 
  220.6250   -20.0440    65.1150   108.3140   104.1570    97.4610    24.7490     2.2180 
  220.7500   -19.9520    62.7940   108.9950   103.3050    92.3640    24.7460     2.2190 
  220.8750   -19.8530    61.4850   113.8210   106.0850    97.4690    24.7480     2.2210 
  221.0000   -19.7720    60.2060   121.7820   111.7820   112.7210    24.7350     2.2210 
  221.1250   -19.6610    58.6940   130.6780   118.6850   128.5270    24.7650     2.2150 
  221.2500   -19.5630    58.6110   136.7880   123.9680   137.0510    24.8770     2.2030 
  221.3750   -19.4420    60.3970   137.7680   125.5920   133.1540    24.9700     2.1920 
  221.5000   -19.3150    61.7700   133.1010   122.7570   123.5050    25.0590     2.1860 
  221.6250   -19.1730    60.2920   124.3960   116.1880   114.7260    25.1250     2.1870 
  221.7500   -19.0470    58.2380   114.7700   107.9030   107.3620    25.2200     2.1970 
  221.8750   -18.8960    59.4920   107.1540   100.5960   100.3490    25.3840     2.2100 
  222.0000   -18.7450    63.0570   102.8000    95.6870    95.6880    25.4920     2.2240 
  222.1250   -18.6370    65.7870   101.8540    93.6710    94.8210    25.5620     2.2340 
  222.2500   -18.5280    66.6430   103.5200    94.3160   100.3790    25.5370     2.2370 
  222.3750   -18.4300    64.3530   105.2290    95.5990   108.6390    25.4600     2.2360 
  222.5000   -18.3470    59.2140   104.6510    95.5650   112.4520    25.3430     2.2320 
  222.6250   -18.2970    55.0000    99.9480    92.4860   108.8400    25.2770     2.2300 
  222.7500   -18.2220    56.8270    90.3940    85.1130    97.3660    25.1900     2.2300 
  222.8750   -18.1690    61.3160    78.4310    75.2360    81.0400    25.1480     2.2320 
  223.0000   -18.0970    64.6280    66.4740    64.9170    63.6390    25.0670     2.2340 
  223.1250   -18.0170    65.8290    56.4270    56.0780    50.0620    24.9950     2.2350 
  223.2500   -17.9250    65.8480    49.7520    50.2660    43.7530    24.8880     2.2330 
  223.3750   -17.8680    65.7150    47.2050    47.1220    41.9430    24.8100     2.2290 
  223.5000   -17.8190    64.7400    46.8350    46.2170    42.4950    24.6380     2.2250 
  223.6250   -17.7370    62.0490    48.0600    46.9690    44.5110    24.5710     2.2220 
  223.7500   -17.6760    58.3700    50.2370    48.7920    47.8230    24.5990     2.2240 
  223.8750   -17.6180    56.6990    52.5120    50.8370    51.0600    24.6750     2.2280 
  224.0000   -17.5740    57.8320    54.4910    52.6680    53.0560    24.6710     2.2310 
  224.1250   -17.4940    60.0910    56.0950    54.1010    53.4200    24.6650     2.2310 
  224.2500   -17.4120    61.3340    57.4690    55.1850    52.2600    24.6550     2.2280 
  224.3750   -17.2780    60.8030    58.9590    56.2370    51.3010    24.6480     2.2250 
  224.5000   -17.0930    60.7200    60.7160    57.4790    51.9920    24.6460     2.2250 
  224.6250   -16.9270    62.5900    62.8660    59.0200    54.7270    24.6350     2.2290 
  224.7500   -16.7560    65.5170    65.2370    60.8520    58.4270    24.6030     2.2370 
  224.8750   -16.6010    66.1000    67.5960    62.7630    61.4480    24.5650     2.2440 
  225.0000   -16.4500    64.5800    69.6880    64.5430    64.3550    24.5480     2.2470 
  225.1250   -16.3240    62.6510    71.0520    65.9700    68.0860    24.5460     2.2470 
  225.2500   -16.2080    62.7150    71.3600    66.7610    71.2790    24.5460     2.2430 
  225.3750   -16.1230    64.3310    70.9960    66.9480    72.0130    24.5440     2.2410 
  225.5000   -16.0880    66.2770    70.3890    66.6520    69.6730    24.5380     2.2440 
  225.6250   -16.0500    66.9940    70.0570    66.1370    66.7080    24.5270     2.2500 
