~V
VERS. 2.00: Ver 2.00
~W
STRT.M 60.0000:
STOP.M 254.0000:
STEP.M 0.1250:
NULL. -999.2500:
UWI. DF3029:
~C
DEPT.M :
SP.MV :
GR.API :
RML.OHMM :
RI. :
RXO.OHMM :
CALI.CM :
DEN.GM/CC :
~A
# ...
   93.7500   -38.9770    73.0220    10.9270     9.4470     9.6110    23.5470     2.1250 
   93.8750   -39.2590    70.8060    10.7280     9.3080     9.4320    23.4580     2.1060 
   94.0000   -39.4960    72.1690    10.6000     9.2050     9.2710    23.3930     2.1020 
   94.1250   -39.5750    71.5800    10.6160     9.2010     9.4080    23.3460     2.1160 
   94.2500   -39.6390    68.5780    10.7520     9.2900     9.8200    23.4230     2.1410 
   94.3750   -39.5710    66.1170    10.9550     9.4390    10.3580    23.6690     2.1680 
   94.5000   -39.5200    65.6480    11.1520     9.5970    10.7970    23.9710     2.1880 
   94.6250   -39.2990    66.1010    11.2570     9.6920    11.8320    24.1120     2.1930 
   94.7500   -39.0870    67.0540    11.2510     9.6970    12.8680    24.1590     2.1870 
   94.8750   -38.8750    68.3500    11.1610     9.6170    12.4200    24.1790     2.1800 
   95.0000   -38.5860    69.5090    11.0400     9.4850    11.1980    24.1760     2.1760 
   95.1250   -38.3800    70.2850    10.9510     9.3500    10.6560    24.1950     2.1810 
   95.2500   -38.2050    71.2000    10.9120     9.2500    10.5460    24.2350     2.1910 
   95.3750   -38.0290    71.4010    10.9060     9.1910    10.3960    24.2810     2.2010 
   95.5000   -37.8970    70.4660    10.8950     9.1600    10.2600    24.3190     2.2050 
   95.6250   -37.7850    68.6800    10.8400     9.1240    10.1620    24.3570     2.2030 
   95.7500   -37.6590    66.4530    10.7360     9.0600    10.1180    24.3910     2.1980 
   95.8750   -37.5370    65.8090    10.6110     8.9710    10.1240    24.3960     2.1940 
   96.0000   -37.5000    67.4150    10.5180     8.8900    10.1650    24.3680     2.1890 
   96.1250   -37.5170    68.4040    10.5490     8.8890    10.2120    24.2790     2.1870 
   96.2500   -37.4450    68.1080    10.7440     9.0090    10.2020    24.0700     2.1880 
   96.3750   -37.4510    68.9050    11.0930     9.2600    10.1160    23.6370     2.1950 
   96.5000   -37.3530    69.8520    11.5170     9.5950    10.0190    23.0490     2.2120 
   96.6250   -37.3900    68.2450    11.8610     9.9080     9.9220    22.7240     2.2410 
   96.7500   -37.5180    67.6460    12.0030    10.0870     9.7280    22.6610     2.2710 
   96.8750   -37.6880    69.7980    11.8960    10.0750     9.4390    22.7320     2.2900 
   97.0000   -37.9390    72.0650    11.5820     9.8830     9.3840    22.8870     2.2880 
   97.1250   -38.1180    70.7510    11.1800     9.5820     9.6680    23.1480     2.2590 
   97.2500   -38.3850    69.2270    10.8340     9.2970     9.9690    23.3770     2.2210 
   97.3750   -38.5880    70.7770    10.6100     9.0910    10.1040    23.4270     2.1880 
   97.5000   -38.8670    74.0470    10.5130     8.9840    10.1370    23.3260     2.1720 
   97.6250   -39.0040    75.4130    10.5060     8.9660    10.2900    23.3240     2.1760 
   97.7500   -39.0720    72.9250    10.5190     8.9840    10.4450    23.4210     2.1910 
   97.8750   -39.0700    68.5080    10.5220     9.0180    10.3860    23.5040     2.2080 
   98.0000   -38.8980    66.8820    10.5140     9.0630    10.3330    23.5050     2.2160 
   98.1250   -38.7070    69.7300    10.5130     9.1330    10.3020    23.6070     2.2110 
   98.2500   -38.3390    71.7480    10.5250     9.2240    10.2150    23.8950     2.2000 
   98.3750   -37.8840    69.9040    10.5320     9.3170    10.1420    24.1780     2.1890 
   98.5000   -37.3290    66.4170    10.4920     9.3720    10.0470    24.3190     2.1840 
   98.6250   -36.5720    65.8940    10.3370     9.3210     9.8910    24.2980     2.1880 
   98.7500   -35.6690    68.6930    10.0630     9.1480     9.4870    24.2560     2.1960 
   98.8750   -34.6140    74.3610     9.7010     8.8650     8.8960    24.2500     2.2040 
   99.0000   -33.4530    79.9500     9.3170     8.5140     8.2950    24.2850     2.2130 
   99.1250   -32.2460    81.4390     8.9850     8.1530     7.7570    24.3630     2.2220 
   99.2500   -31.0940    81.4720     8.7200     7.8150     7.1980    24.3950     2.2330 
   99.3750   -30.0930    84.5760     8.4900     7.4980     6.7360    24.3850     2.2440 
   99.5000   -29.1260    90.7320     8.2440     7.1790     6.5300    24.3220     2.2560 
   99.6250   -28.4530    94.2110     7.9250     6.8310     6.4670    24.2230     2.2700 
   99.7500   -27.9780    93.7280     7.5550     6.4680     6.3520    24.1170     2.2880 
   99.8750   -27.7140    95.0300     7.2020     6.1370     6.1000    24.1300     2.3070 
  100.0000   -27.7280   100.4530     6.9770     5.9160     5.9700    24.2820     2.3200 
  100.1250   -27.8620   103.3720     7.0890     5.9520     5.9410    24.4680     2.3190 
  100.2500   -28.2260   100.2630     7.6630     6.3450     6.1400    24.4920     2.3070 
  100.3750   -28.6030    94.0170     8.8170     7.2140     6.8480    24.3440     2.2920 
  100.5000   -29.0950    88.9930    10.5480     8.6100     8.3450    24.1520     2.2900 
  100.6250   -29.5490    84.7790    12.6540    10.4640    10.5500    24.0290     2.3110 
  100.7500   -30.0080    79.9700    14.5740    12.3290    13.4600    23.9240     2.3470 
  100.8750   -30.5080    77.0660    15.7920    13.7320    17.4270    23.8510     2.3830 
  101.0000   -31.0060    78.0920    15.9550    14.2640    23.5470    23.8570     2.4000 
  101.1250   -31.6800    82.4860    14.9770    13.6940    27.0830    23.8560     2.3800 
  101.2500   -32.2810    85.3480    13.5390    12.5630    21.9880    23.8100     2.3320 
  101.3750   -32.8730    86.0150    12.1790    11.3470    14.1100    23.7400     2.2770 
  101.5000   -33.4470    85.2040    11.2270    10.3690    10.7190    23.7150     2.2290 
  101.6250   -33.9830    81.4550    10.8030     9.7910    10.0940    23.7920     2.2010 
  101.7500   -34.5000    78.2240    10.6660     9.4840    10.1400    23.9580     2.1890 
  101.8750   -34.9070    77.5810    10.6340     9.3320    10.1470    24.1500     2.1890 
  102.0000   -35.1740    77.6660    10.5810     9.2300    10.1060    24.2700     2.1950 
  102.1250   -35.2550    76.0220    10.4600     9.1150    10.0040    24.2630     2.2040 
  102.2500   -35.1840    75.6880    10.3140     8.9850     9.7960    24.1950     2.2090 
  102.3750   -35.0890    78.5000    10.1830     8.8600     9.5540    24.1080     2.2110 
  102.5000   -34.9360    82.1860    10.0880     8.7570     9.5700    23.9900     2.2080 
  102.6250   -34.8970    83.7000    10.0290     8.6880     9.4300    23.9260     2.2060 
  102.7500   -34.8820    82.9570     9.9940     8.6460     9.3440    23.9230     2.2060 
  102.8750   -34.9300    80.0260     9.9840     8.6300     9.2850    23.9580     2.2080 
  103.0000   -35.1070    76.4760    10.0160     8.6440     9.3050    24.0030     2.2120 
  103.1250   -35.2070    73.2310    10.1230     8.7120     9.3930    24.0470     2.2140 
  103.2500   -35.4550    71.4670    10.3000     8.8360     9.5130    24.0660     2.2160 
  103.3750   -35.6760    71.9130    10.5260     9.0040     9.6220    24.0700     2.2190 
  103.5000   -35.9190    72.5030    10.7520     9.1820     9.7130    24.0700     2.2220 
  103.6250   -36.0590    70.8840    10.8980     9.3080     9.8570    24.0700     2.2240 
  103.7500   -36.1450    70.1390    10.9310     9.3450     9.9180    24.0700     2.2200 
  103.8750   -36.1570    71.1040    10.8550     9.2830     9.9730    24.0700     2.2110 
  104.0000   -36.0470    70.4780    10.7070     9.1420    10.0640    24.0700     2.1980 
  104.1250   -36.0110    68.1220    10.5350     8.9590    10.0080    24.0700     2.1860 
  104.2500   -35.8370    69.0610    10.3700     8.7730     9.8490    24.0700     2.1780 
  104.3750   -35.6860    71.3320    10.2020     8.5860     9.6790    24.0690     2.1750 
  104.5000   -35.4860    71.7680    10.0120     8.3930     9.4840    24.0670     2.1800 
  104.6250   -35.3260    73.9980     9.8060     8.1950     9.4040    24.0410     2.1930 
  104.7500   -35.2450    80.0480     9.6280     8.0200     9.3900    23.9820     2.2100 
  104.8750   -35.1910    84.4950     9.5270     7.9020     9.2010    23.9030     2.2280 
