~V
VERS. 2.00: Ver 2.00
~W
STRT.M 61.0000:
STOP.M 276.0000:
STEP.M 0.1250:
NULL. -999.2500:
UWI. DF3051:
~C
DEPT.M :
SP.MV :
GR.API :
CALI.CM :
RXO.OHMM :
RI. :
RML.OHMM :
DEN.GM/CC :
~A
# ...
   83.5000   -26.6780    73.1420    24.5710     7.9270     6.8600     9.6620  -999.2500 
   83.6250   -26.3300    74.6490    24.5940     7.7440     6.7260     9.4230  -999.2500 
   83.7500   -26.0250    79.0760    24.6720     7.3540     6.5560     9.1350  -999.2500 
   83.8750   -25.8020    82.7500    24.8130     6.9070     6.3710     8.8570  -999.2500 
   84.0000   -25.6500    82.1990    24.9790     6.6350     6.2010     8.6430  -999.2500 
   84.1250   -25.5640    80.5220    25.1020     6.6460     6.0760     8.5330  -999.2500 
   84.2500   -25.5200    80.3380    25.1720     6.7310     6.0080     8.5150  -999.2500 
   84.3750   -25.4730    79.4570    25.2100     6.7760     6.0100     8.5940  -999.2500 
   84.5000   -25.4520    76.2270    25.2290     6.8390     6.0900     8.7760  -999.2500 
   84.6250   -25.5240    73.0160    25.2210     7.0700     6.2560     9.0770  -999.2500 
   84.7500   -25.6610    75.5360    25.1990     7.3940     6.4720     9.4500  -999.2500 
   84.8750   -25.8240    79.7620    25.1850     7.6800     6.7020     9.8350  -999.2500 
   85.0000   -26.0050    77.7810    25.1960     7.8810     6.9070    10.1510  -999.2500 
   85.1250   -26.1580    70.4800    25.2360     8.0450     7.0410    10.3180  -999.2500 
   85.2500   -26.2920    68.2000    25.2890     8.1790     7.1050    10.3800  -999.2500 
   85.3750   -26.4280    72.6530    25.3400     8.2440     7.1150    10.3900  -999.2500 
   85.5000   -26.5320    77.1640    25.3760     8.2480     7.0960    10.3900  -999.2500 
   85.6250   -26.6190    77.1930    25.4020     8.2590     7.0700    10.4090  -999.2500 
   85.7500   -26.7440    75.3310    25.4410     8.3100     7.0540    10.4480  -999.2500 
   85.8750   -26.9330    73.5790    25.5070     8.3580     7.0540    10.4970  -999.2500 
   86.0000   -27.1720    72.2780    25.5870     8.3540     7.0740    10.5480  -999.2500 
   86.1250   -27.4520    68.8980    25.6640     8.3320     7.1060    10.5940  -999.2500 
   86.2500   -27.7140    65.0270    25.7380     8.3790     7.1370    10.6270  -999.2500 
   86.3750   -27.9370    63.5590    25.7970     8.5030     7.1550    10.6390  -999.2500 
   86.5000   -28.2010    63.6110    25.7940     8.6330     7.1550    10.6280  -999.2500 
   86.6250   -28.5330    63.3070    25.6620     8.6820     7.1370    10.5830  -999.2500 
   86.7500   -28.8600    63.3090    25.4750     8.6620     7.1120    10.5080  -999.2500 
   86.8750   -29.1070    65.7550    25.3380     8.6160     7.0870    10.4220  -999.2500 
   87.0000   -29.2260    68.9350    25.3110     8.5730     7.0690    10.3610  -999.2500 
   87.1250   -29.2260    69.8390    25.3860     8.5320     7.0610    10.3580  -999.2500 
   87.2500   -29.2090    67.9330    25.4980     8.5140     7.0620    10.3920  -999.2500 
   87.3750   -29.2330    64.7820    25.6220     8.5520     7.0640    10.4330  -999.2500 
   87.5000   -29.2730    63.6960    25.7340     8.6330     7.0590    10.4370  -999.2500 
   87.6250   -29.3150    65.0420    25.8040     8.6410     7.0350    10.3550  -999.2500 
   87.7500   -29.3720    66.8950    25.8520     8.5180     6.9900    10.2080  -999.2500 
   87.8750   -29.4890    68.4100    25.9270     8.3130     6.9260    10.0350  -999.2500 
   88.0000   -29.6790    70.0320    26.0580     8.1190     6.8540     9.8830  -999.2500 
   88.1250   -29.8110    71.5390    26.2040     7.9920     6.7820     9.7880  -999.2500 
   88.2500   -29.7820    72.5310    26.2770     7.8950     6.7180     9.7280  -999.2500 
   88.3750   -29.5960    72.1940    26.2390     7.8030     6.6600     9.6690  -999.2500 
   88.5000   -29.3390    69.5540    26.1160     7.7270     6.6100     9.5800  -999.2500 
   88.6250   -29.0710    67.3640    25.9900     7.6940     6.5750     9.4630  -999.2500 
   88.7500   -28.8280    67.8170    25.9390     7.6760     6.5670     9.3690  -999.2500 
   88.8750   -28.5420    70.5380    25.9660     7.6510     6.6000     9.3640  -999.2500 
   89.0000   -28.1240    75.2300    26.0230     7.6260     6.6820     9.5010  -999.2500 
   89.1250   -27.5190    79.0220    26.0600     7.6300     6.8030     9.7730  -999.2500 
   89.2500   -26.7640    79.3310    26.0820     7.6490     6.8920    10.0040  -999.2500 
   89.3750   -25.8470    78.3960    26.1010     7.6270     6.8600     9.9780  -999.2500 
   89.5000   -24.8230    81.7830    26.1210     7.4300     6.6340     9.5340  -999.2500 
   89.6250   -23.7550    91.5410    26.1560     6.8710     6.1850     8.6570  -999.2500 
   89.7500   -22.6850   100.0750    26.2060     6.1200     5.6480     7.6600  -999.2500 
   89.8750   -21.6620   103.1990    26.2530     5.4630     5.1380     6.7900  -999.2500 
   90.0000   -20.7560   102.4150    26.2780     5.1080     4.7440     6.1950  -999.2500 
   90.1250   -20.0810   101.2560    26.2720     5.0990     4.5330     5.9640  -999.2500 
   90.2500   -19.6840    99.1070    26.2440     5.2730     4.4720     5.9940  -999.2500 
   90.3750   -19.5920    97.1000    26.1970     5.5050     4.5260     6.1930  -999.2500 
   90.5000   -19.7240    95.4190    26.1440     5.6840     4.6390     6.4370  -999.2500 
   90.6250   -20.0000    95.1900    26.1000     5.7430     4.7350     6.5710  -999.2500 
   90.7500   -20.3670    95.6220    26.0470     5.7390     4.7760     6.5690  -999.2500 
   90.8750   -20.8350    96.6900    25.9740     5.6900     4.7790     6.5090  -999.2500 
   91.0000   -21.4080    97.5160    25.8970     5.6020     4.7980     6.5230  -999.2500 
   91.1250   -22.0440    94.6410    25.8420     5.5950     4.9160     6.7730  -999.2500 
   91.2500   -22.6810    87.7530    25.7900     5.8530     5.1610     7.2950  -999.2500 
   91.3750   -23.3220    78.1740    25.7020     6.4300     5.5340     8.0660  -999.2500 
   91.5000   -23.9660    69.8980    25.5720     7.1380     5.9970     8.9730  -999.2500 
   91.6250   -24.6060    68.7710    25.4380     7.6180     6.4610     9.7890  -999.2500 
   91.7500   -25.1760    71.2600    25.3540     7.8320     6.8340    10.3320  -999.2500 
   91.8750   -25.6550    73.5120    25.3390     7.9480     7.0680    10.5630  -999.2500 
   92.0000   -26.0450    74.0400    25.3840     8.0710     7.1710    10.5770  -999.2500 
   92.1250   -26.3710    71.8840    25.4650     8.1560     7.1800    10.5340  -999.2500 
   92.2500   -26.6860    68.6800    25.5490     8.2070     7.1600    10.5300  -999.2500 
   92.3750   -27.0170    67.1620    25.6200     8.2780     7.1330    10.5540  -999.2500 
   92.5000   -27.3440    68.7400    25.6770     8.3620     7.1040    10.5750  -999.2500 
   92.6250   -27.6020    70.0480    25.7170     8.3870     7.0820    10.5970  -999.2500 
   92.7500   -27.7800    67.7850    25.7310     8.3820     7.0750    10.6440  -999.2500 
   92.8750   -27.8560    65.2820    25.7130     8.4310     7.0810    10.7140  -999.2500 
   93.0000   -27.8750    65.1390    25.6770     8.5470     7.0970    10.7820  -999.2500 
   93.1250   -27.8960    66.7250    25.6580     8.6250     7.1150    10.8100  -999.2500 
   93.2500   -27.9370    68.5630    25.6600     8.6010     7.1260    10.7840  -999.2500 
   93.3750   -27.9950    70.1480    25.6650     8.5110     7.1260    10.7070  -999.2500 
   93.5000   -28.0400    70.6010    25.6560     8.4160     7.1170    10.6020  -999.2500 
   93.6250   -28.0100    68.6430    25.6360     8.3430     7.1080    10.5100  -999.2500 
   93.7500   -27.8510    66.0790    25.6200     8.3190     7.1120    10.4630  -999.2500 
   93.8750   -27.5270    65.0460    25.6050     8.3800     7.1410    10.4810  -999.2500 
   94.0000   -26.9890    65.0100    25.5880     8.4820     7.1880    10.5540  -999.2500 
   94.1250   -26.2550    64.7320    25.5810     8.4190     7.2170    10.5970  -999.2500 
   94.2500   -25.4210    65.4140    25.6070     8.1190     7.1670    10.4730  -999.2500 
   94.3750   -24.4940    68.6800    25.6680     7.6470     6.9770    10.0730  -999.2500 
   94.5000   -23.4870    75.2390    25.7460     7.0410     6.6300     9.3760  -999.2500 
   94.6250   -22.4980    83.2560    25.8290     6.2590     6.1620     8.4970  -999.2500 
