~V
VERS. 2.00: Ver 2.00
~W
STRT.M 56.0000:
STOP.M 260.0000:
STEP.M 0.1250:
NULL. -999.2500:
UWI. DF3033:
~C
DEPT.M :
GR.API :
RML.OHMM :
RI. :
RXO.OHMM :
CALI.CM :
DEN.GM/CC :
SP.MV :
~A
# ...
  179.7500    67.7680   114.2750   105.5250   119.2730    24.7370     2.2650   -25.8790 
  179.8750    68.6130   100.5580    95.2660   113.6250    24.6940     2.2750   -25.6450 
  180.0000    71.9960    85.0050    82.5250   100.7070    24.6010     2.2920   -25.4150 
  180.1250    77.7020    69.1790    68.3490    74.5870    24.4440     2.3140   -25.2380 
  180.2500    83.2540    55.1510    55.0190    45.0860    24.2840     2.3350   -25.0950 
  180.3750    86.3760    44.0380    43.9940    27.4820    24.1800     2.3490   -24.9830 
  180.5000    87.3000    36.0530    35.8280    22.7510    24.1390     2.3550   -24.9270 
  180.6250    88.8760    31.1580    30.6580    19.5340    24.1320     2.3560   -24.9100 
  180.7500    91.3260    28.2410    27.4370    17.9690    24.1320     2.3570   -24.9850 
  180.8750    91.8950    26.8290    25.6840    16.8760    24.1320     2.3640   -25.0640 
  181.0000    89.6160    26.6810    25.1100    16.7580    24.1320     2.3730   -25.2500 
  181.1250    89.3070    28.1790    25.9330    16.4020    24.1590     2.3790   -25.3680 
  181.2500    91.5440    31.6920    28.4040    17.0730    24.2700     2.3770   -25.6350 
  181.3750    92.9440    38.0880    33.2740    22.0820    24.4850     2.3640   -25.8970 
  181.5000    89.9550    48.3470    41.4220    33.6930    24.6890     2.3430   -26.1720 
  181.6250    83.5390    63.9690    54.1220    55.0100    24.7720     2.3190   -26.5040 
  181.7500    78.6470    83.8590    70.2930    86.3350    24.7810     2.2980   -26.7970 
  181.8750    76.2780   106.3550    88.2470   113.1040    24.7680     2.2810   -27.1220 
  182.0000    74.1570   128.6800   105.3750   118.9780    24.7590     2.2670   -27.3740 
  182.1250    70.1420   146.7730   118.1650   117.2300    24.7570     2.2510   -27.6850 
  182.2500    66.2430   159.0580   125.8560   121.2740    24.7570     2.2340   -27.8410 
  182.3750    65.2020   165.3870   128.8550   132.1400    24.7570     2.2190   -27.9600 
  182.5000    66.8680   166.4320   128.1490   140.2760    24.7570     2.2080   -28.0390 
  182.6250    67.9610   161.7100   123.8370   137.7970    24.7570     2.2020   -28.0330 
  182.7500    67.1880   151.8660   116.4070   129.1310    24.7510     2.2020   -28.0270 
  182.8750    68.3930   137.3990   106.0560   119.1230    24.7130     2.2080   -27.9570 
  183.0000    71.9450   120.1780    93.8070   110.5990    24.5930     2.2200   -27.8620 
  183.1250    72.0720   103.3800    81.6050    96.0290    24.3850     2.2390   -27.7650 
  183.2500    68.6000    89.4450    71.2110    75.6230    24.1880     2.2610   -27.7280 
  183.3750    66.2700    79.2580    63.4300    57.7260    24.0830     2.2790   -27.6920 
  183.5000    67.8360    72.7320    58.3820    47.1520    24.0530     2.2910   -27.6920 
  183.6250    72.4980    69.6670    56.0820    45.3120    24.0530     2.2940   -27.6550 
  183.7500    76.9750    68.6710    55.5190    45.9390    24.0480     2.2890   -27.6550 
  183.8750    78.8560    68.8390    56.0050    47.3620    24.0280     2.2800   -27.6600 
  184.0000    77.0250    69.1770    56.7370    48.3400    23.9900     2.2660   -27.7220 
  184.1250    74.9710    68.4710    56.7020    50.3720    23.9680     2.2550   -27.6810 
  184.2500    75.4150    66.2280    55.4080    52.9570    23.9580     2.2500   -27.6950 
  184.3750    77.4700    62.5280    52.8210    53.0040    23.9590     2.2540   -27.6630 
  184.5000    79.8530    58.0340    49.3820    46.6180    23.9730     2.2660   -27.6000 
  184.6250    82.4020    53.8830    45.9210    39.2930    23.9820     2.2790   -27.6060 
  184.7500    85.4250    50.8950    43.1840    35.7100    23.9900     2.2860   -27.5540 
  184.8750    86.7330    49.3680    41.5060    33.7830    24.0030     2.2870   -27.5480 
  185.0000    84.7980    49.2210    40.9390    33.4250    24.0300     2.2830   -27.5150 
  185.1250    81.3170    50.2610    41.4650    36.0230    24.0480     2.2790   -27.6240 
  185.2500    78.9910    51.9470    42.6810    38.9170    24.1060     2.2770   -27.6550 
  185.3750    76.9900    54.1080    44.4280    40.1920    24.2510     2.2760   -27.7680 
  185.5000    74.9180    56.7630    46.6530    40.5710    24.4670     2.2750   -27.8810 
  185.6250    75.4090    60.1590    49.4620    43.1950    24.6560     2.2720   -27.9920 
  185.7500    77.4460    64.2170    52.7320    49.2790    24.7080     2.2670   -28.1040 
  185.8750    78.6550    68.6610    56.2280    55.9260    24.6990     2.2610   -28.1920 
  186.0000    78.0670    72.9100    59.4940    58.9900    24.6880     2.2550   -28.2650 
  186.1250    79.3380    76.0250    61.7940    60.4940    24.6880     2.2500   -28.2990 
  186.2500    82.8220    77.6560    62.8930    64.3320    24.6880     2.2480   -28.3080 
  186.3750    84.1230    77.7990    62.8350    67.3770    24.6880     2.2500   -28.3260 
  186.5000    82.1670    76.8010    61.9590    63.8520    24.6880     2.2540   -28.3320 
  186.6250    82.2450    75.1540    60.7450    59.2070    24.6870     2.2580   -28.3260 
  186.7500    86.3260    73.5110    59.7100    56.0130    24.6790     2.2610   -28.3480 
  186.8750    88.0460    72.3340    59.1790    58.1060    24.6590     2.2630   -28.3690 
  187.0000    84.0080    72.1410    59.4750    60.0030    24.6450     2.2650   -28.3810 
  187.1250    79.1970    73.8520    61.2080    58.9330    24.6400     2.2650   -28.3950 
  187.2500    78.7330    77.6720    64.5110    55.8750    24.6400     2.2620   -28.4420 
  187.3750    80.5900    83.5450    69.4040    55.1100    24.6400     2.2560   -28.4760 
  187.5000    80.0300    90.6580    75.3550    59.6790    24.6370     2.2470   -28.5770 
  187.6250    76.3080    96.7920    80.7410    72.6980    24.6170     2.2380   -28.5740 
  187.7500    73.6240    99.3510    83.4610    81.8740    24.5580     2.2310   -28.6320 
  187.8750    73.3560    96.4030    81.8490    83.5350    24.4520     2.2290   -28.6160 
  188.0000    73.3490    87.5890    75.3820    78.5580    24.3550     2.2350   -28.6190 
  188.1250    72.7250    74.7480    65.1490    68.3510    24.2410     2.2530   -28.5780 
  188.2500    73.8780    62.7610    54.9980    58.6670    24.1050     2.2800   -28.5060 
  188.3750    78.9330    55.1820    47.9100    48.9100    23.9390     2.3060   -28.4390 
  188.5000    84.5790    54.4430    46.1610    42.2190    23.8420     2.3180   -28.3630 
  188.6250    84.3500    63.4330    52.6710    46.7510    23.9140     2.3050   -28.4410 
  188.7500    79.4440    80.7710    66.8270    70.2390    24.1420     2.2770   -28.4510 
  188.8750    75.0990   104.4600    87.2610   111.8490    24.4030     2.2460   -28.5540 
  189.0000    73.8460   130.3590   110.4750   153.8320    24.5430     2.2240   -28.6930 
  189.1250    74.0090   151.4150   130.2260   160.0680    24.5520     2.2170   -28.8990 
  189.2500    73.0820   163.4060   142.3360   158.8570    24.5030     2.2180   -29.1440 
  189.3750    71.2040   166.5730   146.5310   147.9290    24.4430     2.2230   -29.4130 
  189.5000    70.8280   165.4380   146.2240   133.0610    24.3940     2.2300   -29.6690 
  189.6250    72.9950   165.8030   146.1770   132.0850    24.3800     2.2350   -29.9030 
  189.7500    72.9390   169.5340   148.5180   138.6840    24.3760     2.2400   -30.1210 
  189.8750    67.6080   175.7030   152.7850   147.5350    24.3760     2.2420   -30.3340 
  190.0000    61.6400   182.3770   157.5440   155.9130    24.3680     2.2430   -30.5050 
  190.1250    62.4080   186.9660   160.7860   162.7700    24.3470     2.2440   -30.6530 
  190.2500    65.9950   188.3550   161.5860   164.4500    24.3290     2.2440   -30.7650 
  190.3750    67.9980   186.5660   159.9190   156.2300    24.3410     2.2450   -30.8850 
  190.5000    69.0980   182.5940   156.5330   148.2330    24.3490     2.2470   -30.9690 
  190.6250    71.2200   178.1410   152.7970   145.2350    24.3260     2.2490   -31.0440 
  190.7500    72.0270   175.0800   150.2950   145.2500    24.3030     2.2510   -31.1860 
  190.8750    69.9650   174.6370   150.1430   146.6540    24.2740     2.2490   -31.2680 
