~V
VERS. 2.00: Ver 2.00
~W
STRT.M 135.0000:
STOP.M 270.0000:
STEP.M 0.1250:
NULL. -999.2500:
UWI. DF3063:
~C
DEPT.M :
SP.MV :
GR.API :
CALI.CM :
RXO.OHMM :
RI. :
RML.OHMM :
DEN.GM/CC :
~A
# ...
  258.7500   -13.4750    58.9400    24.3040     9.9800     8.1630     9.7780     2.4960 
  258.8750   -13.4700    61.3440    24.3260     9.6790     8.4440    10.0980     2.4720 
  259.0000   -13.5080    65.0810    24.3660     8.5840     8.7600    10.4250     2.4750 
  259.1250   -13.5280    65.0810    24.3670     8.2850     9.0740    10.6990     2.5120 
  259.2500   -13.5480    65.0810    24.3450     8.4420     9.3660    10.9330     2.5630 
  259.3750   -13.6090    65.0810    24.2640     9.0300     9.6200    11.1150     2.6050 
  259.5000   -13.6400    65.0810    24.2690     9.4450     9.8230    11.2000     2.6340 
  259.6250   -13.6470    65.0810    24.3180     9.5480     9.9260    11.1620     2.6470 
  259.7500   -13.6210    65.0810    24.3410    10.8080     9.9330    11.0350     2.6340 
  259.8750   -13.6810    65.0810    24.4170    12.4230     9.8320    10.8230     2.5910 
  260.0000   -13.7100    65.0810    24.5650    13.2620     9.6220    10.5290     2.5460 
  260.1250   -13.7160    65.0810    24.6090    13.5880     9.3130    10.1790     2.5130 
  260.2500   -13.7070    65.0810    24.5610    13.7970     8.9710     9.8280     2.4970 
  260.3750   -13.6690    65.0810    24.4660    13.5200     8.6450     9.5050     2.4910 
  260.5000   -13.6580    65.0810    24.4380    12.3120     8.3830     9.2840     2.4890 
  260.6250   -13.6200    65.0810    24.3600    11.7460     8.2500     9.1900     2.4850 
  260.7500   -13.6460    65.0810    24.3140    11.9630     8.2310     9.1790     2.4710 
  260.8750   -13.6140    65.0810    24.3240    14.5150     8.3060     9.2260     2.4440 
  261.0000   -13.5690    65.0810    24.3900    17.2750     8.4490     9.3230     2.4210 
  261.1250   -13.5620    65.0810    24.3600    22.5670     8.6310     9.4070     2.4190 
  261.2500   -13.5970    65.0810    24.3480    27.2950     8.7760     9.4310     2.4380 
  261.3750   -13.6750    65.0810    24.2870    29.5730     8.8510     9.4170     2.4610 
  261.5000   -13.6940    65.0810    24.2950    25.3620     8.8730     9.3700     2.4790 
  261.6250   -13.7600    65.0810    24.3590    18.0120     8.8500     9.2970     2.4940 
  261.7500   -13.8410    65.0810    24.3770    14.2290     8.8020     9.2250     2.5130 
  261.8750   -13.9430    65.0810    24.3470    14.9530     8.7550     9.1690     2.5310 
  262.0000   -14.0360    65.0810    24.5250    16.6760     8.7170     9.1110     2.5300 
  262.1250   -14.1340    65.0810    24.5980    15.5100     8.6860     9.0870     2.5060 
  262.2500   -14.2370    65.0810    24.5390    12.3250     8.6550     9.0820     2.4720 
  262.3750   -14.2330    65.0810    24.4710    10.8430     8.6370     9.0780     2.4450 
  262.5000   -14.3140    65.0810    24.4890    10.1510     8.6230     9.0730     2.4280 
  262.6250   -14.3490    65.0810    24.5720     9.9250     8.6010     9.0850     2.4190 
  262.7500   -14.3170    65.0810    24.5390     9.5040     8.5930     9.1040     2.4190 
  262.8750   -14.3270    65.0810    24.5870     8.6010     8.5930     9.1150     2.4270 
  263.0000   -14.3930    65.0810    24.6330     8.1400     8.5990     9.1200     2.4430 
  263.1250   -14.4270    65.0810    24.6260     8.3490     8.5990     9.1390     2.4630 
  263.2500   -14.4020    65.0810    24.6050     9.1110     8.6000     9.1650     2.4780 
  263.3750   -14.4250    65.0810    24.5680     9.5090     8.5840     9.1740     2.4780 
  263.5000   -14.4360    65.0810    24.5600     9.5440     8.5590     9.1790     2.4670 
  263.6250   -14.4920    65.0810    24.5880     9.7590     8.5340     9.1720     2.4550 
  263.7500   -14.5060    65.0810    24.5660    10.0790     8.5050     9.1520     2.4500 
  263.8750   -14.4480    65.0810    24.4960    10.2800     8.4660     9.1030     2.4540 
  264.0000   -14.3840    65.0810    24.4220    10.3340     8.4320     9.0590     2.4550 
  264.1250   -14.3150    65.0810    24.4440     9.9910     8.4130     9.0140     2.4530 
  264.2500   -14.3470    65.0810    24.3090     9.2330     8.3990     8.9900     2.4550 
  264.3750   -14.4040    65.0810    24.3180     8.8650     8.3970     8.9930     2.4650 
  264.5000   -14.4080    65.0810    24.2550     9.0150     8.3990     9.0160     2.4760 
  264.6250   -14.3720    65.0810    24.2440     8.2630     8.4050     9.0330     2.4810 
  264.7500   -14.4330    65.0810    24.3160     7.4520     8.4140     9.0650     2.4860 
  264.8750   -14.5200    65.0810    24.2840     7.2180     8.4210     9.1010     2.4970 
  265.0000   -14.5000    65.0810    24.2640     7.3890     8.4230     9.1080     2.5090 
  265.1250   -14.5070    65.0810    24.1680     7.5630     8.4230     9.1080     2.5110 
  265.2500   -14.3900    65.0810    24.0170     7.8680     8.4230     9.1080     2.5030 
  265.3750   -14.1410    65.0810    23.9320     8.1360     8.4230     9.1080     2.4890 
  265.5000   -13.8870    65.0810    23.7920     8.4250     8.4230     9.1080     2.4760 
  265.6250   -13.5270    65.0810    23.3830     8.5520     8.4230     9.1080     2.4680 
  265.7500   -13.0360    65.0810    22.9090     8.5940     8.4230     9.1080     2.4640 
  265.8750   -13.0360    65.0810    22.3940     8.3720     8.4230     9.1080     2.4590 
  266.0000   -13.0360    65.0810    22.1000     7.9500     8.4230     9.1080     2.4470 
  266.1250  -999.2500    65.0810    21.8810     7.5410     8.4230     9.1080     2.4330 
  266.2500  -999.2500    65.0810    21.3300     7.3300     8.4230     9.1080     2.4270 
  266.3750  -999.2500    65.0810    20.6590     7.3200     8.4230     9.1080     2.4280 
  266.5000  -999.2500    65.0810    19.8630     7.4010     8.4230     9.1080     2.4260 
  266.6250  -999.2500    65.0810    19.5540     7.7190     8.4230     9.1080     2.4060 
  266.7500  -999.2500    65.0810    19.1620     8.0910     8.4230     9.1080     2.3610 
  266.8750  -999.2500    65.0810    18.8130     8.2350     8.4230     9.1080     2.3030 
  267.0000  -999.2500    65.0810    18.6790     8.3470     8.4230     9.1080     2.2610 
  267.1250  -999.2500    65.0810    18.6740     8.5540     8.4230     9.1080     2.2410 
  267.2500  -999.2500    65.0810    18.6100     8.3540     8.4230     9.1080     2.2310 
  267.3750  -999.2500    65.0810    18.3010     8.2960     8.4230     9.1080     2.2100 
  267.5000  -999.2500    65.0810    17.7910     8.5960     8.4230     9.1080     2.1730 
  267.6250  -999.2500    65.0810    17.3510     8.7240     8.4230     9.1080     2.1310 
  267.7500  -999.2500    65.0810    16.9960     8.2730     8.4230     9.1080     2.1000 
  267.8750  -999.2500    65.0810    16.7740     7.6850     8.4230     9.1080     2.0860 
  268.0000  -999.2500    65.0810    16.4810     7.2240     8.4230     9.1080     2.0730 
  268.1250  -999.2500    65.0810    15.7860     7.2060     8.4230     9.1080     2.0490 
  268.2500  -999.2500    65.0810    14.9780     7.2140     8.4230     9.1080     2.0200 
  268.3750  -999.2500    65.0810    13.9750     7.0780     8.4230     9.1080     1.9990 
  268.5000  -999.2500    65.0810    13.5270     6.9130     8.4230     9.1080     2.0020 
  268.6250  -999.2500    65.0810    13.4790     6.9210     8.4230     9.1080     2.0260 
  268.7500  -999.2500    65.0810    13.4710     6.9240     8.4230     9.1080     1.8270 
  268.8750  -999.2500    65.0810    13.4670     6.9270     8.4230     9.1080     1.1600 
  269.0000  -999.2500    65.0810    13.4790     6.9260     8.4230     9.1080     0.4160 
  269.1250  -999.2500    65.0810    13.4670     6.9230     8.4230     9.1080     0.0100 
  269.2500  -999.2500    65.0810    13.4690     6.9200     8.4230     9.1080    -0.0270 
  269.3750  -999.2500    65.0810    13.4610     6.9190     8.4230     9.1080  -999.2500 
  269.5000  -999.2500    65.0810    13.4700     6.9180     8.4230     9.1080  -999.2500 
  269.6250  -999.2500    65.0810    13.4600     6.9180     8.4230     9.1080  -999.2500 
  269.7500  -999.2500    65.0810    13.4510     6.9170     8.4230     9.1080  -999.2500 
  269.8750  -999.2500    65.0810    13.4670     6.9160     8.4230     9.1080  -999.2500 
