~V
VERS. 2.00: Ver 2.00
~W
STRT.M 125.0000:
STOP.M 255.0000:
STEP.M 0.1250:
NULL. -999.2500:
UWI. DF3006:
~C
DEPT.M :
GR.API :
RML.OHMM :
RI. :
RXO.OHMM :
CALI.CM :
DEN.GM/CC :
SP.MV :
~A
# ...
  203.7500    68.2130   102.7530    98.2060    61.3170    23.8670     2.2400   -22.8320 
  203.8750    64.5680   121.6930   116.1130    68.8170    23.8690     2.2370   -22.8180 
  204.0000    61.8020   142.4130   136.0350    84.3560    23.8770     2.2340   -22.6850 
  204.1250    60.6120   159.1480   152.5670   107.8130    23.9250     2.2420   -22.7180 
  204.2500    61.4790   167.6300   161.5740   128.1040    23.9330     2.2610   -22.7130 
  204.3750    63.1960   166.1640   161.2650   140.3970    23.9420     2.2840   -22.6900 
  204.5000    64.4890   156.3320   152.7600   145.2420    23.9960     2.2980   -22.6430 
  204.6250    64.2530   141.7710   139.0640   127.4190    24.0430     2.2900   -22.4790 
  204.7500    64.2520   127.0980   124.7120   125.2020    24.1350     2.2680   -22.3710 
  204.8750    65.2740   114.2760   111.8180   116.3840    24.2350     2.2420   -22.2540 
  205.0000    68.9340   104.3360   101.5600   104.0350    24.4640     2.2210   -22.1730 
  205.1250    72.1420    98.5340    95.2310    97.1430    24.4310     2.2100   -22.0950 
  205.2500    72.5100    96.5370    92.5520    94.2170    24.4010     2.2070   -21.9620 
  205.3750    70.9520    97.9820    93.2360    91.6330    24.4020     2.2090   -21.8660 
  205.5000    69.6510   101.7900    96.3570    90.9410    24.3990     2.2160   -21.7150 
  205.6250    69.3560   106.0330   100.2410    97.0170    24.3160     2.2270   -21.6740 
  205.7500    69.3320   108.5850   102.8360   110.5060    24.2110     2.2380   -21.6270 
  205.8750    69.6560   108.4050   103.0420   120.0370    24.1570     2.2460   -21.5650 
  206.0000    70.6310   105.6420   100.7850   115.8930    24.1590     2.2490   -21.6110 
  206.1250    70.4770   101.4620    96.8980   100.9470    24.1710     2.2460   -21.4880 
  206.2500    68.9360    97.5890    92.9870    91.8910    24.1920     2.2400   -21.4250 
  206.3750    66.6190    94.6550    89.7670    91.5480    24.2480     2.2300   -21.3080 
  206.5000    64.9250    92.5150    87.2760    95.4070    24.3360     2.2170   -21.2570 
  206.6250    64.1920    90.5440    85.0820    97.4230    24.4060     2.2040   -21.1500 
  206.7500    64.3360    88.2380    82.7120    94.7970    24.4050     2.1960   -21.0770 
  206.8750    65.6590    85.6850    80.1740    88.3520    24.3530     2.1980   -21.0270 
  207.0000    67.2410    83.4200    77.8690    80.1740    24.2730     2.2080   -20.8790 
  207.1250    69.8430    82.4250    76.6180    73.6120    24.2380     2.2200   -20.8300 
  207.2500    72.6320    83.0770    76.7820    72.4430    24.2300     2.2270   -20.7380 
  207.3750    73.3730    85.4620    78.4740    75.8290    24.2040     2.2260   -20.7710 
  207.5000    71.3720    89.3340    81.5010    81.3100    24.1450     2.2250   -20.7380 
  207.6250    69.1310    94.2310    85.4640    88.4390    24.1060     2.2190   -20.7510 
  207.7500    68.3900    99.2010    89.5090    96.0710    24.1060     2.2190   -20.7990 
  207.8750    67.8510   103.5080    92.9850    99.6780    24.1210     2.2210   -20.7800 
  208.0000    66.3060   106.5490    95.3700    99.8280    24.1330     2.2200   -20.8480 
  208.1250    64.8310   107.7450    96.1680   100.6220    24.1690     2.2150   -20.9950 
  208.2500    66.3070   107.5260    95.7390   102.4120    24.2590     2.2060   -21.0890 
  208.3750    69.2840   106.3420    94.4550   101.7090    24.3790     2.1980   -21.1200 
  208.5000    70.2650   104.6780    92.7230    98.0120    24.4530     2.1910   -21.1350 
  208.6250    69.1540   102.8720    90.8410    91.9740    24.4600     2.1860   -21.1950 
  208.7500    69.4870   101.0610    88.9690    90.7730    24.4480     2.1830   -21.1600 
  208.8750    70.7580    99.2090    87.1240    93.1140    24.4590     2.1820   -21.1610 
  209.0000    70.5650    97.2630    85.3040    90.3460    24.5030     2.1840   -21.1290 
  209.1250    69.5510    95.2680    83.5930    80.5720    24.5200     2.1870   -20.9580 
  209.2500    68.8070    93.3950    82.1280    75.7680    24.5220     2.1910   -20.8850 
  209.3750    68.5540    91.7430    81.0040    78.0370    24.5120     2.1910   -20.7890 
  209.5000    68.4650    90.2150    80.1560    80.5080    24.4920     2.1870   -20.8240 
  209.6250    67.0680    88.3880    79.2510    79.8120    24.4830     2.1820   -20.7890 
  209.7500    65.6590    85.9270    77.9190    75.5940    24.4820     2.1810   -20.8300 
  209.8750    64.7250    82.8000    76.0420    75.6150    24.4890     2.1880   -20.8990 
  210.0000    65.2970    79.3440    73.8050    79.6290    24.3590     2.1990   -20.9460 
  210.1250    66.4530    76.1610    71.6370    77.9150    24.3390     2.2100   -21.0880 
  210.2500    67.9280    73.5340    69.7990    70.8750    24.3230     2.2150   -21.2020 
  210.3750    67.9220    71.3170    68.1940    65.5120    24.2710     2.2120   -21.3850 
  210.5000    64.3620    69.0760    66.4650    65.4850    24.1580     2.2060   -21.4340 
  210.6250    61.0540    66.1460    64.0120    65.3040    24.1320     2.2020   -21.6100 
  210.7500    62.8680    62.2930    60.6130    60.5700    24.0900     2.2040   -21.7580 
  210.8750    67.3580    57.6010    56.3080    52.5760    24.0070     2.2110   -21.8550 
  211.0000    70.0260    52.5170    51.4830    44.8260    23.8770     2.2200   -22.0450 
  211.1250    70.8070    47.8680    46.8930    40.8070    23.8090     2.2300   -22.2110 
  211.2500    73.6770    44.2810    43.1900    37.7670    23.8560     2.2380   -22.4470 
  211.3750    77.7810    42.1480    40.7760    35.2920    24.0180     2.2430   -22.6700 
  211.5000    78.2190    41.7510    39.9330    34.2210    24.1020     2.2480   -22.9170 
  211.6250    72.6430    43.8570    41.3610    37.2920    24.2990     2.2530   -23.2130 
  211.7500    67.4810    48.7250    45.2940    43.1640    24.3390     2.2590   -23.4880 
  211.8750    67.1260    56.9810    52.3050    50.3370    24.4040     2.2620   -23.8540 
  212.0000    69.5880    69.0200    62.7530    57.9510    24.5650     2.2610   -24.2170 
  212.1250    69.5900    84.9560    76.7150    72.2200    24.5920     2.2550   -24.6100 
  212.2500    66.8630   102.5070    92.0570    98.6770    24.5740     2.2440   -24.9930 
  212.3750    64.0850   119.2440   106.5190   128.0560    24.5440     2.2310   -25.3530 
  212.5000    64.1630   132.6950   117.8750   142.8480    24.5110     2.2190   -25.7800 
  212.6250    67.1400   140.5380   124.0890   135.9210    24.4540     2.2100   -25.9720 
  212.7500    67.9710   144.0280   126.3260   128.7550    24.4210     2.2070   -26.1740 
  212.8750    65.2370   144.5940   125.8600   124.7970    24.4340     2.2120   -26.2880 
  213.0000    63.3620   143.3300   123.7590   127.1240    24.4510     2.2280   -26.3840 
  213.1250    64.0200   140.1820   120.2090   130.9400    24.4210     2.2500   -26.3610 
  213.2500    63.9910   135.4040   115.5130   124.6580    24.4450     2.2670   -26.2560 
  213.3750    62.4530   129.6470   110.1750   112.1640    24.4470     2.2680   -26.0590 
  213.5000    62.1010   124.1990   105.1820   107.0850    24.4420     2.2550   -25.7800 
  213.6250    63.3600   120.9210   102.0430   101.8440    24.4080     2.2340   -25.5740 
  213.7500    64.8830   120.4460   101.3080    98.2300    24.3370     2.2170   -25.2640 
  213.8750    66.4060   122.8100   103.0520    99.8180    24.2880     2.2090   -25.0780 
  214.0000    66.5860   127.3420   106.7410   110.8890    24.2960     2.2060   -24.8640 
  214.1250    64.5650   132.6170   111.2090   121.7800    24.3750     2.2030   -24.7410 
  214.2500    61.2890   136.5530   114.7010   123.9480    24.4190     2.1990   -24.7850 
  214.3750    60.2720   137.5370   115.8840   121.1720    24.4410     2.1960   -24.9030 
  214.5000    63.8390   134.6920   113.9960   120.2470    24.4680     2.1950   -25.1270 
  214.6250    69.5160   128.0230   108.8940   124.0570    24.4940     2.1940   -25.4790 
  214.7500    71.8200   119.9800   102.4110   117.4930    24.5230     2.1840   -25.8590 
  214.8750    69.8750   112.5250    96.0750   101.0560    24.5510     2.1650   -26.1890 
