~V
VERS. 2.00: Ver 2.00
~W
STRT.M 55.0000:
STOP.M 252.0000:
STEP.M 0.1250:
NULL. -999.2500:
UWI. DF3024:
~C
DEPT.M :
GR.API :
RML.OHMM :
RI. :
RXO.OHMM :
CALI.CM :
DEN.GM/CC :
SP.MV :
~A
# ...
   66.2500    89.3380     3.9460     4.7440     7.9800    23.6410  -999.2500   -15.7230 
   66.3750    91.2660     4.2940     5.3020     7.9540    23.8000  -999.2500   -16.9880 
   66.5000    95.7980     4.5010     5.6140     7.5650    23.9880  -999.2500   -17.7070 
   66.6250   101.1010     4.5740     5.6970     6.7650    24.1070  -999.2500   -18.2120 
   66.7500   106.0670     4.5800     5.6760     6.3040    24.0870  -999.2500   -18.7480 
   66.8750   107.2780     4.5770     5.6450     6.2330    23.9750  -999.2500   -19.3660 
   67.0000   103.2400     4.6210     5.6800     6.3280    23.8970  -999.2500   -20.1120 
   67.1250    95.8870     4.7660     5.8470     6.3090    23.7830  -999.2500   -21.0870 
   67.2500    88.7680     5.0080     6.1360     6.5480    23.5820  -999.2500   -22.0400 
   67.3750    81.8360     5.3310     6.5290     7.0540    23.3470  -999.2500   -22.7420 
   67.5000    75.5470     5.6960     6.9880     7.5370    23.0950  -999.2500   -23.3040 
   67.6250    73.2660     6.0280     7.4400     8.2710    22.9720  -999.2500   -23.7080 
   67.7500    73.2120     6.2450     7.7790     8.9370    22.8680  -999.2500   -23.7590 
   67.8750    75.8800     6.2850     7.9120     8.7680    22.6320  -999.2500   -23.5850 
   68.0000    82.5620     6.1330     7.7880     8.2070    22.1590  -999.2500   -23.2550 
   68.1250    93.6990     5.8190     7.3980     7.6040    21.6970  -999.2500   -22.6810 
   68.2500   106.5580     5.4660     6.8930     6.8850    21.6780  -999.2500   -22.1200 
   68.3750   116.5550     5.1610     6.3930     6.0420    22.0560  -999.2500   -21.6640 
   68.5000   120.6610     4.9570     5.9890     5.6020    22.6100  -999.2500   -21.2100 
   68.6250   116.8960     4.8640     5.7260     5.4770    23.0850  -999.2500   -20.9650 
   68.7500   110.9110     4.8070     5.5460     5.4110    23.3860  -999.2500   -20.9390 
   68.8750   108.5310     4.7120     5.3850     5.3730    23.5800  -999.2500   -20.9310 
   69.0000   112.3990     4.5260     5.1880     5.3800    23.7130  -999.2500   -21.1190 
   69.1250   121.2200     4.2550     4.9470     5.3950    23.7820  -999.2500   -21.5810 
   69.2500   125.0250     4.0530     4.7750     5.3650    23.8030  -999.2500   -22.0070 
   69.3750   122.6340     4.1290     4.8690     5.4040    23.8070  -999.2500   -22.4690 
   69.5000   119.0250     4.7050     5.4610     5.7990    23.8070  -999.2500   -23.1450 
   69.6250   113.0480     6.0170     6.8390     7.2780    23.8070  -999.2500   -23.8870 
   69.7500   101.2650     7.8410     8.8100    10.1650    23.8070  -999.2500   -24.5920 
   69.8750    87.1770     9.8010    10.9970    14.9230    23.8070  -999.2500   -25.3880 
   70.0000    78.6350    11.3550    12.7940    21.7360    23.8150  -999.2500   -26.2520 
   70.1250    74.5310    11.8140    13.3740    23.3380    23.8430  -999.2500   -27.0220 
   70.2500    70.2760    11.2720    12.7760    16.7260    23.8670  -999.2500   -27.7530 
   70.3750    69.1720    10.1650    11.4910    11.3770    23.8180  -999.2500   -28.5530 
   70.5000    72.0800     9.0660    10.1750     9.4250    23.7420  -999.2500   -29.2550 
   70.6250    74.1990     8.4220     9.3060     8.9480    23.6810  -999.2500   -29.7580 
   70.7500    73.2170     8.2070     8.8680     8.7280    23.7440  -999.2500   -30.3750 
   70.8750    71.8100     8.2790     8.7460     8.7000    23.7730  -999.2500   -31.0140 
   71.0000    72.6220     8.4740     8.8080     8.6590    23.7630  -999.2500   -31.4830 
   71.1250    73.9760     8.6580     8.9420     8.5570    23.7540  -999.2500   -31.9820 
   71.2500    73.1900     8.7730     9.0640     8.4740    23.8340  -999.2500   -32.5480 
   71.3750    71.1730     8.8180     9.1430     8.4990    24.0260  -999.2500   -32.9720 
   71.5000    70.5020     8.8080     9.1660     8.5840    24.3020  -999.2500   -33.4110 
   71.6250    70.9370     8.7600     9.1270     8.7390    24.4730  -999.2500   -33.8890 
   71.7500    69.2050     8.6870     9.0430     8.7950    24.5150  -999.2500   -34.1930 
   71.8750    66.0930     8.5910     8.9260     8.7280    24.4520  -999.2500   -34.4820 
   72.0000    64.6080     8.4740     8.7880     8.6350    24.3030  -999.2500   -34.8030 
   72.1250    65.3090     8.3460     8.6500     8.6670    24.1930  -999.2500   -34.9050 
   72.2500    64.6950     8.2300     8.5290     8.6920    24.0940  -999.2500   -34.9400 
   72.3750    62.9130     8.1490     8.4350     8.7520    24.0310  -999.2500   -35.0710 
   72.5000    63.4650     8.1210     8.3690     8.8120    23.9240  -999.2500   -35.0840 
   72.6250    67.0020     8.1660     8.3270     8.7600    23.9220  -999.2500   -34.9840 
   72.7500    68.8120     8.2680     8.2920     8.6580    23.9650  -999.2500   -34.9680 
   72.8750    68.2260     8.4130     8.2530     8.4700    23.8660  -999.2500   -34.9740 
   73.0000    70.1010     8.5810     8.2050     8.2520    23.5110  -999.2500   -34.9740 
   73.1250    75.9760     8.7420     8.1520     8.2440    23.2890  -999.2500   -35.0240 
   73.2500    78.3280     8.8830     8.1100     8.2470    23.2720  -999.2500   -35.1420 
   73.3750    75.3550     9.0080     8.0980     8.3010    23.2780  -999.2500   -35.2730 
   73.5000    72.0050     9.1350     8.1320     8.3740    23.1180  -999.2500   -35.3890 
   73.6250    70.9580     9.2830     8.2230     8.4340    23.0330  -999.2500   -35.6560 
   73.7500    69.0090     9.4440     8.3430     8.5550    22.9200  -999.2500   -35.9230 
   73.8750    66.7350     9.5910     8.4650     8.9410    22.7970  -999.2500   -36.0340 
   74.0000    67.0570     9.6850     8.5540     9.3940    22.7240  -999.2500   -36.1820 
   74.1250    68.0090     9.6790     8.5720     9.6870    22.7940  -999.2500   -36.4260 
   74.2500    66.0550     9.5840     8.5290     9.5780    22.9640  -999.2500   -36.5180 
   74.3750    64.7850     9.4280     8.4430     9.3760    23.0620  -999.2500   -36.5550 
   74.5000    67.2100     9.2510     8.3420     9.1840    23.0950  -999.2500   -36.6710 
   74.6250    69.4200     9.1020     8.2550     9.0280    23.0910  -999.2500   -36.6340 
   74.7500    66.7760     9.0020     8.1960     8.9110    23.0870  -999.2500   -36.5970 
   74.8750    62.0160     8.9560     8.1640     8.8920    23.0690  -999.2500   -36.6390 
   75.0000    60.6530     8.9550     8.1520     8.9460    23.0530  -999.2500   -36.5360 
   75.1250    61.2660     8.9910     8.1520     9.0100    23.0310  -999.2500   -36.4050 
   75.2500    61.2980     9.0510     8.1530     9.0730    23.0330  -999.2500   -36.3780 
   75.3750    62.3070     9.1300     8.1500     9.1490    23.0480  -999.2500   -36.2310 
   75.5000    65.2700     9.2220     8.1410     9.0090    23.0720  -999.2500   -36.0480 
   75.6250    66.0840     9.3170     8.1260     9.0870    23.0920  -999.2500   -36.0070 
   75.7500    64.2620     9.4070     8.1130     9.1260    23.1360  -999.2500   -35.8590 
   75.8750    64.5890     9.4920     8.1070     9.1620    23.2320  -999.2500   -35.6280 
   76.0000    69.3860     9.5800     8.1150     9.1790    23.2970  -999.2500   -35.5410 
   76.1250    72.3180     9.6740     8.1370     9.2420    23.3230  -999.2500   -35.5460 
   76.2500    69.6000     9.7690     8.1650     9.2640    23.3190  -999.2500   -35.5050 
   76.3750    64.1670     9.8460     8.1870     9.2510    23.3230  -999.2500   -35.5050 
   76.5000    61.6440     9.8870     8.1940     9.2270    23.3360  -999.2500   -35.5780 
   76.6250    62.6760     9.8770     8.1770     9.1250    23.3660  -999.2500   -35.6390 
   76.7500    63.1990     9.8310     8.1440     8.9650    23.4260  -999.2500   -35.6880 
   76.8750    64.4340     9.7630     8.1040     8.6800    23.5030  -999.2500   -35.8150 
   77.0000    66.6330     9.6840     8.0620     8.3490    23.5620  -999.2500   -35.9320 
   77.1250    67.1790     9.5970     8.0210     8.0340    23.6040  -999.2500   -35.8540 
   77.2500    66.1380     9.5020     7.9720     7.8000    23.6200  -999.2500   -35.8010 
   77.3750    65.3700     9.4000     7.9120     7.6780    23.6270  -999.2500   -35.8390 
