~V
VERS. 2.00: Ver 2.00
~W
STRT.M 60.0000:
STOP.M 280.0000:
STEP.M 0.1250:
NULL. -999.2500:
UWI. DF3041:
~C
DEPT.M :
SP.MV :
GR.API :
RML.OHMM :
RI. :
RXO.OHMM :
CALI.CM :
DEN.GM/CC :
~A
# ...
  228.7500   -23.4680    67.3840   104.4160    87.4520    80.5640    23.5820     2.2090 
  228.8750   -23.4450    70.0400   105.3210    87.6590    82.9590    23.4910     2.2140 
  229.0000   -23.3460    75.0940   105.3230    87.6160    84.7360    23.8170     2.2200 
  229.1250   -23.1670    76.5450   103.9670    86.8820    82.9120    24.3770     2.2260 
  229.2500   -22.9310    74.0000   101.7390    85.5120    79.0450    24.2060     2.2290 
  229.3750   -22.6580    71.2170    99.2040    83.7160    74.8740    23.6040     2.2270 
  229.5000   -22.3020    70.3410    96.9320    81.8070    72.8860    23.3940     2.2220 
  229.6250   -21.8730    71.4900    95.4200    80.1160    75.7810    23.6040     2.2150 
  229.7500   -21.3130    73.8430    94.6870    78.7820    80.9650    23.6650     2.2100 
  229.8750   -20.7120    74.6810    94.7590    77.8820    86.1140    23.7070     2.2060 
  230.0000   -20.1110    72.5530    95.6890    77.4920    89.4370    23.8380     2.2030 
  230.1250   -19.5300    71.2990    97.6160    77.7910    91.0890    23.8560     2.2020 
  230.2500   -19.0060    73.0240   100.1100    78.6580    90.9160    23.7580     2.2040 
  230.3750   -18.4970    76.0830   102.5760    79.8850    91.5080    23.6590     2.2070 
  230.5000   -18.0300    78.5100   104.2190    81.0690    93.1280    23.5880     2.2100 
  230.6250   -17.6240    79.6970   104.0190    81.5570    98.2480    23.6040     2.2120 
  230.7500   -17.3160    77.3280   102.0540    81.0690    98.2860    23.6680     2.2130 
  230.8750   -17.0670    72.9110    98.8230    79.6180    92.6450    23.7810     2.2170 
  231.0000   -16.8760    72.0380    95.2470    77.5610    84.4900    23.8860     2.2290 
  231.1250   -16.7130    75.7230    92.7200    75.6810    82.7100    23.8980     2.2570 
  231.2500   -16.4950    77.5310    92.4250    75.0010    83.3610    23.7280     2.2950 
  231.3750   -16.2260    75.5690    95.5880    76.6580    79.1550    23.6310     2.3300 
  231.5000   -15.9060    72.5060   102.9490    81.6390    73.0460    23.6640     2.3470 
  231.6250   -15.5350    71.1560   114.0560    90.3950    70.8620    23.6550     2.3430 
  231.7500   -15.1210    72.4480   124.5010   100.0210    72.3660    23.4630     2.3450 
  231.8750   -14.6670    74.8280   128.9890   106.3270    82.8410    23.3950     2.3790 
  232.0000   -14.1660    75.0720   122.3560   104.6450   103.1400    23.4730     2.4510 
  232.1250   -13.6400    71.5440   101.7810    91.1420   118.5300    23.5710     2.5410 
  232.2500   -13.0950    67.6260    76.5780    71.2810   137.1850    23.5740     2.6060 
  232.3750   -12.5730    66.6880    54.6600    51.3930   136.5190    23.5510     2.6300 
  232.5000   -12.0540    68.3460    38.6490    35.8610    70.3540    23.6080     2.6270 
  232.6250   -11.5480    71.3670    28.5700    26.1950    33.4510    23.6630     2.6170 
  232.7500   -11.0630    72.8040    20.9900    19.9900    25.0170    23.6680     2.6000 
  232.8750   -10.6370    73.0880    16.7960    15.7960    30.3680    23.6140     2.5660 
  233.0000   -10.2660    75.5160    13.7810    12.7810    30.8180    23.6800     2.5130 
  233.1250    -9.9460    82.4250    11.7320    10.7320    18.2360    23.8000     2.4580 
  233.2500    -9.7170    90.5680    10.3570     9.3570    10.3450    23.7080     2.4180 
  233.3750    -9.5430    99.0850     9.5450     8.5450     8.6450    23.5370     2.4010 
  233.5000    -9.4420   107.8570     9.1980     8.1980     8.6380    23.5100     2.4030 
  233.6250    -9.4180   114.2810     9.2510     8.2510     8.7280    23.5610     2.4140 
  233.7500    -9.4600   114.9120     9.4940     8.4940     8.5830    23.5950     2.4270 
  233.8750    -9.5540   112.0960     9.7880     8.7880     8.6210    23.6110     2.4360 
  234.0000    -9.6920   112.8970    10.0300     9.0300     8.7150    23.6280     2.4420 
  234.1250    -9.8830   118.5300    10.1470     9.1470     8.6630    23.6040     2.4420 
  234.2500   -10.1010   123.7380    10.1630     9.1630     8.5910    23.5480     2.4400 
  234.3750   -10.3740   126.4490    10.1250     9.1250     8.7210    23.4260     2.4260 
  234.5000   -10.6990   128.3180    10.0960     9.0960     9.1750    23.2340     2.4170 
  234.6250   -11.0470   129.2650    10.1430     9.1430     9.6030    23.1220     2.4120 
  234.7500   -11.4040   127.3220    10.2550     9.2550     9.8960    23.0510     2.4110 
  234.8750   -11.7390   126.8440    10.3830     9.3830    10.0530    23.0180     2.4150 
  235.0000   -12.0240   127.7280    10.4630     9.4630    10.1390    23.0120     2.4190 
  235.1250   -12.2500   124.3040    10.4370     9.4370    10.2600    22.9450     2.4190 
  235.2500   -12.4360   119.4850    10.3420     9.3420    10.2910    22.9210     2.4160 
  235.3750   -12.5850   118.5090    10.2360     9.2360    10.1780    22.9450     2.4110 
  235.5000   -12.6710   120.4750    10.1850     9.1850     9.9980    23.0080     2.4070 
  235.6250   -12.6950   120.1130    10.2390     9.2390    10.0460    23.0420     2.4060 
  235.7500   -12.6530   117.1300    10.3660     9.3660    10.1640    23.1100     2.4070 
  235.8750   -12.5640   114.4140    10.5210     9.5210    10.2360    23.1640     2.4100 
  236.0000   -12.4760   113.7400    10.6610     9.6610    10.1550    23.1690     2.4120 
  236.1250   -12.3990   116.5470    10.7520     9.7520    10.0190    23.0990     2.4160 
  236.2500   -12.3260   119.8020    10.7900     9.7900     9.9330    23.0440     2.4210 
  236.3750   -12.2570   120.2970    10.7540     9.7540     9.8520    22.9430     2.4280 
  236.5000   -12.2010   117.1500    10.6110     9.6110     9.9940    22.8670     2.4370 
  236.6250   -12.1760   113.5140    10.3110     9.3110    10.1100    22.8320     2.4450 
  236.7500   -12.1980   111.2290     9.9220     8.9150    10.2230    22.8130     2.4480 
  236.8750   -12.2880   112.1760     9.5680     8.5220    10.3000    22.8020     2.4470 
  237.0000   -12.4270   114.0830     9.3030     8.2730    10.3700    22.8040     2.4400 
  237.1250   -12.6170   112.5340     9.2460     8.4430    10.9300    22.7680     2.4300 
  237.2500   -12.8720   107.6200     9.8750     9.3070    12.6400    22.7660     2.4190 
  237.3750   -13.1770   102.2070    12.0120    11.3600    16.8500    22.8070     2.4070 
  237.5000   -13.5500    97.4900    17.1040    15.2810    25.7870    22.8640     2.3940 
  237.6250   -13.9660    89.9920    26.9980    22.2440    41.2430    22.9070     2.3800 
  237.7500   -14.4010    79.8400    41.6300    31.9470    66.4780    22.9080     2.3650 
  237.8750   -14.8220    71.7140    58.7120    43.5240   102.8170    22.8850     2.3480 
  238.0000   -15.2100    68.3900    73.7190    55.2200   125.0090    22.9020     2.3280 
  238.1250   -15.5550    71.1200    84.7140    64.4580   103.1360    22.9730     2.3060 
  238.2500   -15.8320    74.9680    91.4150    70.4370    82.4820    23.0820     2.2850 
  238.3750   -16.0420    75.9680    94.7130    73.5140    76.7120    23.2050     2.2670 
  238.5000   -16.1860    72.9030    96.0890    74.6770    80.6750    23.2510     2.2590 
  238.6250   -16.2430    68.6900    96.4420    74.8820    85.2490    23.2770     2.2590 
  238.7500   -16.2630    66.0280    96.6100    75.2050    87.2360    23.1720     2.2620 
  238.8750   -16.2460    65.3260    97.5100    76.4870    77.4660    23.0750     2.2670 
  239.0000   -16.2230    67.6790   100.1260    79.4220    65.7220    22.9680     2.2730 
  239.1250   -16.2050    70.7270   104.7990    84.1800    71.5230    22.9020     2.2790 
  239.2500   -16.1830    70.8260   109.5300    89.1170    95.7640    23.0120     2.2860 
  239.3750   -16.1530    69.4150   111.8940    92.3210   125.6670    23.0660     2.2910 
  239.5000   -16.1010    69.3150   110.0160    92.2290   136.4330    23.0320     2.2940 
  239.6250   -16.0430    72.3510   103.5780    88.1430   116.8150    23.1010     2.2960 
  239.7500   -15.9550    73.6610    96.2060    82.4430    93.4180    23.2420     2.3020 
  239.8750   -15.8840    72.4860    91.0670    77.5270    73.9930    23.4100     2.3160 
