~V
VERS. 2.00: Ver 2.00
~W
STRT.M 110.0000:
STOP.M 277.0000:
STEP.M 0.1250:
NULL. -999.2500:
UWI. DF3015:
~C
DEPT.M :
DEN.GM/CC :
SP.MV :
AC.US/MT :
GR.API :
CALI.CM :
RXO.OHMM :
RI. :
RML.OHMM :
~A
# ...
  120.0000     2.2850   -12.6330   446.5550    91.2360    25.5700     5.0430     4.9380     5.6580 
  120.1250     2.3170   -12.0410   449.1900    89.6370    25.6100     4.1610     4.5940     5.2620 
  120.2500     2.3270   -11.8140   446.9350    84.1980    25.5820     4.2070     4.5260     5.3370 
  120.3750     2.3020   -11.9300   440.8310    76.0810    25.4280     5.1070     4.7510     5.8550 
  120.5000     2.2650   -12.2970   433.3080    71.7120    25.0850     6.3740     5.2080     6.6610 
  120.6250     2.2480   -12.9030   427.2910    72.1320    24.8990     7.1640     5.7290     7.4100 
  120.7500     2.2510   -13.7130   423.6400    74.5990    24.8340     7.1710     6.0760     7.7580 
  120.8750     2.2580   -14.7150   421.5390    76.2240    24.8210     6.7200     6.1470     7.6380 
  121.0000     2.2620   -15.8670   419.1250    77.0050    24.7380     6.3550     6.0110     7.2650 
  121.1250     2.2610   -17.0330   414.1400    76.9670    24.5120     6.5340     5.8510     6.9900 
  121.2500     2.2620   -18.0210   406.7880    75.1770    24.2610     7.1080     5.8220     7.0020 
  121.3750     2.2660   -18.8030   398.8810    72.8140    24.1440     7.7350     5.9760     7.3280 
  121.5000     2.2740   -19.5110   393.3670    72.2680    24.1190     8.0980     6.3030     7.9020 
  121.6250     2.2770   -20.3560   393.6270    72.6160    24.1180     7.6990     6.7470     8.5920 
  121.7500     2.2680   -21.3760   398.7600    72.1310    24.1200     7.0640     7.1880     9.2180 
  121.8750     2.2530   -22.4410   406.4840    71.0310    24.1220     6.7940     7.5510     9.6840 
  122.0000     2.2380   -23.3220   413.7580    70.7490    24.1190     7.2480     7.7960     9.9580 
  122.1250     2.2250   -23.8910   417.4460    71.1880    24.1160     8.0590     7.9180    10.0650 
  122.2500     2.2200   -24.3280   417.7150    70.7670    24.1130     8.4010     7.9950    10.1380 
  122.3750     2.2330   -24.7010   416.0100    70.4160    24.1140     8.1180     8.0850    10.2560 
  122.5000     2.2660   -25.0130   414.3880    70.4110    24.1150     7.7030     8.2150    10.4540 
  122.6250     2.3120   -25.2280   414.3990    70.8200    24.1160     7.8060     8.3830    10.7240 
  122.7500     2.3470   -25.3780   415.3380    72.4260    24.1200     8.6790     8.5530    10.9940 
  122.8750     2.3550   -25.4990   415.8840    74.6980    24.1370     9.9490     8.6840    11.1890 
  123.0000     2.3300   -25.6300   415.0530    75.2880    24.1730    10.8750     8.7400    11.2580 
  123.1250     2.2810   -25.7140   413.0090    73.2300    24.1920    10.8160     8.6880    11.1610 
  123.2500     2.2330   -25.6900   411.2110    71.2250    24.1980    10.3980     8.5490    10.9450 
  123.3750     2.1970   -25.5410   410.2150    71.7410    24.1980    10.1630     8.3470    10.6460 
  123.5000     2.1730   -25.2880   409.7610    72.3270    24.1980    10.3440     8.1190    10.3140 
  123.6250     2.1620   -24.9670   408.0170    71.4050    24.1980    10.6840     7.9320    10.0420 
  123.7500     2.1660   -24.5830   402.5790    70.6000    24.1980    11.1510     7.8520     9.9320 
  123.8750     2.1870   -24.1390   392.0240    71.1920    24.1980    11.5830     7.9300    10.0550 
  124.0000     2.2240   -23.6770   377.5070    71.0830    24.1980    11.5680     8.1760    10.4080 
  124.1250     2.2670   -23.3130   364.6300    69.4970    24.1980    11.0190     8.5490    10.8910 
  124.2500     2.3040   -23.0800   359.4140    67.6270    24.1980    10.7180     8.9160    11.2920 
  124.3750     2.3180   -22.9830   364.0520    68.2110    24.1980    10.8030     9.1680    11.4660 
  124.5000     2.3020   -22.9800   376.2060    70.5630    24.1980    10.9130     9.2440    11.3790 
  124.6250     2.2660   -23.0080   390.1900    71.7550    24.1980    10.5970     9.1450    11.1150 
  124.7500     2.2420   -23.0430   401.2990    70.1700    24.1980    10.3110     8.9520    10.8080 
  124.8750     2.2410   -23.0380   409.3240    69.6610    24.1980    10.2810     8.6720    10.4410 
  125.0000     2.2570   -22.9730   416.1100    73.3960    24.1980    10.3170     8.2790     9.9370 
  125.1250     2.2740   -22.7700   423.3000    78.5390    24.1980     9.9790     7.7620     9.2540 
  125.2500     2.2830   -22.5030   430.1680    80.5840    24.1980     9.3880     7.2250     8.5440 
  125.3750     2.2830   -22.3170   435.1050    77.9140    24.1980     8.6280     6.7860     7.9970 
  125.5000     2.2750   -22.3290   437.0540    73.3300    24.1980     7.9460     6.5580     7.7830 
  125.6250     2.2560   -22.6070   435.8270    68.3340    24.1980     8.3660     6.6520     8.0430 
  125.7500     2.2300   -23.0330   433.2750    65.2420    24.1980     9.6980     7.0040     8.6210 
  125.8750     2.2070   -23.5600   430.6330    65.8040    24.1980    11.0990     7.5160     9.3250 
  126.0000     2.1950   -24.1340   428.4350    67.5570    24.1980    11.9050     8.0450     9.9210 
  126.1250     2.1990   -24.7360   426.4740    69.1330    24.1970    12.0620     8.4010    10.1700 
  126.2500     2.2090   -25.2950   424.4920    69.9260    24.1950    11.9580     8.5340    10.1270 
  126.3750     2.2150   -25.7070   422.8090    69.9550    24.1950    11.7180     8.4910     9.9370 
  126.5000     2.2120   -25.9120   421.9520    69.7190    24.2040    11.6030     8.3640     9.7470 
  126.6250     2.2060   -25.8680   422.3530    70.1670    24.2400    11.6550     8.2210     9.6220 
  126.7500     2.2100   -25.6900   423.3650    72.1820    24.3090    11.5990     8.0880     9.5410 
  126.8750     2.2220   -25.4670   424.1390    74.6850    24.3770    11.1890     7.9660     9.4790 
  127.0000     2.2320   -25.2540   423.9820    75.4200    24.4200    10.6370     7.8480     9.4070 
  127.1250     2.2330   -25.0800   422.6090    73.9600    24.4310    10.3770     7.7290     9.3090 
  127.2500     2.2290   -24.9590   420.5730    71.7740    24.4330    10.4980     7.6270     9.2150 
  127.3750     2.2250   -24.8690   417.6770    70.1870    24.4330    10.6920     7.5830     9.1900 
  127.5000     2.2250   -24.8050   412.2920    68.7700    24.4330    10.8750     7.6610     9.3300 
  127.6250     2.2330   -24.7680   400.6940    66.5270    24.4330    11.0820     7.9630     9.7800 
  127.7500     2.2470   -24.7580   383.0570    65.2050    24.4330    11.6420     8.4810    10.5160 
  127.8750     2.2650   -24.7580   363.2280    67.0050    24.4330    12.6370     9.1530    11.4270 
  128.0000     2.2800   -24.7710   348.3010    70.0880    24.4330    13.7580     9.8290    12.2690 
  128.1250     2.2820   -24.8130   346.9130    72.0270    24.4330    14.0360    10.2220    12.6070 
  128.2500     2.2700   -24.7950   357.4060    73.0540    24.4370    13.0830    10.2020    12.3240 
  128.3750     2.2490   -24.7060   374.3050    72.9970    24.4520    11.5410     9.8040    11.5670 
  128.5000     2.2270   -24.5570   390.7830    70.8490    24.4840    10.3550     9.1970    10.6370 
  128.6250     2.2150   -24.3380   402.2640    67.3320    24.5000     9.8800     8.5850     9.8350 
  128.7500     2.2200   -24.0830   410.5400    66.0530    24.5060     9.7250     8.0990     9.2640 
  128.8750     2.2430   -23.8180   417.0460    69.3270    24.5060     9.3840     7.7790     8.9210 
  129.0000     2.2700   -23.5500   421.3880    72.8530    24.5060     8.7470     7.6380     8.7880 
  129.1250     2.2820   -23.2610   420.6220    73.9460    24.5060     8.4290     7.7220     8.9240 
  129.2500     2.2800   -22.9430   413.8700    70.9900    24.5060     8.6420     8.0130     9.3160 
  129.3750     2.2730   -22.5330   402.0790    65.4140    24.5060     9.2110     8.4730     9.9010 
  129.5000     2.2760   -21.9730   388.5700    61.6090    24.5140    10.0140     8.9800    10.4960 
  129.6250     2.3060   -21.2770   379.1120    61.9480    24.5670    10.6110     9.2760    10.7260 
  129.7500     2.3480   -20.5640   376.6490    65.4320    24.6940    10.3040     9.1950    10.4120 
  129.8750     2.3750   -19.9420   380.9740    70.0220    24.8610     8.9750     8.7500     9.6510 
