~V
VERS. 2.00: Ver 2.00
~W
STRT.M 56.0000:
STOP.M 270.0000:
STEP.M 0.1250:
NULL. -999.2500:
UWI. DF3053:
~C
DEPT.M :
GR.API :
CALI.CM :
RXO.OHMM :
RI. :
RML.OHMM :
DEN.GM/CC :
SP.MV :
~A
# ...
  179.6250    48.7460    23.9580    92.6500   212.4490   239.6900     2.2210   -26.7660 
  179.7500    48.3080    23.8900    96.0010   238.0830   268.9110     2.2180   -26.8970 
  179.8750    47.0140    23.8760   109.2180   254.6580   284.4230     2.2180   -27.0450 
  180.0000    45.3210    23.8910   126.2450   255.0180   277.5430     2.2180   -27.1980 
  180.1250    44.0500    23.9190   131.8930   234.8560   247.0910     2.2170   -27.3120 
  180.2500    44.7530    23.9600   125.6840   204.8560   209.6170     2.2150   -27.3890 
  180.3750    48.3430    24.0120   110.0080   174.7230   176.1430     2.2190   -27.4480 
  180.5000    54.2900    24.0630    91.3640   151.0720   151.8960     2.2320   -27.5370 
  180.6250    59.2180    24.0940    75.4530   137.9170   139.2280     2.2520   -27.6540 
  180.7500    61.5060    24.0600    63.2940   133.2980   135.0780     2.2680   -27.7560 
  180.8750    59.9520    23.8430    53.3330   135.6430   137.7310     2.2730   -27.8200 
  181.0000    55.7420    23.3880    43.5280   142.9070   145.3260     2.2710   -27.8580 
  181.1250    52.3310    22.8650    36.8650   152.5320   155.3580     2.2690   -27.9300 
  181.2500    50.1090    22.5410    39.1250   160.8530   163.6870     2.2670   -28.0910 
  181.3750    47.3490    22.4510    43.3100   165.3460   167.3590     2.2620   -28.3320 
  181.5000    44.1550    22.4730    47.9480   165.1010   165.5560     2.2570   -28.6150 
  181.6250    44.5950    22.5540    52.4000   160.9090   159.6420     2.2600   -28.8920 
  181.7500    49.6120    22.7280    58.9360   155.7500   153.1660     2.2630   -29.1520 
  181.8750    55.7450    22.9960    67.6450   151.4140   148.1730     2.2570   -29.3850 
  182.0000    58.6660    23.2870    81.6570   148.7970   145.4820     2.2430   -29.5720 
  182.1250    56.8690    23.5250    92.1670   147.3940   144.3000     2.2300   -29.6620 
  182.2500    53.6420    23.7080    94.9960   145.3290   142.5110     2.2260   -29.6710 
  182.3750    52.3330    23.8340    94.5450   141.7930   139.4000     2.2300   -29.6350 
  182.5000    52.2960    23.8710    90.0560   137.6780   136.0900     2.2380   -29.6150 
  182.6250    50.5710    23.7520    75.8990   136.4260   136.4920     2.2450   -29.6550 
  182.7500    47.5310    23.5380    64.2770   141.8690   144.2550     2.2450   -29.7230 
  182.8750    45.8710    23.3440    70.9830   158.0380   162.8380     2.2350   -29.7780 
  183.0000    46.5720    23.2580    94.9180   188.5290   195.4920     2.2190   -29.7730 
  183.1250    48.0190    23.2870   118.9080   238.1360   248.1010     2.2090   -29.6610 
  183.2500    48.7800    23.3310   125.6110   300.9290   316.6770     2.2070   -29.4400 
  183.3750    48.7570    23.3560   126.6450   363.9390   387.9950     2.2130   -29.1380 
  183.5000    47.8030    23.3630   126.3840   402.3880   430.1110     2.2210   -28.8370 
  183.6250    45.9470    23.3440   129.3660   384.3020   401.0040     2.2250   -28.6190 
  183.7500    45.1220    23.3340   135.2580   326.7570   329.4380     2.2260   -28.4790 
  183.8750    46.8640    23.3930   132.7570   258.9580   255.7450     2.2350   -28.3560 
  184.0000    50.2030    23.5210   110.9210   203.2900   202.1030     2.2510   -28.1470 
  184.1250    52.2700    23.6160    91.3980   172.2490   175.8570     2.2570   -27.7880 
  184.2500    52.3490    23.6240    88.2730   162.8240   170.3290     2.2470   -27.3360 
  184.3750    51.5890    23.5580    93.8960   173.9780   183.9720     2.2280   -26.8890 
  184.5000    49.8410    23.4470   103.6810   204.8890   216.7550     2.2140   -26.5420 
  184.6250    46.7420    23.3380   124.6800   253.8700   269.5340     2.2070   -26.3020 
  184.7500    45.1470    23.2800   135.9560   303.9810   325.8570     2.2000   -26.0830 
  184.8750    45.7920    23.2600   130.6110   333.8530   359.4840     2.1980   -25.8190 
  185.0000    47.6550    23.2110   124.1700   329.4940   351.6100     2.2080   -25.5210 
  185.1250    49.7210    23.1300   115.7230   298.2050   314.9170     2.2300   -25.2790 
  185.2500    51.3340    23.0990   102.1800   267.3640   283.0630     2.2450   -25.0870 
  185.3750    52.3740    23.1560    96.7890   250.3740   268.3760     2.2350   -24.9150 
  185.5000    53.1850    23.2780   100.1500   250.9910   272.4790     2.1910   -24.6910 
  185.6250    53.6190    23.4030   119.6480   265.0200   289.5560     2.1330   -24.3520 
  185.7500    53.0370    23.5090   141.7110   274.9830   298.7160     2.1090   -23.9840 
  185.8750    50.8860    23.6060   170.2820   263.9320   279.3270     2.1430   -23.6590 
  186.0000    48.2170    23.6690   191.4770   226.0790   229.2260     2.2150   -23.4200 
  186.1250    47.4370    23.6480   163.8820   175.2170   172.0970     2.2720   -23.2320 
  186.2500    49.6420    23.5820   107.4190   132.5580   128.7860     2.2900   -23.0420 
  186.3750    53.0300    23.5450    69.7270   104.4810   102.0350     2.2760   -22.8230 
  186.5000    54.9660    23.6000    59.9030    89.7700    88.7400     2.2490   -22.5460 
  186.6250    56.9020    23.7640    64.1560    85.7680    85.8800     2.2250   -22.2360 
  186.7500    60.0600    23.9530    81.0640    86.7180    87.6870     2.2090   -21.9620 
  186.8750    62.0100    24.0920   101.9700    88.9880    90.2120     2.2020   -21.7810 
  187.0000    61.5170    24.1870   111.7370    89.3390    89.8350     2.1980   -21.7000 
  187.1250    60.5050    24.3030   101.5250    85.5730    84.4130     2.1890   -21.6780 
  187.2500    59.7990    24.4240    83.7780    79.4090    76.7350     2.1710   -21.6410 
  187.3750    59.3180    24.4890    67.8240    72.9790    69.5830     2.1520   -21.5450 
  187.5000    59.5150    24.4930    61.4820    67.9890    64.6400     2.1430   -21.4230 
  187.6250    59.9820    24.4620    66.0570    65.5830    62.6860     2.1540   -21.3610 
  187.7500    61.5640    24.4290    69.2710    65.3270    62.9420     2.1750   -21.4050 
  187.8750    63.9150    24.4070    67.8940    66.8970    65.0780     2.1940   -21.5420 
  188.0000    64.5460    24.3910    67.6100    69.9140    68.8760     2.2040   -21.7020 
  188.1250    62.3670    24.3220    69.1370    74.1720    74.3740     2.1960   -21.8200 
  188.2500    60.2120    24.1650    74.6040    79.1780    80.9850     2.1780   -21.8740 
  188.3750    59.3750    23.9640    94.3050    84.4970    88.0110     2.1630   -21.9160 
  188.5000    57.1390    23.8180   112.4520    89.3480    94.3360     2.1560   -22.0100 
  188.6250    53.7840    23.8790   105.8240    92.5780    98.5540     2.1610   -22.1680 
  188.7500    52.7290    24.1440   103.7490    94.2410   100.8520     2.1780   -22.3390 
  188.8750    53.5450    24.4210   111.2940    94.9910   102.0920     2.2090   -22.4550 
  189.0000    55.1650    24.4580   101.5240    95.8460   103.6250     2.2460   -22.5000 
  189.1250    55.7390    24.2010    83.4090    98.1380   107.0760     2.2640   -22.5300 
  189.2500    55.6740    23.9500    87.4860   102.3480   112.8170     2.2580   -22.6390 
  189.3750    55.6790    23.8560   110.1460   108.3410   120.4440     2.2460   -22.8690 
  189.5000    56.0510    23.8720   133.3330   115.2670   128.6750     2.2430   -23.1510 
  189.6250    56.4670    23.8980   137.1320   121.2390   135.0360     2.2550   -23.3690 
  189.7500    55.9620    23.8930   131.8660   124.5230   137.8550     2.2680   -23.4690 
  189.8750    54.2140    23.8470   117.4040   124.3320   136.7300     2.2730   -23.4840 
  190.0000    51.8210    23.7740   109.8090   120.8190   132.1440     2.2700   -23.5200 
  190.1250    52.0020    23.6860   104.2550   114.0950   124.0320     2.2670   -23.6550 
  190.2500    54.5690    23.5990   104.0630   105.2570   113.4110     2.2720   -23.8790 
  190.3750    55.8230    23.5370   106.1330    95.3700   101.5930     2.2820   -24.1240 
  190.5000    54.9230    23.5240    99.9150    86.2420    90.9810     2.2900   -24.3050 
  190.6250    54.7180    23.5570    74.9850    80.6690    85.0710     2.2880   -24.4090 
  190.7500    56.8880    23.5870    56.4730    79.8960    85.0210     2.2770   -24.4930 
