~V
VERS. 2.00: Ver 2.00
~W
STRT.M 110.0000:
STOP.M 242.0000:
STEP.M 0.1250:
NULL. -999.2500:
UWI. DF306:
~C
DEPT.M :
DEN.GM/CC :
AC.US/MT :
GR.API :
CALI.CM :
RXO.OHMM :
RI. :
RML.OHMM :
SP.MV :
~A
# ...
  120.0000     2.2790   490.1520    92.1370    24.7840     7.4360     5.7490     6.5200   -20.1450 
  120.1250     2.3110   481.5710    97.4100    24.9300     6.2040     5.3420     5.8450   -19.7020 
  120.2500     2.3330   462.8270    99.8110    24.9990     5.6110     4.9880     5.3320   -19.2610 
  120.3750     2.3420   437.9720    99.6660    24.9980     5.3760     4.7250     5.0120   -18.8940 
  120.5000     2.3440   413.2860    98.7240    24.9930     5.0380     4.5690     4.8830   -18.6510 
  120.6250     2.3430   395.4810    96.9600    24.9870     4.7040     4.5450     4.9630   -18.5730 
  120.7500     2.3400   385.5670    94.7490    24.9690     4.6420     4.6240     5.2020   -18.6150 
  120.8750     2.3300   382.7280    91.0380    24.9520     4.8260     4.7850     5.5470   -18.7280 
  121.0000     2.3130   385.5200    86.2310    24.9490     5.2140     4.9820     5.9090   -18.8600 
  121.1250     2.2970   392.9980    82.3700    24.9400     5.8370     5.1400     6.1350   -18.9950 
  121.2500     2.2910   402.3830    81.4640    24.9150     6.2840     5.2060     6.1520   -19.1400 
  121.3750     2.3000   411.0570    84.7780    24.9130     6.1250     5.1830     6.0030   -19.2930 
  121.5000     2.3110   416.4750    90.5570    24.9710     5.4820     5.1300     5.8340   -19.4640 
  121.6250     2.3040   416.4990    93.9950    25.0420     5.1720     5.1510     5.8520   -19.6510 
  121.7500     2.2770   412.3770    92.2780    25.0230     5.5890     5.3000     6.1330   -19.8320 
  121.8750     2.2470   405.5900    87.2760    24.8630     6.4700     5.6060     6.7040   -19.9930 
  122.0000     2.2290   398.1820    82.6610    24.6280     7.4080     6.0750     7.5380   -20.1300 
  122.1250     2.2190   393.4810    79.8110    24.4740     8.0430     6.6660     8.4930   -20.2070 
  122.2500     2.2050   394.0410    79.2490    24.4400     8.6580     7.2160     9.2610   -20.2000 
  122.3750     2.1920   401.2490    81.8740    24.4570     9.9940     7.5740     9.6020   -20.1020 
  122.5000     2.1970   414.2790    85.9070    24.4480    12.0000     7.6570     9.4370   -19.9070 
  122.6250     2.2280   429.0580    87.3400    24.4200    12.3770     7.4490     8.8300   -19.6260 
  122.7500     2.2620   439.0070    86.9650    24.4150    10.6340     7.1060     8.1050   -19.3210 
  122.8750     2.2810   439.6390    87.7970    24.4250     8.7410     6.7400     7.4650   -19.0300 
  123.0000     2.2880   430.1260    89.8880    24.4680     8.3080     6.4170     6.9920   -18.7760 
  123.1250     2.2990   414.4250    91.1110    24.5860     8.3540     6.1580     6.6820   -18.5960 
  123.2500     2.3170   401.5910    91.3590    24.7340     7.5780     5.9490     6.4580   -18.4780 
  123.3750     2.3310   397.4310    91.6280    24.8430     6.3500     5.7840     6.2910   -18.3920 
  123.5000     2.3330   403.0650    92.1850    24.8800     5.5480     5.6570     6.1800   -18.3290 
  123.6250     2.3290   414.0050    91.8540    24.8540     5.4880     5.5690     6.1400   -18.2510 
  123.7500     2.3310   421.7010    92.5660    24.8050     5.6920     5.4990     6.1240   -18.1430 
  123.8750     2.3390   422.1130    94.0690    24.7850     5.8450     5.4090     6.0340   -18.0130 
  124.0000     2.3490   416.1720    94.5260    24.8220     5.8020     5.2540     5.7740   -17.8640 
  124.1250     2.3540   408.6750    96.3980    24.9380     5.4600     5.0220     5.3360   -17.7030 
  124.2500     2.3560   403.0680    99.1030    25.1630     4.9510     4.8020     4.9310   -17.5570 
  124.3750     2.3570   396.8520    99.7990    25.5020     4.5530     4.7110     4.7980   -17.4600 
  124.5000     2.3630   383.6970    96.9710    25.8060     4.6070     4.8770     5.1700   -17.4180 
  124.6250     2.3880   355.8830    91.3200    25.7910     5.9510     5.5090     6.3820   -17.4710 
  124.7500     2.4360   317.7400    83.2490    25.5310     9.7630     6.6550     8.4480   -17.6190 
  124.8750     2.4950   279.0580    73.0950    25.2540    17.0880     8.3290    11.2920   -17.8550 
  125.0000     2.5310   252.3370    67.8590    25.1110    25.3150    10.3230    14.4270   -18.1720 
  125.1250     2.4990   250.2080    72.6990    25.0770    26.8840    11.9910    16.6110   -18.5600 
  125.2500     2.4110   267.7470    77.7720    25.0380    22.2970    12.8530    17.2790   -18.9830 
  125.3750     2.3080   295.8400    78.1090    24.9730    17.4350    13.0180    16.9360   -19.4050 
  125.5000     2.2270   323.9180    77.2280    24.8930    16.1790    12.9640    16.5490   -19.8120 
  125.6250     2.1860   343.6740    79.0090    24.8230    18.3110    13.2170    16.9180   -20.1720 
  125.7500     2.1690   355.8970    79.4670    24.7930    21.2780    13.9420    18.0670   -20.4700 
  125.8750     2.1640   363.4270    76.5270    24.7860    23.6220    15.1040    19.7910   -20.6920 
  126.0000     2.1640   368.7260    72.6800    24.7730    24.8860    16.5280    21.7560   -20.8220 
  126.1250     2.1670   372.6600    70.3820    24.7560    25.4930    17.9940    23.6490   -20.8480 
  126.2500     2.1710   375.9450    68.7760    24.7640    25.9410    19.3330    25.3090   -20.7870 
  126.3750     2.1740   379.4920    67.6620    24.8000    26.2060    20.3310    26.4200   -20.6520 
  126.5000     2.1750   384.1050    66.4970    24.8510    26.5350    20.5560    26.3140   -20.4630 
  126.6250     2.1770   389.3370    67.4820    24.8940    27.0220    19.2810    23.9960   -20.2300 
  126.7500     2.1900   393.1540    73.1070    24.8920    25.9760    16.7820    20.0930   -19.9780 
  126.8750     2.2180   393.9420    81.2250    24.8060    21.9670    13.7480    15.7280   -19.7400 
  127.0000     2.2590   391.3800    86.8650    24.6410    16.0600    10.9560    11.9690   -19.5260 
  127.1250     2.2920   386.2500    87.8950    24.5060    11.3060     8.9870     9.5300   -19.3300 
  127.2500     2.2980   379.8040    87.9580    24.5000     8.6650     7.7930     8.2360   -19.1490 
  127.3750     2.2830   371.0550    88.5380    24.6080     7.6490     7.3030     7.9670   -18.9840 
  127.5000     2.2740   357.6170    88.7460    24.7210     7.7870     7.4650     8.6260   -18.8160 
  127.6250     2.3110   336.4860    86.3240    24.7680     9.3500     8.3530    10.2660   -18.6470 
  127.7500     2.3910   310.3660    81.4480    24.8220    12.5300     9.8140    12.5890   -18.4760 
  127.8750     2.4890   283.9130    76.3930    24.9350    17.1250    11.6970    15.2950   -18.2940 
  128.0000     2.5720   262.3260    72.7270    25.0650    21.2500    13.6970    17.8850   -18.1020 
  128.1250     2.6190   249.7290    69.9530    25.1370    21.7840    15.3020    19.6290   -17.9240 
  128.2500     2.6340   243.4670    66.9540    25.1670    19.9440    16.2870    20.4340   -17.7620 
  128.3750     2.6230   240.5420    64.2130    25.1920    18.6030    16.7230    20.5850   -17.6060 
  128.5000     2.5920   238.7900    61.9560    25.2130    19.1840    16.8390    20.4900   -17.4730 
  128.6250     2.5540   237.9660    62.7410    25.2250    20.8420    16.8000    20.3880   -17.3480 
  128.7500     2.5220   238.4010    64.6140    25.2500    21.8270    16.6560    20.2380   -17.2200 
  128.8750     2.5020   239.8570    64.5750    25.2670    21.3650    16.3570    19.9040   -17.0890 
  129.0000     2.4920   241.4030    61.2300    25.2280    19.6360    15.8830    19.3260   -16.9570 
  129.1250     2.4980   242.2390    56.5120    25.1260    17.7350    15.2950    18.6000   -16.8260 
  129.2500     2.5160   243.0820    55.8410    25.0370    16.6100    14.7370    17.9350   -16.7150 
  129.3750     2.5390   245.2890    58.9980    25.0030    16.1470    14.2940    17.4350   -16.6320 
  129.5000     2.5530   249.8260    61.6820    25.0030    15.8180    14.0090    17.1280   -16.5650 
  129.6250     2.5550   256.4450    60.9320    25.0040    15.4220    13.9220    17.0500   -16.5420 
  129.7500     2.5480   262.7300    60.8700    25.0080    15.2540    14.0140    17.1980   -16.5630 
  129.8750     2.5320   266.3910    64.4040    25.0220    15.4900    14.3000    17.6210   -16.6060 
