~V
VERS. 2.00: Ver 2.00
~W
STRT.M 60.0000:
STOP.M 277.0000:
STEP.M 0.1250:
NULL. -999.2500:
UWI. DF3048:
~C
DEPT.M :
SP.MV :
GR.API :
RML.OHMM :
RI. :
RXO.OHMM :
CALI.CM :
DEN.GM/CC :
~A
# ...
  195.0000   -26.6720    73.0740   133.4860   121.2550   112.2360    24.2860     2.2290 
  195.1250   -26.8230    73.7510   123.8070   113.2630   109.7140    24.2770     2.2390 
  195.2500   -26.9190    72.8640   113.3960   104.3050   101.1750    24.4050     2.2520 
  195.3750   -26.9740    72.6020   103.2050    95.2050    90.9070    24.4040     2.2670 
  195.5000   -27.0020    72.7340    94.3060    86.9210    80.8660    24.4040     2.2820 
  195.6250   -26.9640    71.5270    88.1420    80.8180    75.4500    24.4240     2.2930 
  195.7500   -26.9470    70.7570    85.4520    77.4970    71.4310    24.4390     2.2940 
  195.8750   -26.9670    71.7940    87.0150    77.6810    68.2670    24.4440     2.2810 
  196.0000   -26.9900    72.4940    93.1170    82.1600    69.3160    24.4650     2.2560 
  196.1250   -27.1290    69.8890   105.4150    92.9120    81.4210    24.4590     2.2250 
  196.2500   -27.2980    66.7660   122.8800   110.2510   102.0840    24.3870     2.1970 
  196.3750   -27.5180    65.0410   146.6850   135.0910   120.1500    24.2960     2.1790 
  196.5000   -27.7470    64.0910   178.4210   167.8120   126.8430    24.2620     2.1690 
  196.6250   -27.9780    63.4100   220.5650   208.5850   129.1670    24.1530     2.1650 
  196.7500   -28.1830    63.3180   275.0560   253.1470   126.5830    23.8070     2.1630 
  196.8750   -28.3140    65.0410   331.1580   296.5970   117.2870    23.4700     2.1590 
  197.0000   -28.4300    66.3560   380.2700   332.5470   107.4480    23.3420     2.1520 
  197.1250   -28.3690    64.4130   409.1500   351.5040   106.4680    23.4830     2.1430 
  197.2500   -28.2810    61.2190   414.7700   352.3510   107.8420    23.6700     2.1350 
  197.3750   -28.1010    60.1860   399.5450   337.3690   111.1390    23.7540     2.1320 
  197.5000   -27.8810    62.0460   372.2810   313.2480   117.5450    23.7840     2.1340 
  197.6250   -27.5760    64.9810   345.3000   289.4430   126.6750    23.8240     2.1430 
  197.7500   -27.2490    65.8880   327.3390   273.1360   134.4920    23.8950     2.1540 
  197.8750   -26.9410    65.0110   321.6200   267.2680   140.8820    23.9090     2.1630 
  198.0000   -26.6360    63.9170   327.9530   271.8210   146.8880    23.8980     2.1710 
  198.1250   -26.4050    62.4030   343.2730   284.4290   144.1710    23.9120     2.1800 
  198.2500   -26.2180    59.3150   358.0260   297.3330   135.6560    23.9490     2.1920 
  198.3750   -26.1120    56.2600   363.1110   303.3590   128.3490    24.0070     2.2040 
  198.5000   -26.0560    56.6380   351.1650   296.5950   128.9810    24.0660     2.2120 
  198.6250   -26.1020    59.7690   318.5090   273.2940   133.6950    23.9850     2.2100 
  198.7500   -26.1410    61.8950   276.2630   240.8530   138.0100    23.9500     2.2000 
  198.8750   -26.1490    62.4350   233.8730   206.2470   142.3510    24.0170     2.1860 
  199.0000   -26.0920    62.7480   196.7890   174.6290   139.8440    24.1850     2.1710 
  199.1250   -25.9840    64.7850   166.4340   148.4190   123.1370    24.3480     2.1600 
  199.2500   -25.7930    67.4160   140.2300   125.9380   107.2600    24.4290     2.1570 
  199.3750   -25.5520    67.7390   117.3850   106.2530    96.8160    24.5410     2.1640 
  199.5000   -25.2070    66.0500    97.9940    89.1690    84.6810    24.5220     2.1810 
  199.6250   -24.7510    67.8780    83.0640    75.5380    67.3240    24.3570     2.2040 
  199.7500   -24.2370    74.1520    71.8730    65.0410    51.4140    24.2390     2.2220 
  199.8750   -23.6860    78.5600    63.8220    57.3190    41.4190    24.1760     2.2340 
  200.0000   -23.1020    77.1480    57.9910    51.6300    39.1640    24.0740     2.2420 
  200.1250   -22.4650    73.8910    53.3370    47.1150    42.7400    23.9740     2.2600 
  200.2500   -21.7530    74.6950    48.6570    42.7420    43.5680    24.1460     2.2910 
  200.3750   -20.9760    77.5760    43.5450    38.1650    41.8330    24.2920     2.3290 
  200.5000   -20.1840    80.0430    38.2610    33.5550    42.0190    24.3030     2.3590 
  200.6250   -19.4050    81.1390    34.0010    29.8060    36.6710    24.1220     2.3660 
  200.7500   -18.6030    80.8460    31.8790    27.7460    29.6470    23.8240     2.3600 
  200.8750   -17.7660    78.7890    32.5310    27.8940    23.5480    23.6600     2.3600 
  201.0000   -16.8520    75.2800    35.8010    30.1160    23.9080    23.8650     2.3830 
  201.1250   -15.8600    71.0070    40.1680    33.3310    28.8100    24.0820     2.4370 
  201.2500   -14.8800    68.0400    42.7630    35.3200    36.6110    24.2490     2.5010 
  201.3750   -13.9050    67.8250    41.1790    34.3030    47.9680    24.3260     2.5500 
  201.5000   -12.9520    69.1570    34.7630    29.6450    54.7240    24.3230     2.5650 
  201.6250   -12.0240    68.8510    25.0750    22.6010    43.7700    24.2660     2.5380 
  201.7500   -11.1820    67.4010    16.2820    16.1400    23.3150    24.2030     2.4930 
  201.8750   -10.4770    65.6990    10.7060    11.5320    10.5590    24.1370     2.4490 
  202.0000    -9.9490    63.6490     8.4200     8.8000     6.3630    23.8690     2.4150 
  202.1250    -9.8830    61.6760     7.6580     7.5660     5.6150    23.7990     2.3960 
  202.2500    -9.6040    60.8670     7.4600     7.0480     5.5990    23.8300     2.3910 
  202.3750    -9.4710    60.1380     7.4670     6.9030     5.5830    23.8560     2.4020 
  202.5000    -9.4540    57.9970     7.4590     6.9030     5.5810    23.7800     2.4270 
  202.6250    -9.5550    55.2150     7.3480     6.9150     5.4710    23.5200     2.4570 
  202.7500    -9.7110    53.3410     7.2050     6.9160     5.2600    23.2590     2.4690 
  202.8750    -9.8890    54.3580     7.1160     6.9390     5.1390    23.0820     2.4480 
  203.0000   -10.0890    59.4970     7.1290     7.0060     5.2030    23.0210     2.4030 
  203.1250   -10.3500    66.0720     7.2470     7.0920     5.5360    23.0270     2.3580 
  203.2500   -10.6260    71.7280     7.3830     7.1250     6.1560    23.0760     2.3300 
  203.3750   -10.9020    77.5180     7.4640     7.0470     7.0680    23.2410     2.3190 
  203.5000   -11.2120    84.0270     7.4480     6.8410     8.0030    23.5570     2.3130 
  203.6250   -11.4610    87.6190     7.3590     6.5600     8.2480    24.0580     2.3020 
  203.7500   -11.7070    88.3560     7.3220     6.3310     7.5350    24.5790     2.2860 
  203.8750   -11.9160    88.7120     7.4440     6.2500     6.8510    25.0730     2.2740 
  204.0000   -12.0850    88.1750     7.7790     6.3670     6.8060    25.3990     2.2760 
  204.1250   -12.1870    86.5940     8.3140     6.6820     7.2110    25.6070     2.2940 
  204.2500   -12.2830    87.4700     8.9010     7.0870     7.5920    25.7610     2.3200 
  204.3750   -12.3700    90.5970     9.4270     7.4970     7.8750    25.9400     2.3460 
  204.5000   -12.4450    93.2400     9.8240     7.8500     8.2200    26.1100     2.3640 
  204.6250   -12.6450    95.8230    10.0890     8.1200     8.5200    26.4250     2.3700 
  204.7500   -12.9240   101.3410    10.3060     8.3420     8.7240    26.5930     2.3680 
  204.8750   -13.3320   106.5510    10.5070     8.5300     8.9930    26.5690     2.3650 
  205.0000   -13.8240   106.3730    10.6800     8.6700     9.5100    26.3510     2.3630 
  205.1250   -14.4040   100.5160    10.7680     8.7240     9.9420    25.9180     2.3590 
  205.2500   -14.9810    93.7730    10.7760     8.7070    10.7010    25.3280     2.3500 
  205.3750   -15.6040    89.4510    10.7710     8.6690    11.3570    24.8880     2.3330 
  205.5000   -16.2660    89.3110    10.8680     8.6930    11.4260    24.7830     2.3140 
  205.6250   -16.9300    93.7860    11.2190     8.8920    10.8450    24.8520     2.3040 
  205.7500   -17.5870    97.8990    11.8100     9.2730    10.9920    24.7930     2.3100 
  205.8750   -18.2040    98.0940    12.5570     9.8000    12.3380    24.4820     2.3320 
  206.0000   -18.7010    95.9320    13.3060    10.3850    14.1520    24.3060     2.3630 
  206.1250   -19.0760    95.6150    13.8540    10.8860    15.2980    24.2850     2.3910 
