~V
VERS. 2.00: Ver 2.00
~W
STRT.M 125.0000:
STOP.M 256.0000:
STEP.M 0.1250:
NULL. -999.2500:
UWI. DF3030:
~C
DEPT.M :
GR.API :
RML.OHMM :
RI. :
RXO.OHMM :
CALI.CM :
DEN.GM/CC :
SP.MV :
~A
  125.0000    67.4840    10.3760     9.2050     9.3910    22.7960     2.1970   -35.3640 
  125.1250    65.7070    10.2380     9.0540     9.2430    22.7450     2.1910   -35.4980 
  125.2500    64.2370    10.1130     8.8980     9.1250    22.6950     2.1850   -35.4740 
  125.3750    65.8350    10.0240     8.7630     9.0520    22.6580     2.1820   -35.5130 
  125.5000    70.2740     9.9730     8.6620     9.0300    22.6520     2.1820   -35.6440 
  125.6250    73.4220     9.9560     8.6110     9.0390    22.7430     2.1840   -35.6150 
  125.7500    72.7950     9.9660     8.6020     9.0560    22.8710     2.1870   -35.6440 
  125.8750    70.4720    10.0120     8.6360     9.0570    22.9840     2.1870   -35.6960 
  126.0000    68.5470    10.1060     8.7120     9.0450    23.0780     2.1860   -35.5900 
  126.1250    67.6780    10.2390     8.8200     9.0680    23.1350     2.1860   -35.5270 
  126.2500    69.3690    10.3610     8.9230     9.1640    23.1600     2.1880   -35.4920 
  126.3750    71.4130    10.4180     8.9820     9.2630    23.0840     2.1920   -35.3840 
  126.5000    72.4290    10.3740     8.9620     9.3350    22.8730     2.1960   -35.2660 
  126.6250    73.0740    10.2160     8.8410     9.2890    22.6840     2.1970   -35.1620 
  126.7500    72.9630    10.0090     8.6640     9.1300    22.5980     2.1960   -35.0490 
  126.8750    71.9190     9.8120     8.4800     8.9420    22.6270     2.1980   -34.9870 
  127.0000    72.5270     9.6700     8.3390     8.7810    22.7230     2.2050   -34.9550 
  127.1250    76.5650     9.6240     8.2820     8.7380    22.8640     2.2160   -34.9410 
  127.2500    78.9480     9.6550     8.2980     8.8340    22.9580     2.2280   -34.9640 
  127.3750    78.5220     9.7350     8.3670     8.9850    22.9920     2.2360   -34.9680 
  127.5000    78.6530     9.8180     8.4530     8.9920    22.9980     2.2390   -34.9550 
  127.6250    80.2250     9.8400     8.5030     8.8180    22.9970     2.2370   -34.9390 
  127.7500    80.9080     9.7740     8.4870     8.6780    22.9840     2.2330   -34.8750 
  127.8750    80.1080     9.6150     8.3950     8.5790    22.9530     2.2270   -34.8160 
  128.0000    79.6140     9.3880     8.2360     8.4030    22.9500     2.2220   -34.7840 
  128.1250    78.4320     9.1290     8.0330     8.1130    23.0050     2.2200   -34.5870 
  128.2500    75.7480     8.8770     7.8240     7.9200    23.0660     2.2240   -34.4330 
  128.3750    74.5270     8.6490     7.6280     7.8590    23.0970     2.2350   -34.3750 
  128.5000    76.3320     8.4530     7.4540     7.8300    23.1050     2.2530   -34.1860 
  128.6250    79.7140     8.3030     7.3080     7.7680    23.1070     2.2710   -34.0390 
  128.7500    81.5580     8.1980     7.1880     7.6760    23.1290     2.2860   -34.0330 
  128.8750    81.9310     8.1420     7.1010     7.5790    23.2160     2.2930   -33.9450 
  129.0000    81.7630     8.1350     7.0520     7.4970    23.3660     2.2910   -33.8930 
  129.1250    80.3570     8.1690     7.0470     7.4790    23.4350     2.2820   -34.0610 
  129.2500    77.8350     8.2160     7.0680     7.5480    23.3350     2.2710   -34.1670 
  129.3750    76.6840     8.2560     7.1010     7.6610    23.2330     2.2610   -34.2790 
  129.5000    78.3420     8.2850     7.1400     7.7540    23.2200     2.2540   -34.4480 
  129.6250    79.7090     8.3310     7.2070     7.8400    23.2620     2.2520   -34.5840 
  129.7500    78.1050     8.4470     7.3390     7.9310    23.2560     2.2540   -34.6590 
  129.8750    75.2530     8.6840     7.5750     8.0190    23.2010     2.2620   -34.6650 
  130.0000    73.6150     9.0690     7.9390     8.0880    23.1360     2.2780   -34.5760 
  130.1250    71.8430     9.5980     8.4320     8.2650    23.1340     2.3000   -34.4330 
  130.2500    70.0620    10.1740     8.9780     8.6000    23.1930     2.3210   -34.2650 
  130.3750    69.7520    10.7010     9.5000     8.9630    23.2830     2.3350   -34.0470 
  130.5000    69.7790    11.0860     9.9130     9.2870    23.3810     2.3370   -33.8680 
  130.6250    69.5720    11.2090    10.1020     9.4110    23.4790     2.3310   -33.7330 
  130.7500    70.4300    11.0710    10.0510     9.4530    23.6070     2.3230   -33.6490 
  130.8750    72.5810    10.6840     9.7600     9.3310    23.7540     2.3190   -33.6010 
  131.0000    73.9890    10.1070     9.2810     9.1800    23.8360     2.3160   -33.5940 
  131.1250    74.2590     9.4710     8.7210     9.1220    23.7030     2.3050   -33.6420 
  131.2500    75.9650     8.9940     8.2630     9.0120    23.4700     2.2890   -33.7250 
  131.3750    77.5390     8.8770     8.0700     8.6630    23.2350     2.2770   -33.7390 
  131.5000    77.4210     9.2430     8.2580     8.3320    23.1460     2.2850   -33.7830 
  131.6250    75.6400    10.0970     8.8730     8.3430    23.2640     2.3270   -33.7870 
  131.7500    73.3610    11.0730     9.6680     8.7780    23.3940     2.3850   -33.6330 
  131.8750    71.2260    11.8060    10.3600     9.6620    23.5090     2.4330   -33.6030 
  132.0000    70.3110    11.9890    10.6680    10.8190    23.5520     2.4450   -33.6850 
  132.1250    70.8180    11.4640    10.3700    11.5910    23.4620     2.4080   -33.6750 
  132.2500    71.2110    10.6060     9.7120    10.4950    23.2970     2.3490   -33.7710 
  132.3750    72.6680     9.7850     8.9920     8.9180    23.1000     2.2920   -34.0130 
  132.5000    76.4750     9.2700     8.4660     8.1960    22.9720     2.2550   -34.1550 
  132.6250    80.7090     9.1780     8.2940     8.1420    22.9080     2.2410   -34.4040 
  132.7500    81.8570     9.3110     8.3650     8.2500    22.8960     2.2410   -34.7010 
  132.8750    80.2200     9.4860     8.5440     8.4340    22.8520     2.2450   -34.9300 
  133.0000    79.1360     9.5590     8.6940     8.6940    22.7840     2.2490   -35.1070 
  133.1250    80.7480     9.5180     8.7520     8.7500    22.7510     2.2490   -35.1330 
  133.2500    81.5280     9.5700     8.8410     8.6610    22.7440     2.2470   -35.0430 
  133.3750    78.8370     9.9600     9.1560     8.5920    22.7500     2.2510   -34.8480 
  133.5000    75.9550    10.8400     9.8470     8.6280    22.7700     2.2720   -34.5580 
  133.6250    76.6430    12.1250    10.9120     8.9080    22.8090     2.3200   -34.1400 
  133.7500    77.2270    13.2870    11.9610     9.5890    22.8230     2.3830   -33.6360 
  133.8750    76.6560    13.8080    12.5550    10.8060    22.8090     2.4410   -33.0640 
  134.0000    78.4740    13.3470    12.3350    12.6030    22.7790     2.4710   -32.5130 
  134.1250    83.7480    11.8900    11.1720    13.1180    22.8240     2.4560   -32.0490 
  134.2500    87.1270    10.1860     9.6700    11.1520    22.9660     2.4140   -31.6530 
  134.3750    86.5090     8.8250     8.3480     8.4570    23.1470     2.3680   -31.4210 
  134.5000    84.9500     8.1340     7.5190     7.3990    23.3070     2.3370   -31.3900 
  134.6250    84.6470     8.2010     7.3350     7.4970    23.3500     2.3240   -31.4250 
  134.7500    83.7600     8.6500     7.5630     7.9600    23.2990     2.3170   -31.7020 
  134.8750    80.0550     9.1780     7.9940     8.5700    23.1630     2.3060   -32.1010 
  135.0000    76.1830     9.5390     8.4140     8.9340    23.0430     2.2870   -32.3910 
  135.1250    76.6340     9.6230     8.6670     9.0140    23.0380     2.2690   -32.7640 
  135.2500    79.8000     9.6390     8.8360     9.1060    23.1430     2.2670   -33.0630 
  135.3750    82.6000     9.8270     9.0830     9.1990    23.3030     2.2910   -33.0820 
  135.5000    83.0350    10.3290     9.5350     9.0830    23.4440     2.3430   -33.0570 
  135.6250    80.5070    11.0760    10.1670     9.3590    23.5430     2.4130   -33.0280 
  135.7500    76.4850    11.7080    10.7160    10.2640    23.6060     2.4720   -32.8370 
  135.8750    74.2430    11.9160    10.9220    11.4680    23.6570     2.4960   -32.6870 
  136.0000    75.6690    11.5490    10.6300    13.2620    23.7260     2.4750   -32.6110 
  136.1250    80.1790    10.6800     9.8550    13.0350    23.7520     2.4170   -32.5800 
