~V
VERS. 2.00: Ver 2.00
~W
STRT.M 55.0000:
STOP.M 272.0000:
STEP.M 0.1250:
NULL. -999.2500:
UWI. DF3078:
~C
DEPT.M :
GR.API :
CALI.CM :
RXO.OHMM :
RI. :
RML.OHMM :
DEN.GM/CC :
SP.MV :
~A
# ...
  246.2500    79.4080    24.4710    39.5710    39.0590    40.4440     2.4880   -15.3080 
  246.3750    78.2470    24.4010    43.5250    41.5850    42.8790     2.5100   -15.1040 
  246.5000    83.2370    24.2850    51.8530    44.3890    45.6940     2.5420   -14.8660 
  246.6250    90.2660    24.2430    62.7330    47.3230    48.7420     2.5710   -14.5840 
  246.7500    91.5100    24.2500    69.8050    50.0210    51.5990     2.5870   -14.2950 
  246.8750    86.5730    24.2800    68.8350    52.1540    53.8880     2.5920   -13.9840 
  247.0000    80.6780    24.3300    62.7380    53.5760    55.3970     2.5840   -13.6760 
  247.1250    80.7820    24.3670    54.8350    54.4250    56.1770     2.5540   -13.3930 
  247.2500    85.5830    24.3630    50.9720    55.3310    56.8630     2.5060   -13.1210 
  247.3750    88.7570    24.3290    50.6690    56.7580    57.9970     2.4540   -12.9050 
  247.5000    85.7160    24.3630    53.9920    58.8900    59.9000     2.4130   -12.7190 
  247.6250    78.2780    24.5090    60.5490    61.5040    62.5400     2.4090   -12.5610 
  247.7500    71.3200    24.6290    73.8710    63.8260    65.1940     2.4410   -12.4170 
  247.8750    66.3810    24.6940    95.3060    65.1870    67.1780     2.4940   -12.2760 
  248.0000    64.5720    24.7050   108.1170    65.3140    68.0910     2.5360   -12.1390 
  248.1250    66.5580    24.5980    94.2070    64.5390    68.0740     2.5520   -11.9770 
  248.2500    70.5640    24.4560    76.9470    63.8840    68.0710     2.5590   -11.8100 
  248.3750    75.9330    24.3850    74.2120    63.8840    68.6630     2.5610   -11.6280 
  248.5000    80.5750    24.3320    77.6490    64.5550    69.9310     2.5560   -11.4310 
  248.6250    82.2240    24.3050    74.7410    65.2670    71.3790     2.5480   -11.2510 
  248.7500    82.4190    24.2820    66.4790    64.2940    71.5820     2.5550   -11.0500 
  248.8750    82.7910    24.3000    60.4070    59.0820    68.2440     2.5770   -10.8630 
  249.0000    81.2180    24.2930    58.5630    48.2360    59.2200     2.5940   -10.6930 
  249.1250    74.2480    24.2100    55.6750    34.5320    45.0410     2.5730   -10.5390 
  249.2500    67.0180    24.0970    47.1860    23.0410    31.0740     2.5220   -10.4220 
  249.3750    64.5230    24.0200    31.3480    15.1920    20.3550     2.4730   -10.3590 
  249.5000    68.1500    24.0650    15.9350    10.5020    13.4850     2.4500   -10.3820 
  249.6250    75.2920    24.1030     9.7640     8.2400     9.9930     2.4510   -10.4740 
  249.7500    80.7970    24.1350     8.6470     7.2080     8.2410     2.4480   -10.6660 
  249.8750    84.5680    24.1530     8.9770     6.9380     7.5570     2.4340   -10.9490 
  250.0000    89.3360    24.1860     9.2370     7.1200     7.5370     2.4110   -11.2970 
  250.1250    94.0970    24.2040     9.1860     7.5330     7.9140     2.3860   -11.7760 
  250.2500    95.7490    24.2120     9.1920     7.9810     8.3790     2.3610   -12.3710 
  250.3750    95.3370    24.2280     9.4770     8.4160     8.8300     2.3370   -13.0340 
  250.5000    96.5430    24.2850    10.2090     8.8670     9.2810     2.3150   -13.7250 
  250.6250    99.8580    24.3820    11.1260     9.3760     9.7800     2.3020   -14.4230 
  250.7500   103.0000    24.4620    11.8650     9.9060    10.2930     2.3020   -15.0910 
  250.8750   105.7210    24.4860    12.2680    10.3940    10.7480     2.3090   -15.6860 
  251.0000   105.5730    24.5050    12.5050    10.7860    11.0680     2.3130   -16.1770 
  251.1250   104.0460    24.5500    12.5490    11.0560    11.2100     2.3110   -16.5340 
  251.2500   102.5420    24.5650    12.4120    11.2760    11.2670     2.3170   -16.7320 
  251.3750   100.2000    24.5600    12.6090    11.5240    11.3370     2.3350   -16.7660 
  251.5000    95.8820    24.5770    13.6330    11.8610    11.5020     2.3600   -16.6900 
  251.6250    91.0310    24.5930    15.3130    12.3180    11.8300     2.3870   -16.5110 
  251.7500    89.3880    24.5710    16.8340    12.8330    12.2910     2.4110   -16.2260 
  251.8750    90.6020    24.5260    17.7190    13.3310    12.8290     2.4290   -15.8680 
  252.0000    94.1240    24.4790    18.2330    13.7370    13.3540     2.4400   -15.4760 
  252.1250    96.8040    24.4440    18.6410    13.9700    13.7390     2.4460   -15.0230 
  252.2500    96.6630    24.4010    18.5880    14.0140    13.9210     2.4480   -14.5090 
  252.3750    93.7220    24.3580    17.5450    13.8040    13.8380     2.4440   -13.9350 
  252.5000    90.3550    24.3270    15.8630    13.2400    13.4100     2.4340   -13.2980 
  252.6250    88.5610    24.2970    14.6290    12.1700    12.4820     2.4250   -12.6150 
  252.7500    85.8150    24.2840    13.2640    10.7370    11.1530     2.4230   -11.8980 
  252.8750    80.7060    24.3010    11.3340     9.1640     9.6050     2.4260   -11.1400 
  253.0000    73.5870    24.3130     8.8450     7.7180     8.0940     2.4320   -10.3700 
  253.1250    66.9130    24.2780     6.9880     6.6540     6.8850     2.4430    -9.6400 
  253.2500    60.9090    24.1870     6.2630     5.9490     6.0100     2.4540    -8.9730 
  253.3750    55.6060    24.0870     6.3340     5.5430     5.4430     2.4560    -8.4070 
  253.5000    53.4140    24.0240     6.4340     5.3500     5.1180     2.4530    -7.9360 
  253.6250    54.2920    24.0070     6.0280     5.2330     5.0420     2.4580    -7.5520 
  253.7500    53.2770    24.0330     5.6450     5.1840     5.0290     2.4770    -7.2960 
  253.8750    49.3830    24.0980     5.7990     5.1720     5.0220     2.5030    -7.1950 
  254.0000    47.0990    24.1230     6.3280     5.1650     5.0110     2.5190    -7.2280 
  254.1250    49.7920    24.0610     6.2390     5.1440     4.9990     2.5040    -7.3550 
  254.2500    55.1110    23.9780     5.6590     5.1200     4.9940     2.4680    -7.5940 
  254.3750    61.0840    23.9630     5.2920     5.1090     5.0050     2.4310    -7.9160 
  254.5000    66.8720    24.0000     5.4260     5.1300     5.0440     2.4070    -8.3200 
  254.6250    71.1740    24.0270     5.8800     5.1980     5.1260     2.4020    -8.8130 
  254.7500    72.0440    23.9950     6.3120     5.2900     5.2420     2.4000    -9.3330 
  254.8750    71.1930    23.9290     6.5600     5.3760     5.3750     2.3940    -9.8710 
  255.0000    69.5250    23.8840     6.6460     5.4400     5.5240     2.3850   -10.4070 
  255.1250    67.1810    23.9030     6.7000     5.5150     5.7340     2.3860   -10.9510 
  255.2500    68.1310    23.9250     6.8470     5.6730     6.0560     2.3930   -11.4770 
  255.3750    75.7570    23.9180     7.3790     5.9830     6.5400     2.3910   -11.9990 
  255.5000    87.6120    23.9190     8.6680     6.4840     7.1990     2.3720   -12.5050 
  255.6250    95.6100    23.9490    10.2900     7.1490     7.9540     2.3440   -12.9670 
  255.7500    98.7010    23.9850    11.1430     7.7840     8.5840     2.3250   -13.3620 
  255.8750    99.8130    24.0420    10.8130     8.1970     8.8930     2.3190   -13.6700 
  256.0000    98.6980    24.0700     9.7370     8.2790     8.8100     2.3200   -13.9080 
  256.1250    95.0280    23.9560     8.3560     8.0380     8.4340     2.3270   -14.0830 
  256.2500    92.6780    23.8080     7.6430     7.6940     8.0480     2.3400   -14.2220 
  256.3750    91.9500    23.7280     7.7380     7.3850     7.8000     2.3560   -14.3380 
  256.5000    90.7680    23.6810     8.1210     7.1840     7.7260     2.3730   -14.4260 
  256.6250    89.3380    23.6440     7.8190     7.1190     7.8010     2.3820   -14.5350 
  256.7500    89.0370    23.5690     7.2320     7.1520     7.9650     2.3780   -14.7070 
  256.8750    90.2080    23.4010     7.1480     7.2850     8.2200     2.3590   -14.9570 
  257.0000    91.9940    23.1030     7.7740     7.5260     8.5790     2.3310   -15.2440 
  257.1250    95.0780    22.6980     8.5230     7.8840     9.0130     2.3110   -15.5030 
  257.2500    97.4910    22.2150     9.2830     8.2640     9.3810     2.3040   -15.6980 
  257.3750    96.5990    21.7200     9.9190     8.5330     9.5190     2.3030   -15.7930 
