~V
VERS. 2.00: Ver 2.00
~W
STRT.M 54.0000:
STOP.M 250.0000:
STEP.M 0.1250:
NULL. -999.2500:
UWI. DF3016:
~C
DEPT.M :
GR.API :
RML.OHMM :
RI. :
RXO.OHMM :
CALI.CM :
DEN.GM/CC :
SP.MV :
~A
# ...
   99.0000    74.8420    11.6480     9.8450    11.1870    23.0960  -999.2500   -24.8660 
   99.1250    78.8030    11.6170     9.8460    11.1980    22.9870  -999.2500   -24.7730 
   99.2500    82.8470    11.4970     9.7790    11.0900    22.8100  -999.2500   -24.7530 
   99.3750    82.9820    11.2950     9.6410    10.8550    22.6560  -999.2500   -24.8200 
   99.5000    81.0050    11.0460     9.4520    10.5030    22.5890  -999.2500   -24.9630 
   99.6250    80.8280    10.7990     9.2500     9.9590    22.5820  -999.2500   -25.2360 
   99.7500    79.9860    10.5950     9.0730     9.3480    22.5820  -999.2500   -25.5740 
   99.8750    77.4790    10.4430     8.9350     8.8970    22.5870  -999.2500   -25.9480 
  100.0000    76.8330    10.3340     8.8340     9.1050    22.6020  -999.2500   -26.3180 
  100.1250    78.2190    10.2510     8.7620     9.5990    22.6330  -999.2500   -26.6860 
  100.2500    78.8650    10.1840     8.7080     9.7600    22.6530  -999.2500   -26.9960 
  100.3750    79.8960    10.1330     8.6710     9.7140    22.6910  -999.2500   -27.2780 
  100.5000    81.2170    10.0920     8.6520     9.6790    22.7970  -999.2500   -27.4660 
  100.6250    80.5670    10.0310     8.6380     9.6060    22.9740  -999.2500   -27.6090 
  100.7500    79.4730     9.9170     8.6050     9.5040    23.1490  -999.2500   -27.6820 
  100.8750    80.5490     9.7370     8.5380     9.4560    23.2500  -999.2500   -27.7510 
  101.0000    81.3080     9.5280     8.4510     9.6740    23.3110  -999.2500   -27.7530 
  101.1250    76.4550     9.4130     8.4130     9.4120    23.4290  -999.2500   -27.6080 
  101.2500    70.7900     9.5190     8.5210     9.1730    23.5910  -999.2500   -27.3380 
  101.3750    69.0530     9.9290     8.8480     9.2140    23.6580  -999.2500   -26.8800 
  101.5000    69.5380    10.6030     9.3970     9.6290    23.5890  -999.2500   -26.2880 
  101.6250    69.2140    11.3110    10.0300    10.7920    23.4330  -999.2500   -25.4730 
  101.7500    71.3970    11.6920    10.4610    12.1890    23.3530  -999.2500   -24.5510 
  101.8750    77.4700    11.4900    10.4470    13.6950    23.4140  -999.2500   -23.4880 
  102.0000    83.6230    10.6500     9.8820    15.8570    23.5750  -999.2500   -22.4180 
  102.1250    89.9620     9.3550     8.8390    14.4960    23.6660  -999.2500   -21.4450 
  102.2500    99.0280     8.0810     7.7130     9.8630    23.6680  -999.2500   -20.5720 
  102.3750   106.7940     7.1240     6.7680     6.4950    23.6260  -999.2500   -19.8680 
  102.5000   108.0550     6.6140     6.1500     5.4660    23.5800  -999.2500   -19.2990 
  102.6250   106.9390     6.5870     5.9400     5.3610    23.5640  -999.2500   -18.9610 
  102.7500   108.3970     6.8360     6.0080     5.3840    23.5640  -999.2500   -18.7350 
  102.8750   111.1140     7.1890     6.2360     5.5170    23.5810  -999.2500   -18.6420 
  103.0000   114.0030     7.4660     6.4800     5.8050    23.6140  -999.2500   -18.5790 
  103.1250   115.6300     7.4760     6.5790     6.3000    23.6060  -999.2500   -18.5760 
  103.2500   111.6550     7.2400     6.4980     6.7390    23.5650  -999.2500   -18.5390 
  103.3750   105.9750     6.9100     6.3150     6.9220    23.5550  -999.2500   -18.4800 
  103.5000   105.1010     6.7790     6.2330     6.8430    23.6430  -999.2500   -18.3720 
  103.6250   106.5770     7.2950     6.6090     6.7030    23.7450  -999.2500   -18.2460 
  103.7500   103.9140     8.5110     7.5530     7.2840    23.8290  -999.2500   -18.1300 
  103.8750    98.3810    10.2230     8.9820     9.0110    23.8920  -999.2500   -18.0560 
  104.0000    92.6580    11.9360    10.5570    12.2930    23.9850  -999.2500   -18.0180 
  104.1250    85.3340    12.8180    11.5900    17.1390    24.1500  -999.2500   -18.0140 
  104.2500    80.3070    12.5300    11.6410    21.9770    24.3210  -999.2500   -18.0510 
  104.3750    83.1620    11.2130    10.6890    22.3050    24.4220  -999.2500   -18.2020 
  104.5000    92.1650     9.4760     9.2070    16.4200    24.4560  -999.2500   -18.4390 
  104.6250   100.3840     8.1400     7.9060     9.3190    24.4600  -999.2500   -18.7120 
  104.7500   104.8700     7.5090     7.1270     7.4780    24.4070  -999.2500   -19.0220 
  104.8750   105.8020     7.5300     6.8920     7.3640    24.2620  -999.2500   -19.3400 
  105.0000   104.9370     7.9840     7.0900     7.3990    24.0530  -999.2500   -19.6780 
  105.1250   103.3700     8.6080     7.5590     7.6100    23.8820  -999.2500   -19.9970 
  105.2500   100.3860     9.1350     8.0470     7.8990    23.7890  -999.2500   -20.3120 
  105.3750    96.3790     9.4370     8.3990     8.1280    23.7240  -999.2500   -20.5370 
  105.5000    93.4010     9.4680     8.5230     8.2960    23.6640  -999.2500   -20.7210 
  105.6250    91.1930     9.2180     8.3730     8.4830    23.6410     2.2590   -20.8590 
  105.7500    89.1700     8.8210     8.0530     8.5430    23.6490     2.2590   -20.9350 
  105.8750    87.6210     8.4040     7.6690     8.4210    23.7100     2.2660   -20.9660 
  106.0000    89.5650     8.1220     7.3520     8.1480    23.8310     2.2770   -21.0200 
  106.1250    96.4330     8.1820     7.2710     7.6330    23.9600     2.2830   -21.1410 
  106.2500   101.9900     8.6000     7.4700     7.4110    24.0030     2.2790   -21.3350 
  106.3750   102.3390     9.3100     7.9300     7.7120    23.8730     2.2670   -21.6020 
  106.5000    99.2170    10.1460     8.5550     8.3520    23.5990     2.2500   -21.9660 
  106.6250    95.2760    10.8440     9.1650     9.5070    23.3780     2.2320   -22.4200 
  106.7500    92.2650    11.2360     9.5880    10.7240    23.1900     2.2160   -22.9830 
  106.8750    90.2790    11.2920     9.7520    10.6990    23.1430     2.2000   -23.6140 
  107.0000    90.3470    11.1180     9.6940    10.0600    23.2750     2.1880   -24.2980 
  107.1250    88.5310    10.8890     9.5260     9.6700    23.4610     2.1800   -24.9190 
  107.2500    82.2930    10.7450     9.3830     9.5470    23.5240     2.1780   -25.5650 
  107.3750    75.6360    10.7190     9.3160     9.6100    23.4840     2.1800   -26.2010 
  107.5000    71.5070    10.7830     9.3230     9.8810    23.4110     2.1820   -26.7760 
  107.6250    70.8550    10.8860     9.3760    10.1480    23.3620     2.1810   -27.2950 
  107.7500    72.2930    10.9730     9.4290    10.2920    23.3820     2.1770   -27.7010 
  107.8750    75.8120    11.0120     9.4530    10.3400    23.4330     2.1720   -28.0380 
  108.0000    78.5860    10.9770     9.4260    10.2690    23.5280     2.1700   -28.2290 
  108.1250    76.8680    10.8480     9.3290    10.3320    23.6470     2.1760   -28.3580 
  108.2500    73.8860    10.6710     9.1910    10.5250    23.6770     2.1850   -28.3570 
  108.3750    73.7430    10.5110     9.0620    10.6000    23.6560     2.1920   -28.2960 
  108.5000    77.7470    10.4470     9.0030    10.4980    23.6340     2.1920   -28.2100 
  108.6250    80.7090    10.5520     9.0880    10.5150    23.6290     2.1860   -28.0650 
  108.7500    78.9900    10.7710     9.2850    10.8680    23.6300     2.1880   -27.8990 
  108.8750    75.3650    11.0020     9.5270    11.8100    23.6460     2.2040   -27.6780 
  109.0000    73.8500    11.1370     9.7200    12.7560    23.7030     2.2330   -27.4540 
  109.1250    75.7720    11.0880     9.7700    14.5140    23.7970     2.2590   -27.1000 
  109.2500    75.4080    10.9260     9.7000    16.1420    23.7990     2.2650   -26.6850 
  109.3750    72.6880    10.7520     9.5720    14.0000    23.7110     2.2480   -26.1140 
  109.5000    71.9290    10.6300     9.4420    11.6140    23.6420     2.2200   -25.4210 
  109.6250    74.5360    10.5250     9.3030    11.1930    23.6280     2.2010   -24.5590 
  109.7500    78.5330    10.3180     9.0880    11.9480    23.6620     2.2020   -23.6240 
  109.8750    84.8000     9.9270     8.7340    12.9020    23.7670     2.2200   -22.6240 
  110.0000    93.7580     9.3530     8.2290    12.8840    23.9850     2.2460   -21.6310 
  110.1250    99.7670     8.7020     7.6320    10.4110    24.2640     2.2670   -20.7020 
