~V
VERS. 2.00: Ver 2.00
~W
STRT.M 120.0000:
STOP.M 278.0000:
STEP.M 0.1250:
NULL. -999.2500:
UWI. DF3047:
~C
DEPT.M :
DEN.GM/CC :
SP.MV :
AC.US/MT :
GR.API :
CALI.CM :
RXO.OHMM :
RI. :
RML.OHMM :
~A
# ...
  240.0000     2.2520   -14.9040   336.1690    67.9840    26.4470   114.8950    72.5850    98.1100 
  240.1250     2.2460   -15.2490   347.9850    66.7360    26.5360   113.1520    76.0840    99.6030 
  240.2500     2.2510   -15.5330   356.2870    65.2440    26.5450   106.7340    76.1110    97.4870 
  240.3750     2.2560   -15.7510   360.8720    66.6590    26.5020    96.1430    74.2170    94.0250 
  240.5000     2.2570   -15.8990   362.5870    69.9540    26.4580    83.3420    71.3650    89.9950 
  240.6250     2.2560   -16.0010   363.3700    70.5610    26.4150    73.7270    67.9400    85.3860 
  240.7500     2.2500   -16.0560   364.2700    69.6020    26.3440    69.7380    64.1580    80.2430 
  240.8750     2.2390   -16.0820   365.7810    69.8820    26.2540    67.6340    60.1710    74.8410 
  241.0000     2.2310   -16.0860   367.7080    72.2350    26.1940    62.4220    56.3960    69.8590 
  241.1250     2.2370   -16.0820   369.3330    73.7800    26.2510    54.7260    53.6680    66.4220 
  241.2500     2.2500   -16.0800   370.2490    72.3110    26.4330    50.1080    52.3720    64.8870 
  241.3750     2.2580   -16.0780   370.4790    69.1340    26.6610    51.3070    52.6140    65.2720 
  241.5000     2.2560   -16.0860   370.4770    66.3040    26.8180    58.8470    54.0660    67.0420 
  241.6250     2.2540   -16.0900   370.7660    66.8270    26.8340    68.9220    55.8810    68.9370 
  241.7500     2.2540   -16.1040   371.3840    70.1340    26.7730    73.5610    57.0420    69.6980 
  241.8750     2.2530   -16.1310   372.0560    74.4890    26.7020    69.9930    57.3070    69.2380 
  242.0000     2.2470   -16.1520   372.5050    76.3830    26.6590    61.9870    57.1980    68.5220 
  242.1250     2.2420   -16.1740   372.9140    73.1220    26.6600    57.7010    57.9410    69.2410 
  242.2500     2.2450   -16.1950   373.5990    69.9030    26.6790    62.5310    60.2630    72.0800 
  242.3750     2.2520   -16.2080   374.6370    68.5200    26.7060    75.7000    64.0380    76.6900 
  242.5000     2.2550   -16.2030   375.4710    66.4390    26.7340    88.6770    68.1890    81.5340 
  242.6250     2.2540   -16.1790   375.2580    64.3550    26.7200    90.2540    70.8110    83.9810 
  242.7500     2.2530   -16.1390   373.5420    66.9320    26.6090    82.4890    71.1880    83.3830 
  242.8750     2.2550   -16.0710   370.5410    72.5890    26.4370    71.4650    69.7310    80.7290 
  243.0000     2.2610   -15.9940   367.1250    74.7080    26.3210    63.4440    67.6650    77.8490 
  243.1250     2.2750   -15.9010   364.4760    70.7560    26.3440    64.6480    66.4510    76.4170 
  243.2500     2.2880   -15.7970   363.4030    67.4910    26.3990    70.6010    66.2570    76.1920 
  243.3750     2.2800   -15.6840   364.2200    66.6440    26.4420    73.6350    66.4180    76.1450 
  243.5000     2.2520   -15.5840   366.3130    65.8980    26.5440    71.3140    66.1600    75.3210 
  243.6250     2.2260   -15.5130   367.8530    65.9610    26.7020    66.4380    65.1710    73.5680 
  243.7500     2.2170   -15.4600   367.8710    67.8300    26.7080    60.0510    64.1520    72.0120 
  243.8750     2.2200   -15.4400   366.7660    69.3070    26.5080    53.7380    64.0260    71.7690 
  244.0000     2.2140   -15.4450   366.2200    69.0510    26.3200    53.4250    65.4990    73.4950 
  244.1250     2.1990   -15.4640   367.1370    68.0520    26.3920    65.8310    68.6740    77.0610 
  244.2500     2.1920   -15.4910   368.8100    66.5730    26.5530    82.2440    72.0820    80.5810 
  244.3750     2.2050   -15.5260   369.6670    65.6940    26.6360    89.0700    74.1530    82.0840 
  244.5000     2.2220   -15.5590   368.5640    66.8290    26.6440    81.9110    73.6460    80.2330 
  244.6250     2.2330   -15.5750   366.9190    68.6200    26.6360    70.8130    70.1460    75.1460 
  244.7500     2.2330   -15.5840   366.6300    68.6230    26.5780    63.6750    65.5870    69.4820 
  244.8750     2.2250   -15.5880   369.0520    69.7040    26.4230    58.1860    61.5710    64.9630 
  245.0000     2.2170   -15.5810   374.8220    73.1950    26.1800    52.8930    59.0040    62.2750 
  245.1250     2.2180   -15.5730   382.4180    74.7500    25.9600    51.5870    58.1060    61.3540 
  245.2500     2.2380   -15.5770   390.2200    73.0650    25.8830    55.8270    57.9560    61.0480 
  245.3750     2.2720   -15.6030   396.4220    70.3960    25.9010    60.4740    57.8150    60.5360 
  245.5000     2.2960   -15.6540   398.9180    69.4900    25.9050    59.7060    57.2900    59.5010 
  245.6250     2.2990   -15.7160   397.6190    70.8340    25.8530    54.4450    56.7790    58.5940 
  245.7500     2.2840   -15.7840   392.9830    72.3890    25.8080    51.0990    57.2500    58.9420 
  245.8750     2.2700   -15.8350   386.3390    72.9940    25.8320    52.3270    59.4300    61.2750 
  246.0000     2.2660   -15.8810   379.8610    73.0230    25.9680    60.9990    63.4710    65.6400 
  246.1250     2.2630   -15.9130   375.4130    73.5270    26.2100    83.4200    68.5450    70.8890 
  246.2500     2.2550   -15.9230   373.6740    73.2800    26.4190   107.7040    72.3860    74.3310 
  246.3750     2.2420   -15.9160   374.2180    72.6270    26.5140   111.2930    73.0350    73.8340 
  246.5000     2.2340   -15.8840   375.8530    72.2780    26.5180    89.9820    69.8440    69.1870 
  246.6250     2.2310   -15.8490   377.1450    71.4190    26.4750    66.8310    63.8970    62.3530 
  246.7500     2.2290   -15.8190   377.5380    69.8950    26.4390    55.3870    57.8830    56.1870 
  246.8750     2.2270   -15.7940   376.9410    69.7470    26.4240    51.2880    53.2280    51.8340 
  247.0000     2.2330   -15.7820   375.4030    71.8640    26.4130    50.1120    50.6030    49.6360 
  247.1250     2.2520   -15.7980   373.2540    73.9300    26.3730    50.9870    50.5970    49.9980 
  247.2500     2.2780   -15.8300   370.4790    75.7340    26.3050    53.6720    52.9240    52.6300 
  247.3750     2.2940   -15.8720   366.8590    77.2140    26.2370    57.1370    57.6640    57.6390 
  247.5000     2.2980   -15.9360   361.9900    77.7540    26.1960    62.4240    64.8060    65.0340 
  247.6250     2.2960   -16.0180   356.2600    76.0780    26.2020    76.5670    74.0080    74.4820 
  247.7500     2.2990   -16.1130   350.5360    72.2740    26.2450    96.8160    83.1540    83.8000 
  247.8750     2.3080   -16.2360   346.2820    68.5860    26.2970   108.3280    89.9200    90.4410 
  248.0000     2.3140   -16.3570   345.6520    67.0020    26.3520   104.2480    92.4170    92.3390 
  248.1250     2.3110   -16.4710   348.6560    67.6050    26.4280    95.1110    89.3900    88.4350 
  248.2500     2.3000   -16.5820   354.2840    66.8220    26.5150    90.3430    82.9750    81.3980 
  248.3750     2.2860   -16.6790   360.4490    65.6610    26.5640    86.1250    75.2650    73.5690 
  248.5000     2.2790   -16.7370   364.1730    68.5640    26.5550    78.4960    68.2670    66.8930 
  248.6250     2.2790   -16.7370   364.3570    73.9680    26.5310    67.1940    63.8870    63.1060 
  248.7500     2.2800   -16.6990   361.3300    76.3550    26.5180    59.4090    62.9410    62.7600 
  248.8750     2.2760   -16.6160   356.1180    75.0570    26.5140    61.8330    66.5200    66.6960 
  249.0000     2.2760   -16.5180   349.0390    71.5340    26.5130    77.5740    75.3170    75.5570 
  249.1250     2.2860   -16.3910   340.2250    66.4840    26.5040   107.5720    88.8050    89.3850 
  249.2500     2.3040   -16.2500   330.0690    62.7660    26.4860   146.8710   101.6200   102.9710 
  249.3750     2.3230   -16.1010   320.1850    62.7740    26.4700   180.0250   107.2610   108.3570 
  249.5000     2.3380   -15.9580   313.5560    65.9620    26.4650   170.3500   101.6390   100.4850 
  249.6250     2.3470   -15.8410   311.0280    68.7940    26.4660   113.5760    87.0310    84.1190 
  249.7500     2.3550   -15.7400   311.6560    71.6010    26.4660    64.1000    72.3420    69.6290 
  249.8750     2.3700   -15.6490   312.9450    74.1970    26.4580    44.2560    61.8170    60.2830 
