~V
VERS. 2.00: Ver 2.00
~W
STRT.M 125.0000:
STOP.M 275.0000:
STEP.M 0.1250:
NULL. -999.2500:
UWI. DF3074:
~C
DEPT.M :
GR.API :
CALI.CM :
RXO.OHMM :
RI. :
RML.OHMM :
DEN.GM/CC :
SP.MV :
~A
# ...
  192.5000    84.0130    25.5610    44.2140    59.0130    64.4240     2.2860   -22.5240 
  192.6250    82.5000    25.4510    49.1140    61.4260    67.6350     2.2890   -22.6480 
  192.7500    81.5070    25.3750    60.0150    63.4640    70.2790     2.2900   -22.7940 
  192.8750    80.7890    25.3480    64.0390    65.7780    73.1350     2.2860   -22.9740 
  193.0000    79.2230    25.3140    57.8420    69.5480    77.5850     2.2800   -23.1170 
  193.1250    77.6890    25.3090    54.9280    76.7500    85.8550     2.2810   -23.2410 
  193.2500    76.2060    25.4330    65.5390    88.0140    98.7020     2.2820   -23.3400 
  193.3750    71.8850    25.6660    99.8180   103.5880   116.6890     2.2730   -23.4440 
  193.5000    64.6090    25.8960   176.4550   122.5320   139.2630     2.2550   -23.5850 
  193.6250    61.8960    25.9780   253.4110   141.8370   163.3980     2.2380   -23.7020 
  193.7500    65.2790    25.9780   273.5920   157.4550   183.5160     2.2270   -23.8270 
  193.8750    69.1450    25.9700   242.3510   167.3920   196.3870     2.2230   -23.9680 
  194.0000    69.5490    25.9590   211.4540   172.2840   202.6520     2.2290   -24.0830 
  194.1250    68.2360    25.9660   224.4530   174.4060   205.4610     2.2370   -24.2620 
  194.2500    66.0110    25.9570   261.1760   176.4640   208.2590     2.2360   -24.3790 
  194.3750    63.0570    25.9640   278.6940   179.0690   211.7540     2.2280   -24.5180 
  194.5000    60.6000    25.9800   264.6670   181.4880   215.0480     2.2270   -24.5730 
  194.6250    60.4760    25.9670   258.4400   181.4210   215.1620     2.2370   -24.5640 
  194.7500    60.8320    25.9440   280.3080   177.2110   209.6910     2.2450   -24.5000 
  194.8750    61.3990    25.9260   277.3700   168.1230   197.4880     2.2440   -24.3870 
  195.0000    62.9170    25.9020   224.4110   154.9070   179.7210     2.2370   -24.2580 
  195.1250    65.4630    25.8240   148.7640   139.4510   159.4000     2.2350   -23.9550 
  195.2500    69.4130    25.6830   103.7960   124.4270   140.2330     2.2420   -23.6660 
  195.3750    72.8190    25.5620    81.0920   111.1680   123.8730     2.2490   -23.3220 
  195.5000    72.9920    25.5580    70.4230   100.1620   110.7220     2.2580   -23.0730 
  195.6250    71.4530    25.6540    63.8580    91.5810   100.7740     2.2770   -22.8380 
  195.7500    71.8730    25.7540    57.2460    84.6970    92.9320     2.3050   -22.6330 
  195.8750    74.4590    25.7700    52.3720    79.3310    86.9020     2.3280   -22.4560 
  196.0000    75.9280    25.7470    49.4940    75.5060    82.6860     2.3280   -22.2820 
  196.1250    75.0910    25.7970    47.3410    73.6030    80.7320     2.3070   -22.3100 
  196.2500    73.0690    25.8460    48.2400    73.3220    80.6840     2.2840   -22.3630 
  196.3750    70.9740    25.8830    51.1800    74.4350    82.2730     2.2680   -22.4320 
  196.5000    70.3390    25.9300    55.6470    76.6540    85.1450     2.2590   -22.4360 
  196.6250    71.1830    25.9620    59.4880    80.0940    89.3560     2.2580   -22.5400 
  196.7500    71.1110    25.9370    62.1100    84.9770    95.1050     2.2630   -22.6520 
  196.8750    70.3110    25.8700    64.1600    91.9760   103.1730     2.2690   -22.7580 
  197.0000    70.2350    25.8350    69.9150   101.8510   114.5470     2.2680   -22.8680 
  197.1250    70.0120    25.8470    96.8730   115.3270   130.5650     2.2520   -22.8900 
  197.2500    68.0030    25.9250   152.2760   130.3730   149.3940     2.2300   -22.9040 
  197.3750    65.6610    26.0140   213.3600   143.7120   167.0850     2.2110   -22.9350 
  197.5000    64.4780    26.0390   242.4660   151.2610   177.4870     2.2000   -22.9190 
  197.6250    63.0770    25.9720   220.4840   149.1130   174.3980     2.1870   -22.8990 
  197.7500    62.4970    25.8510   173.9510   140.6890   163.2310     2.1740   -22.8160 
  197.8750    64.3150    25.7330   127.2480   130.5210   150.7340     2.1710   -22.6790 
  198.0000    66.8740    25.6380    97.3370   122.2380   141.1310     2.1870   -22.5970 
  198.1250    67.3920    25.5990    90.3810   117.2270   135.1710     2.2080   -22.4430 
  198.2500    64.4220    25.6250   106.4680   114.1630   130.9180     2.2140   -22.2450 
  198.3750    59.1990    25.6500   134.8680   112.5360   127.8170     2.2080   -21.9980 
  198.5000    54.8090    25.6130   141.6580   112.6120   126.3220     2.2080   -21.7260 
  198.6250    55.2200    25.4900   113.3900   115.1140   127.3720     2.2220   -21.3580 
  198.7500    58.2070    25.4240   129.8950   118.3580   129.0580     2.2300   -20.9790 
  198.8750    59.8690    25.5240   475.8120   119.0970   127.4960     2.2200   -20.5840 
  199.0000    60.4400    25.7270   872.2240   114.3870   119.6820     2.1980   -20.0350 
  199.1250    62.2610    25.8850   732.5450   103.9270   106.7590     2.1840   -19.4710 
  199.2500    64.9300    25.8900   249.4070    91.2190    92.8420     2.1950   -18.8530 
  199.3750    67.6200    25.7500    58.3710    76.9530    78.0300     2.2430   -18.1520 
  199.5000    69.4780    25.6280    44.2110    60.6030    61.3610     2.3260   -17.3850 
  199.6250    69.0160    25.5710    64.5330    43.2450    43.9420     2.4340   -16.5160 
  199.7500    65.9900    25.5080    58.1410    28.2460    28.9090     2.5350   -15.5370 
  199.8750    61.3960    25.3960    28.7900    17.4770    17.8990     2.5960   -14.4970 
  200.0000    58.5950    25.2550     9.6030    10.8590    10.8840     2.5990   -13.4180 
  200.1250    58.8670    25.2870     6.0630     7.5500     7.2960     2.5460   -12.3510 
  200.2500    59.2810    25.4770     5.6560     5.8510     5.5720     2.4820   -11.3060 
  200.3750    57.9110    25.6440     5.5800     5.1390     5.0450     2.4370   -10.3710 
  200.5000    55.8090    25.6280     5.4630     5.0660     5.2250     2.4190    -9.5530 
  200.6250    54.1580    25.4380     5.4090     5.3880     5.6980     2.4150    -8.8700 
  200.7500    53.0310    25.3160     5.4440     5.7860     6.0950     2.4100    -8.3370 
  200.8750    52.9000    25.2870     5.5190     6.1120     6.3180     2.4070    -7.9310 
  201.0000    52.9410    25.2750     5.5860     6.3250     6.4040     2.4110    -7.6860 
  201.1250    52.5260    25.2220     5.6280     6.4160     6.4020     2.4140    -7.4680 
  201.2500    53.1740    25.2050     5.6690     6.4250     6.3500     2.4080    -7.3530 
  201.3750    54.7290    25.2310     5.6970     6.3800     6.2790     2.3930    -7.2380 
  201.5000    54.9900    25.2400     5.7070     6.3150     6.2430     2.3800    -7.1740 
  201.6250    53.3540    25.1610     5.7380     6.2800     6.3460     2.3870    -7.1740 
  201.7500    52.5810    25.0850     5.8650     6.3110     6.6280     2.4140    -7.2100 
  201.8750    52.7530    25.0860     6.1160     6.4210     7.0800     2.4490    -7.3240 
  202.0000    55.4610    25.1160     6.4960     6.5810     7.6150     2.4760    -7.4810 
  202.1250    62.3850    25.1380     6.9630     6.7020     8.0480     2.4860    -7.8100 
  202.2500    70.3840    25.2100     7.3430     6.7140     8.2600     2.4760    -8.1950 
  202.3750    77.7550    25.3580     7.4120     6.6200     8.2740     2.4410    -8.7000 
  202.5000    84.9610    25.5290     7.1020     6.5040     8.2480     2.3910    -9.3180 
  202.6250    92.2050    25.6400     6.6550     6.5130     8.4580     2.3570   -10.0430 
  202.7500    96.0740    25.6200     6.5950     6.7200     9.0260     2.3550   -10.8810 
  202.8750    96.0840    25.4420     7.1500     7.1310     9.9280     2.3730   -11.7960 
  203.0000    95.3410    25.2260     8.1490     7.6720    10.9910     2.3980   -12.7730 
  203.1250    98.4010    25.1720     9.0030     8.1910    11.8990     2.4210   -13.7470 
  203.2500   102.9240    25.2930     9.4190     8.5620    12.4700     2.4300   -14.7060 
  203.3750   103.8770    25.6370     9.6760     8.7620    12.7210     2.4160   -15.6320 
  203.5000   100.9160    25.8340     9.8850     8.8470    12.8040     2.3910   -16.4850 
  203.6250    98.4860    25.5160    10.0180     8.9120    12.9190     2.3790   -17.3170 
