~V
VERS. 2.00: Ver 2.00
~W
STRT.M 70.0000:
STOP.M 278.0000:
STEP.M 0.1250:
NULL. -999.2500:
UWI. DF3060:
~C
DEPT.M :
SP.MV :
GR.API :
RML.OHMM :
RI. :
RXO.OHMM :
CALI.CM :
DEN.GM/CC :
~A
# ...
  115.0000   -24.7570    76.8340     6.9330     5.7370     9.5530    22.8670     2.2110 
  115.1250   -24.8950    76.0480     6.8450     5.6430    10.4480    22.8670     2.2050 
  115.2500   -25.0350    77.0530     6.9450     5.7170    10.0830    22.8670     2.1970 
  115.3750   -25.1980    77.1690     7.1600     5.9270     9.7180    22.8670     2.1900 
  115.5000   -25.4170    73.0610     7.3950     6.2030    10.2040    22.8670     2.1870 
  115.6250   -25.6780    68.3730     7.5470     6.4510    10.4510    22.8670     2.1890 
  115.7500   -25.9320    67.5620     7.5940     6.6210    10.0780    22.8680     2.1950 
  115.8750   -26.1090    69.9380     7.5770     6.7100     8.9160    22.8710     2.2000 
  116.0000   -26.1920    72.5780     7.5770     6.7580     7.2130    22.8790     2.2000 
  116.1250   -26.1580    73.0730     7.6830     6.8130     7.0560    22.9010     2.1950 
  116.2500   -26.0240    71.9140     7.8540     6.8690     8.2060    22.9470     2.1870 
  116.3750   -25.7980    70.0520     7.9550     6.8540    10.4590    23.0200     2.1830 
  116.5000   -25.4530    68.2920     7.8070     6.6550    12.7030    23.1040     2.1850 
  116.6250   -24.9990    69.2830     7.2260     6.1400    13.3890    23.1450     2.1980 
  116.7500   -24.4830    73.4100     6.3540     5.3960    12.0730    23.1560     2.2160 
  116.8750   -23.9260    79.2170     5.4300     4.5820     8.8700    23.1430     2.2310 
  117.0000   -23.3540    84.9260     4.7270     3.8980     5.1810    23.0970     2.2370 
  117.1250   -22.8390    88.9330     4.5140     3.5620     4.2670    22.9730     2.2310 
  117.2500   -22.4530    90.0080     4.7430     3.5900     5.0090    22.7370     2.2180 
  117.3750   -22.2280    86.3740     5.3040     3.9510     6.2780    22.4140     2.2000 
  117.5000   -22.1700    78.9050     6.0150     4.5460     7.1060    22.1680     2.1820 
  117.6250   -22.2570    71.4040     6.6350     5.2090     6.6360    22.1960     2.1650 
  117.7500   -22.3890    66.8490     7.0100     5.7500     6.5280    22.3670     2.1530 
  117.8750   -22.5630    67.2380     7.1080     6.0700     6.2860    22.4940     2.1470 
  118.0000   -22.8350    71.5630     6.9960     6.1620     6.0910    22.5020     2.1470 
  118.1250   -23.2160    76.5160     6.7890     6.0760     6.0320    22.4090     2.1530 
  118.2500   -23.4760    78.3180     6.6040     5.9350     6.0630    22.2790     2.1610 
  118.3750   -23.6710    76.8490     6.4890     5.8060     6.1230    22.1950     2.1690 
  118.5000   -23.8360    74.7490     6.4780     5.7420     6.1690    22.2510     2.1770 
  118.6250   -24.0970    75.4800     6.6230     5.8060     6.3060    22.3750     2.1870 
  118.7500   -24.5190    78.5880     6.9040     5.9910     6.6060    22.3930     2.1990 
  118.8750   -25.1070    80.4810     7.2790     6.2690     6.8170    22.3470     2.2080 
  119.0000   -25.7770    78.6350     7.6650     6.5810     6.6550    22.3170     2.2120 
  119.1250   -26.4050    73.2960     7.9290     6.8330     6.4400    22.3120     2.2080 
  119.2500   -27.0680    68.5830     8.0110     6.9620     6.4000    22.3060     2.1970 
  119.3750   -27.6980    65.5920     7.9120     6.9500     6.5220    22.2930     2.1850 
  119.5000   -28.2910    64.3580     7.7040     6.8250     6.6660    22.2760     2.1740 
  119.6250   -28.8030    65.4920     7.5070     6.6560     6.7760    22.2460     2.1700 
  119.7500   -29.2590    67.7960     7.4090     6.5280     6.6110    22.1900     2.1720 
  119.8750   -29.6650    69.2160     7.4350     6.4810     6.7070    22.0970     2.1780 
  120.0000   -30.0370    67.3340     7.5610     6.5190     7.4540    21.9930     2.1850 
  120.1250   -30.4200    63.3400     7.7220     6.6200     9.1340    21.9190     2.1910 
  120.2500   -30.8580    60.4910     7.8470     6.7300    10.6630    21.8690     2.1970 
  120.3750   -31.3190    60.6980     7.9070     6.8220    11.0740    21.8220     2.2020 
  120.5000   -31.7700    63.6360     7.9150     6.8880     9.9800    21.7870     2.2080 
  120.6250   -32.1170    66.3740     7.9160     6.9350     7.2840    21.7780     2.2090 
  120.7500   -32.3440    66.7210     7.9490     6.9780     7.0480    21.7850     2.2040 
  120.8750   -32.4390    66.0140     8.0180     7.0230     8.2140    21.8050     2.1930 
  121.0000   -32.3810    65.8250     8.0990     7.0680     9.9710    21.8400     2.1820 
  121.1250   -32.2010    65.8310     8.1620     7.1120    11.2810    21.8930     2.1760 
  121.2500   -31.9540    64.1950     8.1990     7.1500    10.8330    21.9250     2.1790 
  121.3750   -31.6610    61.7960     8.2200     7.1800     8.5570    21.9580     2.1900 
  121.5000   -31.3430    60.1670     8.2400     7.1990     7.2740    22.0150     2.2010 
  121.6250   -31.0850    59.5770     8.2600     7.2020     7.0790    22.1080     2.2040 
  121.7500   -30.8920    59.8270     8.2650     7.1870     7.1660    22.2080     2.1970 
  121.8750   -30.7800    60.6930     8.2360     7.1490     7.2580    22.3090     2.1850 
  122.0000   -30.7630    60.7940     8.1660     7.0890     7.4640    22.3910     2.1710 
  122.1250   -30.8030    58.3170     8.0520     7.0070     7.5630    22.4220     2.1650 
  122.2500   -30.8400    55.5810     7.9200     6.9200     7.3570    22.4280     2.1660 
  122.3750   -30.8580    54.3640     7.8000     6.8460     6.9650    22.4280     2.1720 
  122.5000   -30.8430    53.9400     7.7210     6.8070     7.0220    22.4280     2.1810 
  122.6250   -30.7650    52.8410     7.7260     6.8360     7.5920    22.4280     2.1870 
  122.7500   -30.6380    52.6330     7.8160     6.9370     8.2180    22.4270     2.1870 
  122.8750   -30.4700    54.8920     7.9850     7.1030     8.6480    22.4250     2.1830 
  123.0000   -30.2570    59.0430     8.2020     7.3080     8.8540    22.4210     2.1750 
  123.1250   -30.0160    61.2300     8.4130     7.4970     8.8040    22.4200     2.1670 
  123.2500   -29.7470    60.2340     8.5590     7.6100     8.4050    22.4270     2.1620 
  123.3750   -29.4420    58.3200     8.5780     7.6020     7.8980    22.4660     2.1620 
  123.5000   -29.1030    58.6580     8.4410     7.4410     7.4950    22.6000     2.1670 
  123.6250   -28.7110    61.3460     8.1070     7.0880     7.1030    22.8390     2.1770 
  123.7500   -28.2400    64.1080     7.6240     6.5820     6.5940    23.0150     2.1880 
  123.8750   -27.6540    66.8340     7.0220     5.9470     5.9380    23.0860     2.1990 
  124.0000   -26.9360    70.2350     6.4110     5.2370     5.2010    23.1130     2.2050 
  124.1250   -26.1120    75.0660     5.8910     4.5770     4.6560    23.1440     2.2090 
  124.2500   -25.2640    80.8090     5.6130     4.1400     4.5190    23.1740     2.2190 
  124.3750   -24.4340    85.7820     5.6920     4.0950     5.0190    23.2090     2.2430 
  124.5000   -23.6650    88.8360     6.4180     4.5380     6.2110    23.2570     2.2890 
  124.6250   -23.0580    89.6740     7.6780     5.4640     8.4840    23.3170     2.3510 
  124.7500   -22.6120    88.7730     8.9290     6.5080    10.8240    23.3800     2.4020 
  124.8750   -22.3450    86.9090     9.6540     7.2780    12.3400    23.4030     2.4230 
  125.0000   -22.2730    86.0250     9.4730     7.4120    11.4200    23.3820     2.4090 
  125.1250   -22.3690    87.7910     8.2890     6.6870     8.3160    23.3350     2.3740 
  125.2500   -22.5630    91.0220     6.7750     5.5490     5.7160    23.3120     2.3430 
  125.3750   -22.7940    94.0290     5.4640     4.4220     4.4460    23.3030     2.3260 
  125.5000   -23.0120    96.0180     4.6420     3.5900     3.9080    23.2940     2.3230 
  125.6250   -23.1460    97.2510     4.4190     3.2130     3.7600    23.2750     2.3270 
  125.7500   -23.2190    99.4830     4.5740     3.1880     4.1370    23.2390     2.3280 
  125.8750   -23.2470   102.6290     4.9550     3.4250     4.6110    23.1930     2.3250 
  126.0000   -23.2380   104.6600     5.4220     3.8210     4.8130    23.1650     2.3170 
  126.1250   -23.1920   103.2960     5.8370     4.2560     4.6830    23.1560     2.3040 
