~V
VERS. 2.00: Ver 2.00
~W
STRT.M 120.0000:
STOP.M 233.0000:
STEP.M 0.1250:
NULL. -999.2500:
UWI. DF3066:
~C
DEPT.M :
GR.API :
RML.OHMM :
RI. :
RXO.OHMM :
CALI.CM :
DEN.GM/CC :
SP.MV :
~A
# ...
  221.2500    71.0630    19.6810    17.0170    16.1210    23.6330     2.2950   -15.9910 
  221.3750    71.0630    19.5370    16.4300    16.3810    23.7020     2.2950   -15.8710 
  221.5000    71.0630    19.9870    16.5550    16.3360    23.8470     2.3020   -15.8450 
  221.6250    71.0630    21.2980    17.5030    16.1550    23.9270     2.3060   -15.8510 
  221.7500    71.0630    23.4730    19.1890    16.7480    23.9340     2.3030   -15.8630 
  221.8750    71.0630    26.4730    21.6110    18.4660    23.9370     2.2880   -15.9620 
  222.0000    71.0630    30.0470    24.6310    21.2480    23.9400     2.2650   -16.0220 
  222.1250    71.0630    33.7030    27.8580    25.6010    23.9410     2.2420   -16.0640 
  222.2500    71.0630    36.8880    30.7180    29.4500    23.9300     2.2260   -16.1160 
  222.3750    71.0630    39.2500    32.8080    31.1820    23.9100     2.2190   -16.1410 
  222.5000    71.0630    40.5940    33.8750    31.2530    23.8800     2.2180   -16.1500 
  222.6250    71.0630    40.6390    33.6030    30.0110    23.8990     2.2210   -16.1440 
  222.7500    71.0630    39.3430    32.1990    30.0670    23.9190     2.2250   -16.0980 
  222.8750    71.0630    36.7250    29.8450    29.6900    23.9120     2.2300   -16.0290 
  223.0000    71.0630    32.9010    26.9400    28.5850    23.8730     2.2380   -16.0220 
  223.1250    71.0630    28.8480    24.1190    26.5930    23.8130     2.2490   -15.9440 
  223.2500    71.0630    25.2660    21.9230    22.7950    23.8150     2.2610   -15.8660 
  223.3750    71.0630    22.8500    20.6230    18.4170    23.8540     2.2720   -15.8800 
  223.5000    71.0630    22.4650    20.2740    16.2590    23.9330     2.2840   -15.7710 
  223.6250    71.0630    23.1920    20.8080    18.2090    24.0070     2.2980   -15.7580 
  223.7500    71.0630    24.0640    21.6760    21.3140    24.0030     2.3130   -15.7320 
  223.8750    71.0630    24.6080    22.4160    24.8560    23.9070     2.3260   -15.6880 
  224.0000    71.0630    24.5940    22.6730    26.2840    23.6960     2.3320   -15.6800 
  224.1250    71.0630    24.0770    22.2620    21.9820    23.6640     2.3280   -15.5930 
  224.2500    71.0630    23.4820    21.4870    19.0690    23.6470     2.3140   -15.5610 
  224.3750    71.0630    23.0820    20.6530    20.1060    23.5770     2.2980   -15.5290 
  224.5000    71.0630    23.0260    20.0540    22.1760    23.4100     2.2820   -15.4780 
  224.6250    71.0630    23.4710    20.0050    22.1620    23.4250     2.2720   -15.4020 
  224.7500    71.0630    24.3860    20.5140    21.3570    23.5620     2.2650   -15.3690 
  224.8750    71.0630    25.7220    21.5320    21.3310    23.7430     2.2630   -15.3300 
  225.0000    71.0630    27.3060    22.9080    24.0180    23.9670     2.2640   -15.3080 
  225.1250    71.0630    28.8160    24.3730    26.9100    24.3270     2.2690   -15.3300 
  225.2500    71.0630    29.9860    25.6520    27.7470    24.6510     2.2720   -15.2620 
  225.3750    71.0630    30.7380    26.6410    27.1290    24.5250     2.2670   -15.1660 
  225.5000    71.0630    31.1540    27.3570    26.5200    24.0050     2.2510   -15.0820 
  225.6250    71.0630    31.4030    27.8740    26.0430    23.7140     2.2240   -15.0010 
  225.7500    71.0630    31.6370    28.2930    26.4320    23.7590     2.1950   -14.8860 
  225.8750    71.0630    31.8400    28.5510    27.4880    23.8740     2.1690   -14.7310 
  226.0000    71.0630    31.9360    28.5420    27.8170    23.9510     2.1500   -14.5140 
  226.1250    71.0630    31.8590    28.3200    26.6740    23.9040     2.1400   -14.2700 
  226.2500    71.0630    31.7030    28.2150    25.8090    23.7980     2.1420   -14.1240 
  226.3750    71.0630    31.5860    28.4520    26.0330    23.7010     2.1580   -13.9590 
  226.5000    71.0630    31.6110    29.0450    27.0130    23.5690     2.1850   -13.8610 
  226.6250    71.0630    31.8340    29.8180    27.8950    23.5740     2.2180   -13.7540 
  226.7500    71.0630    32.1360    30.4810    27.0990    23.6830     2.2480   -13.5560 
  226.8750    71.0630    32.4070    30.9020    23.8580    23.8150     2.2700   -13.3940 
  227.0000    71.0630    32.5590    31.0770    19.5940    23.9020     2.2840   -13.2450 
  227.1250    71.0630    32.5590    31.0770    16.4730    23.9170     2.2910   -13.0780 
  227.2500    71.0630    32.5590    31.0770    13.6150    23.9000     2.2960   -12.8750 
  227.3750    71.0630    32.5590    31.0770    11.8450    23.8870     2.2980   -12.7040 
  227.5000    71.0630    32.5590    31.0770    11.9480    23.8600     2.3000   -12.4760 
  227.6250    71.0630    32.5590    31.0770    14.0750    23.8110     2.3050   -12.3170 
  227.7500    71.0630    32.5590    31.0770    17.0960    23.7900     2.3130   -12.2160 
  227.8750    71.0630    32.5590    31.0770    19.9740    23.8020     2.3220   -12.1060 
  228.0000    71.0630    32.5590    31.0770    21.8090    23.8340     2.3290   -12.0480 
  228.1250    71.0630    32.5590    31.0770    21.8060    23.8530     2.3290   -12.0350 
  228.2500    71.0630    32.5590    31.0770    20.3540    23.8790     2.3210   -12.0940 
  228.3750    71.0630    32.5590    31.0770    18.9800    23.9850     2.3090   -12.1580 
  228.5000    71.0630    32.5590    31.0770    19.0180    24.2140     2.2960   -12.2190 
  228.6250    71.0630    32.5590    31.0770    20.5980    24.1910     2.2870   -12.2040 
  228.7500    71.0630    32.5590    31.0770    22.1720    23.9700     2.2800   -12.2440 
  228.8750    71.0630    32.5590    31.0770    24.2800    23.8340     2.2760   -12.3020 
  229.0000    71.0630    32.5590    31.0770    25.8600    23.9050     2.2740   -12.3350 
  229.1250    71.0630    32.5590    31.0770    23.7300    24.0000     2.2850   -12.3310 
  229.2500    71.0630    32.5590    31.0770    21.0090    24.0180     2.3130   -12.3020 
  229.3750    71.0630    32.5590    31.0770    20.9330    23.9390     2.3580   -12.2450 
  229.5000    71.0630    32.5590    31.0770    22.8400    23.7240     2.4090   -12.2440 
  229.6250    71.0630    32.5590    31.0770    27.9480    23.5580     2.4390   -12.2760 
  229.7500    71.0630    32.5590    31.0770    30.4160    23.3380     2.4250   -12.2950 
  229.8750    71.0630    32.5590    31.0770    28.8750    23.0020     2.3550   -12.3610 
  230.0000    71.0630    32.5590    31.0770    24.6910    22.6070     2.2240   -12.3600 
  230.1250    71.0630    32.5590    31.0770    18.7110    21.7310     2.0500   -12.4620 
  230.2500    71.0630    32.5590    31.0770    12.8780    20.1940     1.8840   -12.5090 
  230.3750    71.0630    32.5590    31.0770     8.4940    18.4750     1.7520   -12.5470 
  230.5000    71.0630    32.5590    31.0770     6.5990    17.5180     1.6640   -12.6100 
  230.6250    71.0630    32.5590    31.0770     6.2200    17.2810     1.6210   -12.6510 
  230.7500    71.0630    32.5590    31.0770     6.1740    17.2650     1.6030   -12.6830 
  230.8750    71.0630    32.5590    31.0770     6.1650    17.2610     1.5980   -12.6780 
  231.0000    71.0630    32.5590    31.0770     6.1550    17.2610     1.5960   -12.6530 
  231.1250    71.0630    32.5590    31.0770     6.1440    17.2610     1.5950   -12.6280 
  231.2500    71.0630    32.5590    31.0770     6.1060    17.2580     1.5940   -12.5370 
  231.3750    71.0630    32.5590    31.0770     6.0640    17.2540     1.5940   -12.4270 
  231.5000    71.0630    32.5590    31.0770     6.0180    17.2520     1.5930   -12.3530 
  231.6250    71.0630    32.5590    31.0770     5.9920    17.2520     1.5910   -12.1860 
  231.7500    71.0630    32.5590    31.0770     5.9770    17.2520     1.5910   -12.0480 
  231.8750  -999.2500  -999.2500  -999.2500  -999.2500  -999.2500     1.5930   -11.9380 
  232.0000  -999.2500  -999.2500  -999.2500  -999.2500  -999.2500     1.5960   -11.8040 
  232.1250  -999.2500  -999.2500  -999.2500  -999.2500  -999.2500     1.6010   -11.7130 
  232.2500  -999.2500  -999.2500  -999.2500  -999.2500  -999.2500     1.6040   -11.7130 
  232.3750  -999.2500  -999.2500  -999.2500  -999.2500  -999.2500     1.6060   -11.7130 
