~V
VERS. 2.00: Ver 2.00
~W
STRT.M 105.0000:
STOP.M 279.0000:
STEP.M 0.1250:
NULL. -999.2500:
UWI. DF3027:
~C
DEPT.M :
DEN.GM/CC :
AC.US/MT :
GR.API :
CALI.CM :
RXO.OHMM :
RI. :
RML.OHMM :
SP.MV :
~A
# ...
  135.0000     2.3100   363.3380    76.6440    30.6380    13.2830    10.2980    13.3640   -13.6990 
  135.1250     2.3000   361.6240    74.9870    30.6610    15.3830    11.5670    15.0800   -13.6070 
  135.2500     2.3030   355.9620    70.9670    30.6780    16.0660    12.6600    16.3630   -13.4760 
  135.3750     2.3280   343.1010    69.0590    30.6600    15.7700    13.3770    17.0570   -13.2960 
  135.5000     2.3810   322.6080    70.3720    30.5690    15.1650    13.7320    17.3030   -13.0630 
  135.6250     2.4610   297.8190    70.4640    30.3950    14.7970    13.9200    17.4470   -12.7540 
  135.7500     2.5370   275.4110    66.8140    30.2130    15.0800    14.1780    17.7790   -12.3980 
  135.8750     2.5860   259.3180    63.1580    30.0810    16.0800    14.5820    18.3460   -12.0480 
  136.0000     2.6030   250.4750    61.5030    30.0130    17.3110    15.0950    19.0550   -11.7080 
  136.1250     2.6060   247.7350    60.3690    29.9940    18.1590    15.6110    19.7230   -11.3860 
  136.2500     2.6130   247.3840    56.7810    29.9900    18.6630    16.0330    20.2330   -11.1100 
  136.3750     2.6250   247.6690    52.8810    29.9750    18.9100    16.3490    20.5950   -10.8750 
  136.5000     2.6410   247.6580    50.2060    29.9460    18.7270    16.6190    20.9090   -10.6840 
  136.6250     2.6550   246.7740    50.4750    29.9250    18.3080    16.9510    21.3320   -10.5590 
  136.7500     2.6580   245.1280    52.7920    29.9140    18.6420    17.4020    21.9280   -10.4770 
  136.8750     2.6470   242.9910    54.3050    29.8970    19.9520    17.9690    22.6750   -10.4110 
  137.0000     2.6320   240.6880    53.8150    29.8630    21.1440    18.6020    23.4870   -10.3540 
  137.1250     2.6260   238.5530    50.8890    29.8030    21.0750    19.1890    24.1820   -10.3170 
  137.2500     2.6230   236.8510    49.0150    29.7270    20.7500    19.5840    24.5560   -10.2960 
  137.3750     2.6170   235.9350    49.6320    29.6570    21.3980    19.6470    24.4330   -10.2830 
  137.5000     2.6140   236.2890    51.4410    29.6080    22.9690    19.3120    23.7620   -10.2850 
  137.6250     2.6160   238.5350    52.6380    29.5710    23.4410    18.6120    22.6460   -10.2940 
  137.7500     2.6160   241.8590    54.5390    29.5260    21.5790    17.8210    21.4910   -10.2960 
  137.8750     2.6120   244.7490    58.8370    29.4830    18.6130    17.2000    20.6830   -10.2860 
  138.0000     2.6070   245.4600    63.8100    29.4590    16.7750    17.0030    20.5680   -10.2850 
  138.1250     2.6020   243.0510    67.3450    29.4560    17.1890    17.4890    21.4390   -10.2720 
  138.2500     2.5960   240.1360    67.9920    29.4530    18.8610    18.5030    22.9500   -10.2480 
  138.3750     2.5910   240.0590    64.7970    29.4370    21.6630    19.7680    24.6200   -10.2350 
  138.5000     2.5860   244.9650    58.6830    29.4100    25.2070    20.8290    25.8010   -10.2220 
  138.6250     2.5780   253.8910    53.2470    29.3910    26.6380    21.0610    25.7480   -10.2220 
  138.7500     2.5640   261.8670    53.7030    29.3860    24.6780    20.4590    24.6460   -10.2550 
  138.8750     2.5470   265.9900    58.3460    29.3850    21.2500    19.3220    22.9850   -10.3210 
  139.0000     2.5320   266.4920    61.7320    29.3810    18.8400    18.0660    21.3270   -10.4020 
  139.1250     2.5200   266.3910    60.7230    29.3780    17.9670    17.0750    20.1430   -10.5110 
  139.2500     2.5120   268.0820    59.3290    29.3770    17.4860    16.4610    19.4960   -10.6360 
  139.3750     2.5130   270.7850    61.1400    29.3780    17.1300    16.2050    19.3020   -10.7670 
  139.5000     2.5250   272.0410    63.0870    29.3780    17.1360    16.2000    19.3900   -10.9030 
  139.6250     2.5390   269.3130    61.5210    29.3780    17.5720    16.3390    19.6080   -11.0280 
  139.7500     2.5460   263.4950    58.7530    29.3780    17.9170    16.5300    19.8580   -11.1360 
  139.8750     2.5470   256.1520    57.9870    29.3780    17.9790    16.7720    20.1530   -11.2180 
  140.0000     2.5470   248.9380    59.0120    29.3770    18.2120    17.0900    20.5350   -11.2730 
  140.1250     2.5510   243.7770    61.7330    29.3790    19.4000    17.5160    21.0610   -11.3090 
  140.2500     2.5600   241.6280    64.8720    29.3820    21.0720    18.0120    21.6870   -11.3410 
  140.3750     2.5690   242.7800    66.8130    29.3880    22.2930    18.5110    22.3150   -11.3580 
  140.5000     2.5690   246.5210    67.8190    29.3950    22.4760    18.9090    22.7870   -11.3720 
  140.6250     2.5560   251.4800    67.7430    29.3950    21.8790    19.0330    22.8570   -11.3780 
  140.7500     2.5430   256.1150    65.1480    29.3890    21.2850    18.8620    22.5290   -11.3720 
  140.8750     2.5400   259.6550    62.0950    29.3830    20.7840    18.4650    21.9390   -11.3710 
  141.0000     2.5450   261.3480    60.8160    29.3790    20.0300    17.9900    21.3170   -11.3830 
  141.1250     2.5480   259.7290    60.4510    29.3830    18.9570    17.6360    20.9510   -11.3940 
  141.2500     2.5410   255.0910    60.1750    29.4000    18.2370    17.4960    20.9150   -11.3970 
  141.3750     2.5290   249.0410    60.6640    29.4260    18.3710    17.5580    21.1410   -11.3970 
  141.5000     2.5210   244.5070    61.2000    29.4490    19.2450    17.7340    21.4680   -11.4050 
  141.6250     2.5290   244.9890    60.6010    29.4670    20.1620    17.9060    21.7120   -11.4390 
  141.7500     2.5410   250.0990    62.6510    29.4990    20.5150    18.0120    21.8230   -11.5110 
  141.8750     2.5350   258.0620    69.8040    29.5460    20.3570    18.0670    21.8590   -11.5900 
  142.0000     2.5070   266.4920    76.6830    29.5870    20.2040    18.1330    21.9420   -11.6750 
  142.1250     2.4780   272.9790    77.2750    29.6060    20.6140    18.2910    22.1940   -11.7720 
  142.2500     2.4600   276.6360    71.5070    29.6110    21.3020    18.5250    22.5570   -11.8710 
  142.3750     2.4510   277.0940    66.1670    29.6120    21.7960    18.7640    22.9030   -11.9650 
  142.5000     2.4530   274.4730    62.9870    29.6120    21.8080    18.9240    23.1070   -12.0490 
  142.6250     2.4790   269.4920    62.1360    29.6120    21.2180    18.9410    23.1050   -12.1070 
  142.7500     2.5150   264.5070    63.6650    29.6110    20.4690    18.8860    23.0290   -12.1330 
  142.8750     2.5410   261.3530    65.5710    29.6140    20.2490    18.8500    23.0130   -12.1370 
  143.0000     2.5440   260.8650    65.4720    29.6310    20.8930    18.8970    23.1220   -12.1290 
  143.1250     2.5220   262.5540    62.9040    29.6550    21.6680    19.0070    23.2780   -12.1050 
  143.2500     2.4970   264.3770    62.0040    29.6610    21.7420    19.0590    23.3080   -12.0730 
  143.3750     2.4870   265.1390    63.5120    29.6410    21.2230    18.9590    23.1060   -12.0400 
  143.5000     2.4930   264.4950    66.5890    29.6140    20.3780    18.6900    22.6900   -12.0010 
  143.6250     2.5040   262.8270    68.7200    29.6040    19.0460    18.3260    22.2130   -11.9430 
  143.7500     2.5080   261.1240    68.3540    29.6080    17.6450    18.0020    21.8670   -11.8800 
  143.8750     2.5100   259.9300    66.6480    29.6280    16.9690    17.7740    21.7070   -11.8250 
  144.0000     2.5130   259.4950    64.7400    29.6810    17.2530    17.6110    21.6500   -11.7560 
  144.1250     2.5110   259.7630    65.0460    29.7820    17.5430    17.3860    21.4590   -11.6840 
  144.2500     2.5010   259.9980    67.1850    29.8930    17.0250    16.9840    20.9620   -11.6150 
  144.3750     2.4880   259.5700    68.8750    29.9660    16.0650    16.3970    20.1650   -11.5440 
  144.5000     2.4830   258.4620    69.7930    29.9870    15.3230    15.7300    19.2570   -11.4780 
  144.6250     2.4920   257.7910    68.8380    29.9910    14.9190    15.1980    18.5850   -11.4420 
  144.7500     2.5090   258.7650    64.7250    30.0280    14.7210    14.9350    18.3390   -11.4300 
  144.8750     2.5210   261.7370    59.6590    30.1160    15.0350    14.9940    18.5620   -11.4290 
