~V
VERS. 2.00: Ver 2.00
~W
STRT.M 55.0000:
STOP.M 252.0000:
STEP.M 0.1250:
NULL. -999.2500:
UWI. DF3024:
~C
DEPT.M :
GR.API :
RML.OHMM :
RI. :
RXO.OHMM :
CALI.CM :
DEN.GM/CC :
SP.MV :
~A
# ...
  223.7500    66.6100    33.9090    29.0970    54.7370    23.8510     2.4490   -17.3220 
  223.8750    64.4270    31.4490    27.1700    60.7700    23.7660     2.4380   -17.1990 
  224.0000    62.8680    26.7000    23.5000    46.0020    23.5780     2.4250   -17.0170 
  224.1250    64.9700    21.1080    19.1210    28.7190    23.4930     2.4240   -16.8600 
  224.2500    69.2720    16.0710    15.2900    16.4400    23.5730     2.4310   -16.7300 
  224.3750    73.5060    12.3380    12.4580     9.8810    23.5650     2.4360   -16.5870 
  224.5000    73.3680    10.4750    10.6130     7.9520    23.3370     2.4300   -16.4860 
  224.6250    69.5780     9.7350     9.6300     8.3650    23.1160     2.4170   -16.4280 
  224.7500    67.6080     9.4580     9.1260     8.5520    23.1660     2.4060   -16.3890 
  224.8750    68.1010     9.4340     8.9290     7.8930    23.3670     2.4090   -16.2800 
  225.0000    69.7890     9.5330     8.9130     7.3420    23.4880     2.4280   -16.2850 
  225.1250    72.1950     9.6880     9.0010     7.5230    23.3890     2.4540   -16.3860 
  225.2500    74.5270     9.8520     9.1260     7.8300    23.2340     2.4760   -16.3610 
  225.3750    75.5570     9.9870     9.2530     8.1130    23.2150     2.4810   -16.4150 
  225.5000    75.0470    10.0480     9.3400     8.4140    23.4000     2.4670   -16.5050 
  225.6250    73.4760     9.9900     9.3320     8.7730    23.5050     2.4390   -16.5020 
  225.7500    71.2780     9.8530     9.2340     8.9800    23.5510     2.4070   -16.5530 
  225.8750    70.7850     9.6930     9.0700     8.8480    23.5750     2.3790   -16.5690 
  226.0000    72.4300     9.5690     8.8830     8.5180    23.6270     2.3590   -16.5290 
  226.1250    72.8950     9.5270     8.7180     8.2960    23.7390     2.3480   -16.4510 
  226.2500    71.5960     9.5470     8.5950     8.4510    23.8460     2.3490   -16.3830 
  226.3750    70.3890     9.6000     8.5130     8.7080    23.8720     2.3600   -16.2960 
  226.5000    71.5070     9.6490     8.4600     8.6950    23.8240     2.3760   -16.1200 
  226.6250    73.6800     9.6710     8.4260     8.5740    23.7730     2.3910   -15.9660 
  226.7500    74.1990     9.6880     8.4070     8.4870    23.8090     2.3980   -15.7970 
  226.8750    73.0150     9.7450     8.4190     8.4320    23.8560     2.3970   -15.6360 
  227.0000    72.4050     9.8880     8.4860     8.4330    23.9000     2.3930   -15.4980 
  227.1250    73.0330    10.1470     8.6370     8.7220    23.9040     2.3930   -15.3480 
  227.2500    73.1680    10.4560     8.8490     9.1540    23.8570     2.4040   -15.2630 
  227.3750    71.0010    10.7340     9.0760     9.7930    23.7670     2.4290   -15.2090 
  227.5000    67.3320    10.8990     9.2580    10.4530    23.6950     2.4610   -15.1980 
  227.6250    65.7950    10.8930     9.3270    10.3380    23.7020     2.4940   -15.2270 
  227.7500    68.2410    10.7800     9.3020    10.1240    23.6910     2.5200   -15.2690 
  227.8750    72.9690    10.6490     9.2330     9.7100    23.6150     2.5270   -15.3370 
  228.0000    74.6080    10.5930     9.1890     9.2870    23.5270     2.5140   -15.3940 
  228.1250    73.3560    10.6890     9.2410     8.9750    23.4550     2.4810   -15.5340 
  228.2500    73.2140    10.8910     9.3760     8.7940    23.4080     2.4320   -15.5890 
  228.3750    73.4740    11.1160     9.5420     8.6210    23.3270     2.3790   -15.5620 
  228.5000    73.1720    11.2580     9.6540     8.4100    23.3770     2.3370   -15.6440 
  228.6250    71.4920    11.1960     9.6000     8.2380    23.5300     2.3160   -15.5880 
  228.7500    69.8760    10.9430     9.3720     8.0880    23.6290     2.3190   -15.4730 
  228.8750    70.0980    10.5530     9.0010     8.0980    23.6930     2.3420   -15.4410 
  229.0000    72.8330    10.1130     8.5650     8.1630    23.7190     2.3720   -15.3080 
  229.1250    75.9580     9.7350     8.1660     8.2810    23.7580     2.4020   -15.1440 
  229.2500    75.1490     9.4810     7.8710     8.4080    23.8160     2.4300   -15.0210 
  229.3750    71.5320     9.3750     7.7070     8.6340    23.8590     2.4560   -14.9090 
  229.5000    67.5810     9.4140     7.6770     8.9470    23.8300     2.4760   -14.7890 
  229.6250    66.9500     9.5760     7.7730     9.1640    23.6850     2.4860   -14.7100 
  229.7500    70.5470     9.7830     7.9300     8.9540    23.5390     2.4790   -14.6950 
  229.8750    75.4300     9.9820     8.0980     8.7220    23.3970     2.4560   -14.6060 
  230.0000    78.4760    10.1290     8.2280     8.3840    23.3220     2.4300   -14.5330 
  230.1250    77.0550    10.1930     8.2740     8.2130    23.4050     2.4120   -14.4950 
  230.2500    72.3360    10.1890     8.2450     8.1710    23.5980     2.4090   -14.4390 
  230.3750    68.5280    10.1380     8.1650     8.3620    23.7570     2.4220   -14.4050 
  230.5000    69.1310    10.0640     8.0740     8.7050    23.8110     2.4410   -14.3380 
  230.6250    72.3020     9.9990     8.0190     9.0310    23.8130     2.4590   -14.2570 
  230.7500    74.2690     9.9660     8.0200     9.2680    23.8150     2.4690   -14.2100 
  230.8750    75.7120     9.9760     8.0740     9.4450    23.8140     2.4690   -14.2260 
  231.0000    77.8420    10.0230     8.1610     9.6150    23.8100     2.4580   -14.2220 
  231.1250    77.4460    10.0890     8.2490     9.7030    23.7880     2.4410   -14.1970 
  231.2500    74.8900    10.1410     8.3150     9.8770    23.7110     2.4210   -14.2650 
  231.3750    71.2410    10.1620     8.3540    10.0610    23.5480     2.4030   -14.2720 
  231.5000    67.2580    10.1540     8.3740     9.9430    23.3360     2.3940   -14.2650 
  231.6250    65.7770    10.1270     8.3800     9.8570    23.2130     2.3950   -14.3240 
  231.7500    67.7960    10.1040     8.3800     9.8860    23.1640     2.4030   -14.2520 
  231.8750    70.0430    10.0990     8.3790    10.1600    23.1610     2.4140   -14.1940 
  232.0000    70.2300    10.1250     8.3870    10.5700    23.3270     2.4220   -14.1790 
  232.1250    69.3290    10.2020     8.4270    10.5350    23.6260     2.4260   -14.0420 
  232.2500    69.3280    10.3300     8.5100     9.8790    23.8420     2.4300   -13.9230 
  232.3750    69.1500    10.5050     8.6420     9.5790    23.9110     2.4380   -13.8080 
  232.5000    67.0380    10.7070     8.8120     9.7120    23.9280     2.4470   -13.6600 
  232.6250    65.9420    10.8930     8.9870     9.7180    23.9940     2.4510   -13.5630 
  232.7500    67.1780    11.0160     9.1200     9.3510    24.0910     2.4460   -13.4500 
  232.8750    68.7130    11.0460     9.1790     8.7400    24.1510     2.4350   -13.3050 
  233.0000    68.6280    10.9800     9.1510     7.9000    24.1680     2.4270   -13.2210 
  233.1250    67.8630    10.8440     9.0500     7.6030    24.1680     2.4290   -13.1600 
  233.2500    67.4010    10.7110     8.9380     7.4660    24.1680     2.4380   -13.0680 
  233.3750    65.2520    10.6280     8.8590     7.4610    24.1680     2.4460   -12.9860 
  233.5000    62.8800    10.6220     8.8440     7.5600    24.1670     2.4450   -12.9160 
  233.6250    65.2730    10.7060     8.9200     7.7440    24.1630     2.4380   -12.8420 
  233.7500    69.0170    10.8470     9.0680     7.9350    24.1610     2.4320   -12.7880 
  233.8750    69.1220    11.0270     9.2700     8.0240    24.1770     2.4380   -12.7420 
  234.0000    67.1980    11.2240     9.5060     7.9750    24.2180     2.4540   -12.6900 
  234.1250    68.6470    11.4180     9.7490     7.9120    24.2650     2.4740   -12.6140 
  234.2500    71.8270    11.5880     9.9720     7.9710    24.2820     2.4860   -12.5310 
  234.3750    72.7070    11.7240    10.1570     8.1200    24.2650     2.4840   -12.5500 
  234.5000    71.1280    11.8300    10.2970     8.1910    24.2230     2.4730   -12.5370 
  234.6250    69.8460    11.9270    10.3970     8.0800    24.1610     2.4620   -12.4120 
  234.7500    70.0950    12.0450    10.4900     8.2290    24.0970     2.4590   -12.4030 
  234.8750    70.9550    12.1910    10.5940     8.9640    24.0540     2.4630   -12.3660 
