~V
VERS. 2.00: Ver 2.00
~W
STRT.M 59.0000:
STOP.M 281.0000:
STEP.M 0.1250:
NULL. -999.2500:
UWI. DF3005:
~C
DEPT.M :
DEN.GM/CC :
SP.MV :
AC.US/MT :
GR.API :
CALI.CM :
RXO.OHMM :
RI. :
RML.OHMM :
~A
# ...
   99.0000     2.3290   -15.0690   419.8150    81.5890    26.5560     7.4760     5.5700     7.0370 
   99.1250     2.3060   -15.5170   431.5480    83.2000    26.5560     7.0220     5.4440     6.9630 
   99.2500     2.2920   -15.9700   431.0030    82.2460    26.5550     7.0300     5.3060     6.9150 
   99.3750     2.2860   -16.4430   429.7830    81.2380    26.5620     6.7400     5.1750     6.8670 
   99.5000     2.2890   -16.9500   432.2440    83.0100    26.5840     6.2080     5.0460     6.7700 
   99.6250     2.3010   -17.4680   437.1600    88.3500    26.6110     6.1340     4.8900     6.5620 
   99.7500     2.3160   -17.9820   441.7000    93.8470    26.6280     6.0490     4.6830     6.2450 
   99.8750     2.3280   -18.4900   442.4640    95.8190    26.6300     5.4840     4.4430     5.8850 
  100.0000     2.3400   -19.0140   439.5980    92.1960    26.6030     5.3450     4.2470     5.6440 
  100.1250     2.3660   -19.5950   432.4580    87.1750    26.5270     5.5940     4.2740     5.8580 
  100.2500     2.4150   -20.2390   411.8870    85.3910    26.4380     6.2300     4.6760     6.7520 
  100.3750     2.4850   -20.9580   366.7780    84.7480    26.3580     7.7460     5.6450     8.5680 
  100.5000     2.5560   -21.7350   299.4430    81.3650    26.2680    18.5510     7.3780    11.4940 
  100.6250     2.5820   -22.5580   245.8750    74.4730    26.1610    36.4820     9.9730    15.4510 
  100.7500     2.5410   -23.4220   240.9290    69.1810    26.0800    46.4390    12.5730    18.8700 
  100.8750     2.4500   -24.3180   287.3580    67.0420    26.0540    38.9980    13.9870    19.7520 
  101.0000     2.3460   -25.2520   356.8180    66.8310    26.0800    25.4720    13.6260    17.7070 
  101.1250     2.2710   -26.2050   406.4730    67.8260    26.1630    16.6440    12.0860    14.6470 
  101.2500     2.2250   -27.1120   427.5170    70.4370    26.2830    15.1920    10.5780    12.3630 
  101.3750     2.2000   -27.9040   431.7200    72.8670    26.4200    14.9650     9.5030    11.0970 
  101.5000     2.1850   -28.5020   432.7700    71.7000    26.5590    14.7740     8.8820    10.6370 
  101.6250     2.1810   -28.8120   435.1310    67.4460    26.6890    14.3670     8.6100    10.7200 
  101.7500     2.1870   -28.8740   435.6770    64.3360    26.7960    13.6930     8.4760    10.9790 
  101.8750     2.1970   -28.7080   433.8360    64.7710    26.8640    12.9540     8.3970    11.2220 
  102.0000     2.2010   -28.3740   431.5110    66.3990    26.8970    12.9800     8.3370    11.3280 
  102.1250     2.1960   -27.9230   431.5410    65.4170    26.9020    12.9500     8.2750    11.2060 
  102.2500     2.1890   -27.4370   433.8800    63.6390    26.8910    13.0400     8.1900    10.9060 
  102.3750     2.1870   -26.9490   436.4270    63.7790    26.8630    12.9400     8.0700    10.5050 
  102.5000     2.1890   -26.4410   436.9860    65.9550    26.8040    12.8470     7.9370    10.1130 
  102.6250     2.1920   -25.8950   435.7120    68.2170    26.7200    12.7550     7.8640     9.8830 
  102.7500     2.1930   -25.3200   434.5660    69.1440    26.6510    12.9780     7.9010     9.8740 
  102.8750     2.1910   -24.7250   434.5650    68.3760    26.6200    14.2580     8.0720    10.1030 
  103.0000     2.1850   -24.1310   435.7060    65.7610    26.6180    15.8990     8.3580    10.5180 
  103.1250     2.1740   -23.5350   437.4400    64.3030    26.6210    16.2060     8.6470    10.9100 
  103.2500     2.1640   -22.9320   438.7790    64.3460    26.6230    14.8850     8.7240    10.9320 
  103.3750     2.1650   -22.3280   438.8490    64.5050    26.6200    13.5800     8.4060    10.3180 
  103.5000     2.1820   -21.7010   438.3860    66.0710    26.5940    13.3080     7.6610     9.0810 
  103.6250     2.2220   -21.0120   440.8370    70.8690    26.5470    12.1620     6.6650     7.5860 
  103.7500     2.2630   -20.2400   446.7180    78.6920    26.5210     9.1710     5.7350     6.3230 
  103.8750     2.2850   -19.4120   451.6550    87.1210    26.5280     6.5490     5.0190     5.4850 
  104.0000     2.2780   -18.6000   450.4630    93.0160    26.5470     7.2090     4.5460     5.0690 
  104.1250     2.2560   -17.9240   443.5660    93.6540    26.5530     8.2680     4.3010     4.9710 
  104.2500     2.2490   -17.4640   439.6800    91.5850    26.5580     7.7530     4.1850     4.9800 
  104.3750     2.2660   -17.2490   442.6290    89.6640    26.6080     5.9710     4.1450     4.9950 
  104.5000     2.2940   -17.2710   448.0490    88.2380    26.7380     4.5780     4.1370     4.9840 
  104.6250     2.3060   -17.5340   447.2720    88.6320    26.8820     3.8440     4.1280     4.9560 
  104.7500     2.2940   -17.9410   439.5160    88.4400    26.9200     4.4040     4.1090     4.9340 
  104.8750     2.2720   -18.4460   430.6710    85.0280    26.8510     5.5130     4.1100     4.9390 
  105.0000     2.2600   -19.0200   426.7100    79.6160    26.7710     6.5510     4.1830     5.0160 
  105.1250     2.2600   -19.6610   428.2750    77.3910    26.7650     6.6210     4.4120     5.2670 
  105.2500     2.2500   -20.3570   428.6110    77.0640    26.8050     6.7910     4.8110     5.7540 
  105.3750     2.2250   -21.0990   423.8220    75.4170    26.8570     8.1470     5.3850     6.5080 
  105.5000     2.1990   -21.9080   416.5630    73.7190    26.8930    10.5120     6.1020     7.4800 
  105.6250     2.1930   -22.7800   412.8900    72.9550    26.9010    11.6210     6.8590     8.4730 
  105.7500     2.2010   -23.6460   412.6940    72.4970    26.9000    11.4140     7.4520     9.1650 
  105.8750     2.2100   -24.4410   412.7600    72.6170    26.8980    10.5750     7.6970     9.3120 
  106.0000     2.2150   -25.1130   411.6060    74.4600    26.9050     9.4060     7.5310     8.9190 
  106.1250     2.2240   -25.6500   412.5070    75.0660    26.9340     8.9570     7.1050     8.3460 
  106.2500     2.2500   -26.0980   411.8740    73.7610    26.9800     8.9360     6.7800     8.0890 
  106.3750     2.3030   -26.4960   397.0130    73.3170    27.0240     8.6480     6.7800     8.3800 
  106.5000     2.3790   -26.8990   358.3680    74.3270    27.0480     8.6340     7.2240     9.2640 
  106.6250     2.4510   -27.3680   313.5960    73.6570    27.0420    13.5730     8.1690    10.6590 
  106.7500     2.4830   -27.9530   301.3560    71.3710    27.0140    20.7300     9.3120    12.0850 
  106.8750     2.4570   -28.6840   333.5320    70.7740    26.9600    22.6500    10.2500    12.9990 
  107.0000     2.3880   -29.5550   385.3980    71.9390    26.8780    17.6730    10.6200    13.0260 
  107.1250     2.3100   -30.5610   416.8190    73.3590    26.8040    13.8390    10.3270    12.2330 
  107.2500     2.2490   -31.6330   424.7880    73.0050    26.7660    13.2830     9.8010    11.2850 
  107.3750     2.2080   -32.7090   424.6990    69.7070    26.7340    13.5310     9.3190    10.5450 
  107.5000     2.1840   -33.7060   426.5860    63.7760    26.6630    13.5450     8.9980    10.1300 
  107.6250     2.1760   -34.5020   428.8540    59.9470    26.5630    13.6890     8.8110     9.9700 
  107.7500     2.1760   -35.0790   428.8990    58.9140    26.5040    13.8070     8.6190     9.8270 
  107.8750     2.1810   -35.4430   427.5830    58.8990    26.5180    13.6250     8.3630     9.5840 
  108.0000     2.1850   -35.6200   425.4870    60.7240    26.5910    13.3180     8.0640     9.2360 
  108.1250     2.1800   -35.6480   422.7930    65.1440    26.6930    13.7060     7.7940     8.8730 
  108.2500     2.1720   -35.5910   419.6560    68.9920    26.7790    14.6570     7.6090     8.6090 
  108.3750     2.1720   -35.4970   416.7820    70.0110    26.8290    14.0450     7.5420     8.5220 
  108.5000     2.1830   -35.4190   415.7140    69.5530    26.8390    12.1680     7.6050     8.6410 
  108.6250     2.1950   -35.4180   417.5810    70.1420    26.7590    12.3470     7.8120     8.9620 
  108.7500     2.2000   -35.5210   420.6090    71.6920    26.5460    12.8300     8.1020     9.3570 
  108.8750     2.1970   -35.7110   424.0560    72.6130    26.2580    13.2710     8.4100     9.7070 
