~V
VERS. 2.00: Ver 2.00
~W
STRT.M 60.0000:
STOP.M 254.0000:
STEP.M 0.1250:
NULL. -999.2500:
UWI. DF3029:
~C
DEPT.M :
SP.MV :
GR.API :
RML.OHMM :
RI. :
RXO.OHMM :
CALI.CM :
DEN.GM/CC :
~A
# ...
  206.2500   -19.4430    67.1880    92.0970    82.3840    91.6300    24.9720     2.3110 
  206.3750   -19.7620    70.7750    96.4290    86.4890    96.8340    25.0670     2.2690 
  206.5000   -20.0440    71.4160    99.7070    89.7940   103.9630    25.1050     2.2340 
  206.6250   -20.2830    70.0910   101.5110    91.9860   115.0640    25.1060     2.2160 
  206.7500   -20.5320    70.7000   101.9180    93.0820   118.4790    25.0850     2.2110 
  206.8750   -20.7720    73.1030   101.1980    93.2210   116.0630    25.0990     2.2140 
  207.0000   -21.0020    72.8410   100.0750    92.9200   109.6970    25.0980     2.2180 
  207.1250   -21.1790    67.8690    99.8080    93.1920   102.2850    25.0870     2.2200 
  207.2500   -21.3160    64.0140   101.1840    94.8090    99.4270    25.0170     2.2180 
  207.3750   -21.4260    65.9490   104.3750    98.0430   101.8850    24.8340     2.2140 
  207.5000   -21.5150    72.9000   108.8370   102.5400   105.6680    24.5420     2.2090 
  207.6250   -21.5550    77.0420   113.2770   107.2670   111.9140    24.3550     2.2070 
  207.7500   -21.5610    74.9720   116.3890   111.0080   119.9600    24.4800     2.2070 
  207.8750   -21.5070    69.0770   117.7310   113.2510   127.3350    24.7250     2.2080 
  208.0000   -21.3740    64.4930   117.8560   114.3140   128.7680    24.8160     2.2100 
  208.1250   -21.2830    64.5780   118.3620   115.3860   124.6650    24.7600     2.2090 
  208.2500   -21.1490    66.7740   120.2530   117.6720   115.9670    24.7410     2.2040 
  208.3750   -21.0740    68.9780   123.5810   121.4840   109.6710    24.7700     2.1960 
  208.5000   -20.9410    70.0720   127.7640   126.1620   112.1320    24.8580     2.1880 
  208.6250   -20.9470    68.6630   130.8850   129.8720   123.9120    24.9330     2.1830 
  208.7500   -20.9500    65.5200   132.6420   131.0170   134.5530    24.9290     2.1840 
  208.8750   -21.0680    62.6980   132.6430   128.9170   137.3290    24.8570     2.1900 
  209.0000   -21.1970    62.7540   131.0830   124.0430   131.9730    24.7650     2.1990 
  209.1250   -21.3380    64.2380   128.8080   117.8660   122.0000    24.7490     2.2090 
  209.2500   -21.4870    64.5330   122.6030   112.4540   111.5360    24.7530     2.2170 
  209.3750   -21.6000    62.8110   119.0760   108.9940   101.9540    24.6910     2.2210 
  209.5000   -21.7160    59.6440   118.6600   108.1340    94.2400    24.5480     2.2220 
  209.6250   -21.8090    58.7500   122.0460   110.7070    86.8470    24.3430     2.2190 
  209.7500   -21.8960    61.2870   128.8920   116.4820    83.1780    24.2060     2.2140 
  209.8750   -21.9600    64.3200   139.4600   125.6780    85.2620    24.1750     2.2100 
  210.0000   -21.9910    64.9840   153.9490   138.4040    91.1210    24.2000     2.2080 
  210.1250   -22.0030    64.1780   172.7580   154.8960   105.2860    24.1720     2.2070 
  210.2500   -22.0340    64.1400   194.1030   173.5310   125.0980    24.0530     2.2070 
  210.3750   -22.0730    63.1480   215.8640   192.4870   141.8780    23.8770     2.2080 
  210.5000   -22.1190    60.2950   234.9220   209.2700   149.3740    23.8150     2.2080 
  210.6250   -22.1420    57.6570   245.8710   219.9420   153.8080    24.1070     2.2090 
  210.7500   -22.1500    57.2740   247.5250   223.0480   163.2610    24.5590     2.2090 
  210.8750   -22.1480    59.4370   239.2970   217.9240   176.9160    24.8060     2.2050 
  211.0000   -22.1800    61.4570   224.1070   205.2960   179.5340    24.8450     2.1980 
  211.1250   -22.1360    60.5890   202.8530   186.3440   161.6890    24.7950     2.1910 
  211.2500   -22.1470    60.0900   181.4750   164.6880   143.6990    24.7300     2.1870 
  211.3750   -22.0790    62.0550   161.4190   142.9350   130.8240    24.5400     2.1900 
  211.5000   -22.0890    65.1040   139.6240   123.5490   117.8620    24.1360     2.1990 
  211.6250   -21.9910    67.6550   123.3540   109.2920   105.6350    23.7710     2.2110 
  211.7500   -21.9210    69.6530   113.4550   100.2570    90.8250    23.6120     2.2200 
  211.8750   -21.8410    69.7130   109.0460    96.0730    76.8310    23.6270     2.2250 
  212.0000   -21.7710    66.8800   108.5950    95.5920    71.0720    23.6280     2.2250 
  212.1250   -21.7830    63.3970   110.3000    97.2930    67.6700    23.4970     2.2220 
  212.2500   -21.6920    60.7740   111.9950    99.1370    64.9570    23.3260     2.2160 
  212.3750   -21.6510    58.4080   112.8370   100.2500    65.2720    23.3050     2.2060 
  212.5000   -21.5510    58.4230   112.9470   100.5960    71.1410    23.4280     2.1950 
  212.6250   -21.5640    60.8900   113.3970   100.9810    74.9200    23.5650     2.1900 
  212.7500   -21.5610    62.2280   115.0940   102.2730    74.8570    23.6210     2.1940 
  212.8750   -21.5800    61.9510   117.9930   104.5620    76.0430    23.6080     2.2070 
  213.0000   -21.5700    61.9180   121.0880   107.1030    80.8070    23.5570     2.2220 
  213.1250   -21.5910    62.1180   122.4730   108.3220    73.8360    23.4780     2.2300 
  213.2500   -21.6370    62.0240   121.2950   107.3960    56.6610    23.3170     2.2270 
  213.3750   -21.7100    62.0720   117.7350   104.3490    41.4890    23.1050     2.2170 
  213.5000   -21.7960    61.7670   112.9200   100.0170    38.4870    23.0010     2.2060 
  213.6250   -21.9150    61.6600   108.4440    95.6860    47.1950    23.4200     2.1950 
  213.7500   -22.0060    63.3870   105.0360    92.1370    63.5860    24.1410     2.1850 
  213.8750   -22.0930    66.1930   102.4260    89.2940    80.9690    24.8200     2.1750 
  214.0000   -22.1560    67.7410    99.8480    86.6370    92.2210    25.1560     2.1690 
  214.1250   -22.1970    68.6200    96.3590    83.4750    93.6550    25.1680     2.1720 
  214.2500   -22.2200    70.4910    91.8200    79.6380    87.9210    25.0710     2.1840 
  214.3750   -22.2200    70.8660    86.5870    75.3630    77.0680    24.9250     2.2020 
  214.5000   -22.1740    67.6900    81.3490    71.1730    66.6690    24.7780     2.2190 
  214.6250   -22.0090    64.4000    77.0090    67.8160    63.6950    24.6540     2.2270 
  214.7500   -21.9050    66.2350    73.9120    65.5800    65.0280    24.5630     2.2270 
  214.8750   -21.7060    72.2490    72.1590    64.5560    65.5160    24.5270     2.2240 
  215.0000   -21.6000    76.1950    71.5970    64.5970    64.6870    24.5580     2.2220 
  215.1250   -21.3560    74.1110    71.8830    65.3750    62.1020    24.6790     2.2250 
  215.2500   -21.1180    71.0490    72.2200    66.1560    61.2270    24.8730     2.2290 
  215.3750   -20.8110    70.1580    71.9710    66.3560    61.6690    25.0200     2.2330 
  215.5000   -20.5440    71.9540    70.6280    65.4970    62.9240    25.0760     2.2380 
  215.6250   -20.2620    73.4850    67.7920    63.1420    61.8910    25.0060     2.2430 
  215.7500   -19.9950    73.2680    63.9650    59.7020    57.8180    24.8810     2.2480 
  215.8750   -19.8150    71.4140    59.7040    55.6460    52.5970    24.7670     2.2520 
  216.0000   -19.6960    69.8940    55.6020    51.5240    47.5510    24.7120     2.2550 
  216.1250   -19.7070    71.1560    52.2520    47.9500    42.4920    24.6770     2.2670 
  216.2500   -19.8270    72.0460    50.0340    45.2580    38.5320    24.5670     2.2960 
  216.3750   -20.0710    69.5740    49.4210    43.8410    37.2310    24.4030     2.3390 
  216.5000   -20.4410    64.1870    50.9040    44.2950    38.0610    24.2090     2.3820 
  216.6250   -20.8970    61.3160    55.9790    48.0290    44.0870    24.0220     2.3950 
  216.7500   -21.3710    63.4530    64.4210    55.4280    55.4020    24.0520     2.3730 
  216.8750   -21.8090    67.7250    76.3790    66.6690    77.3410    24.3870     2.3270 
  217.0000   -22.1800    69.1210    91.3680    81.0840   109.4440    24.8080     2.2780 
  217.1250   -22.4610    65.5210   108.1870    97.1130   133.8620    25.0010     2.2440 
  217.2500   -22.6650    61.8810   127.0990   112.4010   140.3010    25.0320     2.2250 
  217.3750   -22.7690    60.8320   144.2000   125.7120   137.1310    25.0090     2.2150 
