~V
VERS. 2.00: Ver 2.00
~W
STRT.M 56.0000:
STOP.M 260.0000:
STEP.M 0.1250:
NULL. -999.2500:
UWI. DF3033:
~C
DEPT.M :
GR.API :
RML.OHMM :
RI. :
RXO.OHMM :
CALI.CM :
DEN.GM/CC :
SP.MV :
~A
# ...
  213.5000    71.3610   101.0110    90.2140    95.6040    24.2300     2.2350   -27.7470 
  213.6250    71.3190   113.6230   102.0970    84.6260    24.1940     2.2390   -28.2130 
  213.7500    70.1730   122.3300   110.4460    88.3310    24.5870     2.2450   -28.6220 
  213.8750    66.6560   129.0050   116.7490   102.5690    25.1050     2.2510   -28.9630 
  214.0000    63.3420   135.8350   122.8370   116.2150    25.2910     2.2540   -29.2420 
  214.1250    61.4820   144.1790   129.9970   123.1150    25.1930     2.2500   -29.3910 
  214.2500    60.2770   153.6590   138.1280   130.6230    25.1200     2.2380   -29.5780 
  214.3750    61.2540   163.5210   146.6970   137.2530    25.1230     2.2260   -29.6580 
  214.5000    64.7150   172.7610   154.9340   142.7140    25.1440     2.2160   -29.7970 
  214.6250    67.9730   179.8800   161.7120   142.9680    25.1520     2.2120   -29.8320 
  214.7500    69.6370   184.2740   166.5370   138.8490    25.1660     2.2080   -29.8460 
  214.8750    68.7500   185.6350   169.1290   135.9890    25.1780     2.2000   -29.8370 
  215.0000    65.6410   184.1350   169.5310   143.1170    25.1530     2.1860   -29.8280 
  215.1250    61.4540   180.0790   167.8160   146.7490    25.1410     2.1700   -29.8280 
  215.2500    59.4430   174.7330   164.8600   149.1480    25.1760     2.1590   -29.8190 
  215.3750    61.3010   168.8890   161.2240   146.9480    25.1930     2.1550   -29.7820 
  215.5000    66.3870   163.1750   157.4080   145.9720    25.1370     2.1590   -29.7300 
  215.6250    70.1420   158.0780   153.8490   143.9460    25.0380     2.1690   -29.7820 
  215.7500    69.4790   153.7190   150.7490   142.3980    24.9550     2.1800   -29.8670 
  215.8750    67.2710   150.2350   148.2610   140.0380    24.9300     2.1910   -30.0080 
  216.0000    66.6100   147.2640   146.6230   136.4330    24.9360     2.1990   -30.1450 
  216.1250    66.2470   146.0730   146.5580   131.0380    24.9510     2.2060   -30.3800 
  216.2500    65.1340   147.4550   148.5160   127.2370    24.9680     2.2120   -30.5210 
  216.3750    64.7100   153.9320   153.0810   127.6020    24.9840     2.2150   -30.7850 
  216.5000    65.0370   165.3580   160.6710   131.7660    24.9930     2.2150   -31.0120 
  216.6250    64.9470   186.1860   171.8960   134.2230    24.9990     2.2090   -31.1980 
  216.7500    65.2780   211.5990   185.7750   141.5130    25.0010     2.2010   -31.3990 
  216.8750    66.4450   234.5120   201.3370   153.1470    25.0010     2.1950   -31.5730 
  217.0000    65.6590   253.3520   217.1330   163.1220    25.0010     2.1930   -31.7570 
  217.1250    63.1800   269.1990   230.8530   174.7520    25.0030     2.1950   -31.7930 
  217.2500    61.1190   280.0620   240.8560   186.3400    25.0170     2.1990   -31.9520 
  217.3750    60.6040   284.6540   246.0070   197.9650    25.0480     2.2020   -31.9910 
  217.5000    60.5450   282.8660   246.0470   204.1060    25.0710     2.2030   -32.0740 
  217.6250    61.6840   275.1700   241.1470   203.5850    25.0790     2.2020   -32.0890 
  217.7500    63.7890   264.4530   233.5850   199.5730    25.0750     2.2000   -32.0530 
  217.8750    64.2250   252.3980   224.7570   190.1050    25.0590     2.1980   -31.9660 
  218.0000    62.5770   240.2030   215.6860   179.6600    25.0140     2.1970   -31.8660 
  218.1250    61.8840   228.5530   206.9270   173.0610    24.9540     2.1980   -31.8190 
  218.2500    63.5610   217.2860   198.3450   174.6760    24.8690     2.2010   -31.7380 
  218.3750    65.2740   205.9730   189.5480   168.3490    24.7840     2.2050   -31.6020 
  218.5000    65.0070   194.1870   180.1410   157.3290    24.7380     2.2090   -31.4450 
  218.6250    64.8080   181.7150   169.8790   149.5350    24.7280     2.2110   -31.3400 
  218.7500    65.2620   169.1080   159.2770   147.3120    24.7280     2.2120   -31.2070 
  218.8750    65.9290   157.2200   149.1010   143.1560    24.7280     2.2150   -31.1060 
  219.0000    66.5800   147.0810   140.2830   131.7690    24.7280     2.2200   -30.9940 
  219.1250    67.1090   140.0990   134.1000   121.7360    24.7280     2.2280   -30.9040 
  219.2500    66.7970   136.1880   130.5940   115.5850    24.7280     2.2340   -30.7770 
  219.3750    67.0200   135.0170   129.5660   112.2220    24.7280     2.2360   -30.7880 
  219.5000    67.4350   135.7120   130.3160   112.2100    24.7280     2.2300   -30.6950 
  219.6250    65.3330   136.8960   131.6540   115.9720    24.7280     2.2170   -30.6980 
  219.7500    61.8360   137.0310   132.1190   123.5500    24.7280     2.2040   -30.7280 
  219.8750    60.9360   135.2420   130.8180   124.3210    24.7210     2.1960   -30.7590 
  220.0000    63.2860   131.2960   127.4360   118.2080    24.7040     2.1930   -30.7860 
  220.1250    65.2100   125.5360   122.1870   115.0510    24.6760     2.1960   -30.7830 
  220.2500    65.9710   119.3900   116.4060   112.7340    24.6790     2.1990   -30.8780 
  220.3750    67.1110   113.8650   111.0710   107.9600    24.6950     2.2010   -30.8810 
  220.5000    69.3280   109.5100   106.7640   100.6010    24.7160     2.2020   -31.0060 
  220.6250    72.4240   106.4220   103.6500    96.0970    24.7250     2.2040   -31.0320 
  220.7500    73.9610   103.8870   101.1060    96.2890    24.7280     2.2070   -31.0550 
  220.8750    72.9430   101.3840    98.6700    97.5010    24.7280     2.2110   -31.1100 
  221.0000    70.3730    98.5980    96.0470    96.9800    24.7280     2.2160   -31.2010 
  221.1250    68.7780    95.5440    93.2190    92.7520    24.7280     2.2180   -31.3080 
  221.2500    69.2310    92.7190    90.5900    85.8810    24.7280     2.2170   -31.3410 
  221.3750    71.7940    90.7520    88.7130    82.6190    24.7280     2.2130   -31.3800 
  221.5000    74.4110    90.3120    88.1930    83.1010    24.7280     2.2060   -31.3840 
  221.6250    72.7520    92.2980    89.8600    82.9300    24.7260     2.2020   -31.4830 
  221.7500    69.0580    96.3400    93.4300    83.1080    24.7250     2.1990   -31.5550 
  221.8750    67.6340   101.5940    98.2120    87.1490    24.7250     2.1980   -31.6220 
  222.0000    69.4180   106.4170   102.7900    95.6020    24.7270     2.1970   -31.6340 
  222.1250    71.9530   107.9900   104.6570   103.5130    24.7280     2.1960   -31.7260 
  222.2500    73.2430   105.1530   102.6230   108.7290    24.7260     2.1950   -31.7470 
  222.3750    73.1820    98.2100    96.7610   112.2670    24.7080     2.1960   -31.8370 
  222.5000    70.6920    89.1510    88.6630   109.3290    24.6660     2.2000   -31.8790 
  222.6250    68.2040    81.0830    81.0280    92.3460    24.6100     2.2020   -31.8860 
  222.7500    69.0410    75.8060    75.7250    75.2050    24.6060     2.2020   -31.9370 
  222.8750    70.0470    73.5810    73.2150    69.2890    24.6040     2.1980   -31.9550 
  223.0000    68.2070    73.7140    73.0210    75.0560    24.5880     2.1940   -32.0430 
  223.1250    66.0910    75.0690    74.1860    79.5550    24.5840     2.1920   -32.0240 
  223.2500    67.2310    76.2250    75.3250    77.8030    24.6730     2.1930   -32.1110 
  223.3750    69.8880    76.5170    75.7150    73.9070    24.8490     2.2010   -32.1430 
  223.5000    70.7640    75.7980    75.1100    71.6310    24.9910     2.2130   -32.2810 
  223.6250    71.2060    74.3670    73.6800    69.2370    24.9920     2.2290   -32.4160 
  223.7500    72.1340    73.0430    72.1880    67.3360    24.9270     2.2430   -32.5440 
  223.8750    71.3620    72.5740    71.3460    66.5800    24.8920     2.2520   -32.7590 
  224.0000    69.0360    73.8070    71.9680    66.5940    24.8920     2.2530   -32.9770 
  224.1250    67.9250    78.2900    75.4960    67.5520    24.9220     2.2440   -33.2900 
  224.2500    68.3700    86.4720    82.3620    67.3540    24.9330     2.2310   -33.5810 
  224.3750    68.3100    98.4830    92.6660    71.2330    24.8820     2.2190   -33.9740 
  224.5000    66.6030   113.3480   105.4830    83.8960    24.8660     2.2100   -34.3020 
  224.6250    64.4810   128.3870   118.3380   113.4590    24.9630     2.2070   -34.7330 
