~V
VERS. 2.00: Ver 2.00
~W
STRT.M 130.0000:
STOP.M 280.0000:
STEP.M 0.1250:
NULL. -999.2500:
UWI. DF3042:
~C
DEPT.M :
DEN.GM/CC :
GR.API :
RML.OHMM :
RI. :
RXO.OHMM :
CALI.CM :
SP.MV :
~A
# ...
  175.0000     2.2380    64.1660   297.6620   260.4540   171.2310    23.7730   -30.9630 
  175.1250     2.2190    67.7200   331.6800   290.0050   175.8950    23.8370   -30.7330 
  175.2500     2.2000    68.4520   357.7500   313.1590   179.4430    23.9180   -30.5690 
  175.3750     2.1860    65.7050   367.4110   323.1130   183.7960    23.9900   -30.3150 
  175.5000     2.1800    62.3060   353.7730   314.1260   184.7550    24.0020   -30.1570 
  175.6250     2.1820    62.6180   312.5930   281.7610   178.2240    23.9400   -29.8980 
  175.7500     2.1900    65.5900   258.6710   236.7460   168.1220    23.8420   -29.6630 
  175.8750     2.2000    68.2730   207.0980   190.8550   149.5200    23.7840   -29.4600 
  176.0000     2.2100    67.6900   169.2070   154.5710   121.2270    23.7960   -29.2600 
  176.1250     2.2150    66.5680   151.5380   135.6050    89.8740    23.8350   -29.1010 
  176.2500     2.2140    67.9410   148.7860   130.7570    75.6050    23.9620   -28.9060 
  176.3750     2.2070    69.6790   156.4170   136.3330    86.2750    24.2770   -28.7290 
  176.5000     2.1970    69.2010   168.7130   147.1440   116.5960    24.7580   -28.5580 
  176.6250     2.1900    66.9950   178.3650   156.5200   160.4350    24.9150   -28.4550 
  176.7500     2.1910    66.3630   180.6280   159.7250   177.8660    24.8570   -28.3630 
  176.8750     2.2000    66.6470   174.8180   155.7010   169.2060    24.7720   -28.2810 
  177.0000     2.2140    66.4020   164.0230   146.7430   155.1760    24.7350   -28.2100 
  177.1250     2.2300    67.0110   153.2750   137.1250   146.9830    24.7040   -28.1310 
  177.2500     2.2440    69.2440   145.3690   129.7800   140.4450    24.6840   -28.0700 
  177.3750     2.2530    71.5800   140.3370   125.0280   147.2550    24.6690   -28.0500 
  177.5000     2.2580    71.2680   137.5730   122.3680   163.8890    24.7270   -27.9780 
  177.6250     2.2560    67.9650   137.4630   121.9950   171.4740    24.8680   -28.0100 
  177.7500     2.2480    65.3770   140.1860   124.0130   169.9650    25.0910   -27.9510 
  177.8750     2.2370    63.8680   145.6250   128.4240   161.8020    25.3650   -27.9650 
  178.0000     2.2240    60.8800   152.3570   134.0340   157.5560    25.7710   -27.8990 
  178.1250     2.2140    56.0930   155.8110   137.4000   189.8280    25.8160   -27.8560 
  178.2500     2.2110    53.4080   152.1800   135.2250   232.5050    25.8080   -27.7950 
  178.3750     2.2130    55.6050   139.3400   125.9250   257.8490    25.7770   -27.7070 
  178.5000     2.2190    61.0100   119.7380   110.6710   232.8360    25.6940   -27.6430 
  178.6250     2.2260    65.8310    97.2890    93.3120   165.5630    25.4650   -27.5310 
  178.7500     2.2350    68.6100    78.6580    78.5110    93.0760    24.9700   -27.4810 
  178.8750     2.2460    67.7830    67.9600    68.4080    56.4890    24.5350   -27.4080 
  179.0000     2.2570    65.3350    64.6330    63.5280    53.6260    24.5910   -27.3440 
  179.1250     2.2640    66.1400    67.0020    64.2230    55.9840    25.2040   -27.2860 
  179.2500     2.2650    69.0440    73.3730    68.8740    59.1310    25.5120   -27.2430 
  179.3750     2.2580    71.5330    82.5950    76.4150    70.0140    25.6450   -27.2050 
  179.5000     2.2460    73.0850    93.0660    85.3510    82.4460    25.7070   -27.1540 
  179.6250     2.2360    74.7440   102.4700    93.5760    86.7180    25.7690   -27.0430 
  179.7500     2.2310    76.0100   109.1170    99.4830    96.1800    25.8330   -26.9290 
  179.8750     2.2300    75.7010   112.3890   102.4390   108.7780    25.7520   -26.7820 
  180.0000     2.2340    74.8670   112.9220   102.8740   108.1940    25.5010   -26.6910 
  180.1250     2.2380    73.2680   112.2830   101.9810    94.9240    25.2030   -26.5520 
  180.2500     2.2410    70.9650   112.0170   101.1470    88.0850    25.0840   -26.4100 
  180.3750     2.2420    70.3840   112.1260   100.5090    83.8820    25.0330   -26.2450 
  180.5000     2.2440    70.7960   111.5790    99.3660    85.3990    25.0020   -26.0740 
  180.6250     2.2500    70.2370   108.5790    96.3300    88.3990    25.0730   -25.8710 
  180.7500     2.2590    69.5470   103.1630    91.3470    88.4440    25.1130   -25.7480 
  180.8750     2.2690    69.7970    96.6910    85.4030    84.8990    25.0100   -25.5970 
  181.0000     2.2750    71.5920    91.4360    80.2740    77.2010    25.1020   -25.4390 
  181.1250     2.2710    75.0440    90.1990    78.3230    63.7990    25.0270   -25.4200 
  181.2500     2.2590    78.9940    93.2740    80.0120    60.2710    24.9580   -25.3600 
  181.3750     2.2420    80.1960   100.0510    85.0070    72.2610    24.9080   -25.3920 
  181.5000     2.2260    77.5140   108.9350    92.0610    89.0310    24.9350   -25.4090 
  181.6250     2.2160    75.5640   117.3330    99.0650    98.9160    24.9600   -25.5230 
  181.7500     2.2130    75.6120   122.8470   103.9060    95.7920    24.9230   -25.5220 
  181.8750     2.2150    75.1610   124.1050   105.3460    92.7390    24.8590   -25.5520 
  182.0000     2.2190    73.4140   120.9620   103.1390    91.4450    24.8760   -25.5000 
  182.1250     2.2250    72.3050   114.2230    97.7800    88.9440    25.0120   -25.3480 
  182.2500     2.2300    72.9100   106.3690    91.2380    80.3450    25.0180   -25.2010 
  182.3750     2.2340    73.7010    98.9710    84.7750    67.4850    25.0880   -25.0090 
  182.5000     2.2380    73.5200    93.1640    79.3730    57.3040    25.2690   -24.8110 
  182.6250     2.2400    71.8740    89.8360    75.9310    65.0650    25.1560   -24.5960 
  182.7500     2.2400    70.1130    88.3750    74.2200    69.8320    25.0420   -24.3900 
  182.8750     2.2390    70.7070    88.1220    73.9170    69.4540    24.9250   -24.2110 
  183.0000     2.2370    74.2900    88.3850    74.5960    63.9580    24.8770   -24.0540 
  183.1250     2.2360    77.7440    88.6970    75.9650    63.4870    24.8740   -23.9410 
  183.2500     2.2370    76.9970    89.0420    77.7510    70.3980    24.8740   -23.8340 
  183.3750     2.2400    72.7270    89.7660    80.0150    73.5190    24.8740   -23.7370 
  183.5000     2.2440    69.0180    91.3560    82.9450    72.6000    24.8760   -23.6330 
  183.6250     2.2460    70.6550    94.3320    86.7870    74.5870    24.8830   -23.5120 
  183.7500     2.2460    73.5810    98.0860    90.9950    78.4960    24.8990   -23.3980 
  183.8750     2.2420    73.6660   101.2620    94.4020    80.9920    24.9290   -23.2420 
  184.0000     2.2340    71.9470   101.6370    95.1000    80.6530    24.9930   -23.1380 
  184.1250     2.2230    72.0020    95.5490    89.8430    78.4430    25.0330   -22.9230 
  184.2500     2.2150    73.3010    82.8160    78.4300    75.0330    25.0580   -22.7780 
  184.3750     2.2170    74.4100    65.3350    62.4410    68.5550    25.0670   -22.5970 
  184.5000     2.2340    76.2860    47.1410    45.5000    59.6920    25.0690   -22.4910 
  184.6250     2.2680    81.3410    33.1190    32.1910    45.2880    25.0540   -22.4060 
  184.7500     2.3050    87.4950    24.4200    23.6540    28.6280    25.0090   -22.4090 
  184.8750     2.3310    92.5450    20.7840    19.5600    17.4750    24.9470   -22.4940 
  185.0000     2.3370    95.6610    21.5550    19.3060    15.5720    24.9110   -22.6810 
  185.1250     2.3240    93.9410    26.7380    23.1760    20.3820    24.9020   -22.9900 
  185.2500     2.3030    87.1040    34.9790    30.3640    30.1380    24.9000   -23.2790 
  185.3750     2.2830    79.9650    45.1830    40.1630    44.0980    24.9010   -23.6130 
  185.5000     2.2670    77.5180    55.8060    51.1290    57.3920    24.9020   -23.9440 
  185.6250     2.2570    78.7100    64.8640    60.9870    66.1550    24.9100   -24.2970 
  185.7500     2.2510    76.3840    71.6850    68.4490    69.6460    24.9270   -24.6120 
  185.8750     2.2500    72.6240    76.5650    73.5020    71.5520    24.9490   -24.8730 
  186.0000     2.2530    71.8230    80.3060    76.8460    74.2780    24.9540   -25.0550 
  186.1250     2.2590    74.1260    83.4240    78.9360    77.2880    24.9550   -25.2030 
