~V
VERS. 2.00: Ver 2.00
~W
STRT.M 110.0000:
STOP.M 266.0000:
STEP.M 0.1250:
NULL. -999.2500:
UWI. DF309:
~C
DEPT.M :
DEN.GM/CC :
SP.MV :
AC.US/MT :
GR.API :
CALI.CM :
RXO.OHMM :
RI. :
RML.OHMM :
~A
# ...
  150.0000     2.2870   -19.7750   381.5630    91.8730    25.3490    23.2640    22.8600    25.1970 
  150.1250     2.2870   -19.6080   379.8250    90.0710    25.3710    22.2520    20.6190    22.7890 
  150.2500     2.2780   -19.4710   379.6240    83.6610    25.3780    21.9520    17.2380    18.8920 
  150.3750     2.2670   -19.3870   381.4460    81.3910    25.3780    19.9120    13.4980    14.4720 
  150.5000     2.2630   -19.3800   385.5200    84.3240    25.3780    14.8250    10.3580    10.8000 
  150.6250     2.2790   -19.4760   391.4960    85.2550    25.3780     9.6430     8.5680     8.8240 
  150.7500     2.3050   -19.6540   396.2080    82.2680    25.3780     7.7800     8.0660     8.4020 
  150.8750     2.3170   -19.9030   396.3610    77.1330    25.3780    10.9100     9.0090     9.6100 
  151.0000     2.3010   -20.1980   391.4120    72.2840    25.3780    20.0960    11.8850    12.8360 
  151.1250     2.2680   -20.5150   385.6670    68.8660    25.3780    33.5350    18.2910    19.7160 
  151.2500     2.2430   -20.8350   384.1280    66.8320    25.3780    45.0150    28.8190    31.2990 
  151.3750     2.2290   -21.1260   387.0430    66.2570    25.3780    51.6380    42.7350    47.4630 
  151.5000     2.2220   -21.3670   391.5140    68.9110    25.3680    56.1250    56.4230    63.7100 
  151.6250     2.2180   -21.5270   394.5780    75.0390    25.3300    60.5660    65.0140    72.5770 
  151.7500     2.2140   -21.6200   396.4570    78.5700    25.2530    63.6920    69.1230    75.6210 
  151.8750     2.2100   -21.6760   397.8790    75.6720    25.1640    64.9700    70.2960    75.9160 
  152.0000     2.2090   -21.6970   398.6800    68.6100    25.1110    64.9300    69.5170    74.8560 
  152.1250     2.2140   -21.6910   398.0140    65.5300    25.0950    63.0600    67.3150    72.8520 
  152.2500     2.2200   -21.6530   396.4760    65.9960    25.0890    59.0430    64.5580    70.4800 
  152.3750     2.2240   -21.5940   395.1080    63.9720    25.0470    54.4680    61.4930    67.7940 
  152.5000     2.2240   -21.5160   394.4650    60.0470    24.9370    52.2890    57.9830    64.4250 
  152.6250     2.2270   -21.4330   394.3860    59.5170    24.7970    54.1540    53.7890    59.8820 
  152.7500     2.2330   -21.3480   394.1240    64.1030    24.7330    54.5150    49.2750    54.6630 
  152.8750     2.2410   -21.2550   392.9200    68.8920    24.6860    48.2090    44.9640    49.5120 
  153.0000     2.2430   -21.1700   390.4280    70.7660    24.5770    37.0440    41.3930    45.2080 
  153.1250     2.2430   -21.0820   387.5180    71.5800    24.3850    30.3320    39.0400    42.4850 
  153.2500     2.2530   -21.0020   385.7890    73.2870    24.1690    30.3240    37.4750    40.9050 
  153.3750     2.2690   -20.9190   385.4670    78.5290    24.0150    32.6350    36.0080    39.6090 
  153.5000     2.2840   -20.8240   385.6680    84.4820    23.9520    33.3270    33.8930    37.5490 
  153.6250     2.2870   -20.7150   385.6190    82.1370    23.9440    33.5020    30.7370    34.0610 
  153.7500     2.2850   -20.6180   385.5660    72.6240    23.9440    33.2260    27.2500    30.0180 
  153.8750     2.2870   -20.5370   385.9000    65.6470    23.9430    29.7110    24.1930    26.4060 
  154.0000     2.2990   -20.4610   386.3830    66.9980    23.9330    23.3180    22.0940    23.9230 
  154.1250     2.3140   -20.3910   385.9230    70.9820    23.9050    19.9530    21.2780    22.9950 
  154.2500     2.3120   -20.3160   384.0200    73.3790    23.8730    20.3340    21.3920    23.1710 
  154.3750     2.2930   -20.2490   381.2530    76.6120    23.8590    21.8580    22.1610    24.0620 
  154.5000     2.2740   -20.1870   379.0860    82.2540    23.8570    22.8960    23.2290    25.1810 
  154.6250     2.2720   -20.1290   378.9560    86.0060    23.8570    23.5290    24.1360    25.9430 
  154.7500     2.2800   -20.0470   380.0000    83.5550    23.8570    23.7650    24.6700    26.1950 
  154.8750     2.2870   -19.9190   380.8760    76.7270    23.8570    23.2140    24.9200    26.1770 
  155.0000     2.2870   -19.7530   380.8400    73.1400    23.8570    22.3880    25.0260    26.1730 
  155.1250     2.2800   -19.5650   380.0750    76.2470    23.8570    21.3850    24.7930    26.0510 
  155.2500     2.2730   -19.3610   379.1940    78.5460    23.8570    20.4870    23.8020    25.2600 
  155.3750     2.2700   -19.1440   378.5000    77.2480    23.8630    20.0240    21.6870    23.2820 
  155.5000     2.2760   -18.9350   378.3440    76.2310    23.9000    19.4720    18.5090    20.0310 
  155.6250     2.2850   -18.7540   379.2680    81.2990    24.0830    16.9760    14.9440    16.1210 
  155.7500     2.2920   -18.6090   381.3050    90.6020    24.4190    12.9740    11.8910    12.6670 
  155.8750     2.2950   -18.5250   384.7190    99.6720    24.7730     9.3790     9.7330    10.2360 
  156.0000     2.3040   -18.5070   389.5100   101.3690    24.9550     7.3120     8.5540     9.0220 
  156.1250     2.3230   -18.5500   393.9840    91.4180    24.9870     7.2050     8.4700     9.2200 
  156.2500     2.3280   -18.6360   395.3910    80.6850    24.9910     8.7360     9.2790    10.5400 
  156.3750     2.3090   -18.7470   392.5760    83.1260    25.0100    11.0030    10.9120    12.8180 
  156.5000     2.2800   -18.8750   387.0860    96.1210    25.0540    13.5210    13.1550    15.6970 
  156.6250     2.2670   -18.9920   382.1770    96.8340    25.0830    16.0780    15.4400    18.3920 
  156.7500     2.2660   -19.0940   379.3540    86.2340    25.0940    17.9550    17.0270    20.0730 
  156.8750     2.2700   -19.1520   378.2720    80.5830    25.0950    18.3710    17.6000    20.4480 
  157.0000     2.2770   -19.1660   378.2620    84.0950    25.0950    17.7800    17.3360    19.8520 
  157.1250     2.2890   -19.1510   379.2050    83.6950    25.0950    17.0020    16.6340    18.8890 
  157.2500     2.2960   -19.1300   380.7380    78.1700    25.0950    16.3010    15.9070    18.0550 
  157.3750     2.2930   -19.1100   382.6750    76.1150    25.0950    15.6980    15.2850    17.4740 
  157.5000     2.2840   -19.0780   384.8670    76.0850    25.0950    15.2920    14.7940    17.1220 
  157.6250     2.2730   -19.0510   386.9140    74.1510    25.0900    15.1000    14.4050    16.9040 
  157.7500     2.2660   -19.0310   388.4710    73.9810    25.0670    14.9780    14.0660    16.6990 
  157.8750     2.2620   -19.0290   389.4610    78.0480    25.0250    14.6730    13.7810    16.4900 
  158.0000     2.2630   -19.0290   389.8430    84.1800    24.9950    14.2000    13.5930    16.3340 
  158.1250     2.2650   -19.0350   389.2750    84.1810    24.9870    13.6910    13.5750    16.3480 
  158.2500     2.2650   -19.0370   388.0390    79.5640    24.9870    13.4470    13.7070    16.5450 
  158.3750     2.2660   -19.0300   386.7320    76.5960    24.9870    13.5260    13.9400    16.8780 
  158.5000     2.2710   -19.0290   385.8240    77.4460    24.9870    13.9440    14.1790    17.2250 
  158.6250     2.2760   -19.0430   385.4190    77.9090    24.9710    14.1290    14.2710    17.3660 
  158.7500     2.2740   -19.0570   385.3190    76.7180    24.9060    13.5900    14.1460    17.1960 
  158.8750     2.2710   -19.0650   385.5710    76.3220    24.7780    12.6990    13.8120    16.7270 
  159.0000     2.2760   -19.1000   386.1850    77.5870    24.6660    12.0600    13.3480    16.0780 
  159.1250     2.2890   -19.1730   386.8560    78.3680    24.5200    11.7500    12.8640    15.4260 
  159.2500     2.2980   -19.2650   387.2510    77.0980    24.2110    11.3700    12.4510    14.8970 
  159.3750     2.2960   -19.3610   387.4880    76.1620    23.7340    10.9690    12.1480    14.5340 
  159.5000     2.2900   -19.4840   387.9430    78.9410    23.3030    10.6090    11.9610    14.3340 
  159.6250     2.2890   -19.6370   388.7590    83.2960    23.0770    10.3440    11.8960    14.2960 
  159.7500     2.2870   -19.7920   389.5170    84.4410    22.9450    10.2050    11.9130    14.3600 
  159.8750     2.2820   -19.9300   389.8930    83.1710    22.8640    10.2090    11.9730    14.4790 
