~V
VERS. 2.00: Ver 2.00
~W
STRT.M 105.0000:
STOP.M 279.0000:
STEP.M 0.1250:
NULL. -999.2500:
UWI. DF3027:
~C
DEPT.M :
DEN.GM/CC :
AC.US/MT :
GR.API :
CALI.CM :
RXO.OHMM :
RI. :
RML.OHMM :
SP.MV :
~A
# ...
  255.0000     2.6040   209.5720    81.9800    25.0130    19.3530    23.2330    26.3640    -9.0400 
  255.1250     2.5950   212.3480    80.0360    24.9060    17.2630    22.4490    25.4280    -8.9320 
  255.2500     2.5900   214.0380    77.9670    24.7560    16.4030    21.6010    24.4780    -8.8440 
  255.3750     2.6020   213.4190    76.5790    24.6760    16.2890    20.8560    23.7090    -8.7890 
  255.5000     2.6180   211.7460    76.2520    24.6870    16.0790    20.2840    23.1900    -8.7470 
  255.6250     2.6150   210.7340    78.0440    24.7170    15.4730    19.8640    22.8450    -8.7270 
  255.7500     2.5910   211.4070    79.4820    24.7410    15.0210    19.4630    22.4680    -8.7200 
  255.8750     2.5690   212.6270    76.5870    24.7890    14.7740    18.9930    21.9500    -8.7290 
  256.0000     2.5630   211.6370    71.1920    24.8630    14.2340    18.4360    21.2920    -8.7690 
  256.1250     2.5570   207.6640    68.6750    24.8690    13.1680    17.8600    20.6170    -8.8310 
  256.2500     2.5390   203.2540    71.4010    24.7940    12.0990    17.3850    20.0820    -8.8960 
  256.3750     2.5150   204.6110    72.3720    24.7030    11.3390    17.0930    19.7730    -8.9500 
  256.5000     2.5000   214.2180    69.8130    24.6520    10.9270    17.0230    19.7150    -9.0070 
  256.6250     2.4920   230.3440    67.6630    24.6570    10.8320    17.2020    19.9230    -9.0730 
  256.7500     2.4820   247.9850    70.2200    24.6870    10.8030    17.5410    20.3010    -9.1520 
  256.8750     2.4670   261.1360    73.1000    24.7350    10.6120    17.9600    20.7560    -9.2390 
  257.0000     2.4580   268.9140    72.6770    24.7900    10.1330    18.3420    21.1560    -9.3180 
  257.1250     2.4600   272.9080    72.0790    24.8010     9.4300    18.5200    21.3110    -9.3840 
  257.2500     2.4600   274.8880    75.2440    24.7460     8.7560    18.4310    21.1550    -9.4340 
  257.3750     2.4490   274.7980    77.2080    24.6740     8.4490    18.0810    20.7030    -9.4750 
  257.5000     2.4440   271.6400    74.0580    24.6360     8.6840    17.5380    20.0440    -9.5120 
  257.6250     2.4580   264.1870    68.3930    24.6030     9.0130    16.9130    19.3190    -9.5280 
  257.7500     2.4800   252.2660    67.6410    24.5360     8.8790    16.3500    18.6990    -9.5290 
  257.8750     2.4950   237.2320    68.7110    24.4580     8.6460    15.9550    18.3020    -9.5130 
  258.0000     2.5090   222.6520    68.9080    24.4010     9.0140    15.8050    18.2020    -9.4830 
  258.1250     2.5320   211.0360    69.4810    24.3840     9.9520    15.9850    18.4830    -9.4640 
  258.2500     2.5520   203.6670    73.7630    24.4240    10.6360    16.4380    19.0770    -9.4680 
  258.3750     2.5480   200.9070    77.6440    24.4930    10.9280    17.1040    19.9010    -9.5000 
  258.5000     2.5220   200.8240    78.4360    24.5120    11.2050    17.8570    20.7980    -9.5600 
  258.6250     2.4910   202.2480    78.0960    24.4750    11.9070    18.4910    21.5180    -9.6380 
  258.7500     2.4740   204.1340    77.6240    24.5090    13.2960    18.8620    21.9110    -9.7140 
  258.8750     2.4810   205.1620    75.3870    24.6660    15.6120    18.9260    21.9480    -9.7840 
  259.0000     2.5130   204.6240    72.4800    24.8480    18.8910    18.7640    21.7430    -9.8380 
  259.1250     2.5570   202.6740    72.6780    24.8230    23.3870    18.5480    21.5200    -9.8540 
  259.2500     2.5940   200.2150    75.6420    24.5260    28.5580    18.4440    21.4670    -9.8270 
  259.3750     2.5990   198.4540    76.6780    24.1180    32.5620    18.5140    21.6410    -9.7650 
  259.5000     2.5880   197.7350    76.3820    23.8670    34.2420    18.7590    22.0210    -9.6700 
  259.6250     2.5820   197.8560    76.6140    23.9740    36.2560    19.1400    22.5230    -9.5490 
  259.7500     2.5870   198.5160    78.0220    24.2450    41.4500    19.5420    23.0020    -9.4210 
  259.8750     2.5890   199.7690    77.4540    24.4760    47.4600    19.8860    23.3800    -9.2950 
  260.0000     2.5860   201.6930    75.6730    24.5930    50.4140    20.1330    23.6380    -9.1760 
  260.1250     2.5870   204.2100    74.0890    24.6370    49.0750    20.2770    23.7920    -9.0690 
  260.2500     2.5950   206.9340    73.9280    24.6930    45.1460    20.3620    23.8990    -8.9830 
  260.3750     2.6000   209.3350    74.7880    24.7580    39.7880    20.4210    23.9950    -8.9140 
  260.5000     2.5950   211.3000    75.0680    24.7640    35.3000    20.4750    24.0980    -8.8650 
  260.6250     2.5810   213.0460    74.1980    24.6980    33.3430    20.5180    24.1800    -8.8540 
  260.7500     2.5660   215.0180    74.9150    24.6500    31.4400    20.5190    24.1820    -8.8850 
  260.8750     2.5580   217.9990    78.2950    24.6470    28.0920    20.4360    24.0440    -8.9490 
  261.0000     2.5550   222.3330    82.3980    24.6300    23.8770    20.2400    23.7350    -9.0400 
  261.1250     2.5580   227.8210    83.4980    24.5380    20.9830    19.9220    23.2650    -9.1610 
  261.2500     2.5660   233.3100    80.9850    24.4530    19.8620    19.5720    22.7690    -9.2950 
  261.3750     2.5650   236.3720    78.4900    24.4210    19.1330    19.2830    22.3650    -9.4420 
  261.5000     2.5470   236.1350    76.8660    24.4130    17.6130    19.1290    22.1310    -9.5930 
  261.6250     2.5150   233.7620    76.7500    24.4480    16.6030    19.1650    22.1100    -9.7470 
  261.7500     2.4910   232.3270    78.6540    24.5290    17.5050    19.3280    22.2140    -9.8840 
  261.8750     2.4920   236.0250    80.3370    24.5550    18.9380    19.5320    22.3290    -9.9990 
  262.0000     2.5020   244.8330    79.9140    24.4600    18.7430    19.6510    22.3110   -10.1050 
  262.1250     2.5010   256.3920    77.3770    24.3710    16.7360    19.5240    22.0000   -10.1960 
  262.2500     2.4850   267.0180    77.7870    24.4140    15.1280    19.1670    21.4510   -10.2830 
  262.3750     2.4640   272.3150    81.9320    24.4970    14.9180    18.6700    20.7940   -10.3700 
  262.5000     2.4460   271.2790    86.0710    24.4960    15.8300    18.1800    20.2090   -10.4570 
  262.6250     2.4330   264.2050    85.3380    24.4030    16.5390    17.8840    19.9130   -10.5200 
  262.7500     2.4340   252.7710    79.3490    24.2940    16.4410    17.8460    19.9460   -10.5540 
  262.8750     2.4610   239.9440    75.8500    24.2460    16.2560    18.0620    20.2740   -10.5680 
  263.0000     2.4910   229.4470    76.2730    24.3160    16.7940    18.4620    20.7930   -10.5590 
  263.1250     2.5050   223.4980    78.3110    24.4370    18.0140    18.9410    21.3730   -10.5240 
  263.2500     2.5060   222.5880    79.0520    24.4670    19.1460    19.4090    21.9300   -10.4690 
  263.3750     2.5210   225.3740    78.8530    24.3740    19.7860    19.8840    22.5020   -10.3840 
  263.5000     2.5500   228.0790    78.4880    24.2310    19.5660    20.4590    23.2150   -10.2700 
  263.6250     2.5710   228.2610    76.8940    24.1640    18.4610    21.2910    24.2530   -10.1490 
  263.7500     2.5670   225.0390    75.4020    24.1880    17.6980    22.3890    25.5890   -10.0410 
  263.8750     2.5500   219.2190    74.4000    24.2820    18.2590    23.6850    27.1040    -9.9390 
  264.0000     2.5500   213.4420    75.9850    24.4130    19.8360    25.0260    28.5850    -9.8490 
  264.1250     2.5640   209.3570    81.2290    24.5250    21.0070    26.1800    29.7470    -9.7600 
  264.2500     2.5700   207.5530    86.0480    24.5600    21.4210    27.0340    30.5160    -9.6680 
  264.3750     2.5550   207.6680    86.7820    24.5230    21.7120    27.5820    30.9370    -9.5890 
  264.5000     2.5410   208.3100    85.0230    24.5080    22.3140    27.9060    31.1410    -9.5270 
  264.6250     2.5460   208.8560    82.5440    24.5640    23.0830    28.1130    31.2600    -9.5000 
  264.7500     2.5650   209.1900    82.5440    24.6280    23.6210    28.2900    31.3610    -9.4960 
  264.8750     2.5840   209.4390    82.5440    24.6580    23.5560    28.4390    31.4300    -9.4980 
