~V
VERS. 2.00: Ver 2.00
~W
STRT.M 60.0000:
STOP.M 254.0000:
STEP.M 0.1250:
NULL. -999.2500:
UWI. DF3029:
~C
DEPT.M :
SP.MV :
GR.API :
RML.OHMM :
RI. :
RXO.OHMM :
CALI.CM :
DEN.GM/CC :
~A
# ...
   82.5000   -43.5910    68.0290     9.6440     8.1680     8.9580    23.4350     2.1540 
   82.6250   -43.4920    69.8900     9.6010     8.1440     9.1800    23.4430     2.1520 
   82.7500   -43.4360    69.6750     9.5730     8.1280     9.3400    23.4440     2.1550 
   82.8750   -43.4570    66.8180     9.5650     8.1150     9.3460    23.4350     2.1630 
   83.0000   -43.3290    65.4370     9.5780     8.1050     9.3470    23.4090     2.1740 
   83.1250   -43.1560    66.8330     9.5950     8.0940     9.5520    23.3460     2.1900 
   83.2500   -42.9660    67.4810     9.5830     8.0630     9.7650    23.3100     2.2070 
   83.3750   -42.7110    67.8270     9.5150     7.9900     9.9860    23.3510     2.2180 
   83.5000   -42.4860    70.3650     9.3840     7.8680    10.2320    23.5520     2.2210 
   83.6250   -42.1870    75.3960     9.2260     7.7200    10.1630    23.8950     2.2170 
   83.7500   -41.9980    80.0440     9.1190     7.5990     9.7010    24.1990     2.2130 
   83.8750   -41.7400    83.6030     9.1220     7.5540     9.5630    24.3580     2.2130 
   84.0000   -41.6010    84.1490     9.2640     7.6130     9.9140    24.4100     2.2170 
   84.1250   -41.5330    80.2630     9.5440     7.7940    10.1410    24.4830     2.2170 
   84.2500   -41.4460    76.7410     9.8840     8.0460    10.1360    24.5940     2.2130 
   84.3750   -41.3860    77.6380    10.2200     8.3260    10.1640    24.7080     2.2070 
   84.5000   -41.3210    81.1620    10.4880     8.5810    10.1310    24.7290     2.2050 
   84.6250   -41.3280    81.3540    10.6150     8.7470    10.1210    24.4000     2.2080 
   84.7500   -41.2380    77.5390    10.6000     8.8030     9.8620    24.0090     2.2090 
   84.8750   -41.2720    73.1310    10.4620     8.7410     9.5000    23.7330     2.2010 
   85.0000   -41.2600    71.4810    10.2400     8.5750     9.1790    23.6180     2.1830 
   85.1250   -41.1830    73.5760     9.9790     8.3270     8.8240    23.5520     2.1620 
   85.2500   -41.2050    75.2590     9.7330     8.0560     8.2260    23.4530     2.1460 
   85.3750   -41.2260    75.4630     9.5360     7.8100     7.7030    23.3540     2.1370 
   85.5000   -41.2540    75.5770     9.4180     7.6310     7.3710    23.2870     2.1350 
   85.6250   -41.2690    76.6570     9.4160     7.5640     7.3010    23.2990     2.1350 
   85.7500   -41.3330    77.3930     9.5090     7.5970     7.3990    23.3600     2.1370 
   85.8750   -41.4020    78.1420     9.6570     7.7020     7.6250    23.4200     2.1430 
   86.0000   -41.4370    79.7080     9.8030     7.8360     8.0140    23.4360     2.1570 
   86.1250   -41.5880    80.2690     9.8710     7.9440     8.4920    23.3970     2.1790 
   86.2500   -41.6960    78.2650     9.8410     7.9950     8.9870    23.3290     2.1980 
   86.3750   -41.8090    75.7770     9.7310     7.9850     9.2780    23.3020     2.2080 
   86.5000   -41.8940    74.2020     9.5860     7.9320     9.2840    23.3660     2.2040 
   86.6250   -41.8900    72.1110     9.4650     7.8660     9.2460    23.5280     2.1890 
   86.7500   -41.8970    69.3140     9.4000     7.8130     9.3000    23.6440     2.1730 
   86.8750   -41.7270    68.4060     9.3900     7.7820     9.3710    23.6840     2.1600 
   87.0000   -41.5950    69.9140     9.4140     7.7700     9.4750    23.6880     2.1530 
   87.1250   -41.3920    71.4700     9.4420     7.7650     9.5820    23.6770     2.1550 
   87.2500   -41.0980    72.1750     9.4490     7.7530     9.5430    23.6450     2.1610 
   87.3750   -40.7530    72.0290     9.4210     7.7270     9.4010    23.6000     2.1680 
   87.5000   -40.3440    70.4640     9.3560     7.6850     9.2830    23.5580     2.1720 
   87.6250   -39.8880    67.5510     9.2640     7.6280     9.1510    23.5640     2.1710 
   87.7500   -39.2610    66.3780     9.1730     7.5710     9.0070    23.5930     2.1650 
   87.8750   -38.6430    67.4190     9.1040     7.5210     8.8440    23.6080     2.1600 
   88.0000   -37.7990    69.5460     9.0540     7.4780     8.6420    23.6180     2.1580 
   88.1250   -36.7290    73.2230     8.9900     7.4170     8.3220    23.6420     2.1650 
   88.2500   -35.5800    79.2040     8.8720     7.3120     7.9640    23.6690     2.1840 
   88.3750   -34.2620    86.5740     8.6850     7.1520     7.5700    23.6490     2.2140 
   88.5000   -32.9470    93.7640     8.4480     6.9540     7.2330    23.5430     2.2500 
   88.6250   -31.7290    97.9290     8.2220     6.7630     6.7400    23.4260     2.2840 
   88.7500   -30.6180    97.5350     8.0680     6.6280     6.1710    23.4630     2.3060 
   88.8750   -29.6680    93.6730     8.0100     6.5750     6.0700    23.6280     2.3130 
   89.0000   -28.9430    91.3270     8.0380     6.6010     6.3730    23.7780     2.3100 
   89.1250   -28.4450    92.7800     8.1170     6.6850     6.7480    23.8570     2.3000 
   89.2500   -28.1800    94.1390     8.2020     6.7850     6.9050    23.8810     2.2910 
   89.3750   -28.1980    93.2400     8.2890     6.8900     6.8410    23.8810     2.2840 
   89.5000   -28.4000    91.3250     8.4080     7.0120     6.7610    23.8630     2.2770 
   89.6250   -28.6770    91.3060     8.6120     7.1880     6.6840    23.8110     2.2680 
   89.7500   -29.1290    93.5200     8.9080     7.4290     6.8330    23.7430     2.2560 
   89.8750   -29.5170    95.6830     9.2670     7.7200     7.0780    23.6840     2.2420 
   90.0000   -29.9440    95.8560     9.6280     8.0170     7.3880    23.6340     2.2280 
   90.1250   -30.4460    94.9240     9.8940     8.2430     7.6010    23.6160     2.2180 
   90.2500   -30.8230    94.1690    10.0220     8.3530     7.6780    23.6060     2.2140 
   90.3750   -31.1680    92.1400    10.0020     8.3300     7.6740    23.5820     2.2140 
   90.5000   -31.4030    87.7240     9.8530     8.1860     7.6040    23.5100     2.2170 
   90.6250   -31.6620    84.1670     9.6210     7.9600     7.5400    23.4050     2.2200 
   90.7500   -31.7780    83.4700     9.3930     7.7320     7.5740    23.3160     2.2220 
   90.8750   -31.9440    84.0000     9.2550     7.5790     7.6660    23.2890     2.2190 
   91.0000   -32.0860    83.2120     9.3170     7.5880     7.8540    23.3260     2.2040 
   91.1250   -32.1760    81.4170     9.7940     7.9340     8.0310    23.3940     2.1820 
   91.2500   -32.3450    80.3760    10.7860     8.7080     8.3820    23.4560     2.1710 
   91.3750   -32.4320    79.6180    12.3550     9.9920     8.8160    23.4620     2.1950 
   91.5000   -32.5620    77.2080    14.4090    11.7610     9.2850    23.4200     2.2660 
   91.6250   -32.5580    72.6150    16.5930    13.8010    10.0720    23.5030     2.3820 
   91.7500   -32.5900    68.5450    18.3120    15.5980    11.1640    23.7620     2.4960 
   91.8750   -32.7220    67.8170    19.0900    16.6820    12.7180    24.1300     2.5650 
   92.0000   -32.8730    71.4200    18.7170    16.7540    14.1620    24.3830     2.5670 
   92.1250   -33.1070    76.2740    17.2940    15.7560    14.5730    24.2780     2.5160 
   92.2500   -33.4140    80.1630    15.5420    14.2940    12.9010    24.0200     2.4520 
   92.3750   -33.8160    82.2240    13.9180    12.7900    11.1950    23.8440     2.3920 
   92.5000   -34.2890    81.6400    12.6610    11.5060    10.5000    23.8700     2.3420 
   92.6250   -34.8390    77.6480    11.8590    10.5830    10.5040    24.0280     2.3030 
   92.7500   -35.4890    72.9360    11.3620     9.9520    10.4920    24.1200     2.2730 
   92.8750   -36.0010    69.1510    11.0920     9.5670    10.1520    24.1460     2.2520 
   93.0000   -36.5110    67.8100    10.9970     9.3880     9.6300    24.1400     2.2390 
   93.1250   -37.0280    69.9180    11.0460     9.3840     9.3350    24.0940     2.2290 
   93.2500   -37.4480    75.0410    11.1510     9.4640     9.3200    23.9900     2.2180 
   93.3750   -37.9040    80.8550    11.2400     9.5610     9.4530    23.8550     2.2030 
   93.5000   -38.2570    83.1910    11.2460     9.6110     9.6190    23.7480     2.1800 
   93.6250   -38.6860    78.7800    11.1240     9.5640     9.6960    23.6500     2.1530 
