~V
VERS. 2.00: Ver 2.00
~W
STRT.M 115.0000:
STOP.M 241.0000:
STEP.M 0.1250:
NULL. -999.2500:
UWI. DF3064:
~C
DEPT.M :
GR.API :
CALI.CM :
RXO.OHMM :
RI. :
RML.OHMM :
DEN.GM/CC :
SP.MV :
~A
# ...
  160.0000    61.1340    25.1240    95.5800    98.4500   108.4640     2.1960   -35.0260 
  160.1250    64.5850    25.0910    99.0930    97.3940   107.2730     2.2070   -35.0340 
  160.2500    67.0150    25.0330   103.5090    96.3120   106.1100     2.2180   -34.9900 
  160.3750    67.2560    25.0720   103.7160    95.3490   105.2790     2.2230   -34.9180 
  160.5000    65.7070    25.0990    97.5410    94.9360   105.2530     2.2220   -34.8310 
  160.6250    64.3950    25.0620    88.7120    95.3890   106.1200     2.2190   -34.7550 
  160.7500    64.9950    25.0770    88.9530    96.3340   107.4030     2.2200   -34.7030 
  160.8750    66.8760    25.1240    94.7760    97.3540   108.6030     2.2240   -34.6510 
  161.0000    68.2080    25.1360   106.1410    97.9950   109.2310     2.2270   -34.6300 
  161.1250    66.9840    25.1350   114.9140    97.6900   108.7770     2.2230   -34.5870 
  161.2500    63.3230    25.1280   119.0830    96.5300   107.4390     2.2110   -34.5750 
  161.3750    58.8130    25.1090   112.1760    94.8510   105.6610     2.1970   -34.5900 
  161.5000    56.0380    25.0710    99.6370    93.3240   104.1950     2.1930   -34.6180 
  161.6250    57.5120    24.8360    91.7340    93.1240   104.5290     2.2040   -34.6740 
  161.7500    61.8050    24.8210    93.9800    94.8920   107.2120     2.2150   -34.7550 
  161.8750    67.2740    24.9560   101.2870    98.8220   112.3800     2.2140   -34.8490 
  162.0000    71.8960    25.1060   104.5840   104.9400   119.9390     2.2000   -34.9470 
  162.1250    71.3960    25.1240   106.1060   113.0680   129.5760     2.1860   -35.1100 
  162.2500    65.6940    25.1430   119.3610   121.9390   139.8300     2.1800   -35.2950 
  162.3750    59.9850    25.1780   142.8440   130.2260   149.1610     2.1820   -35.5020 
  162.5000    59.7800    25.1980   163.0990   136.4980   155.8670     2.1820   -35.7150 
  162.6250    63.2450    25.2110   165.6680   139.4080   158.4490     2.1770   -35.9530 
  162.7500    65.2220    25.3470   163.3980   139.5150   157.7680     2.1710   -36.1850 
  162.8750    65.2750    25.4230   157.6720   137.2410   154.3310     2.1740   -36.3990 
  163.0000    64.5900    25.4290   154.4540   133.1340   149.0340     2.1820   -36.6120 
  163.1250    64.0330    25.3850   143.6760   128.0090   143.0640     2.1830   -36.7750 
  163.2500    64.4110    25.2980   131.4730   123.0520   137.3530     2.1730   -36.9080 
  163.3750    65.4610    25.3000   128.8330   118.4880   132.0740     2.1590   -37.0130 
  163.5000    65.8260    25.4020   134.2840   114.5450   127.3150     2.1550   -37.1120 
  163.6250    63.7630    25.4130   125.8360   111.3540   123.1160     2.1680   -37.1750 
  163.7500    60.4090    25.3920   109.9400   108.7250   119.2580     2.1880   -37.2160 
  163.8750    58.7090    25.3620    95.0880   106.2580   115.4170     2.2050   -37.2660 
  164.0000    61.5460    25.3480    85.9290   103.5040   111.0060     2.2180   -37.3140 
  164.1250    63.8180    25.3390    86.7520    99.6180   105.5270     2.2280   -37.3490 
  164.2500    62.8090    25.3670    97.2890    94.5560    99.0320     2.2390   -37.3690 
  164.3750    62.4490    25.4280   106.1220    88.7640    92.0690     2.2510   -37.3840 
  164.5000    65.9960    25.4430    99.6830    82.9660    85.4250     2.2620   -37.3870 
  164.6250    68.2440    25.3980    79.6920    78.1280    80.1550     2.2720   -37.3810 
  164.7500    67.5280    25.3360    61.1550    74.4640    76.3420     2.2750   -37.3750 
  164.8750    69.3800    25.3600    50.4330    72.1950    74.1260     2.2640   -37.3550 
  165.0000    71.5320    25.4370    48.9130    71.1020    73.1080     2.2350   -37.3440 
  165.1250    67.4650    25.4270    65.8720    70.5860    72.5600     2.1980   -37.3320 
  165.2500    62.5210    25.3690    82.2760    70.1430    72.0450     2.1790   -37.3080 
  165.3750    63.4320    25.3890    79.4960    69.5510    71.5950     2.1840   -37.2970 
  165.5000    69.1890    25.5300    65.0030    68.9420    71.3380     2.2000   -37.2830 
  165.6250    70.9180    25.6040    57.1230    68.9780    72.0390     2.2070   -37.2830 
  165.7500    68.3190    25.7100    55.8520    70.5170    74.4250     2.2020   -37.2440 
  165.8750    65.7800    25.7040    56.7520    73.9230    78.8040     2.1910   -37.2130 
  166.0000    66.0620    25.4870    61.3320    79.1630    85.3130     2.1800   -37.1730 
  166.1250    66.5310    25.4900    79.6810    86.5290    94.1380     2.1740   -37.1050 
  166.2500    63.5210    25.4850    93.0250    95.1790   104.1620     2.1710   -37.0580 
  166.3750    59.7520    25.4640   101.2730   104.2830   114.4750     2.1670   -36.9870 
  166.5000    59.8630    25.3600   109.9400   113.2540   124.4520     2.1640   -36.9230 
  166.6250    64.8630    25.1420   119.0040   121.4750   133.5090     2.1610   -36.8290 
  166.7500    67.4050    25.0590   125.2270   128.9160   141.5910     2.1580   -36.7680 
  166.8750    63.9600    24.9780   134.1840   135.8070   148.9130     2.1530   -36.7070 
  167.0000    58.1750    24.8590   141.7950   141.9400   155.3660     2.1440   -36.6310 
  167.1250    59.5090    24.5070   143.6270   146.4550   160.2360     2.1370   -36.5730 
  167.2500    65.1250    24.5740   147.6170   148.9410   163.1180     2.1440   -36.4930 
  167.3750    66.9180    25.0050   158.1680   148.8220   163.1090     2.1690   -36.4000 
  167.5000    62.2520    25.4080   175.5280   145.2390   159.0250     2.1970   -36.2770 
  167.6250    58.2140    25.4660   186.0070   138.1730   150.8000     2.1980   -36.1260 
  167.7500    58.4360    25.4560   161.8350   129.6860   141.1920     2.1760   -35.9290 
  167.8750    60.6190    25.4330   127.5670   121.2320   131.9220     2.1550   -35.6730 
  168.0000    63.4340    25.4100   114.0910   114.1840   124.5910     2.1570   -35.3680 
  168.1250    65.7380    25.4040   121.1070   110.3120   120.9050     2.1820   -35.0200 
  168.2500    66.0080    25.4380   104.0260   109.1740   120.3010     2.2060   -34.6330 
  168.3750    64.6260    25.4330    99.4220   110.4620   122.3120     2.2180   -34.2000 
  168.5000    63.5870    25.2980   120.5930   113.5180   126.1250     2.2170   -33.7570 
  168.6250    63.9170    25.1800   138.2140   116.9450   130.0320     2.2070   -33.2600 
  168.7500    64.6560    25.1390   144.1010   119.3010   132.1160     2.1980   -32.7630 
  168.8750    66.4220    25.1050   136.0080   120.0220   131.8160     2.1960   -32.2570 
  169.0000    66.9540    25.1020   123.9630   118.6650   128.7620     2.2030   -31.7630 
  169.1250    63.7700    25.0440   124.4870   114.9670   123.2050     2.2100   -31.2870 
  169.2500    60.2320    24.9960   126.0220   110.4140   117.1960     2.2050   -30.8290 
  169.3750    59.8230    24.9430   125.9170   106.1540   112.0670     2.1880   -30.4310 
  169.5000    61.3230    24.9260   124.1790   102.9930   108.4660     2.1690   -30.0120 
  169.6250    62.1250    24.9640   116.3030   101.5980   106.8990     2.1580   -29.6730 
  169.7500    63.4670    25.0550   100.2890   100.9690   106.1860     2.1490   -29.3870 
  169.8750    66.2790    25.0970    92.7890   100.1230   105.2160     2.1380   -29.1410 
  170.0000    67.3800    25.0460   104.7510    98.4240   103.2970     2.1310   -28.9260 
  170.1250    62.8460    24.9370   124.0700    95.2460    99.7700     2.1390   -28.7200 
  170.2500    57.9010    24.9190   133.8330    90.7980    94.9600     2.1570   -28.5390 
  170.3750    56.5750    24.9160   125.7520    86.0740    90.2720     2.1700   -28.3440 
  170.5000    58.7350    24.8600    94.2880    82.4320    87.0070     2.1720   -28.1700 
  170.6250    59.6110    24.7720    60.9990    80.7710    85.8630     2.1740   -27.9810 
  170.7500    58.6220    24.7000    58.7540    80.8240    86.3820     2.1830   -27.7670 
  170.8750    57.5130    24.7820    80.8570    81.9930    87.8130     2.1910   -27.5400 
  171.0000    56.6840    24.6650   103.4320    83.0140    88.8190     2.1820   -27.2850 
  171.1250    56.3870    24.7830   118.2360    82.2600    87.6700     2.1600   -27.0050 
