~V
VERS. 2.00: Ver 2.00
~W
STRT.M 110.0000:
STOP.M 242.0000:
STEP.M 0.1250:
NULL. -999.2500:
UWI. DF306:
~C
DEPT.M :
DEN.GM/CC :
AC.US/MT :
GR.API :
CALI.CM :
RXO.OHMM :
RI. :
RML.OHMM :
SP.MV :
~A
# ...
  130.0000     2.5120   265.8370    68.0840    25.0390    16.1660    14.7890    18.3420   -16.6680 
  130.1250     2.4990   260.5810    69.3730    25.0430    17.4210    15.4530    19.2860   -16.7400 
  130.2500     2.4960   253.7400    70.0320    25.0350    18.8900    16.0800    20.1020   -16.7990 
  130.3750     2.4990   248.6480    70.1540    25.0230    19.9620    16.4050    20.4020   -16.8480 
  130.5000     2.5090   248.2700    69.3390    25.0100    20.0010    16.2140    19.9190   -16.8910 
  130.6250     2.5270   254.5270    67.8130    24.9940    18.4040    15.4380    18.6530   -16.9080 
  130.7500     2.5420   264.2670    66.8020    24.9690    15.9520    14.4480    17.1900   -16.9000 
  130.8750     2.5470   273.9280    65.5780    24.9410    13.9260    13.5610    15.9970   -16.8810 
  131.0000     2.5480   280.5820    63.1910    24.9320    13.2240    12.9990    15.3690   -16.8470 
  131.1250     2.5540   282.8700    61.3850    24.9430    13.7260    12.9220    15.4870   -16.8130 
  131.2500     2.5590   282.9330    61.5050    24.9380    14.4250    13.2140    16.1070   -16.7960 
  131.3750     2.5490   282.6260    63.7090    24.9010    14.9840    13.7300    16.9580   -16.7840 
  131.5000     2.5200   283.1520    66.7210    24.8440    15.4500    14.2530    17.6910   -16.7740 
  131.6250     2.4880   284.9100    69.1410    24.7340    15.8240    14.5130    17.9220   -16.7750 
  131.7500     2.4710   287.2530    70.2340    24.5540    15.7150    14.4350    17.6290   -16.7770 
  131.8750     2.4700   289.6540    70.0190    24.3610    14.7710    14.0420    16.9090   -16.7830 
  132.0000     2.4780   291.6880    68.6930    24.2440    13.2790    13.4330    15.9390   -16.8030 
  132.1250     2.4900   292.8210    67.1980    24.2260    12.2140    12.7490    14.9580   -16.8120 
  132.2500     2.5040   292.8930    67.2280    24.2380    11.9090    12.1510    14.1860   -16.8070 
  132.3750     2.5110   291.9230    67.6670    24.2590    11.9960    11.7470    13.7650   -16.8090 
  132.5000     2.5000   290.2600    66.5930    24.3000    12.1130    11.6090    13.7750   -16.8140 
  132.6250     2.4770   288.4850    63.4940    24.3440    12.4720    11.7970    14.2570   -16.8210 
  132.7500     2.4680   287.0860    61.9350    24.3640    13.3720    12.2060    15.0120   -16.8450 
  132.8750     2.4800   286.3050    63.1650    24.3680    14.6870    12.7420    15.8700   -16.8720 
  133.0000     2.4950   286.3170    63.4310    24.3720    15.8780    13.2980    16.6690   -16.8870 
  133.1250     2.4900   287.4200    61.7560    24.3690    16.3640    13.7640    17.2640   -16.9140 
  133.2500     2.4720   289.4070    62.4960    24.3470    16.5540    14.1110    17.6750   -16.9460 
  133.3750     2.4560   291.9390    67.1220    24.3290    17.0020    14.3520    17.9590   -16.9590 
  133.5000     2.4490   294.5020    70.6800    24.3340    17.6800    14.5140    18.1650   -16.9640 
  133.6250     2.4490   296.5940    70.5710    24.3210    17.9160    14.5890    18.2650   -16.9600 
  133.7500     2.4510   298.1120    70.8880    24.2720    17.5820    14.5880    18.2510   -16.9350 
  133.8750     2.4530   298.8360    70.1970    24.2160    17.0890    14.5320    18.1600   -16.9010 
  134.0000     2.4550   298.2580    65.8410    24.1840    16.8450    14.4750    18.0860   -16.8650 
  134.1250     2.4580   295.5370    61.5430    24.1720    16.9250    14.4920    18.1630   -16.7970 
  134.2500     2.4660   291.1550    60.3160    24.1740    17.1420    14.6000    18.3980   -16.7120 
  134.3750     2.4820   286.0020    59.6470    24.1930    17.4030    14.7620    18.7030   -16.6210 
  134.5000     2.5070   281.1650    58.0900    24.2050    17.5700    14.8980    18.9230   -16.5140 
  134.6250     2.5240   277.5800    57.5780    24.1870    17.3330    14.9110    18.8920   -16.4110 
  134.7500     2.5230   275.0160    58.1090    24.1750    16.7120    14.8160    18.6700   -16.3110 
  134.8750     2.5080   272.8810    58.0400    24.2310    16.0260    14.6820    18.3970   -16.2060 
  135.0000     2.4990   270.6000    57.9990    24.3950    15.6440    14.5910    18.2210   -16.1080 
  135.1250     2.5110   268.2860    58.0050    24.6490    15.9470    14.6190    18.2500   -16.0320 
  135.2500     2.5320   266.8990    57.1270    24.8970    16.9400    14.7400    18.4200   -15.9610 
  135.3750     2.5450   267.2430    55.2860    25.0690    18.1620    14.8990    18.6260   -15.9020 
  135.5000     2.5450   269.2830    54.8830    25.1480    18.6390    15.0290    18.7620   -15.8660 
  135.6250     2.5400   271.9160    57.2700    25.1610    17.8260    15.0670    18.7410   -15.8330 
  135.7500     2.5410   273.6460    58.9080    25.1590    16.8080    15.0170    18.5920   -15.8060 
  135.8750     2.5500   273.9990    58.5870    25.1410    16.4030    14.9020    18.3580   -15.7970 
  136.0000     2.5560   273.4310    58.9840    25.0950    16.4900    14.7600    18.0870   -15.8000 
  136.1250     2.5490   273.0090    60.5710    25.0520    16.3730    14.6320    17.8330   -15.8170 
  136.2500     2.5320   273.5020    60.3490    25.0240    15.8460    14.5510    17.6470   -15.8570 
  136.3750     2.5140   275.0800    59.0560    24.9060    15.2730    14.5490    17.5820   -15.9160 
  136.5000     2.5000   277.4230    59.4110    24.6300    15.0090    14.6520    17.6840   -15.9830 
  136.6250     2.4920   279.5570    61.2240    24.3630    15.1200    14.8820    17.9820   -16.0740 
  136.7500     2.4900   280.3340    61.0140    24.2480    15.3970    15.1780    18.3660   -16.1750 
  136.8750     2.4930   279.1580    58.9680    24.1530    15.8640    15.4650    18.7010   -16.2710 
  137.0000     2.4970   276.3440    58.1450    23.9290    16.4180    15.6620    18.8550   -16.3640 
  137.1250     2.5000   273.1980    62.1050    23.6750    16.4550    15.7030    18.7360   -16.4340 
  137.2500     2.5010   271.1000    67.4610    23.5510    15.8270    15.6500    18.4590   -16.4850 
  137.3750     2.4980   270.3280    69.9110    23.5450    15.1130    15.5760    18.1510   -16.5130 
  137.5000     2.4890   270.3140    66.3140    23.6320    14.9930    15.5460    17.9150   -16.5210 
  137.6250     2.4850   270.1830    59.5110    23.8810    15.7230    15.5930    17.8080   -16.4930 
  137.7500     2.4970   269.7160    54.5290    24.2390    16.6670    15.6930    17.7920   -16.4410 
  137.8750     2.5160   269.3410    53.0230    24.5770    17.0760    15.8160    17.8280   -16.3670 
  138.0000     2.5270   269.5830    56.0580    24.7720    16.5240    15.9270    17.8750   -16.2690 
  138.1250     2.5220   270.6590    61.8270    24.8030    15.7020    15.9920    17.9140   -16.1760 
  138.2500     2.5120   272.0790    65.4880    24.8120    15.7570    16.0190    17.9580   -16.0840 
  138.3750     2.5090   273.4760    64.2300    24.8650    16.4770    16.0080    17.9970   -16.0080 
  138.5000     2.5220   274.5360    60.2250    24.9390    16.7560    15.9220    17.9520   -15.9580 
  138.6250     2.5450   274.6770    58.0620    24.9900    16.2780    15.6160    17.5850   -15.9560 
  138.7500     2.5580   273.7890    57.6380    25.0220    16.0400    15.0250    16.8000   -16.0050 
  138.8750     2.5510   272.4940    58.8960    25.0390    15.9740    14.2180    15.7180   -16.1450 
  139.0000     2.5330   272.4540    59.6760    25.0400    15.0970    13.4560    14.7530   -16.3780 
  139.1250     2.5140   276.8990    58.9250    25.0350    13.3360    13.2550    14.7340   -16.7230 
  139.2500     2.4840   287.1690    59.1660    25.0310    13.1240    14.0210    16.2620   -17.1690 
  139.3750     2.4330   303.3870    61.3710    25.0220    17.7500    16.3280    20.0190   -17.6950 
  139.5000     2.3650   323.9620    63.9170    25.0280    31.9710    20.9670    26.7760   -18.2850 
  139.6250     2.2990   345.8430    65.2040    25.0820    62.8020    29.4090    37.9840   -18.9110 
  139.7500     2.2520   365.5580    65.6750    25.1550    95.1140    41.1140    52.8050   -19.5430 
  139.8750     2.2250   381.3260    63.8500    25.2070   110.0010    54.0600    68.5860   -20.1350 
