~V
VERS. 2.00: Ver 2.00
~W
STRT.M 64.0000:
STOP.M 268.0000:
STEP.M 0.1250:
NULL. -999.2500:
UWI. DF3002:
~C
DEPT.M :
GR.API :
RML.OHMM :
RI. :
RXO.OHMM :
DEN.GM/CC :
SP.MV :
~A
# ...
   89.7500   105.6090     6.5910     5.2910     5.6250  -999.2500   -24.4380 
   89.8750   109.7940     6.6620     5.3000     5.6770  -999.2500   -24.6150 
   90.0000   111.9800     6.6490     5.2760     5.7830  -999.2500   -24.8110 
   90.1250   108.2380     6.5000     5.1830     6.0550  -999.2500   -25.1660 
   90.2500   104.5380     6.3450     5.0860     6.3530  -999.2500   -25.3970 
   90.3750   104.9980     6.4400     5.1430     6.6230  -999.2500   -25.6130 
   90.5000   107.6400     7.0960     5.5780     6.9260  -999.2500   -25.9760 
   90.6250   104.9900     8.6260     6.6730     8.0980  -999.2500   -26.2850 
   90.7500    96.2690    10.7210     8.2910    10.6350  -999.2500   -26.5590 
   90.8750    85.6340    12.8630    10.1150    14.8690  -999.2500   -26.8620 
   91.0000    79.2440    14.3590    11.6120    22.6220  -999.2500   -27.1120 
   91.1250    77.8380    14.3890    12.0170    27.6350  -999.2500   -27.2800 
   91.2500    76.7390    13.1560    11.2920    20.7820  -999.2500   -27.3740 
   91.3750    74.9950    11.2410     9.8210    12.6350  -999.2500   -27.3180 
   91.5000    75.5370     9.3700     8.2120     9.3780  -999.2500   -27.1540 
   91.6250    80.8000     8.1370     6.9900     8.3740  -999.2500   -26.8810 
   91.7500    88.5150     7.5320     6.2320     7.4890  -999.2500   -26.4770 
   91.8750    96.5430     7.4210     5.8860     6.3890  -999.2500   -26.0680 
   92.0000   102.4040     7.6160     5.8450     5.7640  -999.2500   -25.6350 
   92.1250   103.6840     7.9330     6.0000     5.8410  -999.2500   -25.2300 
   92.2500   101.7450     8.1820     6.1910     6.2080  -999.2500   -24.9480 
   92.3750    99.8250     8.2650     6.3190     6.3690  -999.2500   -24.7300 
   92.5000   100.0780     8.1440     6.3270     6.3050  -999.2500   -24.5790 
   92.6250   100.8690     7.8450     6.1910     6.1590  -999.2500   -24.5700 
   92.7500   103.2350     7.5120     5.9940     5.9230  -999.2500   -24.5300 
   92.8750   107.8670     7.2520     5.8080     5.6470  -999.2500   -24.5310 
   93.0000   110.7500     7.1330     5.6920     5.5860  -999.2500   -24.6830 
   93.1250   108.4440     7.1980     5.6930     5.6850  -999.2500   -24.7220 
   93.2500   105.5890     7.3860     5.7860     5.8580  -999.2500   -24.7860 
   93.3750   103.4860     7.6360     5.9390     6.0310  -999.2500   -25.0290 
   93.5000    98.3520     7.8650     6.0960     6.2070  -999.2500   -25.1950 
   93.6250    92.5260     7.9690     6.1810     6.4080  -999.2500   -25.3540 
   93.7500    92.1770     7.9220     6.1640     6.6550  -999.2500   -25.6440 
   93.8750    95.8370     7.7710     6.0670     6.8780  -999.2500   -25.8100 
   94.0000    98.9620     7.6610     5.9750     6.9200  -999.2500   -25.9400 
   94.1250   100.2690     7.8710     6.0780     6.8700  -999.2500   -26.1290 
   94.2500   100.0400     8.5110     6.4750     6.8750  -999.2500   -26.2180 
   94.3750    95.3850     9.5230     7.1660     7.0240  -999.2500   -26.2650 
   94.5000    87.4670    10.6440     8.0130     7.4830  -999.2500   -26.3180 
   94.6250    83.8790    11.3920     8.7100     8.3870  -999.2500   -26.3140 
   94.7500    84.9710    11.4840     8.9930     9.5020  -999.2500   -26.2940 
   94.8750    86.4890    10.9110     8.7710     9.4770  -999.2500   -26.2880 
   95.0000    85.6990     9.9420     8.1730     8.1300  -999.2500   -26.2880 
   95.1250    85.4370     9.0190     7.4890     7.0320  -999.2500   -26.3020 
   95.2500    86.5370     8.4080     6.9680     6.8150  -999.2500   -26.2760 
   95.3750    86.9160     8.1250     6.6710     6.7840  -999.2500   -26.1860 
   95.5000    87.9340     8.0660     6.5640     6.8240  -999.2500   -26.1290 
   95.6250    92.6950     8.0950     6.5700     6.8590  -999.2500   -26.0250 
   95.7500    96.5920     8.1080     6.5960     6.6140  -999.2500   -25.9190 
   95.8750    97.0740     8.0970     6.6140     6.2760  -999.2500   -25.8940 
   96.0000    96.0830     8.0800     6.6210     6.1570  -999.2500   -25.7450 
   96.1250    96.0560     8.0600     6.6120     6.2270  -999.2500   -25.5310 
   96.2500    95.2950     8.0140     6.5710     6.3760  -999.2500   -25.4640 
   96.3750    93.0440     7.9130     6.4780     6.4070  -999.2500   -25.3420 
   96.5000    91.4130     7.7410     6.3180     6.2530  -999.2500   -25.1530 
   96.6250    93.1160     7.4920     6.0840     6.0440  -999.2500   -25.1540 
   96.7500    97.5760     7.1940     5.8040     5.8450  -999.2500   -25.1100 
   96.8750   102.4660     6.8630     5.5010     5.5960  -999.2500   -25.0610 
   97.0000   102.6970     6.5240     5.2040     5.4200  -999.2500   -25.2200 
   97.1250    97.8490     6.2500     4.9730     5.3640  -999.2500   -25.4350 
   97.2500    94.2330     6.1410     4.8740     5.3490  -999.2500   -25.7230 
   97.3750    95.1270     6.3030     4.9800     5.4190  -999.2500   -26.2270 
   97.5000    97.2910     6.7920     5.3390     5.7760  -999.2500   -26.8310 
   97.6250    93.2570     7.6050     5.9780     6.4590  -999.2500   -27.4860 
   97.7500    84.2700     8.5240     6.7590     7.6510  -999.2500   -28.2290 
   97.8750    77.4230     9.3410     7.5330     9.4260  -999.2500   -28.9310 
   98.0000    75.7070     9.8690     8.1360    10.4450  -999.2500   -29.6020 
   98.1250    74.0850     9.9740     8.4080    10.0250  -999.2500   -30.2630 
   98.2500    71.9250     9.8070     8.4130     9.6060  -999.2500   -30.8170 
   98.3750    74.3680     9.5300     8.2550     9.4250  -999.2500   -31.2830 
   98.5000    80.9440     9.2920     8.0550     9.3090  -999.2500   -31.6710 
   98.6250    82.2600     9.1970     7.9120     9.0370  -999.2500   -31.9880 
   98.7500    77.9380     9.2220     7.8400     8.7370  -999.2500   -32.2480 
   98.8750    75.8140     9.3200     7.8220     8.5800  -999.2500   -32.4710 
   99.0000    78.6610     9.4390     7.8270     8.6530  -999.2500   -32.6780 
   99.1250    81.2260     9.5220     7.8230     8.7980  -999.2500   -32.8960 
   99.2500    80.1170     9.5440     7.7870     8.8290  -999.2500   -33.0170 
   99.3750    78.7590     9.5020     7.7140     8.7630  -999.2500   -33.0690 
   99.5000    79.3550     9.4150     7.6190     8.6510  -999.2500   -33.2270 
   99.6250    80.7000     9.3300     7.5370     8.5490  -999.2500   -33.2690 
   99.7500    80.6290     9.2940     7.5060     8.5230  -999.2500   -33.2580 
   99.8750    78.4490     9.3350     7.5490     8.5500  -999.2500   -33.3850 
  100.0000    75.3250     9.4570     7.6740     8.6690  -999.2500   -33.4170 
  100.1250    73.6400     9.6460     7.8710     8.9360  -999.2500   -33.4010 
  100.2500    73.2540     9.8490     8.0930     9.3110  -999.2500   -33.5140 
  100.3750    73.6850    10.0270     8.3020     9.6940  -999.2500   -33.5360 
  100.5000    74.1380    10.1550     8.4760     9.9250  -999.2500   -33.4530 
  100.6250    74.3930    10.2320     8.6030    10.0000  -999.2500   -33.4090 
  100.7500    75.2230    10.2980     8.7090     9.9760  -999.2500   -33.2580 
  100.8750    76.0350    10.3770     8.8090     9.9320  -999.2500   -32.9740 
  101.0000    74.7430    10.4570     8.8950     9.8810  -999.2500   -32.5870 
  101.1250    72.4970    10.4600     8.9090     9.8150  -999.2500   -32.0620 
  101.2500    73.8180    10.3070     8.7920     9.7780  -999.2500   -31.4330 
  101.3750    79.5210     9.9470     8.5000     9.7410  -999.2500   -30.7400 
  101.5000    85.5190     9.3840     8.0300     9.5280  -999.2500   -29.9440 
  101.6250    88.8930     8.6640     7.4060     8.7180  -999.2500   -29.1760 
  101.7500    91.1630     7.9110     6.7320     7.4410  -999.2500   -28.4790 
  101.8750    92.1170     7.2120     6.0840     6.4140  -999.2500   -27.8270 
  102.0000    91.0100     6.6380     5.5270     5.9990  -999.2500   -27.3860 
  102.1250    89.5570     6.2790     5.1430     5.6210  -999.2500   -27.1210 
  102.2500    91.5050     6.1430     4.9440     5.2800  -999.2500   -27.0260 
  102.3750    95.3820     6.2310     4.9360     5.1780  -999.2500   -27.2660 
  102.5000    95.0660     6.5040     5.1010     5.3230  -999.2500   -27.6850 
