~V
VERS. 2.00: Ver 2.00
~W
STRT.M 105.0000:
STOP.M 269.0000:
STEP.M 0.1250:
NULL. -999.2500:
UWI. DF304:
~C
DEPT.M :
GR.API :
CALI.CM :
RXO.OHMM :
RI. :
RML.OHMM :
SP.MV :
DEN.GM/CC :
AC.US/MT :
~A
# ...
  155.0000    66.1090    24.5330    18.2430    20.4810    23.8520   -12.1570     2.5940   253.3400 
  155.1250    67.4920    24.5460    18.5360    20.5250    23.9310   -12.1050     2.5840   255.0930 
  155.2500    65.7090    24.6050    18.8610    20.0080    23.3390   -12.0600     2.5670   261.7680 
  155.3750    62.8780    24.7220    19.1390    18.8890    22.0110   -12.0230     2.5580   272.7220 
  155.5000    63.0790    24.8060    18.6130    17.3610    20.1580   -11.9930     2.5580   283.5470 
  155.6250    66.3430    24.8280    16.2500    15.7970    18.2430   -11.9800     2.5610   287.7660 
  155.7500    66.1910    24.8270    13.7640    14.5550    16.7560   -11.9800     2.5640   285.3530 
  155.8750    62.9960    24.8260    12.6710    13.8030    15.9510   -11.9800     2.5700   279.1950 
  156.0000    62.1290    24.8260    12.8100    13.5750    15.8710   -11.9800     2.5790   272.5440 
  156.1250    62.2870    24.8260    13.5290    13.8580    16.4480   -11.9880     2.5830   268.0020 
  156.2500    59.9980    24.8260    14.5260    14.3900    17.2810   -11.9960     2.5810   266.3270 
  156.3750    56.8250    24.8260    15.7380    14.9610    18.0640   -12.0030     2.5780   267.1700 
  156.5000    55.9640    24.8260    16.3230    15.4010    18.5920   -12.0110     2.5800   268.8590 
  156.6250    58.3720    24.8260    16.0680    15.6300    18.8000   -12.0020     2.5860   269.4040 
  156.7500    59.3980    24.8260    15.8830    15.7410    18.8720   -11.9900     2.5870   269.0620 
  156.8750    58.5640    24.8260    16.5950    15.8100    18.9390   -11.9730     2.5790   269.2490 
  157.0000    57.7610    24.8260    17.7730    15.8840    19.0670   -11.9560     2.5620   270.9030 
  157.1250    58.3020    24.8260    18.0390    15.9670    19.2380   -11.9350     2.5450   273.6790 
  157.2500    59.5300    24.8260    17.0720    16.0270    19.3800   -11.9250     2.5360   276.0810 
  157.3750    60.3910    24.8260    16.0650    16.0400    19.4500   -11.9250     2.5390   277.2140 
  157.5000    65.7460    24.8260    15.5850    16.0040    19.4450   -11.9320     2.5490   276.9470 
  157.6250    73.4960    24.8260    15.7200    15.9330    19.3910   -11.9470     2.5540   275.9180 
  157.7500    74.6030    24.8190    16.2160    15.8510    19.3200   -11.9620     2.5490   275.4220 
  157.8750    67.8670    24.7820    16.5000    15.7600    19.2290   -11.9910     2.5370   276.0390 
  158.0000    61.7580    24.6950    16.0320    15.6590    19.1110   -12.0170     2.5280   277.4210 
  158.1250    62.1240    24.5960    15.2580    15.5470    18.9630   -12.0400     2.5280   278.6770 
  158.2500    62.6600    24.5460    14.9040    15.4090    18.7730   -12.0600     2.5350   279.9820 
  158.3750    61.8180    24.5340    14.8360    15.2310    18.5210   -12.0800     2.5440   282.3710 
  158.5000    61.3090    24.5330    14.7650    15.0190    18.2200   -12.0960     2.5540   286.2560 
  158.6250    61.8550    24.5330    14.4070    14.8170    17.9380   -12.1100     2.5560   290.2840 
  158.7500    63.7390    24.5330    13.7040    14.6750    17.7520   -12.1120     2.5460   292.6180 
  158.8750    66.6330    24.5330    13.0680    14.6190    17.6990   -12.0860     2.5330   292.9240 
  159.0000    72.4340    24.5330    13.1530    14.6240    17.7440   -12.0290     2.5230   292.1090 
  159.1250    76.3330    24.5330    14.0050    14.6170    17.7650   -11.9380     2.5210   291.5490 
  159.2500    73.4060    24.5330    14.2590    14.5350    17.6650   -11.8100     2.5240   291.7320 
  159.3750    65.6170    24.5380    13.6740    14.3640    17.4270   -11.6540     2.5280   292.3030 
  159.5000    59.3880    24.5640    13.0120    14.1210    17.0900   -11.4680     2.5310   292.8440 
  159.6250    58.6040    24.6320    13.0400    13.8430    16.7220   -11.2610     2.5350   293.4050 
  159.7500    59.9760    24.7170    13.4230    13.5950    16.4030   -11.0500     2.5450   293.8220 
  159.8750    63.6730    24.8010    13.6730    13.4400    16.1980   -10.9060     2.5580   292.7700 
  160.0000    67.7220    24.8740    13.3960    13.4420    16.1840   -10.8030     2.5690   288.5100 
  160.1250    67.7710    24.9030    13.1060    13.7130    16.5250   -10.6080     2.5750   280.4720 
  160.2500    65.8620    24.9110    13.7000    14.2520    17.2440   -10.4400     2.5830   271.8830 
  160.3750    63.9010    24.9100    15.2930    15.0180    18.2780   -10.2950     2.5940   265.7390 
  160.5000    62.5810    24.9060    16.9740    15.8690    19.4090   -10.1630     2.6010   263.6700 
  160.6250    61.6220    24.9030    17.5020    16.5250    20.2200   -10.0570     2.5970   265.4580 
  160.7500    62.2840    24.9020    17.3020    16.7680    20.4410    -9.9670     2.5900   267.8210 
  160.8750    64.1340    24.9030    16.7470    16.5190    20.0000    -9.8910     2.5880   268.4770 
  161.0000    66.3730    24.9060    15.8460    15.8820    19.0660    -9.8330     2.5860   267.3920 
  161.1250    67.7760    24.9090    14.8820    15.0860    17.9660    -9.8130     2.5810   267.4450 
  161.2500    66.7240    24.9070    14.1090    14.3990    17.0460    -9.8060     2.5770   270.4390 
  161.3750    65.6910    24.9050    13.5340    13.9720    16.4940    -9.8160     2.5780   274.6700 
  161.5000    66.3410    24.9060    12.9970    13.8990    16.4200    -9.8700     2.5830   276.5820 
  161.6250    68.1690    24.9100    12.7610    14.2590    16.9020    -9.9490     2.5830   273.5320 
  161.7500    69.3300    24.9130    13.3110    14.9010    17.7020   -10.0380     2.5730   268.3040 
  161.8750    69.3990    24.9130    14.5810    15.6470    18.5590   -10.1260     2.5570   264.3450 
  162.0000    68.1320    24.9130    15.8100    16.2640    19.1700   -10.1990     2.5460   263.8460 
  162.1250    66.8970    24.9130    15.8600    16.4680    19.2090   -10.2420     2.5530   266.9980 
  162.2500    68.7020    24.9130    15.1120    16.2780    18.7610   -10.2690     2.5680   271.2940 
  162.3750    71.7970    24.9130    13.9240    15.8400    18.0460   -10.2830     2.5830   275.2940 
  162.5000    71.8020    24.9130    12.9150    15.3580    17.3460   -10.2660     2.5900   278.6750 
  162.6250    70.9070    24.8950    12.4670    15.0140    16.9050   -10.2510     2.5810   282.1080 
  162.7500    71.7270    24.8410    12.5230    14.8430    16.7360   -10.2390     2.5600   286.3990 
  162.8750    72.7010    24.7690    12.8320    14.8250    16.7820   -10.2270     2.5340   291.8700 
  163.0000    71.3490    24.7260    13.1310    14.9080    16.9480   -10.2360     2.5090   298.3410 
  163.1250    70.7250    24.7180    13.1550    15.0640    17.1770   -10.3040     2.4850   305.0930 
  163.2500    72.2830    24.7130    13.3480    15.2950    17.4810   -10.4220     2.4660   310.9430 
  163.3750    74.7500    24.6720    14.1250    15.6400    17.9110   -10.5940     2.4570   314.7300 
  163.5000    77.7200    24.5640    15.1040    16.1160    18.4860   -10.8340     2.4590   315.5980 
  163.6250    81.6270    24.4080    15.3190    16.7320    19.2070   -11.1250     2.4650   313.7200 
  163.7500    83.8240    24.3080    15.6440    17.4690    20.0590   -11.4800     2.4650   312.5190 
  163.8750    83.9640    24.2150    16.7370    18.3820    21.1320   -11.9220     2.4590   315.9390 
  164.0000    83.3220    24.1430    17.8970    19.6140    22.6420   -12.4380     2.4450   326.7530 
  164.1250    82.9700    24.0870    18.6640    21.5590    25.1310   -12.9930     2.4200   344.9160 
  164.2500    81.3980    24.0700    20.3970    24.4700    28.8780   -13.5760     2.3880   364.2580 
  164.3750    78.9150    24.0640    22.8780    27.2190    32.3590   -14.1720     2.3590   379.7400 
  164.5000    76.7490    24.0620    25.2840    29.4810    35.1890   -14.7740     2.3390   388.7500 
  164.6250    73.4900    24.0580    32.0530    35.0250    41.8510   -15.3550     2.3380   391.1240 
  164.7500    72.5840    24.0550    39.5370    40.8630    48.5650   -15.8900     2.3480   390.3890 
  164.8750    73.6530    24.0550    45.4860    45.9500    54.1210   -16.3660     2.3570   388.4900 
