~V
VERS. 2.00: Ver 2.00
~W
STRT.M 57.0000:
STOP.M 290.0000:
STEP.M 0.1250:
NULL. -999.2500:
UWI. DF3043:
~C
DEPT.M :
SP.MV :
DEN.GM/CC :
AC.US/MT :
GR.API :
CALI.CM :
RXO.OHMM :
RI. :
RML.OHMM :
~A
# ...
  167.0000    -9.3550     2.4810   293.5910    61.3400    24.2330    11.7510    12.5120    13.9220 
  167.1250    -9.3910     2.4920   297.7050    63.1330    23.9490    10.3400    11.7190    12.9970 
  167.2500    -9.4440     2.5100   300.7470    63.8660    23.5820     9.8960    11.2260    12.5370 
  167.3750    -9.5100     2.5290   300.1450    62.2420    23.2830     9.9730    11.0860    12.5580 
  167.5000    -9.5730     2.5380   295.2070    60.4030    23.0460    10.1720    11.2670    12.9610 
  167.6250    -9.6270     2.5390   287.3300    60.4010    22.7620    10.3970    11.6830    13.5640 
  167.7500    -9.6660     2.5430   280.7180    59.9630    22.5260    10.8140    12.1360    14.1210 
  167.8750    -9.6930     2.5540   277.2160    57.2800    22.4910    11.0220    12.5040    14.5100 
  168.0000    -9.7240     2.5620   275.9500    53.9940    22.6770    11.3130    12.7300    14.7080 
  168.1250    -9.7370     2.5600   275.4100    53.6180    22.9880    11.7390    12.8160    14.7570 
  168.2500    -9.7280     2.5580   275.1760    55.1150    23.3490    11.9400    12.8430    14.7660 
  168.3750    -9.7150     2.5550   276.0550    55.8220    23.7530    11.8600    12.8670    14.7980 
  168.5000    -9.7220     2.5390   277.5760    55.8000    24.1140    11.5120    12.9280    14.8930 
  168.6250    -9.7810     2.5050   278.0800    54.8940    24.2940    11.4400    13.0590    15.0770 
  168.7500    -9.8600     2.4830   277.0450    52.8150    24.3250    11.8360    13.2460    15.3130 
  168.8750    -9.9430     2.4940   275.0430    50.5750    24.2850    12.4330    13.4530    15.5380 
  169.0000   -10.0410     2.5290   272.8830    50.4070    24.2550    12.9730    13.6320    15.6780 
  169.1250   -10.1670     2.5570   271.0580    53.4220    24.2600    13.1760    13.7270    15.6600 
  169.2500   -10.3230     2.5620   270.3320    56.4200    24.2700    12.7880    13.7530    15.5280 
  169.3750   -10.4840     2.5530   270.7030    58.1100    24.2620    12.3170    13.7430    15.3430 
  169.5000   -10.6280     2.5420   270.9470    58.1760    24.2330    11.8720    13.7210    15.1580 
  169.6250   -10.7720     2.5360   269.9650    57.4590    24.2140    12.0840    13.6840    14.9920 
  169.7500   -10.9310     2.5370   269.4870    58.0020    24.2080    12.2200    13.6160    14.8190 
  169.8750   -11.1200     2.5460   271.3520    61.6470    24.1990    12.1740    13.5070    14.6290 
  170.0000   -11.3410     2.5590   275.4650    65.8940    24.1470    11.9810    13.3690    14.4480 
  170.1250   -11.5900     2.5670   280.7070    66.7860    24.0240    11.7830    13.2440    14.3350 
  170.2500   -11.8730     2.5610   285.5210    65.5970    23.8930    11.4150    13.1590    14.2850 
  170.3750   -12.1800     2.5410   288.7910    63.7120    23.8130    10.9670    13.0810    14.2150 
  170.5000   -12.4990     2.5160   290.7690    62.8870    23.7850    10.6860    12.9230    14.0080 
  170.6250   -12.8190     2.4920   295.0510    64.7040    23.7620    10.3550    12.6140    13.6180 
  170.7500   -13.1420     2.4690   305.3910    67.8870    23.7380     9.9180    12.2910    13.2820 
  170.8750   -13.5020     2.4440   321.4750    69.2830    23.7140     9.5500    12.1850    13.3450 
  171.0000   -13.9090     2.4170   339.9030    68.0310    23.6520     9.7140    12.5600    14.1660 
  171.1250   -14.3520     2.3890   357.0790    68.1500    23.5940    12.6360    13.8370    16.2560 
  171.2500   -14.8130     2.3630   372.0740    70.7230    23.6880    19.7650    16.1470    19.6230 
  171.3750   -15.2790     2.3420   385.0980    73.5850    23.9430    27.1650    19.6040    24.2370 
  171.5000   -15.7530     2.3270   395.3680    76.6270    24.1980    30.5640    24.0750    29.7950 
  171.6250   -16.2160     2.3160   400.8250    78.7190    24.3190    32.9870    29.0440    35.5660 
  171.7500   -16.6340     2.3070   402.4830    78.6930    24.3970    36.0450    33.6280    40.6040 
  171.8750   -16.9960     2.2970   401.7980    77.2850    24.4910    40.0200    37.3390    44.4290 
  172.0000   -17.2840     2.2880   400.6520    76.5080    24.5670    44.7800    40.1110    47.0740 
  172.1250   -17.4930     2.2800   400.3540    79.2510    24.5990    46.9770    42.0960    48.8430 
  172.2500   -17.6510     2.2760   401.3300    82.5830    24.6140    46.5880    43.7410    50.3350 
  172.3750   -17.7580     2.2780   403.3390    82.2800    24.6240    46.0670    45.3430    51.9290 
  172.5000   -17.8290     2.2820   405.3550    77.6220    24.6330    45.3340    47.1990    53.9570 
  172.6250   -17.8740     2.2780   406.2610    71.5700    24.6320    45.1420    49.5870    56.6680 
  172.7500   -17.9150     2.2720   405.7390    69.5500    24.6230    48.2190    52.3210    59.7000 
  172.8750   -17.9670     2.2690   404.5060    71.0130    24.6180    53.8290    54.9480    62.4040 
  173.0000   -18.0270     2.2700   403.7600    72.4330    24.6230    56.8570    56.8370    63.9780 
  173.1250   -18.0880     2.2690   403.9380    71.2460    24.6250    57.3880    57.2690    63.6230 
  173.2500   -18.1390     2.2630   403.9400    69.2590    24.6220    53.1360    56.4660    61.8610 
  173.3750   -18.1610     2.2590   403.0310    70.5060    24.6180    47.2400    54.8550    59.3700 
  173.5000   -18.1530     2.2620   401.7780    75.0580    24.6120    41.8640    52.9560    56.8140 
  173.6250   -18.1230     2.2720   401.2480    78.5430    24.6070    41.8410    51.2400    54.7000 
  173.7500   -18.0930     2.2810   401.5500    80.0730    24.6110    42.6830    49.8870    53.0900 
  173.8750   -18.0890     2.2810   401.9630    81.1160    24.6220    43.2260    48.9300    51.9470 
  174.0000   -18.1140     2.2770   401.6650    81.7450    24.6280    42.0810    48.3550    51.2390 
  174.1250   -18.1510     2.2750   400.6210    79.5000    24.6210    41.4750    48.3190    51.1940 
  174.2500   -18.1810     2.2760   399.9500    75.5370    24.6210    41.8400    49.0540    52.0990 
  174.3750   -18.1870     2.2760   400.2800    74.2010    24.6360    42.7030    51.0220    54.4510 
  174.5000   -18.1940     2.2750   400.9620    76.0580    24.6610    44.3030    54.7400    58.7710 
  174.6250   -18.2410     2.2700   400.9910    77.5830    24.6800    50.2840    61.0790    65.9510 
  174.7500   -18.3210     2.2600   400.2980    76.8380    24.6860    66.1290    69.8380    75.7450 
  174.8750   -18.4150     2.2450   399.2870    74.5140    24.6800    84.2150    80.5330    87.6740 
  175.0000   -18.4860     2.2330   398.2460    72.4590    24.6410    95.3380    91.8580   100.3250 
  175.1250   -18.5360     2.2260   397.6100    71.3670    24.5420    99.8490   101.3230   110.7650 
  175.2500   -18.5960     2.2240   397.8430    70.9510    24.3940   104.6150   107.3870   117.1550 
  175.3750   -18.6660     2.2280   398.6980    70.8570    24.1630   104.8070   109.9430   119.5580 
  175.5000   -18.7420     2.2380   399.3270    71.0360    23.7770    96.4620   110.2610   119.6990 
  175.6250   -18.8120     2.2480   399.1610    71.3290    23.2310    84.2070   110.0950   119.6810 
  175.7500   -18.8820     2.2510   398.9100    71.0380    22.7430    85.1700   110.5260   120.4660 
  175.8750   -18.9680     2.2450   399.5240    70.9510    22.4560    96.9610   111.5850   121.8810 
  176.0000   -19.0530     2.2340   401.3160    72.0610    22.4080   101.3930   112.9030   123.3790 
  176.1250   -19.1190     2.2260   403.6910    72.8550    22.8070    98.6050   113.8810   124.2360 
  176.2500   -19.1590     2.2250   405.2660    71.0930    23.6440    92.0740   114.1850   124.2150 
  176.3750   -19.1880     2.2290   405.7050    67.2660    24.5680    91.2830   113.8440   123.4250 
  176.5000   -19.2290     2.2330   405.5590    66.0200    25.1130    92.5980   113.1530   122.1710 
  176.6250   -19.2640     2.2330   405.5480    71.2240    25.1410    97.2380   112.2750   120.4810 
  176.7500   -19.2810     2.2350   405.7150    76.4170    25.0430    98.0210   110.9650   118.0440 
  176.8750   -19.2910     2.2410   405.6170    76.5890    24.9840    97.9950   108.8340   114.5370 
