~V
VERS. 2.00: Ver 2.00
~W
STRT.M 100.0000:
STOP.M 264.0000:
STEP.M 0.1250:
NULL. -999.2500:
UWI. DF3023:
~C
DEPT.M :
GR.API :
CALI.CM :
RXO.OHMM :
RI. :
RML.OHMM :
SP.MV :
DEN.GM/CC :
AC.US/MT :
~A
  100.0000    74.1340    23.7320     8.3180     7.1240     8.2850   -19.0980     2.2220   472.2560 
  100.1250    75.3660    23.6410     7.5080     6.9130     8.1230   -18.4570     2.2340   463.9720 
  100.2500    75.8980    23.5730     8.7440     6.8600     8.1780   -17.7830     2.2270   449.3750 
  100.3750    75.3720    23.6000     9.9480     6.9120     8.3330   -17.0660     2.2080   438.3050 
  100.5000    74.2600    23.7170    10.5330     7.0130     8.4730   -16.3210     2.1940   438.6470 
  100.6250    75.2380    23.8210     9.9160     7.0640     8.4490   -15.5690     2.2010   437.3560 
  100.7500    78.5940    23.8620     8.7040     6.9690     8.2020   -14.8260     2.2390   419.3550 
  100.8750    83.4440    23.9130     9.8950     6.6840     7.7180   -14.1160     2.3030   392.3570 
  101.0000    88.9420    24.1420    13.7900     6.2160     7.0350   -13.4600     2.3810   381.5260 
  101.1250    93.9160    24.6160    12.0480     5.6260     6.2600   -12.8510     2.4350   405.5170 
  101.2500    98.5080    25.0960     7.2270     5.0620     5.5830   -12.2870     2.4200   439.6150 
  101.3750   102.3990    25.3870     4.6470     4.6250     5.1180   -11.8150     2.3710   460.3310 
  101.5000   105.4420    25.4830     4.2810     4.3690     4.9040   -11.4840     2.3330   459.9430 
  101.6250   104.7420    25.4940     4.5800     4.3350     4.9510   -11.3540     2.3280   448.8830 
  101.7500   101.9420    25.4780     4.9820     4.4550     5.1310   -11.4010     2.3400   441.3080 
  101.8750   100.9120    25.4370     5.2440     4.6420     5.3180   -11.5770     2.3410   446.4990 
  102.0000   101.9490    25.3960     5.0170     4.7970     5.4070   -11.8170     2.3290   461.4870 
  102.1250   103.4350    25.3630     4.8970     4.8510     5.3560   -12.1050     2.3160   467.3480 
  102.2500   106.2020    25.2760     4.7630     4.8440     5.2490   -12.4480     2.3090   458.4540 
  102.3750   108.5230    25.0610     4.5630     4.8210     5.1600   -12.8280     2.3050   446.8040 
  102.5000   108.3860    24.7330     4.3180     4.8170     5.1280   -13.1860     2.3030   442.9550 
  102.6250   106.0420    24.4440     4.5610     4.8300     5.1430   -13.4640     2.3040   442.9410 
  102.7500   105.2290    24.3030     4.9340     4.8180     5.1390   -13.6920     2.3130   443.0910 
  102.8750   107.0810    24.3460     4.9900     4.7410     5.0750   -13.9290     2.3240   446.1030 
  103.0000   109.7210    24.5830     4.7110     4.5870     4.9460   -14.2660     2.3350   450.9730 
  103.1250   112.7570    24.9550     4.4730     4.3850     4.8010   -14.7700     2.3410   455.3410 
  103.2500   115.6430    25.2540     4.4380     4.2040     4.7090   -15.3540     2.3500   456.4680 
  103.3750   117.6990    25.3780     4.4370     4.0950     4.7100   -15.9480     2.3660   452.9550 
  103.5000   118.2010    25.3700     4.5740     4.0920     4.8300   -16.5320     2.3820   445.4590 
  103.6250   115.1680    25.3270     4.9910     4.2400     5.1100   -17.1480     2.3830   440.3450 
  103.7500   109.9150    25.2680     5.7480     4.5260     5.5370   -17.8470     2.3610   434.5720 
  103.8750   105.1900    25.1780     6.4970     4.9520     6.1240   -18.6680     2.3460   416.8710 
  104.0000   101.5170    25.0600     7.1360     5.5190     6.8650   -19.6170     2.3400   388.9020 
  104.1250    97.2910    24.8090     7.8610     6.2070     7.7150   -20.6750     2.3350   380.1130 
  104.2500    92.2220    24.4190     8.7090     6.9160     8.5360   -21.7600     2.3210   400.0320 
  104.3750    87.4140    24.0310     9.5190     7.5460     9.2090   -22.7990     2.2970   422.0890 
  104.5000    83.9280    23.8470    10.3230     8.0150     9.6570   -23.7290     2.2690   416.7410 
  104.6250    81.3220    23.9280    10.7790     8.2620     9.8510   -24.4860     2.2530   387.9490 
  104.7500    80.2480    24.0560    10.5620     8.3550     9.9120   -25.1100     2.2800   371.8560 
  104.8750    80.9680    24.1330    11.0330     8.3490     9.9080   -25.6230     2.3250   385.4060 
  105.0000    81.6110    24.1390    11.8800     8.2640     9.8400   -26.0330     2.3260   418.6660 
  105.1250    81.5700    24.1110    12.3780     8.0560     9.6260   -26.3330     2.2690   445.1330 
  105.2500    81.3930    24.0880    11.8170     7.7220     9.2510   -26.5350     2.1980   453.2760 
  105.3750    79.9070    24.0730    11.2670     7.3040     8.7770   -26.6240     2.1600   448.4500 
  105.5000    77.1060    24.0760    10.4090     6.8950     8.3430   -26.5990     2.1690   441.1460 
  105.6250    76.0050    24.1260     9.4460     6.6210     8.1140   -26.4930     2.2040   436.7540 
  105.7500    77.3060    24.2200     8.6680     6.5120     8.1010   -26.3900     2.2270   436.7280 
  105.8750    77.8640    24.3230     9.3970     6.5550     8.2590   -26.3720     2.2190   439.6020 
  106.0000    77.2750    24.3920    11.0930     6.7000     8.5030   -26.4930     2.2010   442.7340 
  106.1250    76.6950    24.4130    12.1600     6.8900     8.7530   -26.7410     2.1970   444.4490 
  106.2500    77.1720    24.4160    11.3920     7.0830     8.9900   -27.0060     2.2040   444.4170 
  106.3750    78.4120    24.4140    10.5870     7.2720     9.2390   -27.2250     2.2090   442.4510 
  106.5000    78.5360    24.4170    10.7710     7.4510     9.5010   -27.3680     2.2080   439.0520 
  106.6250    75.7610    24.4180    11.6980     7.5760     9.7010   -27.4100     2.2010   437.8310 
  106.7500    72.5550    24.4320    12.0540     7.6030     9.7500   -27.3930     2.1790   440.6990 
  106.8750    71.3520    24.5180    12.0570     7.4960     9.5940   -27.3540     2.1580   444.8590 
  107.0000    72.2820    24.6600    11.0390     7.2720     9.2810   -27.3130     2.1640   445.6740 
  107.1250    75.1190    24.6700    10.1730     7.0280     8.9920   -27.2800     2.1770   440.9750 
  107.2500    78.3400    24.5040     9.7810     6.8910     8.8990   -27.2530     2.1670   436.0740 
  107.3750    81.1120    24.3170    10.4430     6.9240     9.0670   -27.2000     2.1530   434.2190 
  107.5000    82.5210    24.2630    11.8010     7.1330     9.4630   -27.1000     2.1580   434.4680 
  107.6250    79.3710    24.3100    12.8620     7.4830     9.9780   -26.9800     2.1690   433.7450 
  107.7500    72.3430    24.3570    13.5970     7.8550    10.4170   -26.8960     2.1580   431.5620 
  107.8750    64.9040    24.4210    14.1780     8.1610    10.6600   -26.8470     2.1500   429.5540 
  108.0000    61.8250    24.5010    14.2360     8.3490    10.6810   -26.7720     2.1560   428.9680 
  108.1250    63.4930    24.5550    14.0430     8.4160    10.5480   -26.5300     2.1740   431.2090 
  108.2500    66.6060    24.5910    13.9280     8.4350    10.4180   -26.0540     2.1880   435.9280 
  108.3750    67.5370    24.6430    13.8750     8.4610    10.3790   -25.3250     2.1820   441.8070 
  108.5000    65.0930    24.7010    13.5870     8.5280    10.4490   -24.3860     2.1680   445.8210 
  108.6250    63.0350    24.6590    13.6340     8.6080    10.5400   -23.2760     2.1530   443.7090 
  108.7500    66.3100    24.4890    13.7120     8.5900    10.4680   -22.0610     2.1490   437.0700 
  108.8750    72.0800    24.2660    13.8370     8.3520    10.0750   -20.7590     2.1610   429.6310 
  109.0000    74.3940    24.0700    13.3630     7.8270     9.3160   -19.4030     2.1830   425.4890 
  109.1250    74.5810    23.9340    11.1220     7.0360     8.2910   -18.0240     2.2010   427.0510 
  109.2500    80.3220    23.8390     8.0310     6.1770     7.2670   -16.6200     2.2140   431.2080 
  109.3750    91.5740    23.7900     5.9970     5.3920     6.4020   -15.2140     2.2360   435.8820 
  109.5000   101.1340    23.7790     5.4950     4.7650     5.7630   -13.8830     2.2650   440.6800 
  109.6250   104.1710    23.8380     5.1910     4.3440     5.3640   -12.7490     2.2870   446.4760 
  109.7500   106.1740    24.0440     4.9120     4.0760     5.1080   -11.8600     2.3070   452.0610 
  109.8750   108.0280    24.3770     4.7280     3.9340     4.9520   -11.2570     2.3310   455.2490 
