~V
VERS. 2.00: Ver 2.00
~W
STRT.M 130.0000:
STOP.M 271.0000:
STEP.M 0.1250:
NULL. -999.2500:
UWI. DF3076:
~C
DEPT.M :
DEN.GM/CC :
GR.API :
CALI.CM :
RXO.OHMM :
RI. :
RML.OHMM :
SP.MV :
~A
# ...
  163.7500     2.5420    68.8120    24.1230    16.3830    14.5380    16.1240    -9.9920 
  163.8750     2.5510    68.5190    24.1350    16.3840    14.4160    16.0700   -10.0530 
  164.0000     2.5480    66.8370    24.1450    16.7010    14.3910    16.1170   -10.1140 
  164.1250     2.5330    65.7810    24.1460    16.9910    14.5120    16.3250   -10.1660 
  164.2500     2.5190    67.9670    24.1490    17.2730    14.7810    16.6950   -10.2020 
  164.3750     2.5160    72.7980    24.1570    17.7440    15.1890    17.2060   -10.2210 
  164.5000     2.5190    76.4310    24.1680    18.4090    15.6840    17.7810   -10.2360 
  164.6250     2.5230    75.2550    24.1750    19.0090    16.1410    18.2490   -10.2540 
  164.7500     2.5320    70.3630    24.1880    19.3360    16.4030    18.4390   -10.2480 
  164.8750     2.5450    64.6710    24.2040    19.0650    16.3450    18.2430   -10.2330 
  165.0000     2.5520    60.4670    24.2110    18.1670    15.9310    17.6670   -10.2170 
  165.1250     2.5480    58.3970    24.1800    16.8690    15.2160    16.8360   -10.1820 
  165.2500     2.5480    58.1940    24.1450    15.5330    14.4280    16.0200   -10.1200 
  165.3750     2.5600    59.6360    24.0790    14.4550    13.7360    15.3950   -10.0300 
  165.5000     2.5740    60.0160    23.9630    13.6960    13.2520    15.0610    -9.9130 
  165.6250     2.5790    58.7430    23.9070    13.3890    13.0580    15.0690    -9.7490 
  165.7500     2.5770    57.6760    23.8710    13.4130    13.0820    15.2980    -9.5770 
  165.8750     2.5780    57.7560    23.8810    13.8440    13.2550    15.6510    -9.4140 
  166.0000     2.5860    57.9460    23.9530    14.3700    13.4910    16.0190    -9.2840 
  166.1250     2.5960    56.0640    24.0110    14.8150    13.6860    16.2830    -9.2290 
  166.2500     2.6010    54.0090    24.0200    15.2150    13.7910    16.4180    -9.2540 
  166.3750     2.5980    54.0430    24.0180    15.5030    13.8160    16.4620    -9.3510 
  166.5000     2.5880    55.9370    24.0480    15.5750    13.8180    16.4990    -9.5100 
  166.6250     2.5730    58.9800    24.0500    15.5080    13.9000    16.6570    -9.7280 
  166.7500     2.5640    60.6060    24.0390    15.6550    14.1200    16.9810    -9.9670 
  166.8750     2.5630    61.0600    24.0260    16.0570    14.4820    17.4440   -10.2070 
  167.0000     2.5670    61.6690    24.0470    16.9470    14.9320    17.9550   -10.4130 
  167.1250     2.5630    63.0360    24.0690    17.7020    15.3600    18.3610   -10.5620 
  167.2500     2.5530    62.9280    24.0720    17.9730    15.6660    18.5680   -10.6510 
  167.3750     2.5430    60.4760    24.0410    17.7760    15.7970    18.5490   -10.6840 
  167.5000     2.5420    58.1270    24.0260    17.5470    15.7520    18.3410   -10.6750 
  167.6250     2.5470    58.7770    24.0860    17.7070    15.5570    18.0070   -10.6350 
  167.7500     2.5520    60.5540    24.1260    17.6590    15.2890    17.6300   -10.5870 
  167.8750     2.5550    62.0830    24.0900    17.1530    14.9840    17.2350   -10.5290 
  168.0000     2.5540    61.7950    24.0320    16.3050    14.6640    16.8350   -10.4620 
  168.1250     2.5460    59.2830    23.9990    15.5370    14.3530    16.4500   -10.3940 
  168.2500     2.5350    56.2150    23.9970    15.1400    14.0670    16.0910   -10.3360 
  168.3750     2.5250    53.2580    24.0230    15.0760    13.8070    15.7470   -10.2920 
  168.5000     2.5230    51.7480    24.0490    15.0160    13.5590    15.4010   -10.2600 
  168.6250     2.5290    52.3200    24.0470    14.7400    13.3120    15.0410   -10.2420 
  168.7500     2.5360    55.2390    24.0390    14.1440    13.0700    14.6920   -10.2450 
  168.8750     2.5370    59.5120    24.0490    13.3960    12.8480    14.3870   -10.2620 
  169.0000     2.5360    61.7730    24.1250    12.9360    12.6550    14.1410   -10.2970 
  169.1250     2.5400    59.9300    24.2010    13.0920    12.4690    13.9330   -10.3610 
  169.2500     2.5480    56.6330    24.2050    13.3160    12.2510    13.7140   -10.4430 
  169.3750     2.5530    55.4920    24.1310    13.1580    11.9940    13.4770   -10.5390 
  169.5000     2.5500    57.5360    24.0290    12.6620    11.7370    13.2640   -10.6510 
  169.6250     2.5430    60.0720    24.0330    12.2530    11.5720    13.1570   -10.7890 
  169.7500     2.5400    60.1070    24.1010    12.2130    11.5380    13.1650   -10.9430 
  169.8750     2.5480    58.0010    24.1720    12.7060    11.6260    13.2330   -11.1200 
  170.0000     2.5640    56.5970    24.2100    13.3950    11.7600    13.2430   -11.3150 
  170.1250     2.5780    57.7360    24.1870    13.4400    11.8020    13.0430   -11.5260 
  170.2500     2.5790    59.6950    24.1500    12.7550    11.6970    12.6590   -11.7610 
  170.3750     2.5660    60.9670    24.1150    11.8430    11.4930    12.2210   -12.0090 
  170.5000     2.5540    59.4970    24.1000    11.3340    11.3080    11.9000   -12.2670 
  170.6250     2.5570    55.9810    24.0910    11.4620    11.2910    11.8650   -12.5280 
  170.7500     2.5750    54.4780    24.0940    11.8820    11.4570    12.0610   -12.7980 
  170.8750     2.5960    55.5710    24.0900    12.2710    11.7410    12.3780   -13.0810 
  171.0000     2.6070    56.7120    24.0600    12.4900    12.0310    12.6780   -13.3890 
  171.1250     2.5980    57.4700    24.0380    12.5400    12.1880    12.8290   -13.7130 
  171.2500     2.5750    60.4330    24.0280    12.2300    12.1720    12.8000   -14.0570 
  171.3750     2.5480    63.6270    24.0360    11.8390    11.9580    12.5650   -14.4430 
  171.5000     2.5250    63.6590    24.0140    11.7320    11.5190    12.1000   -14.8900 
  171.6250     2.5080    62.7580    23.9930    11.7710    10.8460    11.4310   -15.4280 
  171.7500     2.4880    64.6220    23.9800    11.4520    10.1480    10.8440   -16.0460 
  171.8750     2.4670    66.7890    23.9790    10.6840     9.6990    10.7400   -16.7550 
  172.0000     2.4470    66.5590    24.0220    10.1720     9.8140    11.6020   -17.5620 
  172.1250     2.4260    66.4220    24.0960    11.9450    11.1570    14.3440   -18.4810 
  172.2500     2.4000    68.6960    24.1410    19.8880    14.3400    19.4240   -19.4710 
  172.3750     2.3700    70.7960    24.1570    37.4500    20.3600    27.5460   -20.5020 
  172.5000     2.3420    70.2660    24.2480    60.2090    30.2290    39.3070   -21.5390 
  172.6250     2.3210    66.6530    24.3750    75.7620    44.5850    54.8010   -22.5500 
  172.7500     2.3050    63.6770    24.4920    83.5820    60.2570    70.6190   -23.5400 
  172.8750     2.2950    63.0040    24.5600    89.7370    73.6150    82.9230   -24.4840 
  173.0000     2.2890    64.8610    24.5630    95.7260    82.6720    90.0760   -25.3450 
  173.1250     2.2880    67.9870    24.5270    99.7860    87.8130    93.5810   -26.1190 
  173.2500     2.2910    71.2960    24.4870   101.3140    91.2620    96.2340   -26.8220 
  173.3750     2.3000    74.6130    24.4710   101.0770    93.6820    98.5640   -27.4740 
  173.5000     2.3120    77.7990    24.4540    99.6070    95.3200   100.5090   -28.0970 
  173.6250     2.3150    80.6240    24.4090    96.2210    96.4240   102.0560   -28.6930 
  173.7500     2.3100    82.3780    24.3640    93.5500    97.5490   103.5820   -29.2530 
  173.8750     2.3070    81.8930    24.3350    93.0750    99.1710   105.5040   -29.7890 
  174.0000     2.3110    80.5500    24.3010    93.1930   101.7460   108.2490   -30.3110 
  174.1250     2.3170    77.6890    24.2590    91.5200   105.9120   112.3990   -30.8100 
  174.2500     2.3160    72.6280    24.2110    90.3050   111.6820   117.9730   -31.2840 
  174.3750     2.3060    67.4950    24.1930    93.5850   119.1590   125.0400   -31.7350 
  174.5000     2.2880    64.9960    24.2180   102.6200   128.3420   133.5230   -32.1590 
  174.6250     2.2680    64.8460    24.2150   108.1440   138.8710   142.7810   -32.5450 
  174.7500     2.2550    63.4200    24.2070   104.9470   148.6450   150.4610   -32.9090 
  174.8750     2.2560    61.7800    24.2220   100.4340   154.6180   153.2210   -33.2470 
