~V
VERS. 2.00: Ver 2.00
~W
STRT.M 61.0000:
STOP.M 279.0000:
STEP.M 0.1250:
NULL. -999.2500:
UWI. DF3040:
~C
DEPT.M :
GR.API :
CALI.CM :
RXO.OHMM :
RI. :
RML.OHMM :
DEN.GM/CC :
SP.MV :
~A
# ...
  252.2500    51.1140    23.2930   116.7860    35.6050    35.5840     2.6930   -14.1640 
  252.3750    50.9310    23.1680    57.8240    24.6530    24.9920     2.6200   -14.1260 
  252.5000    54.3180    23.0930    24.1150    17.4860    18.0300     2.5480   -14.1030 
  252.6250    60.2060    23.0400    16.3240    13.5260    14.1630     2.4940   -14.0910 
  252.7500    63.0180    22.8360    14.7110    11.2500    12.0320     2.4660   -14.0940 
  252.8750    61.8350    22.7250    15.2260    10.0480    11.0650     2.4610   -14.0970 
  253.0000    60.2310    22.7280    15.4680     9.5150    10.7880     2.4590   -14.0670 
  253.1250    60.4030    22.9080    14.4450     9.4420    10.8840     2.4520   -14.0280 
  253.2500    61.7410    22.9980    13.1050     9.5590    11.0740     2.4430   -13.9960 
  253.3750    64.1160    23.1510    12.2720     9.7050    11.2110     2.4440   -13.9690 
  253.5000    66.1130    23.0570    11.7960     9.7850    11.2490     2.4520   -13.9320 
  253.6250    66.2600    23.0130    11.8770     9.7980    11.2400     2.4670   -13.8870 
  253.7500    64.1900    22.9020    12.1200     9.7720    11.2590     2.4850   -13.8380 
  253.8750    62.8220    22.7930    11.9680     9.7160    11.2950     2.4950   -13.7890 
  254.0000    62.7670    22.7070    11.8070     9.6440    11.3450     2.4900   -13.7560 
  254.1250    64.9650    22.3460    11.8800     9.5380    11.3850     2.4690   -13.7190 
  254.2500    67.2150    22.2170    11.9880     9.3900    11.3700     2.4440   -13.6880 
  254.3750    66.9410    22.1130    12.0950     9.1970    11.2970     2.4310   -13.6530 
  254.5000    64.6660    22.0450    12.0310     8.9670    11.1780     2.4260   -13.6090 
  254.6250    65.3020    22.0290    12.4220     8.7240    11.0270     2.4200   -13.5530 
  254.7500    68.0350    22.0150    12.1710     8.5110    10.9100     2.4110   -13.4840 
  254.8750    68.7470    21.9870    11.0730     8.3560    10.8620     2.4040   -13.4150 
  255.0000    67.0010    21.9210    10.0140     8.2590    10.9020     2.4010   -13.3590 
  255.1250    65.7830    22.2100     9.8560     8.2430    11.0220     2.4000   -13.3030 
  255.2500    67.1300    22.6110    10.2890     8.2680    11.1650     2.4000   -13.2340 
  255.3750    68.9060    22.6990    10.5500     8.3030    11.2740     2.4020   -13.1610 
  255.5000    69.0300    22.6970    10.5480     8.3210    11.3140     2.4050   -13.0850 
  255.6250    68.9840    22.6810    10.2090     8.2920    11.2780     2.4110   -13.0190 
  255.7500    69.2780    22.7070     9.6770     8.2100    11.1740     2.4200   -12.9630 
  255.8750    69.6190    22.6520     9.6070     8.0840    11.0240     2.4290   -12.8970 
  256.0000    68.5520    22.3080     9.8350     7.9400    10.8670     2.4330   -12.8160 
  256.1250    66.3080    22.0860     9.5600     7.8050    10.7310     2.4320   -12.7250 
  256.2500    64.2600    21.9610     8.8890     7.6880    10.6280     2.4280   -12.6270 
  256.3750    61.8150    21.8990     8.2610     7.5900    10.5540     2.4320   -12.5250 
  256.5000    60.5220    21.5480     8.0060     7.5140    10.4790     2.4380   -12.4260 
  256.6250    61.9770    21.5300     8.0140     7.4710    10.4030     2.4350   -12.3270 
  256.7500    64.8230    21.7580     8.1850     7.4490    10.3430     2.4180   -12.2270 
  256.8750    66.9240    22.1400     8.0960     7.4490    10.3110     2.3970   -12.1330 
  257.0000    67.4120    22.8300     7.5810     7.4560    10.3050     2.3840   -12.0480 
  257.1250    66.6570    23.2160     7.7270     7.4670    10.3240     2.3800   -11.9740 
  257.2500    65.4340    23.3040     8.2350     7.4890    10.3720     2.3840   -11.9190 
  257.3750    62.7390    23.3210     8.7390     7.5120    10.4200     2.3970   -11.8780 
  257.5000    60.0800    23.4990     8.4840     7.5250    10.4580     2.4120   -11.8520 
  257.6250    62.0550    23.3560     7.8800     7.5160    10.4550     2.4210   -11.8480 
  257.7500    66.1330    23.3650     7.4300     7.4960    10.4150     2.4290   -11.8580 
  257.8750    69.2790    23.3540     7.3150     7.4680    10.3510     2.4440   -11.8780 
  258.0000    68.8970    23.3290     7.5320     7.4330    10.2840     2.4560   -11.9070 
  258.1250    65.9720    23.2070     7.8430     7.4000    10.2410     2.4530   -11.9470 
  258.2500    64.6980    23.0880     7.7400     7.3750    10.2370     2.4410   -11.9960 
  258.3750    66.6010    23.1130     7.2830     7.3720    10.2770     2.4370   -12.0540 
  258.5000    69.7000    23.1120     6.9160     7.3920    10.3640     2.4420   -12.1210 
  258.6250    69.3670    23.0650     7.2860     7.4260    10.4610     2.4450   -12.1790 
  258.7500    66.8110    23.0470     8.0710     7.4630    10.5550     2.4440   -12.2270 
  258.8750    65.0070    23.0370     8.6830     7.4950    10.6270     2.4500   -12.2760 
  259.0000    63.2670    23.1140     8.8940     7.5140    10.6770     2.4680   -12.3100 
  259.1250    62.4040    23.1420     8.8080     7.5150    10.6870     2.4830   -12.3220 
  259.2500    63.3250    23.0210     8.7720     7.4910    10.6440     2.4800   -12.3190 
  259.3750    65.5790    22.7920     8.4910     7.4470    10.5710     2.4560   -12.3020 
  259.5000    66.8670    22.7100     8.1780     7.3910    10.4760     2.4310   -12.2610 
  259.6250    65.1100    22.7610     8.4250     7.3310    10.3760     2.4150   -12.2170 
  259.7500    63.7180    22.7110     9.0940     7.2730    10.2980     2.4100   -12.1700 
  259.8750    65.3200    22.4880     9.6510     7.2320    10.2350     2.4200   -12.0990 
  260.0000    69.6290    22.4070     9.5460     7.2130    10.2070     2.4440   -12.0290 
  260.1250    72.6030    22.5370     8.6600     7.2180    10.2050     2.4760   -11.9670 
  260.2500    70.9660    22.9580     7.9960     7.2460    10.2280     2.5020   -11.8950 
  260.3750    66.9570    23.3510     7.6560     7.2920    10.2650     2.5090   -11.8190 
  260.5000    64.3350    23.5460     7.4080     7.3370    10.2920     2.4970   -11.7550 
  260.6250    65.2100    23.4940     7.1250     7.3680    10.3080     2.4730   -11.6850 
  260.7500    66.1200    23.3400     7.0080     7.3820    10.3030     2.4490   -11.6170 
  260.8750    64.0170    23.3970     6.8750     7.3780    10.2880     2.4350   -11.5730 
  261.0000    62.2990    23.4260     6.8620     7.3690    10.2800     2.4250   -11.5290 
  261.1250    62.9180    23.3250     7.3860     7.3560    10.2850     2.4170   -11.4770 
  261.2500    62.5080    23.2930     7.6270     7.3430    10.3050     2.4170   -11.4340 
  261.3750    60.1480    23.2990     7.4530     7.3330    10.3350     2.4290   -11.4100 
  261.5000    58.3790    23.3420     7.2180     7.3330    10.3730     2.4380   -11.3890 
  261.6250    61.0810    23.5300     7.3340     7.3510    10.4370     2.4300   -11.3770 
  261.7500    64.9250    23.4340     7.5640     7.3780    10.5120     2.4160   -11.3830 
  261.8750    66.5400    23.3120     7.5910     7.4090    10.6040     2.4170   -11.4070 
  262.0000    65.8390    23.2950     7.5890     7.4430    10.6860     2.4420   -11.4440 
  262.1250    65.9540    23.3410     7.4750     7.4750    10.7750     2.4750   -11.5020 
  262.2500    68.2870    23.4260     7.1830     7.5150    10.8670     2.4950   -11.5440 
  262.3750    68.3810    23.3920     7.1660     7.5570    10.9570     2.4910   -11.5730 
  262.5000    64.0020    23.0750     7.4280     7.6080    11.0570     2.4790   -11.6080 
  262.6250    59.3150    23.1540     7.8360     7.6870    11.2130     2.4650   -11.6630 
  262.7500    58.5120    23.3930     7.7180     7.8020    11.3770     2.4350   -11.7210 
  262.8750    60.7470    23.5210     7.5310     7.9560    11.5500     2.3830   -11.7700 
  263.0000    62.8650    23.5240     7.2680     8.1360    11.7280     2.3370   -11.8280 
  263.1250    61.4850    23.4530     6.9940     8.3180    11.8920     2.3310   -11.8870 
  263.2500    57.7540    23.2000     6.7570     8.4650    11.9900     2.3720   -11.9740 
  263.3750    57.7940    23.1920     7.1780     8.5490    12.0230     2.4300   -12.0660 
