~V
VERS. 2.00: Ver 2.00
~W
STRT.M 125.0000:
STOP.M 275.0000:
STEP.M 0.1250:
NULL. -999.2500:
UWI. DF3046:
~C
DEPT.M :
GR.API :
CALI.CM :
RXO.OHMM :
RI. :
RML.OHMM :
DEN.GM/CC :
SP.MV :
~A
# ...
  226.2500    62.0620    24.7140   119.1590    88.7250    98.9310     2.2370   -25.7850 
  226.3750    64.3290    24.8490   137.4010    87.5760    98.2990     2.2100   -25.8620 
  226.5000    65.9530    25.0220   143.7800    85.7310    96.7860     2.1760   -25.9010 
  226.6250    63.1410    25.0840   115.0630    83.1170    94.2370     2.1560   -25.9020 
  226.7500    59.8160    25.0950    84.1390    80.2070    91.2820     2.1560   -25.8790 
  226.8750    61.4500    25.1140    75.6300    77.5250    88.6090     2.1730   -25.8650 
  227.0000    68.2600    25.1020    83.1170    75.6220    86.8590     2.1960   -25.8250 
  227.1250    70.8680    25.0460    89.0380    75.0200    86.4880     2.2100   -25.6860 
  227.2500    67.2280    24.9680    84.9170    75.1750    86.8510     2.2150   -25.4740 
  227.3750    62.9310    24.8960    82.6260    75.2370    87.1330     2.2240   -25.2290 
  227.5000    61.6350    24.8720    88.9660    74.5040    86.6610     2.2460   -24.9770 
  227.6250    61.8440    24.9700    93.3950    72.9060    85.2550     2.2710   -24.7350 
  227.7500    63.0260    25.0060    89.1830    71.2930    83.6950     2.2880   -24.4930 
  227.8750    65.6210    24.9740    81.5110    70.3780    82.7720     2.2930   -24.2370 
  228.0000    68.3310    24.8690    86.1620    70.7600    83.1990     2.2900   -24.0030 
  228.1250    69.5150    24.7820   102.3200    73.2670    85.8670     2.2940   -23.8380 
  228.2500    69.4750    24.7860   107.5000    77.8180    90.7330     2.3220   -23.6990 
  228.3750    68.2400    24.8550    98.1100    84.1600    97.7450     2.3860   -23.5260 
  228.5000    66.5780    24.8710    90.7020    91.6950   106.3330     2.4850   -23.3000 
  228.6250    66.3020    24.8300   122.0810    98.9410   113.4880     2.5860   -22.9560 
  228.7500    67.2540    24.6950   162.9720   102.1840   113.6000     2.6560   -22.5240 
  228.8750    66.8160    24.4770   152.0940    95.8710   102.1320     2.6740   -21.9740 
  229.0000    65.3100    24.2870    90.8180    77.3570    79.9460     2.6370   -21.3080 
  229.1250    64.2120    24.2820    58.5770    52.7660    54.5090     2.5750   -20.5630 
  229.2500    64.6850    24.3470    41.2630    32.5160    34.1590     2.5100   -19.7870 
  229.3750    64.6030    24.3620    23.5740    19.3350    20.9160     2.4570   -18.9880 
  229.5000    62.6800    24.3120    11.2360    11.9900    13.4170     2.4310   -18.1920 
  229.6250    60.7040    24.3030     7.8070     8.6480     9.9920     2.4320   -17.4930 
  229.7500    59.8640    24.2710     7.0380     7.0540     8.5310     2.4490   -16.8970 
  229.8750    59.8440    24.1980     6.9330     6.4990     8.2440     2.4600   -16.4290 
  230.0000    59.0610    24.1140     7.0650     6.6200     8.5960     2.4530   -16.0800 
  230.1250    57.6990    24.0930     7.4340     7.1340     9.1510     2.4390   -15.8430 
  230.2500    56.6310    24.1550     7.8170     7.6510     9.5390     2.4290   -15.6850 
  230.3750    55.8950    24.1760     8.0040     7.9560     9.6140     2.4300   -15.6110 
  230.5000    56.2030    24.0250     8.0100     7.9690     9.3850     2.4350   -15.6280 
  230.6250    58.1980    23.6780     7.7730     7.7170     8.9830     2.4360   -15.6850 
  230.7500    61.0810    23.4100     7.3360     7.3850     8.6260     2.4350   -15.7380 
  230.8750    62.5600    23.3260     6.8590     7.0890     8.4270     2.4350   -15.7630 
  231.0000    62.1710    23.4070     6.7310     6.8950     8.4200     2.4350   -15.7540 
  231.1250    62.1090    23.6230     7.0070     6.8260     8.5710     2.4390   -15.6990 
  231.2500    61.9630    23.8250     7.2710     6.8090     8.7470     2.4510   -15.6000 
  231.3750    60.4080    23.8660     7.2920     6.7690     8.8400     2.4660   -15.4680 
  231.5000    57.9100    23.7180     7.2540     6.6380     8.7710     2.4710   -15.3270 
  231.6250    56.4020    23.5190     7.3310     6.3650     8.4800     2.4630   -15.1930 
  231.7500    55.9070    23.4480     7.2810     6.0120     8.0530     2.4500   -15.0720 
  231.8750    55.8680    23.5070     6.9600     5.6740     7.6100     2.4400   -15.0080 
  232.0000    56.7280    23.6370     6.6180     5.4600     7.3100     2.4370   -15.0440 
  232.1250    60.5260    23.7990     6.6350     5.4900     7.3720     2.4380   -15.2290 
  232.2500    69.6620    23.8040     7.1000     5.7590     7.8180     2.4400   -15.5310 
  232.3750    83.2610    23.6920     7.9380     6.2320     8.5740     2.4420   -15.9030 
  232.5000    97.1890    23.6060     8.7450     6.8080     9.4460     2.4440   -16.2440 
  232.6250   104.9510    23.7650     9.1490     7.3020    10.1320     2.4460   -16.4720 
  232.7500   107.5320    24.1040     9.0030     7.5910    10.4780     2.4430   -16.6050 
  232.8750   106.6860    24.3990     8.8230     7.6610    10.4870     2.4320   -16.6490 
  233.0000   103.7410    24.4890     8.6490     7.5820    10.2700     2.4180   -16.6020 
  233.1250   101.1420    24.4990     8.3450     7.4540     9.9820     2.4130   -16.4010 
  233.2500   102.3890    24.5270     8.0680     7.3590     9.7540     2.4160   -16.0900 
  233.3750   106.6390    24.5460     7.9880     7.3140     9.6280     2.4180   -15.7270 
  233.5000   109.6620    24.5380     8.1060     7.3100     9.6020     2.4110   -15.3960 
  233.6250   113.0910    24.5630     8.2670     7.3360     9.6540     2.4040   -15.1630 
  233.7500   119.4260    24.6500     8.3990     7.3920     9.7400     2.4040   -15.0310 
  233.8750   123.9210    24.7230     8.4830     7.4850     9.8590     2.4090   -14.9510 
  234.0000   121.6230    24.7700     8.5980     7.6230    10.0260     2.4120   -14.8990 
  234.1250   115.3960    24.7870     8.8520     7.7960    10.2500     2.4180   -14.9200 
  234.2500   112.8400    24.7950     9.1190     7.9680    10.4720     2.4250   -14.9940 
  234.3750   113.4320    24.7940     9.1490     8.1110    10.6120     2.4320   -15.0440 
  234.5000   113.5690    24.7920     8.9170     8.2150    10.6130     2.4330   -15.0250 
  234.6250   111.7300    24.7960     8.6760     8.2970    10.4870     2.4350   -14.9390 
  234.7500   110.8650    24.7990     8.6290     8.3880    10.3770     2.4390   -14.8110 
  234.8750   112.9620    24.7820     8.7720     8.4960    10.3980     2.4440   -14.6790 
  235.0000   116.5320    24.7350     9.0280     8.5960    10.5810     2.4480   -14.5470 
  235.1250   118.4240    24.6990     9.2560     8.6380    10.8480     2.4510   -14.3760 
  235.2500   118.0460    24.6600     9.2620     8.5920    11.0320     2.4500   -14.1960 
  235.3750   115.1000    24.6300     9.1460     8.4400    11.0060     2.4450   -14.0810 
  235.5000   109.9560    24.6210     8.9200     8.1690    10.6990     2.4440   -14.0380 
  235.6250   108.1290    24.6460     8.6940     7.7650    10.0850     2.4480   -14.0890 
  235.7500   111.3800    24.6890     8.5600     7.3210     9.3780     2.4510   -14.2020 
  235.8750   115.3210    24.7250     8.5770     6.9950     8.8820     2.4480   -14.3290 
  236.0000   117.0810    24.7230     8.6620     7.0100     9.0170     2.4380   -14.4340 
  236.1250   116.4730    24.6900     9.2380     7.8400    10.5740     2.4260   -14.5740 
  236.2500   112.5310    24.6130    12.0820     9.9950    14.1020     2.4060   -14.7550 
  236.3750   103.1640    24.4650    22.2970    14.5270    20.6180     2.3740   -14.9920 
  236.5000    90.9060    24.3870    55.0030    23.0460    31.7090     2.3310   -15.3080 
  236.6250    79.9930    24.4670   108.4080    38.3930    50.4430     2.2890   -15.7000 
  236.7500    71.1880    24.6330   144.8090    59.3080    75.4640     2.2570   -16.1370 
  236.8750    66.0030    24.7530   160.8400    81.8220   102.7330     2.2370   -16.6350 
  237.0000    63.9860    24.8270   178.3780   100.6970   126.5120     2.2240   -17.1930 
  237.1250    62.5770    24.8630   198.3630   113.0590   142.3660     2.2120   -17.7310 
  237.2500    60.8420    24.8820   205.4640   121.8450   153.2010     2.2020   -18.2320 
  237.3750    60.1750    24.8910   206.1940   128.7710   161.9670     2.1990   -18.6580 
