~V
VERS. 2.00: Ver 2.00
~W
STRT.M 60.0000:
STOP.M 266.0000:
STEP.M 0.1250:
NULL. -999.2500:
UWI. DF3052:
~C
DEPT.M :
GR.API :
CALI.CM :
RXO.OHMM :
RI. :
RML.OHMM :
DEN.GM/CC :
SP.MV :
~A
# ...
  150.0000    95.4490    22.3240     5.6260     6.8970     7.7020     2.2580   -14.5530 
  150.1250    96.0650    22.3980     5.6030     6.9500     7.7450     2.2850   -14.3540 
  150.2500    93.8850    22.4380     5.9290     7.0680     7.8680     2.3120   -14.1500 
  150.3750    90.3550    22.4250     6.5690     7.1830     7.9860     2.3470   -13.9210 
  150.5000    87.4330    22.4070     7.2580     7.1930     7.9770     2.3900   -13.6900 
  150.6250    86.5990    22.4200     7.6550     7.0040     7.7760     2.4330   -13.4960 
  150.7500    87.4900    22.4340     7.4380     6.7450     7.5300     2.4520   -13.3280 
  150.8750    88.8660    22.4330     6.8260     6.5440     7.3730     2.4320   -13.1790 
  151.0000    89.1880    22.4340     6.3770     6.5040     7.4190     2.3860   -13.0360 
  151.1250    87.7050    22.4420     6.5220     6.8340     7.8690     2.3530   -12.8970 
  151.2500    85.1000    22.4320     7.3100     7.4630     8.6040     2.3540   -12.7320 
  151.3750    81.6720    22.4190     8.7520     8.2800     9.4800     2.3800   -12.5720 
  151.5000    78.1000    22.4370    10.4460     9.1230    10.3480     2.4170   -12.4340 
  151.6250    75.9510    22.4770    11.2400     9.8730    11.1200     2.4600   -12.3100 
  151.7500    74.8810    22.5260    11.0540    10.5370    11.8100     2.5010   -12.2020 
  151.8750    73.2340    22.6220    10.8220    11.1520    12.4610     2.5280   -12.1090 
  152.0000    70.0350    22.7950    11.3810    11.8330    13.1710     2.5380   -12.0340 
  152.1250    65.8240    23.0090    13.2740    12.5080    13.8100     2.5420   -11.9630 
  152.2500    62.1740    23.1800    15.8780    12.9430    14.1610     2.5540   -11.9520 
  152.3750    60.4630    23.2730    18.0120    13.0350    14.1220     2.5710   -12.0020 
  152.5000    62.3810    23.2570    18.2000    12.6930    13.5920     2.5830   -12.1040 
  152.6250    69.7660    23.1050    15.6300    11.8790    12.5980     2.5780   -12.2720 
  152.7500    78.5050    22.9090    11.9230    11.0120    11.7180     2.5520   -12.4460 
  152.8750    82.9400    22.7870     9.1410    10.5720    11.4670     2.5080   -12.6160 
  153.0000    79.7580    22.7960     8.8000    10.9350    12.1760     2.4600   -12.7700 
  153.1250    70.2600    22.9030    11.3960    12.4480    14.0990     2.4440   -12.9190 
  153.2500    60.0690    23.0530    15.5660    14.8180    16.8190     2.4740   -13.0520 
  153.3750    52.2200    23.2460    19.3950    17.6030    19.8390     2.5420   -13.1620 
  153.5000    47.7690    23.4410    21.2670    20.1270    22.3950     2.6120   -13.2330 
  153.6250    46.7560    23.5690    21.1950    21.3720    23.3060     2.6440   -13.2470 
  153.7500    48.5280    23.6140    20.3690    20.9520    22.2620     2.6390   -13.2620 
  153.8750    53.2320    23.5430    18.9310    19.1720    19.8520     2.6140   -13.2850 
  154.0000    59.6050    23.3210    16.5530    16.9210    17.2510     2.5810   -13.3090 
  154.1250    64.2420    23.0160    13.6950    15.3090    15.5970     2.5310   -13.3120 
  154.2500    65.1700    22.8030    11.9260    14.5230    14.8910     2.4690   -13.2810 
  154.3750    62.1290    22.7540    12.2200    14.3820    14.8370     2.4170   -13.1970 
  154.5000    56.7960    22.8200    14.8460    14.5490    15.0380     2.4080   -13.0870 
  154.6250    54.5630    22.9190    18.4680    14.5230    14.9930     2.4590   -12.9670 
  154.7500    58.8850    22.9900    20.2980    14.0580    14.4480     2.5210   -12.8330 
  154.8750    68.0260    22.9920    18.6930    13.0740    13.3670     2.5510   -12.6810 
  155.0000    77.1050    22.9040    14.4380    11.7940    12.0560     2.5320   -12.5230 
  155.1250    81.3460    22.7540    10.1020    10.6830    11.0970     2.4810   -12.3610 
  155.2500    80.8970    22.6400     8.1220    10.2180    10.9650     2.4340   -12.1860 
  155.3750    76.6840    22.6360     8.5610    10.7200    11.9200     2.4060   -12.0260 
  155.5000    70.3670    22.7720    11.0530    12.2310    13.9010     2.4040   -11.8630 
  155.6250    64.9310    23.0300    15.1020    14.6970    16.7680     2.4350   -11.6800 
  155.7500    62.3270    23.3230    19.0850    17.5490    19.9530     2.4920   -11.5010 
  155.8750    62.3330    23.6140    21.1520    20.3350    22.9570     2.5550   -11.3360 
  156.0000    62.9840    23.8630    21.2440    22.4320    25.0620     2.5960   -11.1780 
  156.1250    61.6960    23.9900    21.0570    23.1650    25.5470     2.5930   -11.0710 
  156.2500    59.0530    24.0230    21.6250    22.9590    25.0530     2.5640   -11.0380 
  156.3750    56.9240    24.0500    22.2580    22.3030    24.1760     2.5380   -11.0710 
  156.5000    56.2950    24.0890    22.0430    21.7060    23.5120     2.5350   -11.1650 
  156.6250    56.7240    24.0810    20.9620    21.5740    23.4620     2.5570   -11.3050 
  156.7500    57.3960    24.0620    20.2130    21.9220    23.8970     2.5790   -11.4660 
  156.8750    57.7710    24.0910    20.8470    22.5290    24.5820     2.5870   -11.6190 
  157.0000    56.8490    24.1330    22.9270    23.2530    25.3980     2.5810   -11.7740 
  157.1250    54.8620    24.1130    25.4090    24.0330    26.2320     2.5720   -11.9340 
  157.2500    54.5100    24.0440    27.5170    24.5880    26.7740     2.5680   -12.0590 
  157.3750    56.7740    23.9480    28.6810    24.7680    26.8540     2.5700   -12.1510 
  157.5000    60.3510    23.8400    28.6990    24.4860    26.4200     2.5710   -12.2120 
  157.6250    62.7210    23.7570    28.2250    23.8440    25.5880     2.5610   -12.2450 
  157.7500    63.0450    23.7080    27.7300    23.0980    24.6890     2.5490   -12.2430 
  157.8750    61.9860    23.6810    26.7600    22.4970    23.9970     2.5470   -12.2420 
  158.0000    60.8660    23.6990    24.8880    22.1670    23.6410     2.5510   -12.2430 
  158.1250    60.6540    23.7920    22.7010    22.1220    23.6410     2.5450   -12.2130 
  158.2500    61.4090    23.8820    22.1530    22.2640    23.8070     2.5270   -12.1860 
  158.3750    63.4710    23.9110    22.9230    22.4010    23.9370     2.5060   -12.1550 
  158.5000    66.1050    23.8700    24.0590    22.3520    23.8040     2.4880   -12.1230 
  158.6250    66.8550    23.7800    23.9930    21.9220    23.2730     2.4760   -12.0910 
  158.7500    65.4890    23.6870    22.8350    21.1680    22.3960     2.4690   -12.0940 
  158.8750    63.7320    23.6300    21.4170    20.1950    21.2730     2.4670   -12.0830 
  159.0000    62.8060    23.6220    20.2880    19.1150    20.0650     2.4720   -12.0530 
  159.1250    62.3950    23.6330    19.3410    18.1050    18.9890     2.4970   -11.9990 
  159.2500    62.5630    23.6420    18.2710    17.2640    18.1820     2.5270   -11.9200 
  159.3750    63.7460    23.6610    16.9940    16.7090    17.7290     2.5410   -11.8450 
  159.5000    65.0340    23.6870    15.9080    16.5030    17.6600     2.5270   -11.7800 
  159.6250    64.0950    23.6810    16.1320    16.5910    17.8750     2.5050   -11.7380 
  159.7500    60.7030    23.6510    17.4930    16.8040    18.1990     2.4980   -11.6850 
  159.8750    56.2270    23.6370    18.7830    17.0490    18.5350     2.5050   -11.6710 
  160.0000    52.7740    23.6460    19.0300    17.2320    18.7760     2.5120   -11.7040 
  160.1250    52.5240    23.6440    18.4710    17.2940    18.8800     2.5140   -11.7950 
  160.2500    54.4670    23.6110    17.9320    17.2760    18.8790     2.5170   -11.9520 
  160.3750    56.3540    23.5470    17.7080    17.1870    18.7860     2.5280   -12.1660 
  160.5000    56.7570    23.4780    17.5330    17.0240    18.6280     2.5440   -12.4210 
  160.6250    56.5040    23.4350    17.2330    16.8630    18.4770     2.5570   -12.7300 
  160.7500    56.8940    23.4230    17.0710    16.7520    18.3670     2.5570   -13.0870 
  160.8750    57.2460    23.4150    17.2220    16.6510    18.2380     2.5380   -13.4730 
  161.0000    57.0200    23.3860    17.5560    16.5100    18.0370     2.5060   -13.8740 
  161.1250    57.3520    23.3490    17.5540    16.2980    17.7670     2.4770   -14.2860 
