~V
VERS. 2.00: Ver 2.00
~W
STRT.M 60.0000:
STOP.M 275.0000:
STEP.M 0.1250:
NULL. -999.2500:
UWI. DF3003:
~C
DEPT.M :
DEN.GM/CC :
SP.MV :
AC.US/MT :
GR.API :
RML.OHMM :
RI. :
RXO.OHMM :
CALI.CM :
~A
# ...
  200.0000     1.8940    -8.1050   383.8440    90.6780     7.3950     6.2410     5.4780    26.4900 
  200.1250     1.9640    -7.9610   378.9610    93.7710     7.4100     6.2530     5.3570    25.4100 
  200.2500     2.0270    -7.9130   375.3650    95.9240     7.2480     6.1340     5.4480    24.8380 
  200.3750     2.0770    -8.0360   375.8080    99.1300     6.9180     5.8880     5.4010    24.5980 
  200.5000     2.1230    -8.2460   379.6890   101.3700     6.5120     5.5740     5.0700    24.5090 
  200.6250     2.1770    -8.4920   383.1470    97.9090     6.2320     5.3260     4.9050    24.4520 
  200.7500     2.2390    -8.7650   383.3930    92.7140     6.2600     5.2860     5.0060    24.4260 
  200.8750     2.2960    -9.1030   380.1990    92.5740     6.7250     5.5650     5.5060    24.4220 
  201.0000     2.3360    -9.5890   374.5990    96.8590     7.6730     6.2270     6.6670    24.4260 
  201.1250     2.3550   -10.2330   368.5790    96.4680     9.1040     7.3210     8.6670    24.4340 
  201.2500     2.3670   -10.8710   364.7090    89.0070    10.7820     8.6990    11.1100    24.4550 
  201.3750     2.3770   -11.4040   363.6920    81.3980    12.4340    10.2560    13.2030    24.4620 
  201.5000     2.3860   -11.8850   363.6110    78.5120    13.9530    11.9130    14.0220    24.4310 
  201.6250     2.3910   -12.3930   361.1400    77.4260    15.4990    13.7110    14.8740    24.3380 
  201.7500     2.3870   -12.8980   356.3130    74.1130    17.5100    15.7590    17.0210    24.2670 
  201.8750     2.3700   -13.3990   352.1800    68.4550    20.3560    18.1920    20.8440    24.1940 
  202.0000     2.3410   -13.9180   352.5200    64.4820    24.4830    21.0790    25.5040    24.1310 
  202.1250     2.3080   -14.4620   359.8310    67.9940    29.6050    24.4660    29.2410    23.9950 
  202.2500     2.2780   -15.0100   370.6540    76.6340    34.9220    28.2220    32.4220    23.8610 
  202.3750     2.2560   -15.5990   381.2700    83.2520    39.7000    32.3750    36.2400    23.7680 
  202.5000     2.2420   -16.2370   389.4440    82.4090    45.1820    37.0830    41.4850    23.6530 
  202.6250     2.2320   -16.8840   395.7020    76.5300    51.8250    42.7270    49.0530    23.5770 
  202.7500     2.2220   -17.5470   401.8130    72.2150    59.5290    49.2890    57.1560    23.4930 
  202.8750     2.2130   -18.2320   408.3270    71.0670    68.0090    56.6230    63.6850    23.5310 
  203.0000     2.2030   -18.8930   416.2440    70.4060    76.7010    64.3370    68.6900    23.6520 
  203.1250     2.1970   -19.5160   421.8580    69.9950    84.5730    71.6590    75.3530    23.7960 
  203.2500     2.1920   -20.2240   420.4660    70.0680    90.6830    77.7460    81.6930    23.9310 
  203.3750     2.1900   -20.9040   414.1010    70.7710    94.1900    81.8380    85.3180    24.0160 
  203.5000     2.1890   -21.4380   406.3510    71.2360    94.6360    83.4290    84.3200    24.0790 
  203.6250     2.1890   -21.9370   396.9250    68.8050    91.9230    82.1850    78.5410    24.2920 
  203.7500     2.1890   -22.4430   388.0640    67.1220    87.7760    79.3470    71.5920    24.3270 
  203.8750     2.1920   -22.8330   384.5010    68.2860    83.6460    76.0710    64.5980    24.3970 
  204.0000     2.1960   -23.1170   385.4760    70.2970    80.6870    73.4560    59.0540    24.5080 
  204.1250     2.2000   -23.4070   384.7110    69.2340    79.8000    72.5050    55.2790    24.6080 
  204.2500     2.2020   -23.6730   382.1080    66.6880    80.6710    73.1790    54.8020    24.7030 
  204.3750     2.2010   -23.9290   378.9040    65.4470    82.9690    75.2880    57.6250    24.7920 
  204.5000     2.1970   -24.1860   371.6650    63.8670    86.3180    78.5500    61.8120    24.8640 
  204.6250     2.1910   -24.4510   352.5590    62.8650    90.7050    83.0170    65.8580    24.8560 
  204.7500     2.1850   -24.7350   321.9540    65.0980    96.3110    88.7890    69.9590    24.7930 
  204.8750     2.1810   -25.0610   291.0740    68.9670   103.7340    96.3380    74.9220    24.7070 
  205.0000     2.1790   -25.3760   274.8130    68.8860   113.3840   105.9470    82.6480    24.6490 
  205.1250     2.1800   -25.6390   282.8180    63.6430   124.9920   117.3080    96.5600    24.6340 
  205.2500     2.1830   -25.8920   305.4990    59.7690   136.3650   128.4500   114.5910    24.6490 
  205.3750     2.1870   -26.1600   334.8450    59.7910   145.0940   137.2610   131.3160    24.7050 
  205.5000     2.1910   -26.4390   364.1290    61.9340   149.2720   142.0340   139.9980    24.8110 
  205.6250     2.1940   -26.6590   384.0010    62.8630   148.2420   141.9370   133.8900    24.9380 
  205.7500     2.1960   -26.8390   393.9370    64.0490   145.2170   139.5680   123.2210    24.9950 
  205.8750     2.1960   -26.9460   397.5070    65.6370   142.8260   137.3100   116.2660    25.0070 
  206.0000     2.1960   -27.0070   398.7440    65.3540   142.4760   136.8130   118.3770    25.0030 
  206.1250     2.1950   -27.0850   400.3500    64.0480   144.2260   138.5300   128.7490    24.9970 
  206.2500     2.1950   -27.1380   401.4010    64.6670   146.4310   140.9370   140.8980    24.9930 
  206.3750     2.1990   -27.1460   400.6430    65.3080   148.1390   142.7750   148.4430    24.9910 
  206.5000     2.2060   -27.1110   397.8590    63.1160   149.2600   143.4770   145.8480    24.9910 
  206.6250     2.2120   -27.0590   394.2830    61.7080   149.6340   143.5140   134.5370    24.9900 
  206.7500     2.2140   -26.9800   391.5050    63.6350   150.3600   144.0860   126.1500    24.9830 
  206.8750     2.2100   -26.8780   389.8990    64.1140   151.2320   145.5970   126.2410    24.9590 
  207.0000     2.2010   -26.7700   389.4960    59.8120   152.1070   147.3160   132.1920    24.9040 
  207.1250     2.1920   -26.6520   390.7610    55.3310   151.0680   146.9880   140.7100    24.7770 
  207.2500     2.1860   -26.5170   393.3820    56.2370   147.7780   143.0820   138.2260    24.6060 
  207.3750     2.1860   -26.3170   396.5540    61.0430   141.7310   135.3460   122.9250    24.4770 
  207.5000     2.1870   -26.0740   399.0690    66.1240   131.5080   125.0940   102.8890    24.4350 
  207.6250     2.1860   -25.8620   399.8120    70.5390   120.8040   114.8990    87.3710    24.5150 
  207.7500     2.1800   -25.6690   398.8580    72.6220   112.5260   107.0150    79.0460    24.7000 
  207.8750     2.1710   -25.4840   396.7010    71.1990   107.8130   102.5260    77.4310    24.8410 
  208.0000     2.1650   -25.3300   394.0980    67.3640   107.1190   101.8650    79.5560    24.8010 
  208.1250     2.1660   -25.2220   391.7210    65.3670   111.3670   105.9110    81.7580    24.6280 
  208.2500     2.1730   -25.1230   389.6420    65.3000   119.9670   114.1020    86.0010    24.4590 
  208.3750     2.1810   -25.0470   387.7810    64.0640   132.5860   126.1200    96.0450    24.3430 
  208.5000     2.1860   -24.9710   386.1350    62.5660   147.9600   140.7620   117.6580    24.2810 
  208.6250     2.1860   -24.8790   384.5140    63.1730   163.1570   155.2350   150.0280    24.2660 
  208.7500     2.1860   -24.8030   382.5390    63.2700   174.5470   166.0830   183.4850    24.2680 
  208.8750     2.1900   -24.7360   380.1170    60.7670   179.7420   171.0310   206.2850    24.2790 
  209.0000     2.1980   -24.6840   377.5400    55.8060   178.4630   169.8130   197.1160    24.3050 
  209.1250     2.2070   -24.5540   375.9340    52.9150   172.6440   164.2710   163.7700    24.3510 
  209.2500     2.2130   -24.2940   376.5770    54.8330   166.5020   158.4210   141.5700    24.4010 
  209.3750     2.2150   -24.0600   380.0230    59.4160   161.7620   153.9070   136.5130    24.4240 
  209.5000     2.2130   -23.9640   385.4650    62.1300   157.9790   150.3030   143.1960    24.4270 
  209.6250     2.2110   -23.8530   391.1060    60.0300   152.6530   145.2320   149.9460    24.4210 
  209.7500     2.2090   -23.6840   395.5970    58.3220   143.9880   136.9790   149.9340    24.4060 
  209.8750     2.2070   -23.5740   398.7370    60.4140   131.9610   125.5250   139.8810    24.3720 
