~V
VERS. 2.00: Ver 2.00
~W
STRT.M 60.0000:
STOP.M 283.0000:
STEP.M 0.1250:
NULL. -999.2500:
UWI. DF3045:
~C
DEPT.M :
DEN.GM/CC :
SP.MV :
AC.US/MT :
GR.API :
CALI.CM :
RXO.OHMM :
RI. :
RML.OHMM :
~A
# ...
  170.0000     2.2680   -34.2270   401.7680    63.4920    22.7230    87.0950    97.8320   100.4370 
  170.1250     2.2590   -34.3160   402.8370    60.8600    22.8490    81.9630    91.8690    93.6940 
  170.2500     2.2650   -34.4310   403.5670    60.3540    22.7970    76.6170    86.9510    88.3790 
  170.3750     2.2900   -34.5790   403.6970    62.6010    22.7380    72.8010    83.6510    84.9960 
  170.5000     2.3220   -34.7520   403.1380    66.1550    22.8750    68.5180    82.5700    84.1670 
  170.6250     2.3370   -34.9560   402.4160    68.3960    22.8380    59.4080    85.0550    87.2160 
  170.7500     2.3300   -35.1820   402.0560    69.8900    22.7230    53.7960    91.2170    93.9950 
  170.8750     2.3130   -35.4300   402.3020    70.9360    22.7470    57.0830   100.6860   103.9430 
  171.0000     2.2990   -35.7220   403.2590    69.3540    23.0210    69.7210   112.8410   116.4290 
  171.1250     2.2930   -36.0070   404.6670    65.8890    23.3850    87.1980   126.3730   130.1420 
  171.2500     2.2840   -36.3070   405.6910    63.2770    23.6330   105.8810   138.6040   142.7130 
  171.3750     2.2720   -36.6170   405.7880    62.1680    23.7150   118.9520   147.6760   152.3200 
  171.5000     2.2650   -36.9350   405.3020    63.1970    23.9570   118.9570   152.6800   157.9660 
  171.6250     2.2660   -37.2650   405.3110    65.6380    24.0160   108.9810   152.7850   158.5310 
  171.7500     2.2660   -37.5970   405.9690    67.6600    24.0320   103.6660   150.1250   156.3210 
  171.8750     2.2630   -37.9160   406.6050    65.7040    24.0190   109.2620   146.5740   153.5000 
  172.0000     2.2650   -38.2410   406.4480    60.3640    23.9840   114.7450   143.2890   151.0400 
  172.1250     2.2740   -38.5760   405.1870    57.6400    23.8570   108.7720   140.8640   149.5830 
  172.2500     2.2790   -38.9210   403.5810    59.0980    23.7220    98.9180   140.0650   149.7670 
  172.3750     2.2770   -39.2700   402.4640    61.5520    23.4490    89.4680   141.5880   152.3780 
  172.5000     2.2710   -39.5950   402.1270    62.0140    23.0680    88.3860   145.8640   157.9160 
  172.6250     2.2620   -39.8880   402.4650    59.5870    22.9720    94.4650   153.4020   166.9710 
  172.7500     2.2510   -40.1620   403.6940    57.3180    22.9410   101.1110   163.0270   178.3290 
  172.8750     2.2410   -40.4050   405.9190    57.5640    22.9970   103.4130   172.9580   189.7180 
  173.0000     2.2390   -40.5890   408.3400    60.2710    22.9680   102.4730   180.2950   197.5990 
  173.1250     2.2450   -40.7570   409.0910    63.7120    22.8200   111.1210   181.3260   197.4190 
  173.2500     2.2540   -40.8730   407.7370    66.1670    22.9030   121.0010   176.2670   189.9390 
  173.3750     2.2650   -40.9340   404.8720    68.3880    22.8420   120.9100   166.2940   177.4280 
  173.5000     2.2750   -40.9620   401.5970    70.5200    22.7870   108.2390   154.0860   163.4630 
  173.6250     2.2840   -40.9520   399.3890    69.7730    22.7880    94.8890   143.1070   152.0040 
  173.7500     2.2900   -40.8760   398.8270    67.9900    22.7920    81.8920   135.2790   144.2940 
  173.8750     2.2890   -40.7180   399.7030    67.1230    22.8660    72.5030   131.0290   140.3440 
  174.0000     2.2810   -40.5160   401.3320    65.9720    23.0650    75.5930   130.4160   140.0130 
  174.1250     2.2710   -40.2720   402.5560    65.4960    23.4650    89.1820   133.4240   143.3270 
  174.2500     2.2700   -39.9790   402.8610    68.1360    23.7840   104.5950   138.6680   148.8730 
  174.3750     2.2780   -39.6590   401.7340    72.2420    23.9440   115.2460   145.5580   156.1150 
  174.5000     2.2860   -39.3210   399.1440    73.5620    24.0470   122.0100   153.5190   164.4400 
  174.6250     2.2830   -38.9270   397.4480    69.8570    24.2830   124.9360   161.1700   172.5220 
  174.7500     2.2720   -38.5180   398.6630    64.5820    24.3300   125.0940   167.2950   179.1960 
  174.8750     2.2630   -38.1370   401.9040    59.2460    24.3250   128.2960   171.1060   183.5520 
  175.0000     2.2600   -37.7710   404.9900    57.7320    24.3230   143.4990   171.7730   184.7560 
  175.1250     2.2620   -37.4270   406.4910    63.1300    24.3530   152.0450   168.4810   181.9820 
  175.2500     2.2680   -37.1280   406.2810    68.9820    24.3370   135.7680   162.7190   176.9920 
  175.3750     2.2740   -36.8750   404.0470    69.3840    24.3300   110.2750   156.1460   171.7440 
  175.5000     2.2730   -36.6670   400.6250    64.7670    24.3120   103.2620   150.8240   168.2400 
  175.6250     2.2620   -36.5480   398.6560    60.1760    24.1980   112.6650   149.6590   169.4540 
  175.7500     2.2500   -36.4960   398.7420    59.6000    24.1120   123.5560   153.5610   176.3140 
  175.8750     2.2430   -36.5360   399.8170    61.2540    24.0600   129.7560   163.8130   190.0930 
  176.0000     2.2420   -36.6610   401.5590    61.8420    24.1630   128.5370   181.9220   212.3090 
  176.1250     2.2390   -36.7810   405.0680    60.4190    24.1590   129.4950   209.7820   245.2650 
  176.2500     2.2330   -36.8990   410.1310    57.8930    24.1950   144.8110   243.6960   286.5670 
  176.3750     2.2260   -37.0070   414.8280    55.5060    24.2940   171.9170   278.4470   331.2450 
  176.5000     2.2170   -37.0820   417.3200    54.1670    24.2830   192.8590   306.4860   369.2190 
  176.6250     2.2060   -37.1230   417.4240    51.8550    24.2800   200.1380   315.5990   381.1450 
  176.7500     2.1970   -37.1440   415.8450    49.1610    24.3030   209.1210   304.0580   362.5840 
  176.8750     2.1950   -37.1630   412.0630    50.7310    24.2710   210.4260   274.9730   320.3270 
  177.0000     2.2060   -37.1800   406.5950    58.8250    24.1680   193.7430   236.7800   269.3540 
  177.1250     2.2250   -37.1350   402.3450    65.4790    23.9420   162.4430   199.3950   223.5690 
  177.2500     2.2430   -37.0760   401.2500    65.1250    23.7710   131.0880   168.4090   186.9490 
  177.3750     2.2600   -37.0390   401.7330    63.5870    23.7540   113.7600   145.2800   159.8760 
  177.5000     2.2800   -37.0150   401.7370    66.3680    23.6370   108.4300   129.0390   140.8600 
  177.6250     2.3010   -37.0000   400.9860    69.0260    23.4430   102.4460   117.7980   127.3330 
  177.7500     2.3120   -36.9840   399.5890    67.5760    23.4150    91.9820   108.0640   115.5290 
  177.8750     2.3130   -36.9460   396.3930    64.1390    23.3460    79.9110    98.0190   103.7300 
  178.0000     2.3140   -36.8500   391.4860    60.9720    23.1320    70.2320    86.8370    91.2600 
  178.1250     2.3240   -36.7510   388.3570    58.8940    23.1230    71.7750    75.1210    78.7240 
  178.2500     2.3450   -36.6700   388.9000    58.2170    23.1880    74.6650    64.3680    67.5370 
  178.3750     2.3750   -36.5390   391.5490    59.2210    23.3260    66.7130    55.6560    58.7960 
  178.5000     2.4070   -36.3990   393.5930    59.7680    23.4100    46.7530    49.8980    53.4430 
  178.6250     2.4150   -36.2970   394.3380    57.9890    23.6050    27.8240    48.5290    52.9560 
  178.7500     2.3820   -36.2220   395.5050    55.3660    24.0320    21.3540    50.9390    56.5080 
  178.8750     2.3200   -36.1650   397.7320    55.2050    24.2250    25.6480    56.8440    63.7550 
  179.0000     2.2640   -36.1180   400.6230    59.3280    24.2960    40.2800    65.9200    74.4320 
  179.1250     2.2450   -36.1100   403.2350    63.4240    24.1920    60.8870    77.8000    88.0880 
  179.2500     2.2480   -36.1390   405.2740    62.8700    24.0170    73.5830    90.7810   103.2510 
  179.3750     2.2590   -36.1960   406.8670    59.3570    24.0240    76.6050   103.7160   118.7810 
  179.5000     2.2720   -36.2640   408.4840    57.7280    24.0190    74.9090   115.6970   133.5900 
  179.6250     2.2820   -36.3260   410.6800    58.7320    24.0680    79.7560   126.4630   147.3130 
  179.7500     2.2810   -36.3870   412.6070    59.7700    24.1590    93.9000   136.4470   160.7490 
  179.8750     2.2710   -36.4480   413.4250    61.3820    24.0670   113.4440   145.5540   173.9430 
