~V
VERS. 2.00: Ver 2.00
~W
STRT.M 64.0000:
STOP.M 262.0000:
STEP.M 0.1250:
NULL. -999.2500:
UWI. DF3019:
~C
DEPT.M :
GR.API :
RML.OHMM :
RI. :
RXO.OHMM :
CALI.CM :
DEN.GM/CC :
SP.MV :
~A
# ...
  255.2500    74.6140    18.7770    18.8400    25.8400    24.0850     2.5220   -12.1900 
  255.3750    74.6140    18.8780    19.0200    27.1160    24.1790     2.5330   -12.1670 
  255.5000    74.6140    18.9000    19.1360    25.3020    24.2110     2.5450   -12.1990 
  255.6250    74.6140    18.8640    19.1820    24.3300    24.2110     2.5550   -12.2080 
  255.7500    74.6140    18.8140    19.1830    23.5140    24.2100     2.5600   -12.2350 
  255.8750    74.6140    18.7730    19.1600    23.1660    24.2210     2.5620   -12.2440 
  256.0000    74.6140    18.7480    19.1330    23.1310    24.2400     2.5580   -12.2720 
  256.1250    74.6140    18.7360    19.1160    23.0390    24.2420     2.5510   -12.2670 
  256.2500    74.6140    18.7240    19.1090    22.3230    24.2470     2.5400   -12.2780 
  256.3750    74.6140    18.7110    19.1090    21.9340    24.2450     2.5270   -12.3390 
  256.5000    74.6140    18.6980    19.1090    22.3500    24.2410     2.5160   -12.3330 
  256.6250    74.6140    18.6930    19.1090    22.9350    24.2190     2.5120   -12.3510 
  256.7500    74.6140    18.6950    19.1090    23.6310    24.2160     2.5160   -12.3790 
  256.8750    74.6140    18.7020    19.1100    24.1170    24.2330     2.5260   -12.4340 
  257.0000    74.6140    18.7080    19.1130    24.5290    24.2580     2.5370   -12.3630 
  257.1250    74.6140    18.7110    19.1170    24.6790    24.2650     2.5440   -12.3470 
  257.2500    74.6140    18.7110    19.1210    24.6890    24.2420     2.5420   -12.3090 
  257.3750    74.6140    18.7100    19.1250    24.5830    24.1850     2.5320   -12.2520 
  257.5000    74.6140    18.7100    19.1250    24.3660    24.1330     2.5200   -12.2110 
  257.6250    74.6140    18.7100    19.1250    23.8790    24.0870     2.5110   -12.1240 
  257.7500    74.6140    18.7100    19.1250    23.3830    24.0250     2.5090   -12.0250 
  257.8750    74.6140    18.7100    19.1250    23.3350    23.9340     2.5120   -11.9350 
  258.0000    74.6140    18.7100    19.1250    23.4340    23.7950     2.5190   -11.9300 
  258.1250    74.6140    18.7100    19.1250    23.4330    23.6540     2.5300   -11.8940 
  258.2500    74.6140    18.7100    19.1250    23.3480    23.5950     2.5430   -11.9210 
  258.3750    74.6140    18.7100    19.1250    22.7690    23.5780     2.5580   -11.8840 
  258.5000    74.6140    18.7100    19.1250    21.8220    23.5420     2.5680   -11.8750 
  258.6250    74.6140    18.7100    19.1250    21.0440    23.4480     2.5710   -11.8900 
  258.7500    74.6140    18.7100    19.1250    20.5510    23.3470     2.5690   -11.9030 
  258.8750    74.6140    18.7100    19.1250    20.1940    23.2980     2.5630   -11.8460 
  259.0000    74.6140    18.7100    19.1250    20.2850    23.2800     2.5600   -11.8080 
  259.1250    74.6140    18.7100    19.1250    20.7620    23.2700     2.5610   -11.8260 
  259.2500    74.6140    18.7100    19.1250    21.4620    23.2540     2.5640   -11.8230 
  259.3750    74.6140    18.7100    19.1250    21.8530    23.2280     2.5680   -11.7880 
  259.5000    74.6140    18.7100    19.1250    22.2620    23.1670     2.5730   -11.5640 
  259.6250    74.6140    18.7100    19.1250    21.9470    23.0630     2.5800   -11.4190 
  259.7500    74.6140    18.7100    19.1250    21.8500    22.9230     2.5880   -11.2430 
  259.8750    74.6140    18.7100    19.1250    21.4320    22.7600     2.5950   -11.0860 
  260.0000    74.6140    18.7100    19.1250    20.1660    22.5640     2.5990   -10.9900 
  260.1250    74.6140    18.7100    19.1250    18.1720    22.1970     2.6020   -10.7540 
  260.2500    74.6140    18.7100    19.1250    15.7940    21.4750     2.6020   -10.4870 
  260.3750    74.6140    18.7100    19.1250    12.6790    19.9820     2.6010   -10.3980 
  260.5000    74.6140    18.7100    19.1250     9.2810    17.4230     2.5980   -10.3980 
  260.6250    74.6140    18.7100    19.1250     7.0450    15.0670     2.5950  -999.2500 
  260.7500    74.6140    18.7100    19.1250     6.1990    13.9960     2.5950  -999.2500 
  260.8750    74.6140    18.7100    19.1250     5.9910    13.7500     2.5970  -999.2500 
  261.0000    74.6140    18.7100    19.1250     5.9730    13.7370     2.6020  -999.2500 
  261.1250    74.6140    18.7100    19.1250     5.9730    13.7370     2.6060  -999.2500 
  261.2500    74.6140    18.7100    19.1250     5.9730    13.7370     2.6070  -999.2500 
  261.3750    74.6140    18.7100    19.1250     5.9710    13.7370     2.6050  -999.2500 
  261.5000    74.6140    18.7100    19.1250     5.9690    13.7370     2.6020  -999.2500 
  261.6250    74.6140    18.7100    19.1250     5.9670    13.7370     2.6000  -999.2500 
  261.7500    74.6140    18.7100    19.1250     5.9670    13.7370     2.5980  -999.2500 
  261.8750    74.6140    18.7100    19.1250     5.9650    13.7370  -999.2500  -999.2500 
  262.0000    74.6140    18.7100    19.1250     5.9630    13.7370  -999.2500  -999.2500 
