~V
VERS. 2.00: Ver 2.00
~W
STRT.M 60.0000:
STOP.M 280.0000:
STEP.M 0.1250:
NULL. -999.2500:
UWI. DF3041:
~C
DEPT.M :
SP.MV :
GR.API :
RML.OHMM :
RI. :
RXO.OHMM :
CALI.CM :
DEN.GM/CC :
~A
# ...
   93.7500   -24.3650    74.1250    10.0830     8.0500     9.9340    23.6810  -999.2500 
   93.8750   -24.1550    77.1340    10.0120     7.9190    10.0160    23.3980  -999.2500 
   94.0000   -23.9440    79.0570    10.0820     7.9100    10.0320    23.2990  -999.2500 
   94.1250   -23.7010    78.7440    10.2920     8.0380    10.2570    23.4460  -999.2500 
   94.2500   -23.3790    77.5530    10.5610     8.2400    10.7610    23.5830  -999.2500 
   94.3750   -22.9980    75.3690    10.8050     8.4530    11.4260    23.6870  -999.2500 
   94.5000   -22.5160    72.3170    10.9300     8.6000    11.8690    23.8260  -999.2500 
   94.6250   -21.9220    70.7120    10.8050     8.5770    11.7610    23.7530  -999.2500 
   94.7500   -21.2250    71.7800    10.4290     8.3720    11.3860    23.5900  -999.2500 
   94.8750   -20.3670    73.9040     9.8600     8.0170    10.8850    23.5470  -999.2500 
   95.0000   -19.4460    75.2480     9.2370     7.5970    10.3040    23.6560  -999.2500 
   95.1250   -18.5000    78.0920     8.7840     7.2500     9.3350    23.1160  -999.2500 
   95.2500   -17.6600    81.9220     8.6450     7.0860     8.0980    22.7520  -999.2500 
   95.3750   -16.9270    83.4570     8.8820     7.1700     7.2750    22.3960  -999.2500 
   95.5000   -16.3390    81.4030     9.4540     7.5140     7.4780    22.0660  -999.2500 
   95.6250   -15.8370    78.8490    10.2070     8.0610     8.3710    21.7290  -999.2500 
   95.7500   -15.3870    78.3130    10.8470     8.6140     9.0720    21.4150  -999.2500 
   95.8750   -14.9690    78.4200    11.1390     8.9860     9.3990    21.2820  -999.2500 
   96.0000   -14.4710    76.6650    10.9420     9.0280     9.2680    21.2780  -999.2500 
   96.1250   -13.8530    76.7540    10.2250     8.6330     9.0060    21.3620  -999.2500 
   96.2500   -13.0950    82.1380     9.2850     7.9640     8.7170    21.5420  -999.2500 
   96.3750   -12.2500    91.0710     8.3550     7.1720     8.1510    21.8140  -999.2500 
   96.5000   -11.3650   101.1740     7.6020     6.3980     7.3460    22.1210  -999.2500 
   96.6250   -10.5820   109.6470     7.1360     5.7680     6.7560    22.3940  -999.2500 
   96.7500    -9.9030   117.1030     6.8820     5.3030     6.6310    22.8760  -999.2500 
   96.8750    -9.4020   120.7610     6.7550     4.9920     6.5820    23.3710  -999.2500 
   97.0000    -9.1130   118.0540     6.6610     4.7980     6.2210    24.0400  -999.2500 
   97.1250    -9.0640   113.7060     6.5260     4.6880     5.5150    24.2470  -999.2500 
   97.2500    -9.2320   111.5530     6.3620     4.6300     5.1260    24.2510  -999.2500 
   97.3750    -9.6190   110.3310     6.2560     4.6460     5.0710    23.9330  -999.2500 
   97.5000   -10.1990   109.3640     6.3420     4.7940     5.2260    23.7380  -999.2500 
   97.6250   -10.9420   110.3220     6.8010     5.1800     5.7850    23.7570  -999.2500 
   97.7500   -11.7950   111.0710     7.5960     5.7990     6.6100    23.7920  -999.2500 
   97.8750   -12.6340   106.1640     8.5980     6.5930     7.6840    23.8940  -999.2500 
   98.0000   -13.3300    96.7010     9.5610     7.4180     9.1960    23.9730  -999.2500 
   98.1250   -13.7740    87.9340    10.1060     8.0100    10.3100    23.3600  -999.2500 
   98.2500   -13.9250    82.1220    10.1040     8.2230    10.7530    22.7990  -999.2500 
   98.3750   -13.7650    80.8460     9.6210     8.0470    10.1260    22.6120  -999.2500 
   98.5000   -13.3180    84.2100     8.8930     7.6080     8.2210    22.6230  -999.2500 
   98.6250   -12.6190    91.0060     8.2200     7.0910     6.8460    22.7740  -999.2500 
   98.7500   -11.7680    96.6670     7.7420     6.6320     6.2360    23.0710  -999.2500 
   98.8750   -10.8200    98.8420     7.4570     6.2550     6.3330    23.4070  -999.2500 
   99.0000    -9.9120    97.7660     7.3170     5.9510     6.4630    23.9030  -999.2500 
   99.1250    -9.1750    97.1840     7.3150     5.7380     6.2880    24.3980  -999.2500 
   99.2500    -8.6610    99.8770     7.4270     5.6270     5.9710    24.3760  -999.2500 
   99.3750    -8.3800   103.1520     7.6270     5.6290     5.7930    23.6150  -999.2500 
   99.5000    -8.2820   102.7310     7.8330     5.7170     6.1220    23.1420  -999.2500 
   99.6250    -8.2720    97.6460     7.8810     5.8170     7.1290    23.2580  -999.2500 
   99.7500    -8.2860    94.3550     7.7120     5.8520     8.0280    23.3860  -999.2500 
   99.8750    -8.3450    95.6110     7.4150     5.8320     7.6610    23.4940  -999.2500 
  100.0000    -8.4170    97.6550     7.2440     5.8670     7.2280    23.5250  -999.2500 
  100.1250    -8.4840    96.3080     7.5850     6.1850     7.4130    23.4650  -999.2500 
  100.2500    -8.5420    92.7470     8.4670     6.8500     8.1450    23.3630  -999.2500 
  100.3750    -8.5720    88.7120     9.6860     7.7770     9.6870    23.2770  -999.2500 
  100.5000    -8.5820    84.2290    10.8140     8.7090    12.7260    23.3000  -999.2500 
  100.6250    -8.5980    80.3750    11.1990     9.1830    16.1620    23.4550  -999.2500 
  100.7500    -8.6330    81.1020    10.6750     8.9980    16.1830    23.5960  -999.2500 
  100.8750    -8.6820    84.7000     9.4700     8.2290    12.6700    23.7600  -999.2500 
  101.0000    -8.7590    87.6440     8.1100     7.2010     8.3910    23.9430  -999.2500 
  101.1250    -8.8940    89.1690     7.1650     6.3280     6.7750    23.7030  -999.2500 
  101.2500    -9.0550    91.6780     6.7540     5.7920     6.2660    23.6050  -999.2500 
  101.3750    -9.2240    95.2970     6.8170     5.6150     6.3940    23.6410  -999.2500 
  101.5000    -9.3750    95.5100     7.2240     5.7500     6.7270    23.5750  -999.2500 
  101.6250    -9.5700    90.6250     7.8180     6.1280     6.8100    23.6390  -999.2500 
  101.7500    -9.7170    85.2120     8.3740     6.5780     7.0530    23.9100  -999.2500 
  101.8750    -9.8360    82.3760     8.7280     6.9640     7.2410    24.6320  -999.2500 
  102.0000    -9.8940    81.7560     8.7630     7.1610     7.4730    25.6130  -999.2500 
  102.1250    -9.8400    84.3640     8.4150     7.0580     7.8300    25.5690  -999.2500 
  102.2500    -9.6770    88.6070     7.8790     6.7420     7.8920    24.5620  -999.2500 
  102.3750    -9.4590    91.5480     7.3560     6.3480     7.2540    23.8370  -999.2500 
  102.5000    -9.2350    92.5840     7.0220     6.0280     6.3360    23.4580  -999.2500 
  102.6250    -8.9610    94.5020     6.9900     5.9170     6.1120    23.3530  -999.2500 
  102.7500    -8.7400    97.0930     7.1480     5.9770     6.4100    23.4390  -999.2500 
  102.8750    -8.5650    96.8850     7.3650     6.1220     7.0730    23.7190  -999.2500 
  103.0000    -8.4590    92.8690     7.5110     6.2420     8.0560    24.0200  -999.2500 
  103.1250    -8.4400    89.4090     7.4820     6.2270     8.1780    24.0210  -999.2500 
  103.2500    -8.5110    88.8200     7.3330     6.0930     7.1920    23.7780  -999.2500 
  103.3750    -8.6240    90.6470     7.1420     5.9050     6.5420    23.8640  -999.2500 
  103.5000    -8.7520    92.7200     6.9730     5.7360     6.3890    24.1470  -999.2500 
  103.6250    -8.9230    94.0820     6.8440     5.6300     6.2300    24.0530  -999.2500 
  103.7500    -9.1490    96.4490     6.7180     5.5540     5.9350    23.6530  -999.2500 
  103.8750    -9.4390    98.6180     6.5840     5.4810     5.7910    23.4480  -999.2500 
  104.0000    -9.8140    98.1400     6.4870     5.4190     5.8790    23.6700  -999.2500 
  104.1250   -10.2890    93.5470     6.5820     5.4580     6.1260    24.3200  -999.2500 
  104.2500   -10.8670    89.9350     6.9660     5.6830     6.4390    24.8370  -999.2500 
  104.3750   -11.5550    89.0390     7.6700     6.1350     6.9410    25.2420  -999.2500 
  104.5000   -12.3470    85.8360     8.5980     6.7700     8.2500    25.4810  -999.2500 
  104.6250   -13.1960    76.0900     9.4870     7.4290    11.2850    25.5960  -999.2500 
  104.7500   -14.0470    66.6430    10.0290     7.8990    15.8700    25.0320  -999.2500 
  104.8750   -14.8670    63.7150    10.0700     8.0640    18.4100    24.0670  -999.2500 
