~V
VERS. 2.00: Ver 2.00
~W
STRT.M 130.0000:
STOP.M 279.0000:
STEP.M 0.1250:
NULL. -999.2500:
UWI. DF307:
~C
DEPT.M :
DEN.GM/CC :
AC.US/MT :
GR.API :
CALI.CM :
RXO.OHMM :
RI. :
RML.OHMM :
SP.MV :
~A
# ...
  180.0000     2.4540   383.7990    94.0880    25.4880     6.9270     6.3460     8.6860   -15.2770 
  180.1250     2.4360   386.2400    94.2100    25.5390     7.2030     6.7500     9.4430   -15.4790 
  180.2500     2.4130   386.9800    93.0850    25.6030     7.3760     7.1360    10.1030   -15.6680 
  180.3750     2.4000   385.5930    92.9920    25.6470     7.5350     7.3900    10.4540   -15.8280 
  180.5000     2.4070   381.8890    95.7500    25.6380     7.6660     7.4570    10.4260   -15.9650 
  180.6250     2.4250   376.0390    98.7310    25.5630     7.5830     7.3640    10.1330   -16.0910 
  180.7500     2.4370   369.9980    98.2500    25.4690     7.3920     7.2540     9.8770   -16.1990 
  180.8750     2.4430   366.0170    95.8700    25.4080     7.4100     7.2290     9.8380   -16.2890 
  181.0000     2.4470   365.9640    95.3890    25.3770     7.8010     7.3400    10.0800   -16.3960 
  181.1250     2.4420   370.6100    96.4450    25.3290     8.3590     7.5960    10.5760   -16.5320 
  181.2500     2.4260   377.1950    96.2660    25.2610     8.6940     7.9130    11.1490   -16.6930 
  181.3750     2.4070   383.2120    96.7190    25.1830     8.6790     8.2270    11.6650   -16.8750 
  181.5000     2.3960   387.1090    99.8180    25.0930     8.4580     8.4830    12.0330   -17.0750 
  181.6250     2.3960   389.0260   103.6900    25.0070     8.4050     8.6460    12.2220   -17.2700 
  181.7500     2.3950   391.0810   106.3420    24.9580     8.6570     8.7470    12.3090   -17.4590 
  181.8750     2.3950   394.4800   107.2460    24.9420     9.0080     8.8030    12.3340   -17.6480 
  182.0000     2.3980   398.9610   105.6400    24.9380     9.1900     8.8270    12.3120   -17.8130 
  182.1250     2.4000   402.5500   104.1990    24.9300     9.1240     8.8250    12.2530   -17.9320 
  182.2500     2.3930   403.6370   105.3870    24.9070     8.9540     8.8120    12.1830   -18.0310 
  182.3750     2.3820   402.2200   106.9130    24.8820     8.7490     8.7970    12.1160   -18.1210 
  182.5000     2.3760   399.7140   107.5300    24.9150     8.5890     8.7870    12.0630   -18.1890 
  182.6250     2.3750   397.9180   108.3830    25.0910     8.5570     8.7890    12.0270   -18.2360 
  182.7500     2.3710   396.8040   108.8170    25.3860     8.5800     8.8020    12.0020   -18.2810 
  182.8750     2.3650   395.1050   107.8580    25.7180     8.6010     8.8270    11.9900   -18.3290 
  183.0000     2.3630   391.8640   107.4160    25.9350     8.6680     8.8640    11.9960   -18.3730 
  183.1250     2.3650   388.0020   107.0810    25.9190     8.8280     8.9140    12.0140   -18.4210 
  183.2500     2.3700   386.0370   105.3670    25.8060     8.9670     8.9660    12.0250   -18.4690 
  183.3750     2.3750   387.0800   104.4010    25.7330     8.9870     9.0100    12.0100   -18.5200 
  183.5000     2.3780   390.0320   104.3630    25.7380     8.9090     9.0420    11.9670   -18.5690 
  183.6250     2.3810   391.9020   103.7210    25.7350     8.8450     9.0710    11.9210   -18.6170 
  183.7500     2.3940   390.9680   103.8800    25.6870     8.8760     9.1200    11.9200   -18.6610 
  183.8750     2.4180   387.6910   106.2550    25.6190     9.0010     9.2150    12.0060   -18.7020 
  184.0000     2.4390   383.9670   108.9630    25.5730     9.1880     9.3750    12.2060   -18.7530 
  184.1250     2.4390   382.1420   108.4050    25.5640     9.4340     9.6150    12.5330   -18.8390 
  184.2500     2.4230   382.3260   104.4980    25.5680     9.7800     9.9050    12.9280   -18.9490 
  184.3750     2.4050   383.4260    98.7210    25.5790    10.2150    10.2150    13.3450   -19.0530 
  184.5000     2.3940   384.3010    93.7860    25.5880    10.6000    10.5140    13.7360   -19.1670 
  184.6250     2.3870   384.6600    93.1920    25.5700    10.7540    10.7690    14.0520   -19.2960 
  184.7500     2.3790   385.0730    94.6520    25.5310    10.7640    10.9690    14.2850   -19.4340 
  184.8750     2.3740   385.6530    95.8230    25.5010    10.7150    11.1110    14.4340   -19.5810 
  185.0000     2.3820   385.7820    94.1070    25.4770    10.6090    11.2120    14.5280   -19.7350 
  185.1250     2.3960   384.1920    90.9310    25.3550    10.4220    11.3350    14.6630   -19.8710 
  185.2500     2.4010   381.0990    89.4840    25.1500    10.3030    11.5650    14.9520   -20.0040 
  185.3750     2.3930   377.8780    89.5240    25.0500    10.6250    11.9750    15.4850   -20.1660 
  185.5000     2.3830   376.2500    89.9420    25.2010    11.8440    12.6250    16.3340   -20.3460 
  185.6250     2.3810   377.1930    89.5920    25.4770    13.8800    13.6200    17.6260   -20.5240 
  185.7500     2.3820   379.4300    90.1020    25.6310    15.5110    14.9410    19.3250   -20.6850 
  185.8750     2.3720   382.0050    90.8640    25.6610    16.2490    16.5800    21.4080   -20.8210 
  186.0000     2.3510   384.5490    90.4920    25.6560    16.7840    18.4810    23.7920   -20.9050 
  186.1250     2.3270   386.8840    88.9360    25.6490    17.9660    20.4720    26.2270   -20.9200 
  186.2500     2.3140   388.3310    87.2540    25.6500    19.0880    22.1820    28.1970   -20.8670 
  186.3750     2.3100   387.8130    87.5830    25.6700    19.1400    23.1690    29.0900   -20.7620 
  186.5000     2.3120   384.7830    88.2920    25.6480    17.8360    23.0240    28.3980   -20.6230 
  186.6250     2.3230   380.0980    91.1500    25.4740    15.8030    21.4750    25.9150   -20.4780 
  186.7500     2.3500   376.3330    94.1210    25.2230    14.0280    19.2550    22.7810   -20.3650 
  186.8750     2.3910   375.1530    94.0190    25.0260    12.6780    17.1300    20.0680   -20.3190 
  187.0000     2.4310   376.8670    91.8220    24.9440    11.7930    15.7330    18.5820   -20.3710 
  187.1250     2.4370   380.7810    90.9020    24.9200    12.2670    15.7390    19.1770   -20.5630 
  187.2500     2.4060   385.5290    89.7140    24.8970    15.0890    17.4800    22.0880   -20.8640 
  187.3750     2.3470   390.7850    83.7420    24.9260    20.5500    21.7010    28.0030   -21.2260 
  187.5000     2.2770   396.2430    75.0560    25.0550    26.9160    29.3360    37.8650   -21.6390 
  187.6250     2.2150   400.6040    70.7780    25.2660    30.8280    41.5250    53.1540   -22.1080 
  187.7500     2.1810   402.5940    70.9170    25.4710    31.8150    55.9310    71.1980   -22.5770 
  187.8750     2.1780   401.8770    73.2480    25.6330    31.4580    68.5580    86.2710   -22.9840 
  188.0000     2.1930   399.3860    76.8350    25.7520    31.4600    75.5290    92.6620   -23.3350 
  188.1250     2.2070   396.7320    79.4110    25.8300    32.3750    75.5810    90.0340   -23.6160 
  188.2500     2.2170   394.6120    79.1300    25.8810    32.9310    72.4470    84.6220   -23.8320 
  188.3750     2.2260   392.3500    76.7740    25.9110    32.4070    68.1830    78.8660   -24.0000 
  188.5000     2.2370   389.1210    75.2240    25.9270    30.9910    63.7790    73.4760   -24.1250 
  188.6250     2.2490   385.3490    75.7300    25.9400    28.8550    59.7020    68.6990   -24.1940 
  188.7500     2.2610   383.0500    76.6940    25.9520    26.2530    56.1370    64.5940   -24.2420 
  188.8750     2.2680   383.7190    77.0990    25.9550    23.6890    53.2780    61.3270   -24.2900 
  189.0000     2.2630   387.3130    77.2090    25.9510    21.6600    51.2070    58.9400   -24.3340 
  189.1250     2.2510   391.8440    77.7630    25.9550    20.2710    49.9120    57.3440   -24.3680 
  189.2500     2.2480   394.3650    78.9730    25.9540    19.3690    48.9540    55.9990   -24.3790 
  189.3750     2.2560   393.3420    79.7820    25.9340    19.1700    47.8600    54.3210   -24.3570 
  189.5000     2.2640   388.7730    79.5580    25.9030    19.7790    46.1100    51.7530   -24.3120 
  189.6250     2.2680   381.7720    78.7250    25.8760    20.6240    43.3560    48.0730   -24.2490 
  189.7500     2.2760   374.5800    78.6270    25.8600    20.5540    40.1030    44.0200   -24.1590 
  189.8750     2.2900   368.6500    79.8950    25.8250    19.3830    36.8970    40.2470   -24.0390 
