~V
VERS. 2.00: Ver 2.00
~W
STRT.M 120.0000:
STOP.M 272.0000:
STEP.M 0.1250:
NULL. -999.2500:
UWI. DF3038:
~C
DEPT.M :
GR.API :
RML.OHMM :
RI. :
RXO.OHMM :
CALI.CM :
DEN.GM/CC :
SP.MV :
~A
# ...
  142.5000   109.8450     6.7750     5.4050     5.4050    24.6020     2.3690   -16.9020 
  142.6250   107.6790     6.8170     5.3770     5.4640    24.4950     2.3760   -16.7540 
  142.7500   108.4600     6.9350     5.4220     5.5160    24.4430     2.3780   -16.6060 
  142.8750   108.9680     7.0920     5.5200     5.4950    24.4280     2.3750   -16.6600 
  143.0000   107.3670     7.2500     5.6410     5.4950    24.3910     2.3630   -16.7500 
  143.1250   104.9560     7.3680     5.7540     5.6370    24.3400     2.3450   -17.0010 
  143.2500   104.1110     7.4360     5.8430     5.8150    24.3180     2.3240   -17.2230 
  143.3750   103.8020     7.4730     5.9160     6.0090    24.3430     2.3070   -17.4850 
  143.5000   100.8820     7.5270     6.0000     6.1980    24.4260     2.2970   -17.7450 
  143.6250    96.8590     7.6840     6.1480     6.3930    24.5430     2.2940   -17.8900 
  143.7500    95.0240     7.9790     6.3840     6.4960    24.6030     2.2910   -18.1020 
  143.8750    96.0010     8.3920     6.7010     6.6940    24.6210     2.2860   -18.2590 
  144.0000    95.8430     8.8320     7.0440     6.9540    24.6280     2.2790   -18.4830 
  144.1250    92.3640     9.1180     7.2910     7.2160    24.6440     2.2740   -18.5620 
  144.2500    89.0630     9.1270     7.3450     7.4020    24.6630     2.2730   -18.6480 
  144.3750    89.8130     8.8130     7.1580     7.4640    24.6860     2.2800   -18.6420 
  144.5000    95.2090     8.2310     6.7500     7.2430    24.7580     2.2920   -18.4830 
  144.6250   100.7610     7.5240     6.2060     6.5840    24.9100     2.3090   -18.4140 
  144.7500   105.5040     6.8830     5.6760     5.7280    25.0420     2.3270   -18.2760 
  144.8750   111.8560     6.4220     5.2560     5.2520    25.0920     2.3460   -18.0450 
  145.0000   119.1330     6.2030     5.0130     5.0300    25.0960     2.3640   -17.8300 
  145.1250   122.5040     6.3000     5.0190     5.0080    25.0980     2.3800   -17.7340 
  145.2500   120.5270     6.6570     5.2420     5.1330    25.0870     2.3880   -17.6840 
  145.3750   114.9060     7.2180     5.6490     5.5590    25.0300     2.3890   -17.7610 
  145.5000   107.8660     7.8600     6.1550     6.2620    24.8870     2.3800   -17.9760 
  145.6250   102.7070     8.3520     6.6040     7.0150    24.7170     2.3610   -18.1980 
  145.7500    98.3740     8.5040     6.8450     7.6890    24.5540     2.3380   -18.3580 
  145.8750    89.9350     8.2410     6.7950     8.4610    24.4650     2.3150   -18.5690 
  146.0000    81.5560     7.6730     6.4930     9.0250    24.5080     2.2970   -18.5930 
  146.1250    82.3340     7.1920     6.1710     8.2220    24.6800     2.2910   -18.5350 
  146.2500    89.1760     7.3020     6.2010     7.8520    24.8170     2.3030   -18.3550 
  146.3750    95.8460     8.4020     6.9330     8.6930    24.8870     2.3390   -18.0830 
  146.5000    97.3130    10.6570     8.6020    11.2460    24.9000     2.4000   -17.7570 
  146.6250    92.8050    13.8580    11.2470    16.9500    24.8740     2.4800   -17.3110 
  146.7500    86.6750    16.9350    14.0950    24.9640    24.8490     2.5560   -16.9690 
  146.8750    81.4900    18.7890    16.2180    29.2950    24.7880     2.6100   -16.5860 
  147.0000    78.0970    18.6030    16.7470    28.4770    24.6280     2.6270   -16.3100 
  147.1250    76.4040    16.3160    15.2880    26.4120    24.4500     2.6040   -16.0190 
  147.2500    77.6550    13.6520    13.1430    21.0540    24.3660     2.5660   -15.8040 
  147.3750    80.0270    11.8870    11.4320    13.7330    24.4050     2.5340   -15.6070 
  147.5000    80.6570    11.6230    10.7950    10.6640    24.4930     2.5240   -15.3760 
  147.6250    77.5020    13.1190    11.6470    12.2560    24.5380     2.5430   -15.2590 
  147.7500    70.2270    15.7880    13.6960    15.9700    24.5130     2.5750   -15.0770 
  147.8750    61.0500    19.1200    16.6450    20.2760    24.4550     2.6060   -14.9280 
  148.0000    53.9120    22.4570    19.9640    23.9710    24.5510     2.6270   -14.8090 
  148.1250    50.4830    24.9580    22.8360    25.5050    24.6740     2.6370   -14.6470 
  148.2500    48.3870    26.3870    24.7860    26.1820    24.7410     2.6420   -14.5160 
  148.3750    48.3520    26.8980    25.7920    27.1040    24.7460     2.6470   -14.3980 
  148.5000    49.7340    26.8940    26.1500    28.3820    24.7320     2.6510   -14.3270 
  148.6250    49.8600    26.7820    26.2110    28.7820    24.7070     2.6560   -14.2690 
  148.7500    50.1280    26.8080    26.2720    28.6150    24.7210     2.6590   -14.1860 
  148.8750    51.7060    27.0190    26.4270    27.9440    24.7380     2.6600   -14.1540 
  149.0000    52.9290    27.3660    26.6820    28.0810    24.7230     2.6580   -14.0640 
  149.1250    51.9220    27.7280    26.9750    28.2720    24.6970     2.6520   -14.0310 
  149.2500    50.2780    27.9580    27.1990    29.0630    24.6900     2.6420   -14.0030 
  149.3750    49.5280    27.9840    27.2850    29.7350    24.6940     2.6280   -13.9710 
  149.5000    49.3570    27.8180    27.2260    28.4590    24.6960     2.6120   -14.0210 
  149.6250    50.5270    27.5610    27.0810    27.5090    24.6940     2.5960   -13.9390 
  149.7500    53.1710    27.3620    26.9690    26.9400    24.6990     2.5850   -13.9270 
  149.8750    55.0480    27.2720    26.9360    26.7060    24.7110     2.5830   -13.8550 
  150.0000    54.9280    27.2480    26.9580    26.1120    24.7230     2.5910   -13.8440 
  150.1250    51.9630    27.1710    26.9360    26.3060    24.7250     2.6060   -13.8640 
  150.2500    47.7830    26.9870    26.8100    27.4210    24.7180     2.6190   -13.8780 
  150.3750    44.5270    26.7370    26.6040    27.9710    24.7280     2.6240   -13.8920 
  150.5000    44.5650    26.5240    26.4040    27.1260    24.7490     2.6190   -13.8750 
  150.6250    47.5800    26.4460    26.3000    25.0740    24.7520     2.6060   -13.9850 
  150.7500    50.9770    26.4200    26.2460    23.6290    24.7330     2.5930   -14.0150 
  150.8750    54.5560    26.2720    26.1050    23.3550    24.7120     2.5790   -14.1280 
  151.0000    58.3330    25.8210    25.7180    24.3520    24.7070     2.5630   -14.2230 
  151.1250    60.4940    24.9260    24.9400    24.5200    24.7050     2.5450   -14.2760 
  151.2500    60.3170    23.7720    23.9000    23.5150    24.6140     2.5320   -14.3820 
  151.3750    61.1820    22.5980    22.7900    21.3350    24.4110     2.5300   -14.4550 
  151.5000    64.3640    21.6460    21.8320    19.4670    24.1180     2.5430   -14.4850 
  151.6250    65.3190    21.1250    21.2400    18.8550    23.7960     2.5660   -14.5080 
  151.7500    63.6890    20.9630    20.9860    18.7100    23.6380     2.5860   -14.5460 
  151.8750    62.1180    21.0500    20.9930    18.5420    23.6430     2.5960   -14.5750 
  152.0000    62.2800    21.2430    21.1390    17.9770    23.7690     2.5960   -14.5520 
  152.1250    61.5840    21.3960    21.2870    18.2250    23.9780     2.5900   -14.6170 
  152.2500    61.4860    21.4310    21.3480    18.9440    24.1180     2.5800   -14.5710 
  152.3750    64.4990    21.3180    21.2840    19.5160    24.1430     2.5680   -14.5750 
  152.5000    68.6140    21.0530    21.0830    19.6320    24.0330     2.5540   -14.6200 
  152.6250    67.4680    20.6410    20.7450    18.9860    23.9160     2.5380   -14.5940 
  152.7500    62.2350    20.1750    20.3420    18.9240    23.9610     2.5230   -14.6470 
  152.8750    59.1010    19.7430    19.9440    18.1400    24.0690     2.5120   -14.6130 
  153.0000    61.0360    19.4340    19.6260    17.1520    24.0590     2.5060   -14.6500 
  153.1250    63.8090    19.3150    19.4490    16.8080    24.0300     2.5080   -14.6070 
  153.2500    63.3380    19.2980    19.3580    17.0760    24.1450     2.5160   -14.6170 
  153.3750    61.9380    19.2590    19.2650    17.7850    24.3260     2.5270   -14.5980 
  153.5000    62.6710    19.0790    19.0690    17.7600    24.4460     2.5380   -14.5710 
  153.6250    65.4980    18.6980    18.7060    17.3120    24.4610     2.5460   -14.5970 
