~V
VERS. 2.00: Ver 2.00
~W
STRT.M 60.0000:
STOP.M 250.0000:
STEP.M 0.1250:
NULL. -999.2500:
UWI. DF3018:
~C
DEPT.M :
DEN.GM/CC :
GR.API :
RML.OHMM :
RI. :
RXO.OHMM :
CALI.CM :
SP.MV :
~A
# ...
  172.5000     2.2570    69.2990    95.3050    82.7160    79.8150    24.6800   -22.2470 
  172.6250     2.2430    70.3900    98.9520    85.3120    83.3780    24.7530   -22.2760 
  172.7500     2.2300    73.4160   103.0440    88.1270    89.2680    24.7980   -22.2780 
  172.8750     2.2190    75.5130   107.3320    91.0420    93.8650    24.8530   -22.2290 
  173.0000     2.2150    74.9770   111.4980    93.8910    96.6960    24.9140   -22.1190 
  173.1250     2.2160    73.5190   115.1690    96.4390    99.3190    24.9410   -21.9440 
  173.2500     2.2200    74.2870   118.2450    98.5660   102.3990    24.9470   -21.7190 
  173.3750     2.2250    75.7500   120.6850   100.1910   105.0910    24.9410   -21.4260 
  173.5000     2.2290    74.1470   122.5050   101.3210   107.2220    24.9190   -21.0940 
  173.6250     2.2330    72.2280   123.7140   102.0130   107.7680    24.8670   -20.6760 
  173.7500     2.2390    74.1250   124.5850   102.5260   105.2470    24.8340   -20.2850 
  173.8750     2.2470    76.6160   125.3130   103.0510   104.7110    24.8420   -19.9220 
  174.0000     2.2540    74.3340   126.0790   103.7550   107.3900    24.8420   -19.5800 
  174.1250     2.2550    70.1940   127.1630   104.8990   111.8020    24.7980   -19.2990 
  174.2500     2.2470    70.8630   128.9030   106.7150   114.7040    24.7280   -19.0460 
  174.3750     2.2330    74.5240   131.7810   109.5460   116.2700    24.6820   -18.8430 
  174.5000     2.2180    76.5620   136.0380   113.6090   117.2100    24.6070   -18.6460 
  174.6250     2.2110    74.9740   140.8080   118.5480   118.4000    24.3910   -18.4980 
  174.7500     2.2110    72.9790   144.0000   122.5040   120.9660    24.1260   -18.3040 
  174.8750     2.2140    73.4390   142.4330   122.9470   124.2630    23.9920   -18.1010 
  175.0000     2.2140    74.8730   134.1260   117.3490   127.6750    24.1580   -17.8710 
  175.1250     2.2130    73.0170   116.5900   103.6280   128.7860    24.5100   -17.6390 
  175.2500     2.2150    71.0460    95.8710    85.2570   119.4580    24.6560   -17.4190 
  175.3750     2.2270    73.2610    76.2350    66.2800    92.6960    24.5690   -17.2230 
  175.5000     2.2470    77.0850    58.1430    50.3480    57.3650    24.4630   -17.0900 
  175.6250     2.2710    78.0030    46.3970    40.0200    33.7840    24.4360   -16.9950 
  175.7500     2.2930    78.0570    39.8260    34.1580    23.9880    24.3810   -16.9680 
  175.8750     2.3070    80.6380    37.0920    31.7280    21.2270    24.2520   -16.9770 
  176.0000     2.3100    84.9660    36.9530    31.6770    23.3090    24.1870   -17.0650 
  176.1250     2.2990    87.2720    38.3760    33.1710    27.9140    24.2700   -17.1630 
  176.2500     2.2780    86.6200    40.0960    35.0780    31.0110    24.4960   -17.3000 
  176.3750     2.2540    82.8480    41.5210    36.7960    33.7300    24.7600   -17.4420 
  176.5000     2.2360    79.1160    42.4230    38.0030    34.8880    24.9540   -17.5960 
  176.6250     2.2320    78.9970    42.8100    38.5930    33.4010    25.0310   -17.7550 
  176.7500     2.2370    80.1380    42.8250    38.7200    33.6300    25.0840   -17.9600 
  176.8750     2.2430    81.0550    42.2740    38.2800    36.4450    25.1250   -18.2010 
  177.0000     2.2450    81.0930    40.8590    37.0600    40.3740    25.1490   -18.4810 
  177.1250     2.2430    85.0810    38.4310    34.8990    44.3310    25.1780   -18.8370 
  177.2500     2.2440    92.4140    35.7940    32.4130    48.3010    25.2200   -19.2110 
  177.3750     2.2500    95.9460    34.0430    30.4620    49.5160    25.2040   -19.6350 
  177.5000     2.2580    92.5650    34.4290    30.0860    41.2420    25.0410   -20.1050 
  177.6250     2.2600    87.1140    38.6190    32.7710    33.1170    24.8980   -20.6020 
  177.7500     2.2530    83.9900    46.4270    38.5970    37.6340    24.9840   -21.1000 
  177.8750     2.2390    81.5320    57.1710    47.2120    49.7490    25.2490   -21.6110 
  178.0000     2.2260    78.8090    69.1310    57.3150    67.1560    25.4060   -22.1370 
  178.1250     2.2180    79.6000    79.1450    66.2730    85.4260    25.3810   -22.6390 
  178.2500     2.2140    81.2660    84.9920    71.8970    82.0610    25.3080   -23.1690 
  178.3750     2.2110    79.7110    86.3770    73.6370    64.9600    25.2230   -23.7120 
  178.5000     2.2090    77.5680    85.3110    72.9560    62.0740    25.1580   -24.3040 
  178.6250     2.2100    77.8620    86.0140    73.4300    71.6040    25.0880   -24.9250 
  178.7500     2.2160    77.5980    92.4930    78.8670    71.1380    24.9250   -25.6130 
  178.8750     2.2250    74.2120   108.3580    92.5570    74.0890    24.6260   -26.3150 
  179.0000     2.2330    69.7220   136.1290   116.6140    95.0780    24.3820   -27.0630 
  179.1250     2.2340    67.0980   176.3610   151.2230   143.0250    24.3680   -27.8040 
  179.2500     2.2300    65.3670   219.5000   188.1530   199.6950    24.4690   -28.5580 
  179.3750     2.2240    64.5850   253.4860   217.5540   244.5520    24.6420   -29.2980 
  179.5000     2.2200    64.2980   265.7570   229.6820   278.9840    24.8000   -30.0110 
  179.6250     2.2220    64.4790   247.5980   217.5310   291.5590    24.8430   -30.7400 
  179.7500     2.2290    67.2480   215.2980   192.4200   270.4280    24.8240   -31.4570 
  179.8750     2.2400    72.7820   184.9300   166.2090   213.5390    24.7830   -32.2020 
  180.0000     2.2480    78.3910   165.9890   147.7900   147.9780    24.7070   -32.9280 
  180.1250     2.2460    79.9230   163.1640   143.2280   110.5100    24.5420   -33.6670 
  180.2500     2.2340    77.4220   173.7080   151.2390   107.9780    24.3930   -34.3570 
  180.3750     2.2150    71.4880   197.1270   171.3730   128.7650    24.3700   -34.9780 
  180.5000     2.1980    64.8840   232.7930   202.5640   172.4710    24.3290   -35.5040 
  180.6250     2.1940    62.1110   280.7170   243.9540   214.6420    23.9910   -35.8380 
  180.7500     2.1980    62.7210   335.8710   290.6250   234.0420    23.4990   -36.0810 
  180.8750     2.2040    63.8600   394.2880   338.9300   257.1930    23.2870   -36.1860 
  181.0000     2.2020    64.2310   451.7540   385.3430   296.8140    23.6100   -36.1880 
  181.1250     2.1870    63.4650   503.0720   425.8060   327.7280    24.3250   -36.0690 
  181.2500     2.1680    62.1770   545.4880   458.9030   342.5020    24.6970   -35.9070 
  181.3750     2.1520    59.8750   576.3480   483.3460   346.8530    24.7790   -35.7450 
  181.5000     2.1460    57.3690   594.0330   498.5390   354.8880    24.7480   -35.5710 
  181.6250     2.1510    56.3930   596.8780   503.4250   358.8630    24.7150   -35.4410 
  181.7500     2.1600    56.8520   589.5220   500.8890   357.9870    24.7410   -35.2840 
  181.8750     2.1710    57.1990   575.2140   492.9020   355.4660    24.8190   -35.0810 
  182.0000     2.1810    57.0160   556.6190   481.6370   356.1280    24.8830   -34.8200 
  182.1250     2.1870    57.8360   534.9560   467.7150   349.2160    24.9390   -34.5310 
  182.2500     2.1860    59.9290   507.2020   449.2200   335.6510    24.9820   -34.2040 
  182.3750     2.1800    62.4770   468.5390   421.3680   319.8110    25.0070   -33.8230 
  182.5000     2.1740    63.4790   412.6100   379.5310   304.5150    25.0010   -33.3860 
  182.6250     2.1720    60.1660   343.0000   321.7080   289.9810    24.9640   -32.9240 
  182.7500     2.1770    56.6370   272.5750   258.5320   271.9960    24.9310   -32.4310 
  182.8750     2.1900    57.8230   210.4960   201.0080   231.5790    24.8780   -32.0160 
  183.0000     2.2080    63.5470   165.6190   157.6670   163.9830    24.8150   -31.6470 
  183.1250     2.2290    68.5770   144.6470   135.2320   111.3830    24.7890   -31.2740 
  183.2500     2.2450    69.5910   141.0420   130.7040    89.4480    24.7980   -30.8750 
  183.3750     2.2510    67.0940   152.8780   142.5370    91.8440    24.8270   -30.4520 
  183.5000     2.2480    63.1990   177.1280   167.1980   109.4020    24.8330   -29.9870 
  183.6250     2.2360    62.0700   206.5430   197.0100   151.8430    24.8010   -29.4830 
