~V
VERS. 2.00: Ver 2.00
~W
STRT.M 125.0000:
STOP.M 269.0000:
STEP.M 0.1250:
NULL. -999.2500:
UWI. DF3004:
~C
DEPT.M :
GR.API :
RML.OHMM :
RI. :
RXO.OHMM :
CALI.CM :
DEN.GM/CC :
SP.MV :
~A
# ...
  170.0000    77.3560   145.8510   126.4880   120.1480    24.6830     2.2350   -20.6660 
  170.1250    73.8830   160.8320   139.7030   134.8540    24.6530     2.2300   -20.5790 
  170.2500    70.7710   176.0720   153.3110   150.0770    24.6170     2.2270   -20.5630 
  170.3750    68.4810   190.1050   166.0420   155.9300    24.6010     2.2260   -20.4730 
  170.5000    64.4350   201.1280   176.3950   155.7010    24.6080     2.2260   -20.5140 
  170.6250    59.6050   206.1710   182.0070   162.1640    24.6570     2.2260   -20.5260 
  170.7500    58.7770   204.6080   182.3310   176.6370    24.7500     2.2250   -20.5350 
  170.8750    61.8910   196.4650   177.1840   187.1800    24.8720     2.2230   -20.5990 
  171.0000    65.2430   183.2530   167.4530   179.8960    24.9500     2.2210   -20.6300 
  171.1250    66.5960   167.6420   154.9120   153.8100    24.9480     2.2220   -20.6210 
  171.2500    67.0540   153.1720   142.6410   128.0940    24.9030     2.2250   -20.6150 
  171.3750    65.5210   142.1170   132.8380   115.9330    24.8430     2.2290   -20.5760 
  171.5000    63.3060   136.1360   127.2970   113.0440    24.7370     2.2300   -20.4650 
  171.6250    63.8020   137.6910   128.5890   110.6760    24.5110     2.2290   -20.4360 
  171.7500    64.6120   146.8070   136.9300   110.1520    24.2960     2.2260   -20.4350 
  171.8750    63.5970   163.9240   152.7220   115.9630    24.1970     2.2230   -20.4190 
  172.0000    63.3990   188.2750   175.1460   129.1930    24.2130     2.2200   -20.4280 
  172.1250    64.5020   217.0310   201.4340   152.8700    24.3210     2.2130   -20.5660 
  172.2500    64.2620   243.4680   225.4540   171.2640    24.4310     2.2010   -20.6850 
  172.3750    63.4450   261.4460   241.8350   179.3870    24.4840     2.1870   -20.9000 
  172.5000    64.1420   266.7110   247.0040   181.4190    24.4810     2.1760   -21.2100 
  172.6250    64.7540   257.5600   239.4600   177.0180    24.4430     2.1740   -21.3560 
  172.7500    64.5290   241.1160   225.2290   164.4690    24.4250     2.1810   -21.5450 
  172.8750    64.9470   222.9120   209.1180   150.3020    24.4150     2.1940   -21.5970 
  173.0000    65.8850   207.0820   194.9720   151.5180    24.3660     2.2130   -21.6800 
  173.1250    65.9990   196.5990   185.6810   156.8460    24.3190     2.2340   -21.6380 
  173.2500    65.2270   190.3440   180.6620   153.4520    24.2930     2.2540   -21.5450 
  173.3750    64.1260   186.5810   178.5090   143.3440    24.2700     2.2700   -21.4250 
  173.5000    62.8510   183.1380   176.8550   141.1380    24.2530     2.2760   -21.1550 
  173.6250    63.7950   176.8680   172.3940   155.7630    24.2860     2.2690   -21.0300 
  173.7500    65.6840   168.0240   163.8180   160.7060    24.3380     2.2550   -20.8310 
  173.8750    66.1780   157.4170   151.5390   148.1700    24.3520     2.2430   -20.7610 
  174.0000    65.1980   146.6760   137.5240   124.5600    24.2870     2.2370   -20.7030 
  174.1250    65.6020   138.1780   124.9880   102.2840    24.2740     2.2420   -20.6250 
  174.2500    66.9780   128.4260   116.1890    91.6770    24.3430     2.2530   -20.6760 
  174.3750    66.1620   124.3570   112.3260    87.8310    24.4320     2.2630   -20.7530 
  174.5000    64.2450   126.3620   113.9620    92.2310    24.4990     2.2660   -20.8070 
  174.6250    65.4760   135.9350   122.4090    96.8150    24.4960     2.2590   -20.8680 
  174.7500    67.0560   152.0040   136.5810    99.1890    24.4680     2.2420   -20.9560 
  174.8750    65.5850   172.9520   155.0980   105.5340    24.5390     2.2220   -20.9620 
  175.0000    62.4050   194.5920   174.5700   124.7990    24.7080     2.2030   -20.9900 
  175.1250    61.6450   207.7230   187.5510   151.3870    24.7240     2.1900   -21.0890 
  175.2500    61.3290   205.0680   187.7470   161.3240    24.6530     2.1830   -21.1850 
  175.3750    62.1070   183.4720   171.8500   144.9600    24.6340     2.1820   -21.2540 
  175.5000    64.5500   147.9370   142.7170   122.6340    24.6690     2.1850   -21.4660 
  175.6250    66.1660   111.8350   110.0560   124.3450    24.6310     2.1920   -21.5390 
  175.7500    65.4450    85.9460    84.4180   114.2750    24.5420     2.2070   -21.5760 
  175.8750    65.2520    72.7970    69.8160    75.6160    24.4440     2.2280   -21.6630 
  176.0000    67.6280    72.0130    67.1480    53.5050    24.3840     2.2500   -21.6670 
  176.1250    71.6060    85.6540    78.8190    62.9410    24.3690     2.2650   -21.7470 
  176.2500    74.2200   112.3440   103.1090    92.6470    24.3710     2.2690   -21.6860 
  176.3750    74.0200   151.0910   138.5590   126.0870    24.4090     2.2590   -21.7120 
  176.5000    70.2450   196.9850   180.0630   147.7150    24.4690     2.2380   -21.6740 
  176.6250    63.9690   237.7320   215.8850   174.3300    24.5540     2.2090   -21.6740 
  176.7500    58.7500   260.0710   234.6290   202.9710    24.6100     2.1790   -21.7190 
  176.8750    57.1600   256.6700   230.7300   218.8020    24.6790     2.1550   -21.6230 
  177.0000    60.0540   230.6350   207.3270   218.0040    24.7480     2.1440   -21.5820 
  177.1250    64.5500   194.6880   174.7280   184.1370    24.7570     2.1530   -21.4030 
  177.2500    67.4130   164.1180   145.9420   148.5490    24.7170     2.1770   -21.2800 
  177.3750    68.2750   145.0450   126.7830   121.0050    24.6610     2.2090   -21.1380 
  177.5000    68.4290   138.9000   119.0470   107.7160    24.6130     2.2390   -20.8980 
  177.6250    68.0380   145.6430   123.1050   106.6450    24.5930     2.2530   -20.6410 
  177.7500    67.1870   158.7480   133.4220   120.7360    24.5400     2.2520   -20.4650 
  177.8750    67.2090   171.8230   144.6430   152.3090    24.4030     2.2390   -20.3580 
  178.0000    68.5110   177.7130   150.6640   185.1030    24.2350     2.2210   -20.2640 
  178.1250    67.6230   168.9940   144.9850   200.2160    24.3080     2.2080   -20.2330 
  178.2500    65.1290   149.1570   129.7440   186.8770    24.5100     2.2040   -20.1170 
  178.3750    66.6230   125.1180   110.0640   156.1530    24.6260     2.2100   -19.9690 
  178.5000    73.4910   104.2500    92.0370   111.3150    24.6120     2.2240   -19.8180 
  178.6250    78.4960    91.6450    80.5190    78.4730    24.5640     2.2420   -19.7270 
  178.7500    79.3340    85.7460    74.8510    63.6700    24.5220     2.2590   -19.5800 
  178.8750    77.8530    84.5450    73.4960    63.8010    24.5070     2.2710   -19.4840 
  179.0000    74.2940    85.8000    74.5190    70.6490    24.5070     2.2770   -19.4270 
  179.1250    70.5330    87.3270    75.9800    77.6870    24.5110     2.2740   -19.3650 
  179.2500    71.4710    87.5590    76.3600    81.1340    24.5140     2.2680   -19.4150 
  179.3750    76.4170    85.9650    75.0790    79.3040    24.5100     2.2610   -19.3790 
  179.5000    80.3560    82.7180    72.2110    72.7970    24.5060     2.2560   -19.4820 
  179.6250    77.8730    78.4610    68.2710    65.5670    24.5050     2.2550   -19.5130 
  179.7500    72.2800    74.3740    64.3190    63.9130    24.5050     2.2580   -19.5190 
  179.8750    69.9120    71.3960    61.1610    64.7660    24.5050     2.2660   -19.5850 
  180.0000    73.5810    70.4340    59.5500    63.3570    24.4980     2.2750   -19.5980 
  180.1250    78.2430    72.8470    60.6210    58.1470    24.4720     2.2830   -19.7690 
  180.2500    78.3500    78.6800    64.5220    55.4220    24.4190     2.2860   -19.9160 
  180.3750    74.3700    87.8820    71.3470    60.0790    24.3650     2.2830   -20.2360 
  180.5000    70.0220    99.7940    80.6940    73.0520    24.3830     2.2750   -20.6660 
  180.6250    68.3030   113.1650    91.6550    88.7550    24.4670     2.2650   -21.0810 
  180.7500    69.4400   126.0400   102.4780   106.3790    24.5530     2.2550   -21.5030 
  180.8750    72.8280   137.2170   111.9880   124.7800    24.5820     2.2470   -21.8960 
  181.0000    76.1220   146.1290   119.5200   133.1600    24.5820     2.2430   -22.1800 
  181.1250    75.7090   152.2240   124.4650   125.5310    24.5850     2.2390   -22.3660 
