~V
VERS. 2.00: Ver 2.00
~W
STRT.M 85.0000:
STOP.M 235.0000:
STEP.M 0.1250:
NULL. -999.2500:
UWI. DF305:
~C
DEPT.M :
DEN.GM/CC :
SP.MV :
AC.US/MT :
GR.API :
CALI.CM :
RXO.OHMM :
RI. :
RML.OHMM :
~A
# ...
  165.0000     2.6810   -23.6070   368.1550    64.6830    24.6180    58.1860    25.7560    28.5310 
  165.1250     2.6170   -23.3490   392.1660    57.4320    24.5840    44.3700    17.2650    17.7820 
  165.2500     2.5490   -23.1040   418.1090    49.4260    24.4700    24.0240    11.1650    10.8330 
  165.3750     2.5130   -22.8900   436.7110    45.1440    24.2710     9.9700     7.2740     6.6190 
  165.5000     2.5100   -22.7410   440.1520    45.0200    24.0760     4.6350     4.9810     4.3170 
  165.6250     2.5040   -22.6600   432.0270    46.8610    24.0320     3.7490     3.8690     3.3760 
  165.7500     2.4800   -22.6430   424.2500    48.6810    24.1170     3.7500     3.4040     3.1270 
  165.8750     2.4530   -22.6860   419.9280    49.8100    24.2400     3.9620     3.3820     3.2970 
  166.0000     2.4350   -22.8140   418.1720    49.7720    24.3640     4.1510     3.6300     3.6720 
  166.1250     2.4260   -23.0630   418.1320    49.0960    24.3970     4.2570     3.9960     4.0700 
  166.2500     2.4180   -23.4240   418.4300    49.7250    24.3470     4.2930     4.3310     4.3770 
  166.3750     2.4130   -23.8490   418.4030    54.7060    24.2860     4.2850     4.5620     4.5640 
  166.5000     2.4140   -24.2960   418.5570    61.6720    24.2850     4.2660     4.6730     4.6520 
  166.6250     2.4180   -24.7900   420.4180    69.1670    24.2990     4.2970     4.7090     4.7130 
  166.7500     2.4260   -25.3270   422.6150    77.5740    24.3220     4.4040     4.7750     4.8570 
  166.8750     2.4370   -25.9010   421.3270    85.1890    24.3570     4.6600     4.9410     5.1580 
  167.0000     2.4510   -26.4920   413.7880    87.9810    24.4040     5.2100     5.2370     5.6500 
  167.1250     2.4630   -27.0810   402.9380    84.4570    24.5220     6.0430     5.6480     6.3160 
  167.2500     2.4680   -27.6390   397.1950    83.4200    24.7330     6.7730     6.0610     7.0100 
  167.3750     2.4610   -28.1930   400.5210    85.6590    24.9360     7.1090     6.3710     7.5870 
  167.5000     2.4370   -28.7490   410.7910    88.2910    25.0360     7.1670     6.5210     7.9520 
  167.6250     2.4100   -29.2850   421.9790    91.3160    25.0540     7.3200     6.5450     8.1440 
  167.7500     2.4040   -29.7740   428.6320    91.8600    25.0540     7.6620     6.6040     8.3970 
  167.8750     2.4250   -30.2090   427.1010    88.8710    25.0540     8.1470     6.8240     8.8980 
  168.0000     2.4550   -30.5730   415.4150    85.0220    25.0530     8.9840     7.2650     9.7340 
  168.1250     2.4710   -30.8520   397.0790    86.6420    25.0100    10.7230     7.9040    10.8460 
  168.2500     2.4700   -31.0610   384.2630    91.7090    24.8490    12.5680     8.5320    11.8730 
  168.3750     2.4570   -31.1790   384.7130    94.0770    24.5550    13.3980     8.9380    12.4480 
  168.5000     2.4480   -31.1950   397.3160    92.7410    24.2950    12.7930     8.9900    12.3790 
  168.6250     2.4520   -31.0950   413.2590    93.5170    24.2050    11.5230     8.6750    11.7580 
  168.7500     2.4670   -30.8970   424.4110    97.9240    24.1920    10.2170     8.2010    11.0040 
  168.8750     2.4820   -30.6020   429.5100    99.8640    24.1830     9.2830     7.6910    10.3120 
  169.0000     2.4900   -30.2260   429.6980    95.1600    24.1590     8.8750     7.2140     9.7290 
  169.1250     2.4880   -29.7730   425.2370    85.6200    24.1170     9.0250     6.8040     9.2240 
  169.2500     2.4820   -29.2710   417.5770    75.1630    24.0990     8.9620     6.4640     8.7600 
  169.3750     2.4750   -28.7650   408.1160    65.8260    24.0960     8.2700     6.2130     8.3830 
  169.5000     2.4640   -28.2800   398.6650    59.5350    24.0950     7.4220     6.0750     8.1610 
  169.6250     2.4450   -27.8360   391.3850    58.2380    24.0920     7.2840     6.0660     8.1430 
  169.7500     2.4270   -27.4350   387.2600    60.6440    24.1090     7.4340     6.1280     8.2310 
  169.8750     2.4220   -27.0890   386.6930    63.7650    24.2020     7.3050     6.2030     8.3190 
  170.0000     2.4330   -26.7970   389.3400    62.5380    24.4350     6.7960     6.2270     8.3050 
  170.1250     2.4420   -26.5640   394.6360    54.7230    24.6960     6.3180     6.1390     8.1100 
  170.2500     2.4330   -26.3860   401.2210    46.2910    24.8300     5.9420     5.9600     7.8000 
  170.3750     2.4110   -26.2390   408.1100    40.7300    24.8620     5.6190     5.7260     7.4540 
  170.5000     2.3880   -26.1260   413.8110    36.9900    24.8530     5.3490     5.4820     7.1360 
  170.6250     2.3770   -26.0650   416.0620    35.8080    24.7960     5.2290     5.2770     6.9000 
  170.7500     2.3760   -26.0440   415.0010    37.2810    24.6890     5.1480     5.1300     6.7400 
  170.8750     2.3870   -26.0550   412.9430    39.6720    24.5920     5.0580     5.0480     6.6430 
  171.0000     2.4040   -26.0900   413.6790    41.7060    24.5240     4.9590     5.0250     6.5930 
  171.1250     2.4190   -26.1430   419.6370    44.0200    24.4400     4.9070     5.0530     6.5880 
  171.2500     2.4280   -26.1900   426.3460    47.0510    24.4190     4.9150     5.0990     6.6240 
  171.3750     2.4330   -26.2060   428.7140    48.3740    24.5520     4.9560     5.1440     6.6980 
  171.5000     2.4310   -26.1690   425.0730    47.0790    24.8250     5.0210     5.1680     6.7930 
  171.6250     2.4260   -26.0530   418.4170    45.5150    24.9300     5.1300     5.1570     6.8720 
  171.7500     2.4270   -25.8850   413.1160    45.9110    25.1880     5.2160     5.1180     6.9120 
  171.8750     2.4360   -25.6810   409.6210    48.0050    25.4390     5.1970     5.0660     6.9110 
  172.0000     2.4400   -25.4800   406.3960    49.4360    25.5310     5.0900     5.0220     6.8840 
  172.1250     2.4250   -25.3070   402.6300    48.5510    25.4900     5.0160     5.0030     6.8450 
  172.2500     2.4010   -25.1590   400.3990    48.5020    25.1370     5.0260     5.0030     6.8000 
  172.3750     2.3830   -25.0760   402.4700    51.5430    24.5860     5.0370     5.0130     6.7520 
  172.5000     2.3730   -25.0650   408.9340    55.3330    24.2610     4.9870     5.0300     6.7150 
  172.6250     2.3680   -25.1260   414.7720    59.2540    24.3410     4.8650     5.0620     6.7350 
  172.7500     2.3650   -25.2300   414.5290    64.9770    24.7490     4.8090     5.1210     6.8360 
  172.8750     2.3620   -25.3560   408.3900    74.6890    25.2860     5.0000     5.2070     7.0210 
  173.0000     2.3640   -25.4610   401.0160    85.1710    25.6480     5.5470     5.3070     7.2530 
  173.1250     2.3880   -25.5220   397.3890    89.0330    25.4840     6.1230     5.3820     7.4420 
  173.2500     2.4250   -25.5250   396.9430    86.5380    25.2530     6.3080     5.4050     7.5180 
  173.3750     2.4510   -25.4320   397.9060    81.7450    25.1380     6.1210     5.3710     7.4680 
  173.5000     2.4510   -25.2300   399.5240    80.5390    25.0720     5.8100     5.3020     7.3260 
  173.6250     2.4460   -24.8800   401.9970    83.2490    24.9190     5.5210     5.2340     7.1620 
  173.7500     2.4510   -24.4090   404.7680    84.5300    24.7550     5.3530     5.1920     7.0370 
  173.8750     2.4540   -23.8740   407.1320    85.1980    24.6380     5.3880     5.1830     6.9700 
  174.0000     2.4440   -23.3450   408.5520    86.1790    24.5920     5.5240     5.1940     6.9470 
  174.1250     2.4380   -22.8350   408.4880    88.9420    24.5890     5.5750     5.2000     6.9320 
  174.2500     2.4470   -22.3930   407.1360    91.7470    24.5920     5.5580     5.1740     6.8890 
  174.3750     2.4630   -22.0420   404.9620    93.1820    24.5920     5.5710     5.1030     6.8050 
  174.5000     2.4690   -21.7890   402.8110    96.1420    24.5800     5.6360     4.9880     6.6870 
  174.6250     2.4630   -21.6700   401.8120    97.3410    24.5620     5.6680     4.9190     6.6180 
  174.7500     2.4540   -21.6640   402.3690    98.0810    24.5380     5.6750     4.8260     6.5250 
  174.8750     2.4410   -21.7450   404.3060    96.8880    24.5030     5.6320     4.7240     6.4160 
