~V
VERS. 2.00: Ver 2.00
~W
STRT.M 58.0000:
STOP.M 259.0000:
STEP.M 0.1250:
NULL. -999.2500:
UWI. DF3010:
~C
DEPT.M :
GR.API :
RML.OHMM :
RI. :
RXO.OHMM :
CALI.CM :
DEN.GM/CC :
SP.MV :
~A
   58.0000  -999.2500  -999.2500  -999.2500  -999.2500  -999.2500  -999.2500     5.6030 
   58.1250  -999.2500  -999.2500  -999.2500  -999.2500  -999.2500  -999.2500     6.4510 
   58.2500  -999.2500  -999.2500  -999.2500  -999.2500  -999.2500  -999.2500     6.9920 
   58.3750  -999.2500  -999.2500  -999.2500  -999.2500  -999.2500  -999.2500     7.2620 
   58.5000  -999.2500  -999.2500  -999.2500  -999.2500  -999.2500  -999.2500     7.3120 
   58.6250  -999.2500  -999.2500  -999.2500  -999.2500  -999.2500  -999.2500     7.1640 
   58.7500  -999.2500  -999.2500  -999.2500  -999.2500  -999.2500  -999.2500     6.8360 
   58.8750  -999.2500  -999.2500  -999.2500  -999.2500  -999.2500  -999.2500     6.2880 
   59.0000  -999.2500  -999.2500  -999.2500  -999.2500  -999.2500  -999.2500     5.4320 
   59.1250  -999.2500  -999.2500  -999.2500  -999.2500  -999.2500  -999.2500     4.2860 
   59.2500  -999.2500  -999.2500  -999.2500  -999.2500  -999.2500  -999.2500     2.9630 
   59.3750  -999.2500  -999.2500  -999.2500  -999.2500  -999.2500  -999.2500     1.6310 
   59.5000  -999.2500  -999.2500  -999.2500  -999.2500  -999.2500  -999.2500     0.2810 
   59.6250  -999.2500  -999.2500  -999.2500  -999.2500  -999.2500  -999.2500    -1.0860 
   59.7500  -999.2500  -999.2500  -999.2500  -999.2500  -999.2500  -999.2500    -2.5270 
   59.8750  -999.2500  -999.2500  -999.2500  -999.2500  -999.2500  -999.2500    -3.8530 
   60.0000  -999.2500  -999.2500  -999.2500  -999.2500  -999.2500  -999.2500    -4.9560 
   60.1250  -999.2500  -999.2500  -999.2500  -999.2500  -999.2500  -999.2500    -5.7130 
   60.2500  -999.2500  -999.2500  -999.2500  -999.2500  -999.2500  -999.2500    -6.2010 
   60.3750  -999.2500  -999.2500  -999.2500  -999.2500  -999.2500  -999.2500    -6.5150 
   60.5000  -999.2500  -999.2500  -999.2500  -999.2500  -999.2500  -999.2500    -6.6040 
   60.6250  -999.2500  -999.2500  -999.2500  -999.2500  -999.2500  -999.2500    -6.4440 
   60.7500  -999.2500  -999.2500  -999.2500  -999.2500  -999.2500  -999.2500    -5.9780 
   60.8750  -999.2500  -999.2500  -999.2500  -999.2500  -999.2500  -999.2500    -5.4210 
   61.0000  -999.2500  -999.2500  -999.2500  -999.2500  -999.2500  -999.2500    -4.8400 
   61.1250  -999.2500  -999.2500  -999.2500  -999.2500  -999.2500  -999.2500    -4.3790 
   61.2500  -999.2500  -999.2500  -999.2500  -999.2500  -999.2500  -999.2500    -4.0560 
   61.3750  -999.2500  -999.2500  -999.2500  -999.2500  -999.2500  -999.2500    -3.9020 
   61.5000  -999.2500  -999.2500  -999.2500  -999.2500  -999.2500  -999.2500    -3.9120 
   61.6250  -999.2500  -999.2500  -999.2500  -999.2500  -999.2500  -999.2500    -4.1140 
   61.7500  -999.2500  -999.2500  -999.2500  -999.2500  -999.2500  -999.2500    -4.5320 
   61.8750  -999.2500  -999.2500  -999.2500  -999.2500  -999.2500  -999.2500    -5.0830 
   62.0000  -999.2500  -999.2500  -999.2500  -999.2500  -999.2500  -999.2500    -5.7130 
   62.1250  -999.2500  -999.2500  -999.2500  -999.2500  -999.2500  -999.2500    -6.2710 
   62.2500  -999.2500  -999.2500  -999.2500  -999.2500  -999.2500  -999.2500    -6.8180 
   62.3750  -999.2500  -999.2500  -999.2500  -999.2500  -999.2500  -999.2500    -7.2860 
   62.5000  -999.2500  -999.2500  -999.2500  -999.2500  -999.2500  -999.2500    -7.7150 
   62.6250  -999.2500  -999.2500  -999.2500  -999.2500  -999.2500  -999.2500    -7.9650 
   62.7500  -999.2500  -999.2500  -999.2500  -999.2500  -999.2500  -999.2500    -8.0750 
   62.8750  -999.2500  -999.2500  -999.2500  -999.2500  -999.2500  -999.2500    -8.0200 
   63.0000  -999.2500  -999.2500  -999.2500  -999.2500  -999.2500  -999.2500    -7.7880 
   63.1250  -999.2500  -999.2500  -999.2500  -999.2500  -999.2500  -999.2500    -7.4040 
   63.2500  -999.2500  -999.2500  -999.2500  -999.2500  -999.2500  -999.2500    -6.7630 
   63.3750  -999.2500  -999.2500  -999.2500  -999.2500  -999.2500  -999.2500    -5.8430 
   63.5000     0.0000     0.0000     0.0000     0.0000     0.0000  -999.2500    -4.5410 
   63.6250     0.0000     0.0000     0.0000     0.0000     0.0000  -999.2500    -2.9130 
   63.7500     0.0000     0.0000     0.0000     0.0000     0.0000  -999.2500    -1.0190 
   63.8750     0.0000     0.0000     0.0000     0.0000     0.0000  -999.2500     0.9060 
   64.0000     0.0000     0.0000     0.0000     0.0000     0.0000  -999.2500     2.7220 
   64.1250    57.3510     7.8420     1.5310 25116.0370    25.3330  -999.2500     4.2540 
   64.2500    60.1620     7.7590     1.5340 25116.0370    25.3330  -999.2500     5.5050 
   64.3750    59.5570     7.5930     1.5320 25116.0370    25.3330  -999.2500     6.3720 
   64.5000    56.3740     7.3430     1.5250 25116.0370    25.3330  -999.2500     6.8180 
   64.6250    52.2840     7.0450     1.5140 25116.0370    25.3330  -999.2500     6.7990 
   64.7500    48.8630     6.7640     1.5030 25116.0370    25.3330  -999.2500     6.5310 
   64.8750    47.4830     6.5380     1.4950 25116.0370    25.3330  -999.2500     6.1840 
   65.0000    48.2300     6.3820     1.4910 25116.0370    25.3270  -999.2500     5.7860 
   65.1250    48.5290     6.2890     1.4910 25116.0370    25.2890  -999.2500     5.3650 
   65.2500    47.4040     6.2190     1.4950 24490.8440    25.2140  -999.2500     4.8580 
   65.3750    47.2690     6.1450     1.5000 22925.6700    25.2020  -999.2500     4.3150 
   65.5000    47.0250     6.0620     1.5060 19896.2910    25.2000  -999.2500     3.6740 
   65.6250    45.5560     6.0150     1.5150 12902.6180    25.2000  -999.2500     2.9420 
   65.7500    45.7980     6.0470     1.5250    57.6450    25.2000  -999.2500     1.9650 
   65.8750    48.6000     6.1450     1.5280    11.7860    25.2000  -999.2500     0.8290 
   66.0000    52.1700     6.2050     1.4990  1259.0510    25.2000  -999.2500    -0.2870 
   66.1250    52.6820     5.9760     1.3970  3195.3310    25.2000  -999.2500    -1.2480 
   66.2500    51.7690     5.3080     1.2110  5980.5390    25.2000  -999.2500    -2.0050 
   66.3750    49.4620     4.1830     0.9480 18648.3160    25.2000  -999.2500    -2.5510 
   66.5000    47.2440     2.8210     0.6530 19919.7250    25.2000  -999.2500    -2.8380 
   66.6250    47.8100     1.6800     0.4040 12956.7910    25.2000  -999.2500    -3.0140 
   66.7500    49.5290     0.9580     0.2390   134.8220    25.2000  -999.2500    -3.2650 
   66.8750    52.2720     0.6090     0.1560    15.9400    25.2000  -999.2500    -3.9250 
   67.0000    56.1010     0.5430     0.1580     2.7720    25.2000  -999.2500    -5.2860 
   67.1250    60.3590     0.7550     0.3110     3.2110    25.1730  -999.2500    -7.4310 
   67.2500    64.3090     1.2040     0.6780     4.6720    25.0040  -999.2500    -9.9460 
   67.3750    69.4670     1.8780     1.3330     7.1540    24.5460  -999.2500   -12.6570 
   67.5000    77.0190     2.7160     2.2970     9.5000    24.1390  -999.2500   -15.4970 
   67.6250    81.6660     3.5840     3.5060    10.4120    23.7840  -999.2500   -18.3230 
   67.7500    82.8070     4.3230     4.7130    10.3580    23.6630  -999.2500   -20.8800 
   67.8750    85.6130     4.8590     5.7250    10.3390    23.5160  -999.2500   -23.0030 
   68.0000    91.2350     5.2020     6.4450    10.0330    23.4520  -999.2500   -24.5240 
   68.1250    94.8330     5.3990     6.8520     9.5790    23.3490  -999.2500   -25.4240 
   68.2500    94.5430     5.5410     7.0830     8.9530    23.3230  -999.2500   -26.0470 
   68.3750    92.4820     5.6840     7.2440     8.7560    23.2390  -999.2500   -26.5910 
   68.5000    91.3340     5.8990     7.4530     8.4850    23.1790  -999.2500   -27.2090 
   68.6250    91.0780     6.2890     7.8560     8.5610    23.0370  -999.2500   -27.8790 
   68.7500    90.5680     6.8560     8.4710     9.9120    22.9160  -999.2500   -28.6440 
   68.8750    88.0560     7.5480     9.2430    12.0340    22.7570  -999.2500   -29.4080 
   69.0000    82.5550     8.2490    10.0340    14.4150    23.3470  -999.2500   -30.1450 
   69.1250    76.4790     8.7700    10.6160    18.0270    23.1900  -999.2500   -30.7910 
