~V
VERS. 2.00: Ver 2.00
~W
STRT.M 110.0000:
STOP.M 266.0000:
STEP.M 0.1250:
NULL. -999.2500:
UWI. DF309:
~C
DEPT.M :
DEN.GM/CC :
SP.MV :
AC.US/MT :
GR.API :
CALI.CM :
RXO.OHMM :
RI. :
RML.OHMM :
~A
# ...
  190.0000     2.2670   -32.5450   385.9270    66.2340    24.8690    72.1380    64.5640    71.0320 
  190.1250     2.2720   -32.0780   387.0930    63.8780    24.8740    74.7860    62.8490    68.8110 
  190.2500     2.2820   -31.6120   383.9930    63.0070    24.9000    68.9790    58.3090    63.2090 
  190.3750     2.2980   -31.1570   379.3700    61.7310    24.9440    54.0550    52.0860    55.5340 
  190.5000     2.3170   -30.7610   376.2300    58.8200    24.9700    37.1370    45.9180    47.9080 
  190.6250     2.3460   -30.4050   374.4320    57.8920    24.9780    28.5980    41.4280    42.2800 
  190.7500     2.3820   -30.1070   370.0590    60.7790    24.9790    26.2710    38.7880    38.8180 
  190.8750     2.4170   -29.8590   361.0500    64.2400    24.9790    27.1090    37.7570    37.2180 
  191.0000     2.4390   -29.6130   349.0990    66.2540    24.9790    29.4720    37.7650    36.8240 
  191.1250     2.4420   -29.3610   340.3920    73.6540    24.9800    31.8140    38.1450    36.9120 
  191.2500     2.4340   -29.1300   339.3140    81.8570    24.9780    33.6410    38.5670    37.1170 
  191.3750     2.4140   -28.9330   346.5430    81.8990    24.9780    35.1290    39.2530    37.7080 
  191.5000     2.3800   -28.7290   359.8540    74.4120    24.9800    34.8520    40.2990    38.8740 
  191.6250     2.3400   -28.5440   375.0620    69.6910    24.9780    35.7820    40.8280    39.8830 
  191.7500     2.3070   -28.3620   387.5300    71.3370    24.9760    44.6280    39.1560    38.9400 
  191.8750     2.2900   -28.2000   395.3250    73.4810    24.9760    58.0830    34.2370    34.6200 
  192.0000     2.2960   -28.1040   399.0540    77.3460    24.9760    58.5620    27.1360    27.5870 
  192.1250     2.3320   -28.1320   401.2650    90.0080    24.9760    37.7770    20.7360    20.7680 
  192.2500     2.3790   -28.2490   404.5630   101.7300    24.9760    19.6090    16.5590    16.2170 
  192.3750     2.4090   -28.4560   409.2020   100.9040    24.9760    12.3080    14.8000    14.3740 
  192.5000     2.4040   -28.7510   413.7030    86.7570    24.9770    12.3420    15.6360    15.3380 
  192.6250     2.3670   -29.1210   415.1280    71.4760    24.9800    20.5250    20.9290    20.3020 
  192.7500     2.3200   -29.5140   412.5180    65.7010    24.9840    44.6430    32.6540    30.5040 
  192.8750     2.2790   -29.9210   406.5780    65.6370    24.9710    89.1460    53.5330    49.0140 
  193.0000     2.2540   -30.3000   399.3190    64.5780    24.9250   132.9730    83.0770    78.8140 
  193.1250     2.2490   -30.5970   393.0340    59.6350    24.8380   157.8660   109.0260   112.3060 
  193.2500     2.2580   -30.8130   388.4160    56.5200    24.7880   160.3790   117.0640   125.6620 
  193.3750     2.2720   -30.9090   385.4130    59.6520    24.7490   141.9460   108.6600   115.8970 
  193.5000     2.2820   -30.8980   384.1800    66.4770    24.6840   105.3250    94.4830    99.1870 
  193.6250     2.2780   -30.7620   385.5250    71.1240    24.6110    77.6110    82.9830    86.7890 
  193.7500     2.2670   -30.5520   388.6140    71.5720    24.5400    66.8920    75.6870    79.4120 
  193.8750     2.2700   -30.2520   392.2030    68.8900    24.4130    65.8370    71.8290    75.9250 
  194.0000     2.3100   -29.8710   395.7520    66.2960    24.2310    66.5900    69.7720    74.5090 
  194.1250     2.3930   -29.4010   400.2280    64.9830    24.0760    67.3330    66.8070    72.0690 
  194.2500     2.4830   -28.8720   404.1260    64.5080    23.9840    68.3890    60.9050    66.1540 
  194.3750     2.5500   -28.2980   404.9690    65.8930    23.9100    65.7930    51.8440    56.5240 
  194.5000     2.5760   -27.6810   404.4180    68.4490    23.8220    54.8820    41.0810    44.9180 
  194.6250     2.5650   -27.0630   408.8520    68.9240    23.7630    38.5670    31.0350    33.9770 
  194.7500     2.5420   -26.4950   416.4280    68.0230    23.7420    25.1850    22.9880    25.0970 
  194.8750     2.5210   -25.9970   420.0660    68.3890    23.7510    16.7730    17.0810    18.5260 
  195.0000     2.5100   -25.5780   418.0010    69.2810    23.7900    11.6250    12.9900    14.0040 
  195.1250     2.5040   -25.2610   416.0830    67.0690    23.8710     8.9580    10.4890    11.3310 
  195.2500     2.4890   -25.0320   415.6170    64.0530    23.9710     7.5350     8.9720     9.8030 
  195.3750     2.4640   -24.9180   412.0100    62.3060    24.0650     7.1970     8.1900     9.1110 
  195.5000     2.4440   -24.8970   402.3370    61.1960    24.1450     7.0970     7.9610     9.0260 
  195.6250     2.4460   -24.9560   386.1430    58.2700    24.2810     6.8580     8.1920     9.4120 
  195.7500     2.4620   -25.0290   365.7020    55.0230    24.5020     6.9260     8.6550    10.0060 
  195.8750     2.4750   -25.1060   345.1820    55.2870    24.7130     7.6980     9.1950    10.6390 
  196.0000     2.4730   -25.1720   330.5020    58.6760    24.8440     8.9610     9.6530    11.1560 
  196.1250     2.4520   -25.2010   326.8380    59.7370    24.8830     9.8580     9.8610    11.3950 
  196.2500     2.4300   -25.1860   330.6430    55.8020    24.8890    10.1930     9.8240    11.3750 
  196.3750     2.4260   -25.1170   338.8690    50.0190    24.8890    10.2340     9.6490    11.2260 
  196.5000     2.4460   -25.0240   349.3430    46.7120    24.8890     9.8130     9.5140    11.1780 
  196.6250     2.4740   -24.8930   356.8960    46.5780    24.8890     9.5520     9.5400    11.3050 
  196.7500     2.4920   -24.7220   354.2110    46.6370    24.8890     9.3020     9.6470    11.5970 
  196.8750     2.5030   -24.5090   339.4950    47.4300    24.8890     9.8340     9.9300    12.2280 
  197.0000     2.5140   -24.2720   321.7640    49.4600    24.8890    12.3660    10.1880    12.8430 
  197.1250     2.5180   -24.0460   318.9580    55.3900    24.8890    14.6860    10.1070    12.9300 
  197.2500     2.5060   -23.8710   334.0440    63.3340    24.8890    14.9700     9.6360    12.3690 
  197.3750     2.4830   -23.7400   357.2510    72.5720    24.8890    12.9810     8.9510    11.4270 
  197.5000     2.4730   -23.6400   374.5810    83.0600    24.8890    10.7140     8.3450    10.6120 
  197.6250     2.4910   -23.5920   375.6220    95.1780    24.8890     9.7990     8.1240    10.4660 
  197.7500     2.5170   -23.6240   365.5650   106.0250    24.8890    10.2280     8.3090    11.0160 
  197.8750     2.5310   -23.7130   352.0900   110.0230    24.8890    11.4140     8.8170    12.0850 
  198.0000     2.5260   -23.8650   343.0730   104.8900    24.8840    12.9990     9.4120    13.2480 
  198.1250     2.5120   -24.0710   345.7920    98.6810    24.8440    13.9660     9.6660    13.7400 
  198.2500     2.4950   -24.2850   358.7520    97.2030    24.7690    13.3340     9.3940    13.2660 
  198.3750     2.4760   -24.5120   377.5330    97.1370    24.7060    11.3840     8.6980    12.0540 
  198.5000     2.4560   -24.7380   395.9820    94.7170    24.6790     9.4390     7.8480    10.6420 
  198.6250     2.4420   -24.9510   407.9300    94.3320    24.6740     8.5780     7.1520     9.5840 
  198.7500     2.4360   -25.1360   412.1220    95.8680    24.6730     8.2760     6.7720     9.1020 
  198.8750     2.4370   -25.3340   408.3190    96.1120    24.6680     8.2410     6.7910     9.2900 
  199.0000     2.4490   -25.5010   396.7440    94.4750    24.6520     8.4260     7.2290    10.1450 
  199.1250     2.4810   -25.6100   378.2530    91.1950    24.5730     9.1680     8.0650    11.6120 
  199.2500     2.5220   -25.6610   359.7050    87.1530    24.4660    10.7030     9.0210    13.2390 
  199.3750     2.5490   -25.6450   349.0250    84.6320    24.4010    12.7410     9.7570    14.4690 
  199.5000     2.5430   -25.5730   352.0690    84.4220    24.4740    14.0700     9.9230    14.6940 
  199.6250     2.5060   -25.4410   369.3740    84.9760    24.6670    13.0550     9.3240    13.5800 
  199.7500     2.4680   -25.2620   390.1090    85.9400    24.8540    11.0500     8.3870    11.9320 
  199.8750     2.4450   -25.0550   405.3820    89.8050    24.9760     9.2430     7.4720    10.4370 
