~V
VERS. 2.00: Ver 2.00
~W
STRT.M 55.0000:
STOP.M 252.0000:
STEP.M 0.1250:
NULL. -999.2500:
UWI. DF3024:
~C
DEPT.M :
GR.API :
RML.OHMM :
RI. :
RXO.OHMM :
CALI.CM :
DEN.GM/CC :
SP.MV :
~A
# ...
   77.5000    65.3120     9.3000     7.8420     7.7050    23.6300  -999.2500   -35.7180 
   77.6250    63.4880     9.2180     7.7760     7.8860    23.6360  -999.2500   -35.5510 
   77.7500    61.9320     9.1620     7.7290     8.0820    23.6620  -999.2500   -35.4440 
   77.8750    61.4340     9.1280     7.7040     8.3930    23.7170  -999.2500   -35.1810 
   78.0000    60.6240     9.1090     7.7010     8.7190    23.7590  -999.2500   -34.8460 
   78.1250    61.4750     9.0880     7.7080     8.9200    23.7020  -999.2500   -34.5860 
   78.2500    64.7990     9.0530     7.7120     8.9920    23.5750  -999.2500   -34.1930 
   78.3750    68.7920     8.9960     7.7040     8.9850    23.4820  -999.2500   -33.7070 
   78.5000    69.5890     8.9140     7.6800     8.9370    23.4490  -999.2500   -33.3200 
   78.6250    67.0570     8.8090     7.6410     8.8270    23.4460  -999.2500   -32.7730 
   78.7500    66.6800     8.6980     7.5970     8.6850    23.4600  -999.2500   -32.1170 
   78.8750    67.5880     8.5970     7.5570     8.5120    23.4830  -999.2500   -31.5850 
   79.0000    68.4520     8.5190     7.5270     8.3230    23.5220  -999.2500   -31.0550 
   79.1250    68.9330     8.4560     7.4960     8.1200    23.5430  -999.2500   -30.3700 
   79.2500    70.7620     8.3720     7.4350     8.0660    23.5610  -999.2500   -29.6790 
   79.3750    71.5470     8.2250     7.3130     8.0420    23.5970  -999.2500   -29.0110 
   79.5000    71.8240     7.9910     7.1130     7.9600    23.6540  -999.2500   -28.3210 
   79.6250    78.5240     7.6800     6.8380     7.8540    23.7610  -999.2500   -27.6770 
   79.7500    90.4940     7.3680     6.5470     7.4940    23.8860  -999.2500   -27.1830 
   79.8750   102.4220     7.1280     6.2980     6.9250    23.9450  -999.2500   -26.8580 
   80.0000   108.3550     7.0240     6.1390     6.5610    23.9000  -999.2500   -26.6000 
   80.1250   104.5690     7.1200     6.1270     6.4700    23.7910  -999.2500   -26.5890 
   80.2500    96.4380     7.3830     6.2500     6.6330    23.6990  -999.2500   -26.8470 
   80.3750    88.9980     7.7720     6.4930     6.9780    23.6600  -999.2500   -27.0820 
   80.5000    84.0790     8.2160     6.8160     7.4930    23.6990  -999.2500   -27.2220 
   80.6250    78.3210     8.6070     7.1510     7.8230    23.8620  -999.2500   -27.4370 
   80.7500    74.2500     8.8650     7.4150     8.0670    24.0250  -999.2500   -27.4660 
   80.8750    76.1750     8.9570     7.5560     8.2560    24.0120  -999.2500   -27.1700 
   81.0000    82.2150     8.9050     7.5560     8.3650    23.9220  -999.2500   -26.7830 
   81.1250    86.0960     8.7720     7.4310     8.2270    23.7010  -999.2500   -26.1740 
   81.2500    87.2620     8.6400     7.2500     7.4830    23.4570  -999.2500   -25.3640 
   81.3750    87.4800     8.5270     7.0420     6.8150    23.4190  -999.2500   -24.6540 
   81.5000    87.4550     8.3930     6.8060     6.5390    23.5150  -999.2500   -24.0000 
   81.6250    88.0640     8.1360     6.4980     6.6350    23.7080  -999.2500   -23.3760 
   81.7500    90.2040     7.7090     6.1020     6.7440    23.6350  -999.2500   -22.9860 
   81.8750    92.5950     7.1420     5.6390     6.6130    23.4020  -999.2500   -22.7210 
   82.0000    95.3000     6.5790     5.1930     6.0840    23.2270  -999.2500   -22.4860 
   82.1250   101.0960     6.3780     4.9710     5.8860    23.1440  -999.2500   -22.5470 
   82.2500   104.3260     6.8680     5.1870     6.1150    23.1420  -999.2500   -22.7820 
   82.3750    99.8780     8.3680     6.1030     7.1310    23.2310  -999.2500   -22.9800 
   82.5000    89.8860    11.0520     7.9520     9.5410    23.3510  -999.2500   -23.2730 
   82.6250    82.0450    14.8580    10.9070    14.1810    23.4090  -999.2500   -23.7800 
   82.7500    78.2040    18.8350    14.3590    20.7700    23.4060  -999.2500   -24.3900 
   82.8750    75.2450    21.9100    17.4660    25.4110    23.4390  -999.2500   -25.1110 
   83.0000    71.8060    23.0780    19.2420    26.0510    23.3100  -999.2500   -25.9530 
   83.1250    67.5970    21.6300    18.7420    24.6230    23.3000  -999.2500   -26.8930 
   83.2500    64.5330    18.7230    16.7130    20.7830    23.3940  -999.2500   -27.8170 
   83.3750    64.5580    15.5310    14.1350    15.8200    23.4510  -999.2500   -28.7280 
   83.5000    66.2220    12.9240    11.8190    11.4580    23.4400  -999.2500   -29.6760 
   83.6250    66.7910    11.3580    10.2300     9.5040    23.3320  -999.2500   -30.3580 
   83.7500    66.5600    10.5590     9.2560     8.8090    23.1460  -999.2500   -30.7900 
   83.8750    65.9260    10.3010     8.7730     8.7160    23.0220  -999.2500   -31.1990 
   84.0000    65.8250    10.3690     8.6380     8.7310    23.0090  -999.2500   -31.4460 
   84.1250    68.2190    10.5940     8.7300     8.7860    23.0460  -999.2500   -31.3850 
   84.2500    72.4590    10.8320     8.8960     8.8080    23.0620  -999.2500   -31.3240 
   84.3750    76.9380    11.0260     9.0670     8.8210    23.0880  -999.2500   -31.2580 
   84.5000    81.0330    11.1540     9.2050     8.9560    23.1820  -999.2500   -31.0920 
   84.6250    82.4370    11.2070     9.2900     9.3660    23.3690  -999.2500   -31.1180 
   84.7500    79.0010    11.2220     9.3430     9.9080    23.4730  -999.2500   -31.2380 
   84.8750    72.5380    11.2500     9.3910    10.1630    23.4900  -999.2500   -31.2670 
   85.0000    68.8500    11.3460     9.4690     9.9600    23.5250  -999.2500   -31.4280 
   85.1250    68.0000    11.5780     9.6150     9.7590    23.6270  -999.2500   -31.7110 
   85.2500    66.5620    11.9590     9.8520     9.7180    23.7710  -999.2500   -31.8400 
   85.3750    66.7920    12.5120    10.2140     9.7820    23.8660  -999.2500   -31.9910 
   85.5000    71.1130    13.2240    10.7190     9.8690    23.8850  -999.2500   -32.2760 
   85.6250    78.1600    13.9790    11.3140    10.2760    23.9020  -999.2500   -32.4290 
   85.7500    81.8210    14.5430    11.8140    11.1560    23.9110  -999.2500   -32.5230 
   85.8750    80.2020    14.6960    12.0250    12.6150    23.9100  -999.2500   -32.7410 
   86.0000    76.9270    14.2980    11.8020    15.0880    23.9030  -999.2500   -33.0150 
   86.1250    75.4630    13.3350    11.0810    16.9970    23.8710  -999.2500   -33.2270 
   86.2500    74.0720    12.1770    10.1370    14.2310    23.8290  -999.2500   -33.4540 
   86.3750    70.5760    11.1330     9.2170    10.6150    23.8090  -999.2500   -33.7040 
   86.5000    67.2530    10.4170     8.5100     9.2270    23.8070  -999.2500   -33.8320 
   86.6250    67.6390    10.1590     8.1510     9.1520    23.8070  -999.2500   -33.8320 
   86.7500    69.9700    10.2120     8.0640     9.1390    23.8070  -999.2500   -33.8660 
   86.8750    71.4270    10.4400     8.1650     9.0740    23.8070  -999.2500   -33.7900 
   87.0000    72.5460    10.7150     8.3550     9.0180    23.8070  -999.2500   -33.4720 
   87.1250    74.2810    10.9380     8.5470     8.9520    23.8130  -999.2500   -33.1760 
   87.2500    74.6690    11.0750     8.6910     8.9130    23.8190  -999.2500   -32.9470 
   87.3750    73.9530    11.1120     8.7690     9.0660    23.8100  -999.2500   -32.6180 
   87.5000    74.7500    11.0520     8.7760     9.4640    23.7920  -999.2500   -32.3680 
   87.6250    76.8910    10.9110     8.7160     9.6100    23.7980  -999.2500   -32.2410 
   87.7500    76.2910    10.7430     8.6230     9.5760    23.8040  -999.2500   -32.0810 
   87.8750    73.8230    10.5800     8.5240     9.4340    23.8050  -999.2500   -32.0440 
   88.0000    72.9440    10.4470     8.4420     9.2570    23.8070  -999.2500   -32.1230 
   88.1250    72.5700    10.3540     8.3990     9.1850    23.8290  -999.2500   -32.1130 
   88.2500    69.9250    10.2850     8.3910     9.1890    23.8900  -999.2500   -32.1540 
   88.3750    67.6960    10.2310     8.4060     9.2400    23.9580  -999.2500   -32.3050 
   88.5000    69.3880    10.1890     8.4280     9.3060    23.9990  -999.2500   -32.3190 
   88.6250    72.4990    10.1690     8.4390     9.3160    24.0260  -999.2500   -32.3360 
