~V
VERS. 2.00: Ver 2.00
~W
STRT.M 65.0000:
STOP.M 273.0000:
STEP.M 0.1250:
NULL. -999.2500:
UWI. DF3011:
~C
DEPT.M :
DEN.GM/CC :
GR.API :
RML.OHMM :
RI. :
RXO.OHMM :
CALI.CM :
AC.US/MT :
SP.MV :
~A
# ...
  195.0000     2.3390    73.2120     9.9180     9.1470    13.8220    25.4590   354.5190    -6.8480 
  195.1250     2.3320    78.9790    10.0840     9.3040    12.7910    25.4600   361.5470    -7.5760 
  195.2500     2.3320    85.4900    10.2760     9.6090    12.5170    25.4610   368.4740    -8.2950 
  195.3750     2.3400    90.0370    10.9690    10.3660    13.5090    25.4470   371.7350    -9.0550 
  195.5000     2.3500    90.4140    12.4940    11.8800    15.8880    25.3970   370.9920    -9.8140 
  195.6250     2.3550    85.5340    16.2220    14.6450    19.7240    25.3040   366.7340   -10.5440 
  195.7500     2.3460    77.8730    21.8610    18.6520    25.9950    25.2770   361.8470   -11.2520 
  195.8750     2.3230    69.7940    29.5380    23.7930    33.9990    25.3830   360.5510   -11.9280 
  196.0000     2.2890    64.7890    38.5070    29.6490    42.2790    25.5290   365.2050   -12.5790 
  196.1250     2.2550    63.3770    44.8000    35.3860    51.3010    25.6210   373.7640   -13.2060 
  196.2500     2.2310    63.1000    49.4780    40.1470    55.7330    25.6170   380.4310   -13.7790 
  196.3750     2.2200    63.4510    52.1850    43.4590    53.9400    25.5680   383.5780   -14.2320 
  196.5000     2.2180    64.1830    53.2340    45.2970    49.7110    25.5180   384.9940   -14.5810 
  196.6250     2.2190    65.7680    53.2960    45.9230    48.4730    25.4490   387.1160   -14.8960 
  196.7500     2.2190    67.9840    53.3250    46.1440    49.2250    25.3170   389.8850   -15.2280 
  196.8750     2.2170    71.1490    53.7960    46.4540    48.5880    25.1010   391.9170   -15.5880 
  197.0000     2.2160    74.3530    54.9330    47.1810    47.3640    24.9170   392.1330   -15.9240 
  197.1250     2.2190    76.4540    56.9010    48.6090    48.9160    24.8010   390.6700   -16.1670 
  197.2500     2.2240    76.5200    59.5670    50.7370    51.7240    24.7660   389.4470   -16.3820 
  197.3750     2.2290    74.5180    62.9000    53.6010    55.6920    24.7580   389.7050   -16.6340 
  197.5000     2.2320    72.8430    66.8360    57.1660    58.0680    24.7520   391.1840   -16.8820 
  197.6250     2.2310    71.5950    71.3270    61.3950    58.8250    24.7340   392.6800   -17.0500 
  197.7500     2.2290    70.2000    76.1260    65.9860    60.6290    24.6950   393.6600   -17.1910 
  197.8750     2.2280    69.1310    81.0700    70.7380    62.7910    24.6320   394.4380   -17.3310 
  198.0000     2.2290    69.4060    85.9840    75.4590    64.3280    24.5370   395.1300   -17.4440 
  198.1250     2.2350    69.3370    90.5790    79.9050    66.2830    24.4780   395.1210   -17.5140 
  198.2500     2.2420    66.4820    94.6220    83.9140    69.9460    24.4310   393.9350   -17.5510 
  198.3750     2.2470    63.4480    97.9360    87.3520    72.8520    24.4880   391.5310   -17.5960 
  198.5000     2.2470    62.1880   100.5020    90.2030    74.7160    24.7630   388.5040   -17.7250 
  198.6250     2.2400    62.6980   102.4310    92.5520    76.9730    25.2990   386.2250   -17.8790 
  198.7500     2.2290    63.7350   104.1600    94.7560    79.8060    25.5840   385.7180   -17.9870 
  198.8750     2.2180    65.7770   106.0290    97.0940    81.2470    25.6690   386.6310   -18.0500 
  199.0000     2.2080    68.3990   108.2000    99.7480    82.4510    25.6730   387.5000   -18.1760 
  199.1250     2.2040    69.1160   110.6790   102.7150    87.6460    25.6750   387.2100   -18.4080 
  199.2500     2.2010    67.3360   113.0890   105.6850    92.4980    25.6870   386.8010   -18.6250 
  199.3750     2.1970    64.6770   115.2830   108.3930    96.0620    25.7140   387.0560   -18.7500 
  199.5000     2.1920    62.4770   117.0460   110.6840    97.2390    25.7350   387.1170   -18.8480 
  199.6250     2.1860    62.3700   118.8460   112.5030    97.1270    25.7420   385.5240   -18.9960 
  199.7500     2.1810    63.2900   120.7200   114.0340    97.3470    25.7380   383.2890   -19.1040 
  199.8750     2.1810    63.5010   122.3740   115.2870    97.9880    25.7210   381.7800   -19.1890 
  200.0000     2.1860    62.9120   123.5030   116.0490    98.6540    25.6700   381.1760   -19.2870 
  200.1250     2.1930    64.9030   123.4980   115.7680    99.1480    25.6090   380.5510   -19.4090 
  200.2500     2.1980    67.5040   122.3460   114.4560    98.5800    25.5780   379.6080   -19.5130 
  200.3750     2.2010    64.9680   120.6280   112.5460    95.9170    25.6040   378.8550   -19.5480 
  200.5000     2.2010    59.2200   119.1790   110.9310    92.8800    25.6470   378.5860   -19.4950 
  200.6250     2.2010    58.3140   119.1130   110.9240    92.7850    25.6630   378.4820   -19.4140 
  200.7500     2.2000    61.9340   120.5970   112.8160    99.6270    25.6690   378.2200   -19.4090 
  200.8750     2.2000    65.5680   123.6160   116.2430   111.5070    25.6710   377.9080   -19.4410 
  201.0000     2.1990    64.8330   126.9600   120.1960   122.2210    25.6710   377.9510   -19.3660 
  201.1250     2.1980    59.2010   128.8820   123.1100   127.8420    25.6700   378.7830   -19.1800 
  201.2500     2.1970    54.8500   128.6550   124.1860   127.3070    25.6710   380.0350   -19.0640 
  201.3750     2.1970    55.8490   126.8280   123.4840   123.2830    25.6710   381.1020   -19.0900 
  201.5000     2.1980    60.0610   124.5500   121.9120   117.9470    25.6690   381.5240   -19.1710 
  201.6250     2.2030    60.5120   124.7520   121.1930   114.5810    25.6690   381.2010   -19.2520 
  201.7500     2.2060    57.8300   128.2350   122.7060   113.2880    25.6700   380.6650   -19.3540 
  201.8750     2.2060    55.4220   136.1120   127.3020   113.9460    25.6720   380.4940   -19.4520 
  202.0000     2.2020    55.3410   148.3140   135.2610   116.4050    25.6730   381.2800   -19.5370 
  202.1250     2.1960    58.6030   160.8040   146.3880   123.0510    25.6730   383.1740   -19.5130 
  202.2500     2.1910    62.2510   173.7470   158.4180   131.0360    25.6730   385.1970   -19.4180 
  202.3750     2.1890    61.4270   184.1530   168.8800   136.6350    25.6730   386.7000   -19.2960 
  202.5000     2.1890    56.3580   189.0170   175.0970   137.0620    25.6610   387.7030   -19.0730 
  202.6250     2.1900    53.8800   185.3440   174.0210   130.5020    25.5730   388.3660   -18.7180 
  202.7500     2.1910    57.2070   175.3040   166.8150   119.6660    25.3960   388.4410   -18.2980 
  202.8750     2.1920    62.6030   161.5450   155.3750   106.4360    25.2410   387.5530   -17.8740 
  203.0000     2.1920    65.2870   146.9790   142.2730    94.1040    25.1780   386.3760   -17.4870 
  203.1250     2.1900    63.1690   134.6630   130.4510    88.8990    25.2460   386.3730   -17.1890 
  203.2500     2.1840    59.4660   126.3330   121.9370    89.4340    25.2700   386.3320   -16.9710 
  203.3750     2.1820    58.4160   123.0360   118.0320    93.5630    25.2560   382.4510   -16.8350 
  203.5000     2.1980    61.3030   124.7670   119.1010    98.9050    25.2490   368.8640   -16.8090 
  203.6250     2.2430    64.0190   130.3540   124.4660   122.0350    25.2530   338.1780   -16.8900 
  203.7500     2.3200    62.1630   136.0010   130.5770   161.9420    25.2470   299.2450   -17.0990 
  203.8750     2.3990    58.4550   138.3850   134.2200   207.9170    25.2160   265.4440   -17.4040 
  204.0000     2.4440    56.7590   135.0320   132.8040   247.9820    25.1640   249.5520   -17.7310 
  204.1250     2.4280    58.1220   124.7850   124.6200   222.1070    25.2430   259.4710   -18.0540 
  204.2500     2.3560    60.0620   111.2770   112.4490   148.5530    25.4440   288.1470   -18.2890 
  204.3750     2.2720    60.4580    97.7460    99.1310   101.8200    25.6150   328.6880   -18.4280 
  204.5000     2.2050    59.1410    86.5440    87.2240    85.8020    25.6760   368.1250   -18.5550 
  204.6250     2.1680    58.9060    79.1950    78.8010    77.5490    25.6690   390.2650   -18.6970 
  204.7500     2.1630    62.8190    75.0180    73.6770    70.9950    25.6650   395.9480   -18.6950 
  204.8750     2.1720    68.2380    73.5410    71.4760    68.5110    25.6640   390.0700   -18.5700 
