~V
VERS. 2.00: Ver 2.00
~W
STRT.M 57.0000:
STOP.M 272.0000:
STEP.M 0.1250:
NULL. -999.2500:
UWI. DF3055:
~C
DEPT.M :
SP.MV :
GR.API :
RML.OHMM :
RI. :
RXO.OHMM :
CALI.CM :
DEN.GM/CC :
~A
# ...
  248.2500    -9.9350    69.4260     6.5400     5.8480     5.0150    24.6660     2.2600 
  248.3750    -9.9950    70.4960     6.4770     5.7910     4.9700    24.6610     2.2550 
  248.5000   -10.0540    67.7800     6.3960     5.7150     5.1930    24.6470     2.2380 
  248.6250   -10.1110    62.6800     6.3100     5.6360     5.4920    24.6120     2.2230 
  248.7500   -10.1630    58.7190     6.2340     5.5680     5.6240    24.5340     2.2220 
  248.8750   -10.2280    57.1650     6.1750     5.5150     5.4240    24.3930     2.2360 
  249.0000   -10.2900    56.2180     6.1330     5.4800     5.1930    24.2580     2.2520 
  249.1250   -10.3470    54.6540     6.1170     5.4660     5.2580    24.1810     2.2530 
  249.2500   -10.3810    53.9030     6.1260     5.4790     5.6410    24.0720     2.2310 
  249.3750   -10.4120    53.8260     6.1690     5.5200     6.0390    24.1320     2.1920 
  249.5000   -10.4390    53.6810     6.2400     5.5850     6.2050    24.1590     2.1520 
  249.6250   -10.4670    55.2350     6.3340     5.6700     6.2160    24.1890     2.1260 
  249.7500   -10.4810    57.8210     6.4420     5.7680     6.1760    24.2660     2.1240 
  249.8750   -10.4860    58.4880     6.5470     5.8650     6.1920    24.2990     2.1480 
  250.0000   -10.4830    56.9220     6.6400     5.9520     6.3780    24.3430     2.1890 
  250.1250   -10.4890    56.5990     6.7130     6.0220     6.7060    24.4390     2.2310 
  250.2500   -10.5050    58.1790     6.7650     6.0730     6.9280    24.5160     2.2630 
  250.3750   -10.5230    57.7950     6.8060     6.1140     7.0530    24.5220     2.2830 
  250.5000   -10.5250    55.6070     6.8440     6.1510     7.1570    24.5070     2.2880 
  250.6250   -10.5330    54.0810     6.8860     6.1930     7.2870    24.4690     2.2860 
  250.7500   -10.5590    56.6340     6.9420     6.2450     7.4060    24.3910     2.2810 
  250.8750   -10.5730    59.6970     7.0090     6.3080     7.5290    24.2750     2.2780 
  251.0000   -10.5830    60.3970     7.0880     6.3810     7.6370    24.2410     2.2810 
  251.1250   -10.5950    59.2430     7.1730     6.4600     7.7780    24.2120     2.2890 
  251.2500   -10.6170    58.5970     7.2610     6.5420     7.9230    24.1400     2.3020 
  251.3750   -10.6290    60.0210     7.3440     6.6180     7.9820    24.1130     2.3150 
  251.5000   -10.6580    63.1760     7.4210     6.6890     8.0330    24.0760     2.3250 
  251.6250   -10.6720    65.7660     7.4890     6.7560     8.2160    24.0170     2.3320 
  251.7500   -10.6910    65.7360     7.5530     6.8300     8.6340    23.8690     2.3350 
  251.8750   -10.7030    63.2350     7.6170     6.9180     9.1190    23.8240     2.3370 
  252.0000   -10.7170    60.1400     7.6860     7.0290     9.5180    23.7650     2.3390 
  252.1250   -10.7220    57.6050     7.7630     7.1250     9.8040    23.7380     2.3450 
  252.2500   -10.7320    56.0140     7.8470     7.1990     9.9460    23.7330     2.3540 
  252.3750   -10.7290    56.1750     7.9380     7.2560     9.9710    23.7340     2.3630 
  252.5000   -10.7230    58.5390     8.0360     7.3120    10.3910    23.7410     2.3660 
  252.6250   -10.7200    62.0850     8.1390     7.3690    11.0620    23.7570     2.3630 
  252.7500   -10.7040    62.8290     8.2410     7.4570    11.1900    23.7990     2.3570 
  252.8750   -10.6930    60.5300     8.3320     7.5360    10.4840    23.8860     2.3540 
  253.0000   -10.6980    58.4700     8.4010     7.6080     9.6410    24.0100     2.3590 
  253.1250   -10.6880    57.7900     8.4420     7.6460     9.3580    24.1140     2.3700 
  253.2500   -10.6770    57.1380     8.4480     7.6530     9.4450    24.1300     2.3820 
  253.3750   -10.6760    56.6620     8.4300     7.6390     9.5570    24.1330     2.3910 
  253.5000   -10.6810    57.3560     8.3990     7.6110     9.6360    24.1330     2.3950 
  253.6250   -10.6670    59.3660     8.3620     7.5780     9.7130    24.1330     2.3950 
  253.7500   -10.6720    60.9550     8.3290     7.5590     9.6360    24.1330     2.3910 
  253.8750   -10.6770    61.1230     8.3040     7.5540     9.4550    24.1340     2.3850 
  254.0000   -10.6760    59.7190     8.2900     7.5720     9.2540    24.1410     2.3800 
  254.1250   -10.6860    58.6040     8.2880     7.6230     9.0710    24.1570     2.3800 
  254.2500   -10.7020    58.7050     8.2950     7.6420     9.0220    24.2020     2.3870 
  254.3750   -10.7330    58.0210     8.3040     7.6530     8.9490    24.2980     2.3970 
  254.5000   -10.7220    56.8500     8.3050     7.6300     9.1100    24.4450     2.4050 
  254.6250   -10.7360    57.0480     8.2920     7.5490     9.3940    24.5900     2.4070 
  254.7500   -10.7590    58.7160     8.2560     7.4910     9.6370    24.7070     2.4020 
  254.8750   -10.7890    59.5770     8.2010     7.4230     9.6220    24.7930     2.3920 
  255.0000   -10.8290    59.8130     8.1310     7.3550     9.8630    24.8950     2.3780 
  255.1250   -10.8620    60.0490     8.0540     7.2810    10.0900    24.9290     2.3660 
  255.2500   -10.8690    59.5460     7.9760     7.2050     9.6650    24.9330     2.3590 
  255.3750   -10.8750    58.3270     7.8970     7.1270     8.9720    24.9320     2.3600 
  255.5000   -10.9070    56.5400     7.8110     7.0430     8.1590    24.9270     2.3680 
  255.6250   -10.9300    55.4740     7.7080     6.9470     7.3070    24.9180     2.3770 
  255.7500   -10.9350    55.0710     7.5810     6.8300     6.6060    24.8950     2.3800 
  255.8750   -10.9610    54.6590     7.4360     6.6980     5.9810    24.8430     2.3730 
  256.0000   -11.0040    54.0990     7.2840     6.5590     5.5620    24.7940     2.3560 
  256.1250   -11.0320    53.7050     7.1410     6.4280     5.5050    24.7680     2.3360 
  256.2500   -11.0830    54.4430     7.0250     6.3210     5.6000    24.7300     2.3180 
  256.3750   -11.1460    55.7400     6.9400     6.2450     5.5150    24.6760     2.3030 
  256.5000   -11.1900    56.7730     6.8890     6.2030     5.3670    24.6620     2.2940 
  256.6250   -11.2190    56.9790     6.8720     6.1990     5.4670    24.6520     2.2900 
  256.7500   -11.2620    55.5800     6.8880     6.2240     5.9250    24.6270     2.2930 
  256.8750   -11.3050    54.1730     6.9170     6.2600     6.6990    24.5680     2.3050 
  257.0000   -11.3190    54.3480     6.9410     6.2750     7.3850    24.5100     2.3280 
  257.1250   -11.3910    55.3310     6.9400     6.2540     7.5810    24.4750     2.3600 
  257.2500   -11.4540    54.5030     6.9030     6.1990     7.0960    24.3680     2.3950 
  257.3750   -11.5080    52.8580     6.8440     6.1510     6.3850    24.3670     2.4260 
  257.5000   -11.5730    52.1130     6.7850     6.1010     5.8780    24.3660     2.4400 
  257.6250   -11.6510    52.0890     6.7500     6.0700     5.7710    24.3640     2.4370 
  257.7500   -11.7070    51.8780     6.7630     6.0810     5.9940    24.3600     2.4230 
  257.8750   -11.7650    53.2200     6.8200     6.1310     6.3090    24.3590     2.4090 
  258.0000   -11.8510    55.9300     6.9070     6.2090     6.6870    24.3590     2.4010 
  258.1250   -11.8910    55.9660     7.0060     6.3010     6.9090    24.3590     2.3980 
  258.2500   -11.8980    52.4170     7.1000     6.3900     7.1150    24.3590     2.3950 
  258.3750   -11.9000    50.3170     7.1810     6.4700     7.4540    24.3590     2.3870 
  258.5000   -11.9430    50.7700     7.2540     6.5430     7.9300    24.3590     2.3750 
  258.6250   -11.9980    51.7870     7.3210     6.6100     8.3490    24.3590     2.3610 
  258.7500   -12.0490    51.6100     7.3850     6.6930     9.2880    24.3590     2.3490 
  258.8750   -12.0480    52.2020     7.4430     6.7670    10.7360    24.3580     2.3410 
  259.0000   -11.9820    54.0120     7.4870     6.8260    12.1270    24.3570     2.3380 
  259.1250   -11.9380    55.2790     7.5070     6.8720    12.8990    24.3560     2.3400 
  259.2500   -11.9220    55.1750     7.4810     6.8090    11.9760    24.3530     2.3450 
  259.3750   -11.8900    54.4370     7.4040     6.6860    10.1900    24.3520     2.3510 
