~V
VERS. 2.00: Ver 2.00
~W
STRT.M 125.0000:
STOP.M 247.0000:
STEP.M 0.1250:
NULL. -999.2500:
UWI. DF3017:
~C
DEPT.M :
DEN.GM/CC :
GR.API :
RML.OHMM :
RI. :
RXO.OHMM :
CALI.CM :
SP.MV :
~A
# ...
  158.7500     2.2610    58.6070   100.1150    97.8350    81.7160    24.8600   -16.1680 
  158.8750     2.2700    57.1480   100.7350    97.2340    75.4350    24.7570   -16.2810 
  159.0000     2.2780    57.9470   101.5750    96.7490    77.6110    24.6770   -16.4860 
  159.1250     2.2820    61.6780   103.4590    97.3430    79.0550    24.6470   -16.7720 
  159.2500     2.2810    66.6710   106.7680    99.3910    83.5220    24.6050   -17.0900 
  159.3750     2.2730    70.8970   112.1190   103.3880    87.5990    24.5850   -17.4390 
  159.5000     2.2590    72.6810   120.0840   109.7860    88.4620    24.5120   -17.8340 
  159.6250     2.2410    70.3980   130.9200   118.8350   100.3490    24.3560   -18.1810 
  159.7500     2.2230    65.6610   142.6200   128.8490   117.1140    24.2980   -18.4540 
  159.8750     2.2080    61.1330   152.6120   137.7000   133.5430    24.2270   -18.5670 
  160.0000     2.2010    58.8100   158.1210   143.0410   152.5020    24.2030   -18.5180 
  160.1250     2.2030    59.4300   156.4670   142.4440   153.9880    24.2000   -18.2920 
  160.2500     2.2100    60.9720   149.7090   137.2530   139.2320    24.2000   -17.9900 
  160.3750     2.2190    62.5010   140.5950   129.5360   119.4290    24.2000   -17.6380 
  160.5000     2.2260    63.7240   132.0380   121.8280   104.4690    24.2000   -17.2000 
  160.6250     2.2290    65.3650   126.7130   116.7810    99.0600    24.2000   -16.7430 
  160.7500     2.2280    65.8620   124.9500   115.0820   100.4130    24.2000   -16.3150 
  160.8750     2.2260    64.6530   126.2670   116.4910   101.1730    24.2000   -15.9640 
  161.0000     2.2220    62.5550   129.2690   119.8190   102.7260    24.2000   -15.6980 
  161.1250     2.2170    61.9200   131.4810   122.8540   107.0580    24.2000   -15.4940 
  161.2500     2.2130    65.1590   130.6680   123.3750   115.8470    24.2000   -15.3290 
  161.3750     2.2120    69.5350   125.6710   120.1110   125.7530    24.2050   -15.1600 
  161.5000     2.2180    72.6680   116.6160   112.8840   121.3540    24.2240   -15.0270 
  161.6250     2.2300    73.5030   104.3680   102.1340   104.8530    24.3380   -14.8360 
  161.7500     2.2440    71.1580    90.9510    89.7520    93.7420    24.3910   -14.6270 
  161.8750     2.2570    67.4860    77.5920    76.9530    84.2130    24.4100   -14.3810 
  162.0000     2.2650    65.2220    65.4970    64.9460    71.2000    24.4670   -14.1110 
  162.1250     2.2680    66.3540    56.4390    55.4760    62.8140    24.5280   -13.8310 
  162.2500     2.2660    68.4790    51.0910    49.4340    49.4330    24.5750   -13.5380 
  162.3750     2.2580    68.1110    50.2420    47.7740    35.0930    24.6570   -13.2810 
  162.5000     2.2430    65.6840    54.7080    51.3840    30.5110    24.7760   -13.0490 
  162.6250     2.2200    63.7900    66.3870    61.9800    39.4540    24.8100   -12.9490 
  162.7500     2.1940    63.2790    84.3710    78.3120    57.6010    24.9000   -12.9670 
  162.8750     2.1720    63.7190   107.2350    98.6100    81.8630    24.9850   -13.1500 
  163.0000     2.1560    62.2470   131.7360   119.5800   105.3840    24.9980   -13.5130 
  163.1250     2.1510    60.8840   152.0290   136.0000   122.0370    24.9550   -14.0840 
  163.2500     2.1520    60.8440   164.3650   145.2910   130.0260    24.9540   -14.8350 
  163.3750     2.1580    60.0300   168.0880   147.2940   130.8600    24.9540   -15.7090 
  163.5000     2.1660    58.9680   165.5030   143.9700   126.5270    24.9550   -16.6440 
  163.6250     2.1730    58.2210   159.8940   137.9270   121.3800    24.9580   -17.5090 
  163.7500     2.1800    56.6700   154.3270   131.8030   119.5810    24.9570   -18.2340 
  163.8750     2.1840    54.6600   149.7490   126.5460   119.9220    24.9560   -18.7670 
  164.0000     2.1890    54.7660   146.0920   122.3060   118.3080    24.9540   -19.0610 
  164.1250     2.1960    58.5610   142.3390   118.5920   114.3490    24.9530   -19.0890 
  164.2500     2.2050    61.8790   137.1000   114.3940   112.3930    24.9530   -18.9090 
  164.3750     2.2150    63.2970   129.3780   108.9430   111.7200    24.9530   -18.5960 
  164.5000     2.2240    63.4370   118.9170   101.8710   110.2840    24.9530   -18.2310 
  164.6250     2.2290    61.9150   106.4470    93.3720   102.6250    24.8740   -17.9290 
  164.7500     2.2310    61.3530    94.3100    84.8660    91.2550    24.8420   -17.7220 
  164.8750     2.2310    64.3610    84.5620    77.8610    82.4180    24.8520   -17.6510 
  165.0000     2.2320    68.5090    78.9000    73.8570    73.9440    24.8740   -17.7180 
  165.1250     2.2340    67.8260    78.9400    74.5370    67.3770    24.9250   -17.9200 
  165.2500     2.2360    65.0520    82.8850    78.7380    65.4370    24.9330   -18.1820 
  165.3750     2.2340    63.7650    87.9900    84.2280    69.1200    24.9470   -18.4630 
  165.5000     2.2310    64.0180    90.2210    87.3760    78.3630    25.0170   -18.7130 
  165.6250     2.2330    63.5490    84.1320    82.9610    88.0350    25.1640   -18.8950 
  165.7500     2.2450    62.9080    70.0490    70.6920    91.6280    25.2970   -18.9970 
  165.8750     2.2700    64.7940    51.7740    53.4350    87.5410    25.4160   -19.0080 
  166.0000     2.3070    71.4270    34.8580    36.3310    67.5320    25.4630   -18.9820 
  166.1250     2.3480    84.0630    23.4820    24.2230    36.4120    25.4890   -18.8930 
  166.2500     2.3860    96.5820    16.7060    16.8930    18.2660    25.5250   -18.7930 
  166.3750     2.4160   102.6470    13.3880    13.1480    11.9820    25.5240   -18.6650 
  166.5000     2.4340   102.2450    12.6770    11.9400    11.0020    25.4740   -18.5360 
  166.6250     2.4340    98.4300    14.6250    13.2730    12.9890    25.4470   -18.4200 
  166.7500     2.4180    92.0720    19.0230    17.1450    17.0440    25.4070   -18.3380 
  166.8750     2.3930    83.8260    26.2030    24.1250    23.8890    25.3980   -18.2830 
  167.0000     2.3630    77.1130    36.2990    34.5170    34.4910    25.3860   -18.2310 
  167.1250     2.3320    76.3920    48.9340    47.9970    49.7970    25.3100   -18.2250 
  167.2500     2.3000    78.1170    61.6380    61.7590    63.2640    25.1990   -18.2130 
  167.3750     2.2670    77.8530    71.5100    72.6170    76.2370    24.9260   -18.2100 
  167.5000     2.2350    75.6070    75.5440    77.3870    90.9210    24.7500   -18.2070 
  167.6250     2.2120    74.2670    70.7080    72.9150    95.2330    24.6560   -18.2370 
  167.7500     2.2030    74.5200    59.6280    61.7690    88.2510    24.6090   -18.2740 
  167.8750     2.2150    75.8200    45.8830    47.4580    71.5530    24.6010   -18.3200 
  168.0000     2.2470    79.1400    33.1870    33.9140    51.1020    24.6030   -18.3650 
  168.1250     2.2960    85.4540    24.2900    24.2900    33.7190    24.6220   -18.4070 
  168.2500     2.3450    89.6960    18.8820    18.3310    20.2530    24.6610   -18.4630 
  168.3750     2.3820    88.7600    16.5020    15.3740    14.1180    24.6750   -18.5100 
  168.5000     2.3980    86.3730    16.7740    14.8720    13.6580    24.7260   -18.5610 
  168.6250     2.3910    87.4300    19.9840    17.0840    16.0330    24.7530   -18.5710 
  168.7500     2.3710    86.9690    25.6460    21.7440    21.7580    24.7930   -18.6000 
  168.8750     2.3460    82.3800    33.4570    28.7530    31.5710    24.7990   -18.6290 
  169.0000     2.3230    77.8210    42.6810    37.4990    44.0210    24.8030   -18.6460 
  169.1250     2.3040    76.7170    51.9920    46.6720    56.8190    24.7860   -18.6260 
  169.2500     2.2880    75.8600    59.9740    54.6560    63.2860    24.6250   -18.6130 
  169.3750     2.2730    72.1370    65.9080    60.5900    63.7580    24.4260   -18.6170 
  169.5000     2.2590    67.9510    69.8030    64.3620    64.8360    24.3510   -18.6220 
  169.6250     2.2470    66.6110    71.9840    66.1480    67.1800    24.3910   -18.6340 
  169.7500     2.2390    67.5210    73.1540    66.6890    71.7610    24.5280   -18.6160 
  169.8750     2.2370    68.3740    73.3420    66.1460    74.5100    24.6440   -18.5700 
