~V
VERS. 2.00: Ver 2.00
~W
STRT.M 70.0000:
STOP.M 278.0000:
STEP.M 0.1250:
NULL. -999.2500:
UWI. DF3060:
~C
DEPT.M :
SP.MV :
GR.API :
RML.OHMM :
RI. :
RXO.OHMM :
CALI.CM :
DEN.GM/CC :
~A
   70.0000  -999.2500    43.3370    -2.4180    -1.2030 14156.8930    25.3570  -999.2500 
   70.1250  -999.2500    45.8300    -2.3040    -1.2020 14156.8930    25.3570  -999.2500 
   70.2500  -999.2500    46.9390    -2.2830    -1.2080 14156.8930    25.3570  -999.2500 
   70.3750  -999.2500    47.9280    -2.3070    -1.2200 14156.8930    25.3570  -999.2500 
   70.5000  -999.2500    50.0620    -2.2980    -1.2340 14156.8930    25.3570  -999.2500 
   70.6250  -999.2500    51.9340    -2.2100    -1.2480 14156.8930    25.3570  -999.2500 
   70.7500  -999.2500    52.1050    -2.1350    -1.2560 14156.8930    25.3570  -999.2500 
   70.8750  -999.2500    50.6670    -2.1790    -1.2590 14156.8930    25.3570  -999.2500 
   71.0000  -999.2500    49.0140    -2.3930    -1.2600 14156.8930    25.3570  -999.2500 
   71.1250  -999.2500    47.6080    -2.7190    -1.2840 14156.8930    25.3570  -999.2500 
   71.2500  -999.2500    46.4720    -3.0080    -1.3620 14156.8930    25.3570  -999.2500 
   71.3750  -999.2500    46.4630    -3.1900    -1.5260 14156.8930    25.3570  -999.2500 
   71.5000  -999.2500    47.4350    -3.2680    -1.7870 14156.8930    25.3570  -999.2500 
   71.6250  -999.2500    47.8270    -3.3040    -2.1250 13808.3570    25.3570  -999.2500 
   71.7500  -999.2500    46.8720    -3.3540    -2.4430 12055.2500    25.3570  -999.2500 
   71.8750  -999.2500    45.0120    -3.4140    -2.6770  9240.6110    25.3570  -999.2500 
   72.0000  -999.2500    44.7680    -3.4730    -2.8120  5707.8010    25.3690  -999.2500 
   72.1250  -999.2500    47.8340    -3.5050    -2.8290    67.6480    25.4260  -999.2500 
   72.2500  -999.2500    51.4860    -3.4520    -2.6920     3.6170    25.5560  -999.2500 
   72.3750  -999.2500    53.5680    -3.2240    -2.3170     2.6990    25.8150  -999.2500 
   72.5000  -999.2500    54.8040    -2.7320    -1.6270     2.7820    26.1920  -999.2500 
   72.6250  -999.2500    58.4860    -1.9070    -0.5750     3.0590    26.5060  -999.2500 
   72.7500  -999.2500    66.9680    -0.9140     0.6310     3.5310    26.0070  -999.2500 
   72.8750  -999.2500    78.4750     0.0210     1.7570     4.0780    24.8190  -999.2500 
   73.0000  -999.2500    89.1280     0.6970     2.6060     4.2350    23.7720  -999.2500 
   73.1250  -999.2500    94.9280     1.0550     3.1120     4.0390    23.4270  -999.2500 
   73.2500  -999.2500    98.6440     1.2460     3.4260     3.9050    23.4100  -999.2500 
   73.3750  -999.2500   102.3810     1.3210     3.6010     3.8060    23.4390  -999.2500 
   73.5000  -999.2500   105.4830     1.3010     3.6540     3.6430    23.4420  -999.2500 
   73.6250  -999.2500   106.1560     1.2500     3.6430     3.7280    23.4130  -999.2500 
   73.7500  -999.2500   105.5300     1.3200     3.7400     3.9460    23.3540  -999.2500 
   73.8750  -999.2500   103.9000     1.6770     4.1520     4.4230    23.2590  -999.2500 
   74.0000  -999.2500   100.6940     2.4500     5.0520     5.5580    23.1420  -999.2500 
   74.1250  -999.2500    94.8370     3.7100     6.5370     7.9260    23.0120  -999.2500 
   74.2500  -999.2500    87.0170     5.1810     8.2620    11.0500    22.8500  -999.2500 
   74.3750  -999.2500    78.5860     6.5060     9.7770    14.0030    22.6510  -999.2500 
   74.5000  -999.2500    72.4990     7.2810    10.5920    14.9550    22.4070  -999.2500 
   74.6250  -999.2500    72.8900     7.1510    10.2890    11.9770    22.2440  -999.2500 
   74.7500  -999.2500    77.4540     6.4670     9.2980     8.4210    22.2250  -999.2500 
   74.8750  -999.2500    82.8160     5.6550     8.1200     6.3130    22.2790  -999.2500 
   75.0000  -999.2500    86.6600     5.0270     7.1460     5.6640    22.3270  -999.2500 
   75.1250  -999.2500    86.8870     4.7230     6.5830     5.5740    22.3590  -999.2500 
   75.2500  -999.2500    83.1400     4.6600     6.3460     5.4940    22.3740  -999.2500 
   75.3750  -999.2500    77.4730     4.8110     6.3910     5.4330    22.3870  -999.2500 
   75.5000  -999.2500    72.6710     5.1800     6.6990     5.6800    22.4090  -999.2500 
   75.6250  -999.2500    69.3340     5.8010     7.2790     6.6050    22.4580  -999.2500 
   75.7500  -999.2500    67.7280     6.5540     7.9830     8.1540    22.5240  -999.2500 
   75.8750  -999.2500    67.9450     7.2720     8.6340     9.8910    22.5720  -999.2500 
   76.0000  -999.2500    68.5800     7.7500     9.0240    11.0690    22.5920  -999.2500 
   76.1250  -999.2500    69.0490     7.7700     8.9420    10.8010    22.6070  -999.2500 
   76.2500  -999.2500    70.5140     7.4410     8.5100     8.7210    22.6390  -999.2500 
   76.3750  -999.2500    71.9830     6.9540     7.9270     7.3900    22.7010  -999.2500 
   76.5000  -999.2500    71.1970     6.5160     7.4040     7.1240    22.7850  -999.2500 
   76.6250  -999.2500    68.0280     6.2910     7.1010     6.9770    22.8550  -999.2500 
   76.7500  -999.2500    65.6040     6.2670     6.9870     7.0500    22.8810  -999.2500 
   76.8750  -999.2500    64.5210     6.3870     6.9940     7.2710    22.8860  -999.2500 
   77.0000  -999.2500    64.7040     6.5730     7.0520     7.2820    22.8860  -999.2500 
   77.1250  -999.2500    66.0680     6.7600     7.1260     7.6020    22.8860  -999.2500 
   77.2500  -999.2500    68.7930     6.9280     7.2190     7.7800    22.8860  -999.2500 
   77.3750  -999.2500    73.2750     7.0800     7.3390     8.1110    22.8880  -999.2500 
   77.5000  -999.2500    77.5320     7.2170     7.4780     8.6440    22.8960  -999.2500 
   77.6250  -999.2500    77.8050     7.3140     7.5910     9.2570    22.9180  -999.2500 
   77.7500  -999.2500    74.9820     7.3370     7.6280     9.6220    22.9650  -999.2500 
   77.8750  -999.2500    72.4780     7.2540     7.5420     9.2900    23.0500  -999.2500 
   78.0000  -999.2500    73.0910     7.0450     7.3010     8.1010    23.1600  -999.2500 
   78.1250  -999.2500    76.4570     6.6990     6.8730     7.3630    23.2190  -999.2500 
   78.2500  -999.2500    80.8260     6.2680     6.3270     6.5190    23.2370  -999.2500 
   78.3750  -999.2500    86.6520     5.8080     5.7360     5.7130    23.2400  -999.2500 
   78.5000  -999.2500    93.9860     5.3910     5.1940     5.0640    23.2390  -999.2500 
   78.6250  -999.2500   101.2280     5.1400     4.8280     4.3480    23.2330  -999.2500 
   78.7500  -999.2500   106.1950     5.1210     4.6910     4.0390    23.2150  -999.2500 
   78.8750  -999.2500   107.3200     5.3910     4.8190     4.0580    23.1760  -999.2500 
   79.0000  -999.2500   102.7350     5.9650     5.2100     4.1790    23.1080  -999.2500 
   79.1250  -999.2500    91.4350     6.8160     5.8500     4.4270    23.0260  -999.2500 
   79.2500  -999.2500    80.6610     7.7440     6.5870     4.7710    22.9720  -999.2500 
   79.3750  -999.2500    74.9040     8.5580     7.2760     5.1970    22.9520  -999.2500 
   79.5000  -999.2500    74.0760     9.0890     7.7740     5.8690    22.9480  -999.2500 
   79.6250  -999.2500    75.0250     9.2150     7.9530     6.3870    22.9470  -999.2500 
   79.7500  -999.2500    74.9640     9.0950     7.8950     6.7320    22.9540  -999.2500 
   79.8750  -999.2500    74.5780     8.9030     7.7150     7.0530    22.9810  -999.2500 
   80.0000  -999.2500    74.5770     8.7910     7.5420     7.5140    23.0080  -999.2500 
   80.1250  -999.2500    73.9120     8.8360     7.4690     8.0350    23.0230  -999.2500 
   80.2500  -999.2500    70.2530     8.9500     7.4720     8.4400    23.0260  -999.2500 
   80.3750  -999.2500    64.2320     9.0320     7.4900     8.5270    23.0260  -999.2500 
   80.5000  -999.2500    59.7610     9.0110     7.4610     8.1850    23.0250  -999.2500 
   80.6250  -999.2500    59.4730     8.8660     7.3440     7.7550    23.0230  -999.2500 
   80.7500  -999.2500    61.9890     8.6890     7.1860     7.4500    23.0190  -999.2500 
   80.8750  -999.2500    65.3420     8.5710     7.0560     7.4270    23.0130  -999.2500 
   81.0000  -999.2500    68.0230     8.5720     7.0080     7.5900    23.0130  -999.2500 
   81.1250  -999.2500    68.3350     8.7130     7.0800     7.8530    23.0170  -999.2500 
