~V
VERS. 2.00: Ver 2.00
~W
STRT.M 60.0000:
STOP.M 270.0000:
STEP.M 0.1250:
NULL. -999.2500:
UWI. DF3075:
~C
DEPT.M :
GR.API :
RML.OHMM :
RI. :
RXO.OHMM :
CALI.CM :
DEN.GM/CC :
SP.MV :
~A
   60.0000  -999.2500  -999.2500  -999.2500  -999.2500  -999.2500  -999.2500    79.9880 
   60.1250  -999.2500  -999.2500  -999.2500  -999.2500  -999.2500  -999.2500    79.7970 
   60.2500  -999.2500  -999.2500  -999.2500  -999.2500  -999.2500  -999.2500    79.6150 
   60.3750  -999.2500  -999.2500  -999.2500  -999.2500  -999.2500  -999.2500    79.4060 
   60.5000  -999.2500  -999.2500  -999.2500  -999.2500  -999.2500  -999.2500    79.1030 
   60.6250  -999.2500  -999.2500  -999.2500  -999.2500  -999.2500  -999.2500    78.7610 
   60.7500  -999.2500  -999.2500  -999.2500  -999.2500  -999.2500  -999.2500    78.4160 
   60.8750  -999.2500  -999.2500  -999.2500  -999.2500  -999.2500  -999.2500    78.0620 
   61.0000  -999.2500  -999.2500  -999.2500  -999.2500  -999.2500  -999.2500    77.6800 
   61.1250  -999.2500  -999.2500  -999.2500  -999.2500  -999.2500  -999.2500    77.2990 
   61.2500  -999.2500  -999.2500  -999.2500  -999.2500  -999.2500  -999.2500    76.8750 
   61.3750  -999.2500  -999.2500  -999.2500  -999.2500  -999.2500  -999.2500    76.4320 
   61.5000     0.0000     0.0000     0.0000     0.0000     0.0000  -999.2500    76.0450 
   61.6250     0.0000     0.0000     0.0000     0.0000     0.0000  -999.2500    75.5690 
   61.7500     0.0000     0.0000     0.0000     0.0000     0.0000  -999.2500    75.0960 
   61.8750     0.0000     0.0000     0.0000     0.0000     0.0000  -999.2500    74.4720 
   62.0000     0.0000     0.0000     0.0000     0.0000     0.0000  -999.2500    73.7440 
   62.1250    10.5010    14.6290     0.3050 224999.7190     6.3330  -999.2500    72.7980 
   62.2500    41.9160    58.1030     1.2270 900000.0000    25.3330  -999.2500    71.7810 
   62.3750    41.2570    57.2680     1.2560 900000.0000    25.3330  -999.2500    70.7380 
   62.5000    41.3410    56.3880     1.2940 900000.0000    25.3330  -999.2500    69.6970 
   62.6250    43.6880    54.9120     1.3300 900000.0000    25.3330  -999.2500    68.6780 
   62.7500    44.7550    52.6800     1.3620 900000.0000    25.3330  -999.2500    67.7500 
   62.8750    43.7330    49.9620     1.3850 900000.0000    25.3330  -999.2500    66.9780 
   63.0000    43.7800    46.8960     1.4020 900000.0000    25.3330  -999.2500    66.3400 
   63.1250    45.9740    43.3570     1.4090 900000.0000    25.3330  -999.2500    65.7920 
   63.2500    45.1420    39.6720     1.3990 900000.0000    25.3330  -999.2500    65.2480 
   63.3750    41.4330    36.0600     1.3730 900000.0000    25.3330  -999.2500    64.6800 
   63.5000    38.6980    32.5850     1.3350 900000.0000    25.3330  -999.2500    64.0270 
   63.6250    38.2070    29.3370     1.2920 900000.0000    25.3320  -999.2500    63.2060 
   63.7500    37.9440    26.2400     1.2480 900000.0000    25.3290  -999.2500    62.0770 
   63.8750    38.8660    22.8760     1.1850 900000.0000    25.3190  -999.2500    60.6090 
   64.0000    43.2320    18.6670     1.0840 900000.0000    25.2970  -999.2500    58.6740 
   64.1250    47.7090    13.2710     0.9180 900000.0000    25.2520  -999.2500    56.1200 
   64.2500    48.6710     7.9250     0.7280 900000.0000    25.1790  -999.2500    52.8820 
   64.3750    48.7570     4.0600     0.5400 900000.0000    25.0700  -999.2500    48.8250 
   64.5000    49.9730     1.9490     0.3850 855000.3750    24.9190  -999.2500    43.9040 
   64.6250    51.3060     0.9720     0.2800 785610.6880    24.7270  -999.2500    37.7640 
   64.7500    50.7100     0.3580     0.2220 663661.3130    24.5140  -999.2500    30.7480 
   64.8750    50.8940     0.1010     0.2370 153725.2660    24.3000  -999.2500    23.0500 
   65.0000    54.9720     0.1810     0.3680     2.8310    24.1280  -999.2500    15.1380 
   65.1250    61.9120     1.4990     0.7010     3.6130    23.9920  -999.2500     7.4350 
   65.2500    65.9920     3.7200     1.2600     4.7760    23.9110  -999.2500     0.2000 
   65.3750    65.1410     6.9700     2.0520     6.3270    23.8890  -999.2500    -6.2990 
   65.5000    63.6630    10.7710     3.0190     7.6250    23.8310  -999.2500   -11.8760 
   65.6250    65.4920    11.8910     4.0340     7.9390    23.8580  -999.2500   -16.1150 
   65.7500    68.7980    12.1780     4.9390     7.8950    23.9350  -999.2500   -19.2830 
   65.8750    71.1050    11.8990     5.6580     7.6280    24.0340  -999.2500   -21.5760 
   66.0000    73.8780    11.4870     6.1800     7.3440    24.1450  -999.2500   -23.2710 
   66.1250    78.6620    11.3560     6.5480     7.3490    24.2110  -999.2500   -24.5990 
   66.2500    81.3790    11.5330     6.8620     7.7430    24.1870  -999.2500   -25.7460 
   66.3750    80.2840    11.9200     7.1430     8.4500    24.0780  -999.2500   -26.8530 
   66.5000    78.6440    12.4010     7.3910     9.2090    23.9900  -999.2500   -27.9710 
   66.6250    80.1570    12.8310     7.5840     9.5670    23.9270  -999.2500   -29.1480 
   66.7500    81.1780    13.0990     7.7180     9.4770    23.9280  -999.2500   -30.3210 
   66.8750    79.1980    13.1600     7.7940     9.0190    23.9470  -999.2500   -31.4490 
   67.0000    76.7560    13.0440     7.8190     8.5910    23.8960  -999.2500   -32.5000 
   67.1250    76.5940    12.8900     7.7970     8.2710    23.9260  -999.2500   -33.4320 
   67.2500    76.1910    12.8440     7.7480     7.9600    24.0020  -999.2500   -34.2150 
   67.3750    73.7450    12.8970     7.6850     7.8220    24.0470  -999.2500   -34.8150 
   67.5000    70.3940    12.9480     7.6190     7.7800    24.0390  -999.2500   -35.1850 
   67.6250    70.8800    12.8870     7.5580     7.8600    24.1450  -999.2500   -35.2050 
   67.7500    74.7250    12.7450     7.5120     7.7810    24.3080  -999.2500   -34.9720 
   67.8750    75.6140    12.6110     7.4820     7.5480    24.4030  -999.2500   -34.3950 
   68.0000    71.3450    12.5380     7.4660     7.3110    24.2830  -999.2500   -33.5800 
   68.1250    68.3310    12.4530     7.4590     7.1660    24.1000  -999.2500   -32.4210 
   68.2500    72.8140    12.2610     7.4440     7.0280    24.0390  -999.2500   -31.1240 
   68.3750    80.8900    11.9700     7.4090     6.8810    24.0210  -999.2500   -29.6570 
   68.5000    86.9430    11.6510     7.3540     6.7530    23.9780  -999.2500   -28.2090 
   68.6250    93.0000    11.3730     7.2580     6.6020    23.7850  -999.2500   -26.8330 
   68.7500   101.8510    11.1260     7.1270     6.3350    23.6930  -999.2500   -25.6240 
   68.8750   111.5360    10.8650     6.9660     5.9610    23.5780  -999.2500   -24.6220 
   69.0000   117.1030    10.5600     6.7800     5.7330    23.4210  -999.2500   -23.8570 
   69.1250   113.7870    10.2480     6.5860     5.6730    23.4650  -999.2500   -23.3710 
   69.2500   106.9850     9.9860     6.3980     5.7270    23.6520  -999.2500   -23.1130 
   69.3750   103.7910     9.8030     6.2360     5.8460    23.8990  -999.2500   -23.1750 
   69.5000   107.2360     9.7010     6.1310     5.5710    24.0780  -999.2500   -23.5030 
   69.6250   113.7470     9.6700     6.1120     5.4440    24.1900  -999.2500   -24.0400 
   69.7500   117.6050     9.6950     6.1800     5.4590    24.2250  -999.2500   -24.7030 
   69.8750   116.4790     9.7840     6.3200     5.6140    24.1140  -999.2500   -25.4560 
   70.0000   109.7790     9.9300     6.4980     5.9280    23.8400  -999.2500   -26.2560 
   70.1250   100.8090    10.0870     6.6920     6.4860    23.7280  -999.2500   -27.1040 
   70.2500    95.7390    10.1950     6.8800     7.0120    23.7090  -999.2500   -27.9220 
   70.3750    93.8230    10.2470     7.0600     7.0710    23.7680  -999.2500   -28.6710 
   70.5000    91.7340    10.2880     7.2510     6.9700    23.8070  -999.2500   -29.3930 
   70.6250    89.7560    10.4580     7.4880     7.0730    23.8150  -999.2500   -30.0830 
   70.7500    87.9680    10.8050     7.7890     7.1930    23.8130  -999.2500   -30.7510 
   70.8750    85.9940    11.2640     8.1350     7.5270    23.8080  -999.2500   -31.3650 
   71.0000    84.1290    11.6910     8.4880     8.3860    23.8070  -999.2500   -31.9870 
   71.1250    81.3500    11.9340     8.7710     9.2250    23.8260  -999.2500   -32.6400 
