~V
VERS. 2.00: Ver 2.00
~W
STRT.M 56.0000:
STOP.M 260.0000:
STEP.M 0.1250:
NULL. -999.2500:
UWI. DF3033:
~C
DEPT.M :
GR.API :
RML.OHMM :
RI. :
RXO.OHMM :
CALI.CM :
DEN.GM/CC :
SP.MV :
~A
# ...
  191.0000    68.6910   177.4810   153.0010   146.9960    24.2570     2.2440   -31.3960 
  191.1250    69.9720   183.8020   159.1490   145.0130    24.3420     2.2320   -31.4530 
  191.2500    69.7820   190.9380   166.5680   153.3350    24.5240     2.2170   -31.6310 
  191.3750    66.4000   195.8080   172.7320   169.4090    24.6980     2.2000   -31.7090 
  191.5000    62.5670   195.5320   174.8160   177.0280    24.8020     2.1850   -31.8300 
  191.6250    62.8780   187.1140   169.7680   174.2840    24.8160     2.1790   -31.8570 
  191.7500    66.2900   173.7070   158.8800   166.5580    24.7750     2.1820   -31.8420 
  191.8750    69.1850   158.1390   144.2280   143.2670    24.6890     2.1950   -31.8080 
  192.0000    68.5380   142.8980   128.4180   110.8630    24.5950     2.2160   -31.7440 
  192.1250    66.6770   129.6600   113.8640    96.2880    24.4650     2.2390   -31.6790 
  192.2500    67.3220   114.6310   101.5180    89.8480    24.3570     2.2560   -31.5340 
  192.3750    69.9230   103.1580    91.8470    86.0540    24.3230     2.2640   -31.3930 
  192.5000    73.2420    95.6130    85.3140    79.1580    24.4170     2.2610   -31.2870 
  192.6250    77.1110    93.5340    83.3190    71.5660    24.5450     2.2490   -31.2470 
  192.7500    79.4290    97.0230    86.0600    69.1240    24.6180     2.2350   -31.2530 
  192.8750    77.5250   106.3210    93.8690    71.5430    24.6380     2.2260   -31.3230 
  193.0000    72.7360   120.3970   106.0220    79.1120    24.6330     2.2210   -31.4510 
  193.1250    68.8790   136.1470   120.0430    94.4260    24.5830     2.2160   -31.6330 
  193.2500    66.6140   148.5020   131.4630   118.3530    24.5000     2.2090   -31.8540 
  193.3750    66.0070   153.8250   136.9260   139.2060    24.4710     2.2000   -32.0850 
  193.5000    66.6630   151.2510   135.3060   145.9940    24.5560     2.1960   -32.2940 
  193.6250    67.2150   143.7760   128.5750   132.9090    24.6440     2.2030   -32.5350 
  193.7500    68.6930   138.1730   122.5480   113.7110    24.7080     2.2180   -32.7120 
  193.8750    71.0280   138.5380   121.0820   100.8980    24.7420     2.2340   -32.9390 
  194.0000    71.2300   146.4360   126.0060   101.3330    24.7610     2.2430   -33.0870 
  194.1250    66.9570   161.9330   137.8060   122.8440    24.7650     2.2400   -33.2950 
  194.2500    62.1450   181.0320   153.1480   158.9080    24.7670     2.2270   -33.4140 
  194.3750    59.5000   200.4300   169.2030   196.1490    24.7670     2.2120   -33.5190 
  194.5000    60.7030   217.0910   183.3330   202.2120    24.7670     2.1970   -33.6790 
  194.6250    65.1200   228.0790   193.0550   178.8080    24.7700     2.1840   -33.7430 
  194.7500    68.1710   233.4970   198.4140   176.8030    24.7830     2.1740   -33.8770 
  194.8750    66.4890   233.1660   199.3420   182.3210    24.8100     2.1670   -33.9340 
  195.0000    61.9350   226.7210   195.6000   192.6990    24.8290     2.1650   -34.0210 
  195.1250    60.3190   213.0600   186.1570   188.6500    24.8330     2.1710   -33.9740 
  195.2500    62.5220   194.6440   172.5770   176.0270    24.8170     2.1860   -34.0090 
  195.3750    66.7810   174.1280   156.6770   156.8660    24.7780     2.2050   -34.0300 
  195.5000    70.9100   154.3270   140.6710   135.4080    24.7270     2.2270   -33.9900 
  195.6250    72.6360   137.8050   126.8000   114.5560    24.6160     2.2440   -33.9130 
  195.7500    71.3740   124.8270   115.6610   104.4080    24.4730     2.2570   -33.7800 
  195.8750    68.1520   115.1700   107.2590    99.9500    24.3990     2.2660   -33.5830 
  196.0000    65.4450   108.1960   101.1540   100.8830    24.4280     2.2720   -33.3680 
  196.1250    67.0110   103.3300    96.8740    93.4960    24.4770     2.2750   -33.1420 
  196.2500    71.4480    99.5080    93.4510    87.5680    24.3890     2.2770   -32.9190 
  196.3750    76.1500    96.2880    90.4310    88.7610    24.2290     2.2810   -32.7010 
  196.5000    78.0970    93.4910    87.6030    90.3570    24.1010     2.2870   -32.4830 
  196.6250    75.7560    91.3210    85.1150    86.8150    24.0610     2.2950   -32.3260 
  196.7500    71.4770    89.9690    83.2300    82.0790    24.0580     2.2990   -32.1930 
  196.8750    68.1510    89.6790    82.2500    80.5270    24.0820     2.2970   -32.1150 
  197.0000    67.7430    90.5990    82.3740    80.1220    24.1410     2.2890   -32.0490 
  197.1250    69.7740    92.8400    83.7450    80.5840    24.2640     2.2740   -32.1150 
  197.2500    71.5240    95.8610    85.8430    82.3370    24.4560     2.2600   -32.0890 
  197.3750    71.6020    99.2630    88.2590    84.7730    24.6810     2.2510   -32.1730 
  197.5000    71.6970   102.8140    90.7330    85.3610    24.8500     2.2500   -32.1720 
  197.6250    74.1510   106.6650    93.4040    87.0860    24.9020     2.2590   -32.1240 
  197.7500    77.5840   111.7150    96.8060    88.6790    24.9140     2.2710   -31.9980 
  197.8750    77.9270   119.0460   101.7280    91.7280    24.9180     2.2810   -31.8020 
  198.0000    73.0330   129.2950   109.0550   100.8690    24.9270     2.2840   -31.5550 
  198.1250    65.8530   143.7240   120.1140   120.4610    24.9420     2.2780   -31.2650 
  198.2500    61.5630   160.4320   134.6530   142.5930    24.9670     2.2670   -31.0550 
  198.3750    63.3100   178.7530   152.3370   167.7320    24.9970     2.2540   -30.7710 
  198.5000    68.4540   198.0690   172.2990   196.6660    25.0320     2.2400   -30.5790 
  198.6250    68.9090   217.4760   193.0280   226.3120    25.0930     2.2280   -30.4520 
  198.7500    64.0880   240.7450   212.2400   237.2460    25.1490     2.2200   -30.4440 
  198.8750    60.0330   259.2990   227.5570   239.5270    25.1810     2.2220   -30.5420 
  199.0000    60.8220   269.4170   236.1750   232.4770    25.2090     2.2380   -30.6760 
  199.1250    62.2810   264.7660   233.2580   221.3850    25.2170     2.2700   -30.7630 
  199.2500    60.3460   245.4880   218.7360   210.6200    25.1130     2.3060   -30.8230 
  199.3750    58.1290   213.7340   193.7070   202.2730    24.8400     2.3290   -30.8410 
  199.5000    59.9200   175.0510   161.7920   186.7800    24.5920     2.3320   -30.8040 
  199.6250    65.5820   137.3190   128.6540   140.8150    24.5710     2.3140   -30.6550 
  199.7500    70.6680   105.8820    99.5420    95.9870    24.6450     2.2910   -30.4200 
  199.8750    73.2760    82.1640    76.6590    73.4100    24.6990     2.2770   -30.0700 
  200.0000    77.4370    65.4770    60.1940    54.4700    24.6930     2.2770   -29.7060 
  200.1250    83.6220    54.9730    49.8250    45.9710    24.6700     2.2870   -29.2190 
  200.2500    86.4430    48.0730    43.1140    42.7120    24.6490     2.2970   -28.6680 
  200.3750    83.1400    43.6650    38.9030    42.1620    24.6400     2.3030   -28.0490 
  200.5000    77.8620    41.1890    36.5260    41.2170    24.6380     2.3050   -27.3190 
  200.6250    76.0750    41.0630    36.2080    40.6050    24.6360     2.3090   -26.6080 
  200.7500    75.9150    43.2190    37.8130    41.5400    24.6320     2.3290   -25.7350 
  200.8750    76.8200    47.2730    41.0200    42.7450    24.6070     2.3750   -24.8530 
  201.0000    79.0510    51.8080    44.6430    43.9560    24.5510     2.4500   -23.8400 
  201.1250    79.3760    53.6280    46.0430    51.7490    24.4750     2.5420   -22.8610 
  201.2500    75.0920    50.4850    43.3430    67.2380    24.4310     2.6230   -21.8050 
  201.3750    69.1660    42.0010    36.2430    86.2110    24.3980     2.6720   -20.7850 
  201.5000    65.9290    30.5100    26.7090    91.5140    24.2950     2.6790   -19.8240 
  201.6250    67.3690    20.0480    18.2260    52.9650    24.0500     2.6510   -18.9540 
  201.7500    70.5480    12.6200    12.3610    21.5270    23.7820     2.6130   -18.2650 
  201.8750    70.6860     8.4880     8.9170     8.9060    23.6280     2.5770   -17.6890 
  202.0000    65.6280     7.0480     7.1900     5.5740    23.5840     2.5460   -17.2790 
  202.1250    58.0590     6.8110     6.6510     4.9830    23.5840     2.5210   -17.0440 
