~V
VERS. 2.00: Ver 2.00
~W
STRT.M 120.0000:
STOP.M 271.0000:
STEP.M 0.1250:
NULL. -999.2500:
UWI. DF3037:
~C
DEPT.M :
GR.API :
RML.OHMM :
RI. :
RXO.OHMM :
CALI.CM :
SP.MV :
DEN.GM/CC :
AC.US/MT :
~A
# ...
  220.0000    67.2230   155.2680   144.4690   113.7250    24.8720    -9.6480     2.1800   418.4790 
  220.1250    66.7990   155.0300   143.4130   115.8090    24.9270    -9.4590     2.1680   417.6570 
  220.2500    65.2590   156.6530   144.0780   117.5350    24.8790    -9.2270     2.1620   415.9690 
  220.3750    65.8100   159.5080   145.9260   118.5390    24.8760    -8.9720     2.1590   413.9040 
  220.5000    66.0430   162.8560   148.3040   120.6780    24.9630    -8.6470     2.1580   412.0520 
  220.6250    63.9500   165.9480   150.5350   123.2390    24.9720    -8.1670     2.1630   410.6740 
  220.7500    61.9370   168.4640   152.2530   125.5580    24.9050    -7.5520     2.1750   409.3920 
  220.8750    61.4170   170.4210   153.3880   123.9350    24.8420    -6.7170     2.1910   407.9280 
  221.0000    61.6040   171.9900   154.0220   122.2020    24.8900    -5.7480     2.2060   406.2930 
  221.1250    61.8440   173.2510   154.2060   123.6690    24.9180    -4.5000     2.2210   404.8150 
  221.2500    63.2260   174.1390   154.0020   129.7150    24.9060    -3.1540     2.2390   403.7600 
  221.3750    65.0000   174.4410   153.3310   137.4310    24.8750    -1.7540     2.2660   403.1390 
  221.5000    65.6010   174.1120   152.2320   139.8000    24.8620    -0.4440     2.3010   402.7260 
  221.6250    65.7740   173.5930   151.1320   134.0960    24.8710     0.5550     2.3280   402.1110 
  221.7500    66.1710   173.8740   150.8050   129.3790    24.9190     1.1820     2.3370   401.0710 
  221.8750    65.5710   175.8750   151.9660   125.5070    25.0200     1.3060     2.3240   399.6180 
  222.0000    62.9800   180.0980   154.9970   121.3670    25.1030     0.9170     2.2980   397.8400 
  222.1250    60.3130   186.3050   159.7190   125.5770    25.1080    -0.1210     2.2700   395.5540 
  222.2500    60.6600   192.4890   164.5270   136.7460    25.0750    -1.6500     2.2510   392.5320 
  222.3750    61.7840   196.4880   167.7290   147.9900    25.0620    -3.6040     2.2410   388.4470 
  222.5000    60.9930   196.2240   167.6920   155.1700    25.0880    -5.8700     2.2390   383.1770 
  222.6250    60.5000   189.4490   162.5800   158.4590    25.1270    -8.2370     2.2430   377.0880 
  222.7500    62.3260   177.5200   153.2620   152.7890    25.0940   -10.4690     2.2510   371.4590 
  222.8750    65.0670   162.3050   141.0040   142.2300    25.0020   -12.4770     2.2590   367.7350 
  223.0000    67.5810   146.3060   127.6730   134.9520    24.9280   -14.1770     2.2660   367.0970 
  223.1250    71.5510   132.4480   115.6170   124.7200    24.8930   -15.5020     2.2670   370.3920 
  223.2500    76.4750   122.1610   106.3120   111.4410    24.9040   -16.4870     2.2620   376.0510 
  223.3750    77.9700   115.9950   100.4910   103.4200    24.9240   -17.1390     2.2570   382.4640 
  223.5000    74.7060   113.6970    98.1760    99.5290    24.9270   -17.5100     2.2540   388.2470 
  223.6250    70.2380   114.6180    99.0520    95.4020    24.9050   -17.6550     2.2540   392.5760 
  223.7500    67.3080   116.6890   101.3510    95.2660    24.9030   -17.7390     2.2550   395.7340 
  223.8750    65.5870   118.6470   103.9090   104.3320    24.9260   -17.7490     2.2510   397.8450 
  224.0000    65.9360   120.2740   106.2530   110.9460    25.0210   -17.7540     2.2410   398.7460 
  224.1250    69.9880   123.3390   109.4210   108.6780    25.1190   -17.7250     2.2300   397.8000 
  224.2500    71.9360   129.4680   114.7550   104.8810    25.1530   -17.6780     2.2280   394.3000 
  224.3750    68.9120   138.1030   122.1050   103.4320    25.0590   -17.6490     2.2630   386.1550 
  224.5000    65.5920   145.1520   128.4640   102.3030    24.9090   -17.5950     2.3430   370.4910 
  224.6250    67.2120   141.1110   126.1240   108.5270    24.7420   -17.5720     2.4620   343.9090 
  224.7500    69.4910   121.5490   110.9070   122.0340    24.5230   -17.5310     2.5860   311.3560 
  224.8750    69.3900    89.1590    84.0150   148.5750    24.3380   -17.5170     2.6470   282.1510 
  225.0000    68.4210    55.2220    53.6110   189.1590    24.2580   -17.4550     2.6210   268.4380 
  225.1250    66.5520    31.5970    30.9390   114.6230    24.2910   -17.4810     2.5260   283.6200 
  225.2500    63.0120    17.8130    17.4930    37.3020    24.4200   -17.5070     2.4070   321.1550 
  225.3750    61.2630    11.0450    10.6590    13.1110    24.7180   -17.6100     2.3170   368.7290 
  225.5000    65.6570     8.2630     7.5710     7.3770    25.1370   -17.7900     2.2750   410.9690 
  225.6250    76.5140     7.6080     6.5940     5.7000    25.4850   -18.0360     2.2830   433.0070 
  225.7500    87.0580     7.9000     6.5590     5.5450    25.3690   -18.3000     2.3260   436.3030 
  225.8750    92.7350     8.6710     7.1040     5.9800    25.0600   -18.5820     2.3820   427.0340 
  226.0000    93.8890     9.5650     7.9450     7.0320    24.8220   -18.9500     2.4260   413.1280 
  226.1250    95.7320    10.2630     8.7920     7.9310    24.7230   -19.2770     2.4500   401.4360 
  226.2500   100.5440    10.6580     9.4320     8.4210    24.6980   -19.6400     2.4580   394.0590 
  226.3750   104.8740    10.7710     9.7980     8.6480    24.6930   -19.9570     2.4570   390.6680 
  226.5000   106.6140    10.7060     9.9250     8.8190    24.6940   -20.2750     2.4540   390.1130 
  226.6250   106.9730    10.5880     9.8870     9.0730    24.6950   -20.5660     2.4510   391.2520 
  226.7500   108.2800    10.5110     9.7910     9.2500    24.6960   -20.8540     2.4490   392.8010 
  226.8750   110.6880    10.4980     9.6720     9.4320    24.6960   -21.1340     2.4460   394.0870 
  227.0000   114.0580    10.5450     9.5420     9.6580    24.6960   -21.3730     2.4450   394.6260 
  227.1250   116.5050    10.6400     9.4110     9.7210    24.6960   -21.6050     2.4460   394.2050 
  227.2500   117.3750    10.7590     9.2950     9.7200    24.6960   -21.8280     2.4480   393.3410 
  227.3750   117.1470    10.8830     9.2100     9.7130    24.6960   -21.9960     2.4490   392.5090 
  227.5000   116.8100    11.0040     9.1670     9.7350    24.6960   -22.1240     2.4470   391.9610 
  227.6250   117.9130    11.1190     9.1780     9.7680    24.6960   -22.1560     2.4430   391.4930 
  227.7500   119.9230    11.2330     9.2300     9.8120    24.6890   -22.1480     2.4380   391.0860 
  227.8750   120.9980    11.3440     9.3070     9.9370    24.6600   -22.0950     2.4350   388.2890 
  228.0000   117.9100    11.4340     9.3910     9.9720    24.5860   -21.9710     2.4370   385.0510 
  228.1250   113.6820    11.4710     9.4580     9.8820    24.5000   -21.8570     2.4410   381.1680 
  228.2500   112.1560    11.4480     9.5000     9.9700    24.4320   -21.6720     2.4470   377.3440 
  228.3750   112.3940    11.3690     9.5180    10.2050    24.4270   -21.5380     2.4560   374.3850 
  228.5000   112.7620    11.2600     9.5220    10.1510    24.4990   -21.3730     2.4670   373.2580 
  228.6250   113.9140    11.1670     9.5300    10.0470    24.5850   -21.2390     2.4790   373.9380 
  228.7500   114.8230    11.1280     9.5620    10.1790    24.6650   -21.1350     2.4890   376.1320 
  228.8750   111.9050    11.1700     9.6330    10.2490    24.7050   -21.0450     2.4910   379.0780 
  229.0000   106.9680    11.3030     9.7530    10.3460    24.7350   -20.9950     2.4870   381.4200 
  229.1250   107.1990    11.5170     9.9140    10.3120    24.7610   -20.8910     2.4790   382.1560 
  229.2500   110.1480    11.7410    10.0640    10.4760    24.7680   -20.8060     2.4710   381.1590 
  229.3750   109.0930    11.8970    10.1470    10.6930    24.7550   -20.6880     2.4650   379.3490 
  229.5000   103.1200    11.9080    10.1050    10.7400    24.7270   -20.5550     2.4600   378.6430 
  229.6250    99.4970    11.6860     9.8800    10.7450    24.7390   -20.4070     2.4530   380.0500 
  229.7500   100.1500    11.2960     9.5200    10.4970    24.7650   -20.2170     2.4460   383.2730 
  229.8750   102.7550    10.8050     9.1090    10.0880    24.7280   -20.0260     2.4400   386.9810 
