~V
VERS. 2.00: Ver 2.00
~W
STRT.M 120.0000:
STOP.M 272.0000:
STEP.M 0.1250:
NULL. -999.2500:
UWI. DF3038:
~C
DEPT.M :
GR.API :
RML.OHMM :
RI. :
RXO.OHMM :
CALI.CM :
DEN.GM/CC :
SP.MV :
~A
# ...
  165.0000    58.4930    17.2080    14.8520    15.9370    24.7110     2.4650   -14.9310 
  165.1250    60.1910    17.0580    14.8170    15.7600    24.7360     2.4350   -15.0220 
  165.2500    62.1190    16.7350    14.6220    15.0570    24.6370     2.4160   -15.1140 
  165.3750    63.3790    16.3570    14.3560    14.5020    24.3170     2.4110   -15.1600 
  165.5000    63.5660    16.0430    14.1170    14.2280    23.8630     2.4180   -15.1930 
  165.6250    63.4240    15.9210    14.0200    13.7660    23.7980     2.4320   -15.1750 
  165.7500    62.9990    16.0050    14.0920    13.2530    23.9230     2.4500   -15.1510 
  165.8750    60.7760    16.2620    14.3210    13.1850    23.9790     2.4760   -15.1350 
  166.0000    58.0220    16.6040    14.6510    13.3310    24.0470     2.5130   -15.1380 
  166.1250    57.5460    16.8720    14.9670    13.7000    24.2870     2.5560   -15.1350 
  166.2500    58.2080    16.9320    15.1460    14.2120    24.5560     2.5890   -15.0900 
  166.3750    58.8920    16.7120    15.1090    14.3870    24.7010     2.5980   -15.0390 
  166.5000    59.3940    16.2250    14.8380    13.8430    24.7380     2.5810   -14.9920 
  166.6250    59.4030    15.5520    14.3700    12.8690    24.7380     2.5480   -14.9890 
  166.7500    59.5660    14.8570    13.8380    12.1930    24.7300     2.5170   -14.9800 
  166.8750    60.1660    14.2460    13.3350    11.7310    24.7060     2.5000   -14.9520 
  167.0000    61.4810    13.7850    12.9280    11.5080    24.6560     2.5010   -14.9430 
  167.1250    63.0390    13.5310    12.6760    11.5800    24.6280     2.5190   -14.8590 
  167.2500    62.6780    13.4340    12.5520    11.2100    24.6290     2.5450   -14.9060 
  167.3750    59.9970    13.4360    12.5210    10.8690    24.6420     2.5700   -14.9400 
  167.5000    57.8630    13.4650    12.5310    10.6590    24.6120     2.5840   -15.0770 
  167.6250    59.6290    13.4520    12.5290    10.7590    24.5250     2.5780   -15.1980 
  167.7500    61.7010    13.3970    12.5070    10.9110    24.4420     2.5550   -15.3280 
  167.8750    61.7620    13.3390    12.4940    11.0390    24.4150     2.5190   -15.4940 
  168.0000    62.0100    13.3390    12.5330    11.0130    24.4600     2.4790   -15.6880 
  168.1250    64.3340    13.5470    12.7290    11.5550    24.6270     2.4420   -16.0230 
  168.2500    68.4200    14.1190    13.1940    13.1380    24.8290     2.4100   -16.3290 
  168.3750    73.8030    15.1770    14.0880    15.9630    24.9560     2.3810   -16.7070 
  168.5000    77.6210    16.8890    15.5710    19.4080    24.9850     2.3530   -17.0430 
  168.6250    77.0140    19.3700    17.9040    21.8800    25.0430     2.3250   -17.4180 
  168.7500    72.9300    22.8270    21.0080    27.4320    25.1400     2.3020   -17.7900 
  168.8750    67.6910    27.3160    24.8270    38.5780    25.1940     2.2890   -18.1760 
  169.0000    63.8640    33.8020    29.2930    51.3110    25.1670     2.2870   -18.5620 
  169.1250    64.7500    42.1350    34.6230    52.6090    25.1000     2.2910   -18.9520 
  169.2500    69.1620    52.8640    41.0990    49.9720    24.9870     2.2910   -19.2830 
  169.3750    73.1340    65.4810    49.2740    56.1920    24.7560     2.2840   -19.5910 
  169.5000    73.5450    79.1330    59.5860    65.8540    24.4310     2.2710   -19.8620 
  169.6250    71.2110    95.1480    72.1920    72.5190    24.1070     2.2600   -20.0910 
  169.7500    69.5280   112.0850    85.6130    77.7850    23.9400     2.2560   -20.3020 
  169.8750    68.6200   127.8370    98.2530    85.8890    23.9150     2.2580   -20.4620 
  170.0000    65.8190   140.6040   108.7590    94.2390    23.9640     2.2640   -20.5520 
  170.1250    59.8950   149.6340   116.5660    99.8010    24.0920     2.2730   -20.6010 
  170.2500    57.5260   157.4600   123.5200   104.7360    24.3490     2.2800   -20.6440 
  170.3750    61.1060   166.7700   131.6640   107.3480    24.6830     2.2810   -20.7050 
  170.5000    66.2800   179.5740   142.6760   111.5810    24.9510     2.2740   -20.8390 
  170.6250    66.7940   196.3620   157.2700   131.3380    25.0650     2.2610   -20.9090 
  170.7500    64.9720   213.7410   172.9380   161.7500    25.0960     2.2470   -21.0890 
  170.8750    64.4300   227.7460   186.6040   195.7230    25.1000     2.2350   -21.2240 
  171.0000    65.1680   234.6980   195.2020   214.7500    25.1000     2.2260   -21.3880 
  171.1250    65.7200   231.2190   195.5790   209.2800    25.1000     2.2210   -21.5000 
  171.2500    65.4390   219.7750   189.0570   188.7510    25.1020     2.2160   -21.6170 
  171.3750    66.2570   202.7010   177.1340   168.4830    25.1130     2.2150   -21.6390 
  171.5000    68.4670   182.3700   161.6450   151.3430    25.1310     2.2180   -21.5840 
  171.6250    70.9680   160.9170   144.2680   131.8460    25.1230     2.2290   -21.5010 
  171.7500    72.7100   140.7300   127.1930   103.5960    25.1040     2.2480   -21.2660 
  171.8750    73.6450   123.7590   112.1910    86.1780    25.0810     2.2670   -21.0400 
  172.0000    75.6470   111.6520   100.9180    78.0500    25.0450     2.2810   -20.8020 
  172.1250    77.4350   106.8080    95.8010    70.6800    25.0390     2.2840   -20.5350 
  172.2500    76.9900   109.0980    97.0660    70.1310    25.0570     2.2770   -20.2840 
  172.3750    73.2460   118.7100   105.0150    75.7040    25.0680     2.2660   -20.0780 
  172.5000    67.8440   134.7240   118.8540    84.6890    25.0450     2.2520   -19.9110 
  172.6250    63.7400   154.4170   136.1820   102.3230    25.0270     2.2380   -19.8120 
  172.7500    61.1480   171.9320   151.8080   116.9420    25.0210     2.2240   -19.7280 
  172.8750    61.2590   182.2320   161.3460   121.0230    25.0210     2.2110   -19.6850 
  173.0000    64.8780   182.3180   162.1250   115.6920    25.0130     2.2040   -19.6180 
  173.1250    69.4490   172.2940   153.8080   110.0360    24.9750     2.2050   -19.5920 
  173.2500    70.0980   158.9440   141.9040   104.1530    24.9120     2.2120   -19.4570 
  173.3750    66.6630   146.8190   130.4050    92.9720    24.8680     2.2200   -19.3210 
  173.5000    63.3710   138.2680   121.7250    84.1240    24.8550     2.2260   -19.1000 
  173.6250    62.2380   134.1980   117.0390    84.5890    24.8750     2.2320   -18.8660 
  173.7500    63.1150   133.1930   115.2360    89.7490    24.9060     2.2400   -18.7670 
  173.8750    64.5130   134.5790   115.7090    91.3940    24.9270     2.2540   -18.6540 
  174.0000    64.9800   138.0880   118.1540    89.1030    24.9340     2.2730   -18.6660 
  174.1250    63.5520   144.3700   123.0370    84.0200    24.9430     2.2910   -18.6600 
  174.2500    64.3490   153.5380   130.3580    84.8030    24.9580     2.3020   -18.8490 
  174.3750    69.4550   165.7610   140.2180    94.6980    24.9710     2.3010   -19.0710 
  174.5000    74.2800   180.5280   152.1670   113.2650    24.9820     2.2860   -19.4540 
  174.6250    72.0260   196.3140   164.9120   134.3390    25.0190     2.2580   -19.8150 
  174.7500    66.4020   210.4300   176.2350   151.4810    25.0100     2.2290   -20.1400 
  174.8750    63.3470   220.3930   184.1160   159.5120    24.9240     2.2070   -20.4700 
  175.0000    65.3210   224.1280   186.9070   157.4080    24.7770     2.1980   -20.7170 
  175.1250    68.9580   219.3860   182.8700   147.5950    24.6010     2.2060   -20.9730 
  175.2500    71.5880   208.0610   173.5890   133.3090    24.2810     2.2240   -21.1200 
  175.3750    72.8250   192.1920   160.6540   115.5970    23.8850     2.2470   -21.2160 
  175.5000    72.0220   174.8110   146.3470    98.3270    23.8430     2.2670   -21.2170 
  175.6250    69.3370   160.1480   133.8690    88.5670    24.1500     2.2800   -21.2510 
  175.7500    67.6420   150.8880   125.5120    88.3100    24.4350     2.2850   -21.1810 
  175.8750    67.7960   148.5550   122.7400    91.3780    24.5020     2.2870   -21.0880 
  176.0000    68.5430   153.7150   126.2500    92.1480    24.4590     2.2860   -20.9790 
  176.1250    68.2320   166.7570   136.6270   101.1010    24.3120     2.2850   -20.8590 
