~V
VERS. 2.00: Ver 2.00
~W
STRT.M 60.0000:
STOP.M 273.0000:
STEP.M 0.1250:
NULL. -999.2500:
UWI. DF3001:
~C
DEPT.M :
DEN.GM/CC :
SP.MV :
AC.US/MT :
GR.API :
RML.OHMM :
RI. :
RXO.OHMM :
CALI.CM :
~A
# ...
  110.0000  -999.2500   -15.0330  -999.2500   108.1660     4.9740     4.2810     5.2650    24.2380 
  110.1250  -999.2500   -15.1390  -999.2500   109.8560     5.3590     4.5680     5.7310    24.3920 
  110.2500  -999.2500   -15.2990  -999.2500   111.4060     6.0530     5.1100     6.6700    24.6030 
  110.3750  -999.2500   -15.4820  -999.2500   111.5720     6.9480     5.8430     8.1890    24.7210 
  110.5000  -999.2500   -15.6680  -999.2500   107.1590     7.8190     6.6140    10.2530    24.7340 
  110.6250  -999.2500   -15.8570  -999.2500    99.2280     8.2890     7.1480    11.9030    24.6410 
  110.7500  -999.2500   -15.9850  -999.2500    93.6750     8.2060     7.2840    11.7640    24.4660 
  110.8750  -999.2500   -16.0030  -999.2500    92.2180     7.6440     7.0050     9.7430    24.2810 
  111.0000  -999.2500   -16.0270  -999.2500    92.3780     6.8810     6.4540     7.3300    24.1840 
  111.1250  -999.2500   -16.1020  -999.2500    93.5300     6.2380     5.8510     6.4900    24.1640 
  111.2500  -999.2500   -16.1210  -999.2500    96.6070     5.8230     5.3630     6.0770    24.1310 
  111.3750  -999.2500   -16.0400  -999.2500   100.5580     5.6130     5.0260     5.8210    24.0490 
  111.5000  -999.2500   -15.9290  -999.2500   105.0100     5.5490     4.8240     5.6220    23.9860 
  111.6250  -999.2500   -15.7960  -999.2500   110.6750     5.5920     4.7400     5.2800    23.9590 
  111.7500  -999.2500   -15.6410  -999.2500   114.9580     5.6940     4.7330     5.1210    23.9280 
  111.8750  -999.2500   -15.5190  -999.2500   115.4510     5.8300     4.7830     5.1410    23.8680 
  112.0000  -999.2500   -15.4520  -999.2500   109.1810     5.9570     4.8610     5.3960    23.8410 
  112.1250  -999.2500   -15.4170  -999.2500    99.7010     6.0140     4.9250     5.7150    23.8780 
  112.2500  -999.2500   -15.3720  -999.2500    95.9400     5.9910     4.9530     5.9050    23.9390 
  112.3750  -999.2500   -15.3100  -999.2500    99.2820     5.9260     4.9530     5.8690    24.0240 
  112.5000  -999.2500   -15.2560  -999.2500   104.4590     5.8930     4.9580     5.6210    24.2030 
  112.6250  -999.2500   -15.1690  -999.2500   104.7850     5.9800     5.0190     5.3630    24.5060 
  112.7500  -999.2500   -15.0700  -999.2500   104.0440     6.1720     5.1410     5.4330    24.5690 
  112.8750  -999.2500   -15.0020  -999.2500   104.8080     6.3900     5.2870     5.7500    24.4230 
  113.0000  -999.2500   -14.9320  -999.2500   104.3810     6.5210     5.3920     6.0100    24.1340 
  113.1250  -999.2500   -14.8250  -999.2500   104.0630     6.4390     5.3650     6.0500    23.8240 
  113.2500  -999.2500   -14.7180  -999.2500   105.0200     6.1810     5.2100     5.8700    23.8660 
  113.3750  -999.2500   -14.6570  -999.2500   105.4030     5.8590     4.9780     5.4770    24.2850 
  113.5000  -999.2500   -14.6260  -999.2500   103.0610     5.6040     4.7530     5.0850    24.6390 
  113.6250  -999.2500   -14.6290  -999.2500   101.1810     5.5170     4.6180     4.9830    24.7510 
  113.7500  -999.2500   -14.6680  -999.2500   103.4880     5.5420     4.5690     5.1690    24.7500 
  113.8750  -999.2500   -14.7400  -999.2500   107.3060     5.6020     4.5750     5.5120    24.7420 
  114.0000  -999.2500   -14.8940  -999.2500   108.8920     5.6350     4.6020     5.8700    24.7390 
  114.1250  -999.2500   -15.1360  -999.2500   108.2240     5.6610     4.6580     5.8340    24.7340 
  114.2500  -999.2500   -15.4580  -999.2500   107.5180     5.8050     4.8060     5.5760    24.7030 
  114.3750  -999.2500   -15.8850  -999.2500   105.0450     6.1870     5.1240     5.7060    24.5790 
  114.5000  -999.2500   -16.3280  -999.2500    97.6520     6.8350     5.6450     6.3810    24.2770 
  114.6250  -999.2500   -16.6370  -999.2500    86.4560     7.6130     6.3040     7.6280    23.8490 
  114.7500  -999.2500   -16.8310  -999.2500    77.4730     8.1980     6.8770     8.9870    23.6280 
  114.8750  -999.2500   -16.9240  -999.2500    75.3840     8.3170     7.1530     9.7580    23.6070 
  115.0000  -999.2500   -16.8400  -999.2500    79.4450     7.8600     7.0010     9.4780    23.6590 
  115.1250  -999.2500   -16.5920  -999.2500    87.0280     6.9700     6.4270     7.8890    23.7980 
  115.2500  -999.2500   -16.3080  -999.2500    94.3670     6.1020     5.7330     6.2240    24.0600 
  115.3750  -999.2500   -15.9880  -999.2500   102.1340     5.5060     5.1370     5.3040    24.3160 
  115.5000  -999.2500   -15.6610  -999.2500   110.1500     5.2530     4.7640     5.0490    24.4250 
  115.6250  -999.2500   -15.3970  -999.2500   114.2300     5.3310     4.6720     5.1540    24.3020 
  115.7500  -999.2500   -15.1820  -999.2500   113.2960     5.5720     4.7630     5.3970    24.0520 
  115.8750  -999.2500   -15.0300  -999.2500   108.3660     5.8610     4.9550     5.6840    23.8720 
  116.0000  -999.2500   -14.9340  -999.2500   101.4570     6.1090     5.1730     5.7930    23.8120 
  116.1250  -999.2500   -14.8740  -999.2500    95.8800     6.2520     5.3480     5.7470    23.8920 
  116.2500  -999.2500   -14.8480  -999.2500    95.2860     6.3030     5.4510     5.7440    24.1560 
  116.3750  -999.2500   -14.8180  -999.2500    98.7860     6.2770     5.4740     5.6700    24.5690 
  116.5000  -999.2500   -14.7380  -999.2500   100.0680     6.1870     5.4160     5.6270    24.8330 
  116.6250  -999.2500   -14.6770  -999.2500    97.2660     6.0360     5.2750     5.6090    24.9020 
  116.7500  -999.2500   -14.6680  -999.2500    96.5260     5.8470     5.0870     5.5670    24.9090 
  116.8750  -999.2500   -14.6400  -999.2500    99.3470     5.6340     4.8800     5.4860    24.9160 
  117.0000  -999.2500   -14.6150  -999.2500   102.2810     5.3840     4.6780     5.6720    24.9190 
  117.1250  -999.2500   -14.7190  -999.2500   104.6390     5.1240     4.5090     6.9540    24.9140 
  117.2500  -999.2500   -14.8900  -999.2500   107.5360     4.9040     4.3940     9.0760    24.8950 
  117.3750  -999.2500   -15.0560  -999.2500   106.2060     4.8790     4.3860    11.6610    24.8490 
  117.5000  -999.2500   -15.2740  -999.2500    99.3200     5.1820     4.5990    14.1360    24.7680 
  117.6250  -999.2500   -15.6170  -999.2500    92.9560     6.3370     5.3110    14.6560    24.6060 
  117.7500  -999.2500   -16.0180  -999.2500    89.6110     8.3430     6.6540    15.4370    24.4140 
  117.8750  -999.2500   -16.4510  -999.2500    85.1760    10.9500     8.6530    17.7990    24.3340 
  118.0000  -999.2500   -16.9580  -999.2500    76.8580    13.7960    11.0790    21.9300    24.5190 
  118.1250  -999.2500   -17.5480  -999.2500    69.3290    16.1130    13.2960    26.2230    24.5780 
  118.2500  -999.2500   -18.1290  -999.2500    66.3640    17.0200    14.5990    27.8350    24.3630 
  118.3750  -999.2500   -18.6920  -999.2500    67.7600    16.2490    14.6330    24.2450    23.8540 
  118.5000  -999.2500   -19.2090  -999.2500    71.7180    14.4650    13.6250    17.5390    23.2930 
  118.6250  -999.2500   -19.6270  -999.2500    76.3560    12.8400    12.2810    13.3800    23.0530 
  118.7500  -999.2500   -19.9630  -999.2500    79.9340    11.8970    11.2520    11.9060    22.9930 
  118.8750  -999.2500   -20.1790  -999.2500    79.2990    11.5990    10.6990    11.3990    22.9900 
  119.0000  -999.2500   -20.2650  -999.2500    73.5730    11.7510    10.5700    11.4080    22.9880 
  119.1250  -999.2500   -20.1710  -999.2500    65.4240    12.1200    10.7380    11.7450    22.9920 
  119.2500  -999.2500   -19.9810  -999.2500    59.3440    12.4540    10.9770    12.0690    22.9980 
  119.3750  -999.2500   -19.7440  -999.2500    58.0400    12.6430    11.1710    12.2110    23.0120 
  119.5000  -999.2500   -19.5440  -999.2500    60.5850    12.6630    11.2650    12.3010    23.0320 
  119.6250  -999.2500   -19.4290  -999.2500    61.4940    12.5310    11.2340    12.3380    23.0650 
  119.7500  -999.2500   -19.3510  -999.2500    60.7490    12.3360    11.1240    12.2670    23.0760 
  119.8750  -999.2500   -19.3330  -999.2500    62.3400    12.1400    10.9750    12.0770    23.0770 
