~V
VERS. 2.00: Ver 2.00
~W
STRT.M 57.0000:
STOP.M 272.0000:
STEP.M 0.1250:
NULL. -999.2500:
UWI. DF3055:
~C
DEPT.M :
SP.MV :
GR.API :
RML.OHMM :
RI. :
RXO.OHMM :
CALI.CM :
DEN.GM/CC :
~A
# ...
  259.5000   -11.8290    53.9290     7.2780     6.5410     8.8160    24.3500     2.3560 
  259.6250   -11.7530    53.3050     7.1110     6.3900     7.8730    24.3490     2.3620 
  259.7500   -11.6630    53.0370     6.9300     6.2250     6.9220    24.3490     2.3670 
  259.8750   -11.6220    54.3090     6.7610     6.0740     6.2700    24.3490     2.3670 
  260.0000   -11.6150    56.5690     6.6220     5.9540     6.0300    24.3490     2.3570 
  260.1250   -11.6110    57.9600     6.5120     5.8690     6.1120    24.3490     2.3390 
  260.2500   -11.6250    56.6650     6.4340     5.8120     6.2910    24.3490     2.3180 
  260.3750   -11.6420    55.0870     6.3720     5.7560     6.3190    24.3490     2.3020 
  260.5000   -11.6340    54.6260     6.3090     5.6880     5.9980    24.3490     2.2950 
  260.6250   -11.6300    55.0870     6.2420     5.6040     5.4980    24.3490     2.2930 
  260.7500   -11.6480    54.8900     6.1660     5.5260     5.3420    24.3480     2.2910 
  260.8750   -11.6550    54.2760     6.1180     5.4840     5.2580    24.3470     2.2870 
  261.0000   -11.6600    54.3990     6.1430     5.5030     5.2100    24.3480     2.2820 
  261.1250   -11.6580    54.9250     6.2450     5.5970     5.2960    24.3490     2.2790 
  261.2500   -11.6250    55.5290     6.4050     5.7500     5.3210    24.3490     2.2840 
  261.3750   -11.6190    55.5290     6.5650     5.9120     5.5210    24.3490     2.2940 
  261.5000   -11.6480    55.5290     6.6780     6.0450     5.9050    24.3490     2.3090 
  261.6250   -11.6710    55.5290     6.7200     6.0770     6.3580    24.3490     2.3240 
  261.7500   -11.7130    55.5290     6.6840     6.0210     6.7520    24.3490     2.3370 
  261.8750   -11.7300    55.5290     6.6080     5.9170     6.8690    24.3490     2.3480 
  262.0000   -11.7150    55.5290     6.5180     5.8330     6.7190    24.3490     2.3540 
  262.1250   -11.7030    55.5290     6.4250     5.7500     6.3940    24.3490     2.3570 
  262.2500   -11.7090    55.5290     6.3350     5.6680     5.9410    24.3490     2.3600 
  262.3750   -11.7000    55.5290     6.2350     5.5780     5.5010    24.3490     2.3610 
  262.5000   -11.6990    55.5290     6.1230     5.4770     5.1880    24.3490     2.3610 
  262.6250   -11.7010    55.5290     6.0410     5.3700     5.0140    24.3490     2.3580 
  262.7500   -11.6570    55.5290     5.9400     5.2710     4.9020    24.3480     2.3510 
  262.8750   -11.6220    55.5290     5.8450     5.1930     4.8100    24.3390     2.3410 
  263.0000   -11.6210    55.5290     5.7770     5.1420     4.7540    24.3150     2.3270 
  263.1250   -11.6070    55.5290     5.7520     5.1160     4.7130    24.2620     2.3120 
  263.2500   -11.6120    55.5290     5.7440     5.1080     4.6420    24.1460     2.2980 
  263.3750   -11.6230    55.5290     5.7410     5.1050     4.5920    23.9780     2.2870 
  263.5000   -11.6170    55.5290     5.7390     5.1040     4.5460    23.8220     2.2800 
  263.6250   -11.6080    55.5290     5.7380     5.1030     4.4910    23.7090     2.2740 
  263.7500   -11.5990    55.5290     5.7410     5.1050     4.4820    23.5950     2.2680 
  263.8750   -11.5930    55.5290     5.7480     5.1110     4.6430    23.4030     2.2630 
  264.0000   -11.5650    55.5290     5.7550     5.1170     4.9420    23.2100     2.2650 
  264.1250   -11.5300    55.5290     5.7600     5.1220     5.0930    23.3130     2.2730 
  264.2500   -11.4770    55.5290     5.7600     5.1230     5.0580    23.6060     2.2830 
  264.3750   -11.3930    55.5290     5.7570     5.1200     4.4960    23.7500     2.2900 
  264.5000   -11.2700    55.5290     5.7540     5.1160     4.3340    23.7790     2.2910 
  264.6250   -11.1770    55.5290     5.7510     5.1130     4.4340    23.7780     2.2890 
  264.7500   -11.0930    55.5290     5.7480     5.1110     4.5600    23.7780     2.2890 
  264.8750   -11.0160    55.5290     5.7450     5.1090     4.6780    23.7780     2.2920 
  265.0000   -10.9640    55.5290     5.7410     5.1050     4.7650    23.7740     2.2940 
  265.1250   -10.9000    55.5290     5.7360     5.1010     4.8710    23.7550     2.2930 
  265.2500   -10.8040    55.5290     5.7350     5.1000     5.0480    23.6920     2.2920 
  265.3750   -10.7300    55.5290     5.7370     5.1010     5.3840    23.5490     2.2960 
  265.5000   -10.6930    55.5290     5.7420     5.1050     5.9090    23.2680     2.3050 
  265.6250   -10.6110    55.5290     5.7470     5.1100     6.7180    22.8300     2.3120 
  265.7500   -10.5240    55.5290     5.7490     5.1120     7.9370    22.3160     2.3090 
  265.8750   -10.4500    55.5290     5.7470     5.1110     9.0730    21.9060     2.2930 
  266.0000   -10.3460    55.5290     5.7450     5.1100     9.6370    21.4220     2.2650 
  266.1250   -10.2640    55.5290     5.7450     5.1090     9.4620    20.7430     2.2370 
  266.2500   -10.2100    55.5290     5.7480     5.1120     8.4520    19.6680     2.2120 
  266.3750   -10.1460    55.5290     5.7530     5.1160     7.4730    18.3310     2.1920 
  266.5000   -10.0940    55.5290     5.7580     5.1210     6.6270    17.0550     2.1770 
  266.6250   -10.0730    55.5290     5.7610     5.1230     5.8290    16.1960     2.1700 
  266.7500   -10.0340    55.5290     5.7620     5.1240     5.5590    15.7550     2.1700 
  266.8750    -9.9940    55.5290     5.7610     5.1230     5.4750    15.4280     2.1770 
  267.0000    -9.9850    55.5290     5.7590     5.1220     5.4350    15.1540     2.1860 
  267.1250    -9.9670    55.5290     5.7580     5.1210     5.3690    14.9510     2.1910 
  267.2500    -9.9580    55.5290     5.7580     5.1210     5.2340    14.7560     2.1850 
  267.3750    -9.9460    55.5290     5.7580     5.1210     5.0370    14.5510     2.1700 
  267.5000    -9.9310    55.5290     5.7580     5.1210     4.9050    14.2940     2.1500 
  267.6250    -9.9220    55.5290     5.7580     5.1210     4.8210    13.9610     2.1340 
  267.7500    -9.9500    55.5290     5.7580     5.1210     4.9340    13.5230     2.1260 
  267.8750    -9.9590    55.5290     5.7580     5.1210     5.0720    13.1420     2.1260 
  268.0000    -9.9540    55.5290     5.7580     5.1210     5.1560    12.9230     2.1300 
  268.1250    -9.9420    55.5290     5.7580     5.1210     5.1750    12.8470     2.1360 
  268.2500    -9.9340    55.5290     5.7580     5.1210     5.1740    12.8260     2.1400 
  268.3750    -9.9480    55.5290     5.7580     5.1210     5.1730    12.8040     2.1440 
  268.5000    -9.9160    55.5290     5.7580     5.1210     5.1740    12.7930     2.1470 
  268.6250    -9.8780    55.5290     5.7580     5.1210     5.1740    12.7910     2.1480 
  268.7500    -9.8310    55.5290     5.7580     5.1210     5.1740    12.7910     2.1460 
  268.8750    -9.7720    55.5290     5.7580     5.1210     5.1740    12.7910     2.1440 
  269.0000    -9.7270    55.5290     5.7580     5.1210     5.1740    12.7910     2.1420 
  269.1250    -9.6750    55.5290     5.7580     5.1210     5.1730    12.7910     2.1410 
  269.2500    -9.6050    55.5290     5.7580     5.1210     5.1720    12.7900     2.1430 
  269.3750    -9.5230    55.5290     5.7580     5.1210     5.1720    12.7890     2.1450 
  269.5000    -9.4800    55.5290     5.7580     5.1210     5.1720    12.7880     2.1450 
  269.6250    -9.4410    55.5290     5.7580     5.1210     5.1720    12.7890     2.1430 
  269.7500    -9.4110    55.5290     5.7580     5.1210     5.1720    12.7900     2.1390 
  269.8750    -9.3960    55.5290     5.7580     5.1210     5.1720    12.7900     2.1360 
  270.0000    -9.3790    55.5290     5.7580     5.1210     5.1710    12.7890     2.1350 
  270.1250    -9.3790    55.5290     5.7580     5.1210     5.1710    12.7860     2.1360 
  270.2500    -9.3840    55.5290     5.7580     5.1210     5.1710    12.7830     2.1390 
  270.3750    -9.3940    55.5290     5.7580     5.1210     5.1700    12.7820     2.1430 
  270.5000  -999.2500    55.5290     5.7580     5.1210     5.1690    12.7810     2.1440 
  270.6250  -999.2500    55.5290     5.7580     5.1210     5.1690    12.7800     2.1450 
