~V
VERS. 2.00: Ver 2.00
~W
STRT.M 64.0000:
STOP.M 259.0000:
STEP.M 0.1250:
NULL. -999.2500:
UWI. DF3067:
~C
DEPT.M :
DEN.GM/CC :
GR.API :
CALI.CM :
RXO.OHMM :
RI. :
RML.OHMM :
SP.MV :
~A
# ...
  244.0000     2.4630    75.6690    22.5450     9.8510    12.0760    12.6430   -22.8390 
  244.1250     2.4560    75.6070    22.5550     9.4970    11.8590    12.5110   -22.8670 
  244.2500     2.4510    76.5840    22.5950     9.5240    11.7580    12.5220   -22.9090 
  244.3750     2.4450    77.1920    22.6770     9.8030    11.8160    12.6910   -22.9460 
  244.5000     2.4400    74.3800    22.7790    10.7450    12.0720    13.0490   -22.9540 
  244.6250     2.4460    69.9710    22.8550    12.1910    12.5880    13.6610   -22.9130 
  244.7500     2.4680    68.5770    22.8940    13.7360    13.3060    14.4650   -22.8330 
  244.8750     2.4950    70.6960    22.9070    14.4660    14.1410    15.3540   -22.7350 
  245.0000     2.5060    74.5160    22.9110    13.9790    14.9510    16.1540   -22.6630 
  245.1250     2.4840    75.7700    22.9040    13.0520    15.5280    16.6220   -22.6320 
  245.2500     2.4470    73.4870    22.8460    12.8650    15.7900    16.7100   -22.6220 
  245.3750     2.4190    72.5310    22.7040    12.8640    15.7270    16.4650   -22.6290 
  245.5000     2.4110    74.6380    22.5230    12.7360    15.4170    16.0140   -22.6470 
  245.6250     2.4220    75.6470    22.4080    12.7920    14.9670    15.4970   -22.6800 
  245.7500     2.4400    75.1370    22.3390    14.7480    14.4980    15.0200   -22.7260 
  245.8750     2.4590    75.9300    22.2170    16.2460    14.0560    14.6070   -22.7580 
  246.0000     2.4760    78.6490    22.0190    14.3430    13.6640    14.2580   -22.7450 
  246.1250     2.4820    79.9710    21.8560    10.3120    13.3390    13.9620   -22.6740 
  246.2500     2.4810    78.9250    21.7930     9.0200    13.0690    13.6910   -22.5630 
  246.3750     2.4770    75.5170    21.7900     9.3150    12.8580    13.4430   -22.4390 
  246.5000     2.4770    72.0000    21.7940    10.2590    12.7000    13.2270   -22.3050 
  246.6250     2.4760    72.2400    21.7930    10.2920    12.5930    13.0580   -22.1660 
  246.7500     2.4680    74.4490    21.7900     9.4990    12.5260    12.9370   -22.0160 
  246.8750     2.4480    75.1330    21.7870     8.6810    12.5100    12.8780   -21.8640 
  247.0000     2.4220    72.8340    21.8430     8.3510    12.5550    12.8990   -21.7320 
  247.1250     2.4090    70.8130    22.1050     8.8150    12.6780    13.0140   -21.6270 
  247.2500     2.4150    71.6190    22.5260    10.9040    12.8620    13.2020   -21.5510 
  247.3750     2.4300    73.3800    22.9170    13.3260    13.1050    13.4500   -21.4910 
  247.5000     2.4420    73.7940    23.1150    14.2530    13.3990    13.7440   -21.4450 
  247.6250     2.4470    73.2720    23.1360    13.2230    13.7290    14.0800   -21.4120 
  247.7500     2.4520    74.3560    23.1420    13.0530    14.0650    14.4420   -21.3970 
  247.8750     2.4560    74.3390    23.1690    12.8530    14.3900    14.8130   -21.4040 
  248.0000     2.4530    71.0660    23.2060    12.4810    14.6900    15.1600   -21.4300 
  248.1250     2.4430    69.2730    23.2500    12.4060    14.9360    15.4340   -21.4570 
  248.2500     2.4350    72.6640    23.2900    12.4380    15.1130    15.6260   -21.4770 
  248.3750     2.4270    77.0570    23.3220    12.3970    15.2180    15.7520   -21.4900 
  248.5000     2.4190    77.6030    23.3530    12.5340    15.2690    15.8400   -21.5090 
  248.6250     2.4130    77.6030    23.3840    12.8940    15.3170    15.9340   -21.5390 
  248.7500     2.4070    77.6030    23.3970    13.1810    15.4110    16.0740   -21.5780 
  248.8750     2.4010    77.6030    23.3940    13.2760    15.5660    16.2730   -21.6140 
  249.0000     2.3980    77.6030    23.3900    13.5520    15.7640    16.5100   -21.6280 
  249.1250     2.4020    77.6030    23.3920    14.4150    15.9680    16.7400   -21.6230 
  249.2500     2.4080    77.6030    23.3900    15.2590    16.1530    16.9380   -21.6100 
  249.3750     2.4180    77.6030    23.3750    15.7810    16.3300    17.1210   -21.6060 
  249.5000     2.4340    77.6030    23.3520    17.0000    16.5230    17.3320   -21.6360 
  249.6250     2.4530    77.6030    23.3400    19.9680    16.7710    17.6310   -21.6920 
  249.7500     2.4630    77.6030    23.3210    23.7850    17.0700    17.9920   -21.7610 
  249.8750     2.4660    77.6030    23.2690    27.8270    17.3630    18.3130   -21.8280 
  250.0000     2.4700    77.6030    23.1910    35.2280    17.5400    18.4530   -21.8840 
  250.1250     2.4790    77.6030    23.1390    40.6430    17.4610    18.2560   -21.9470 
  250.2500     2.4790    77.6030    23.1380    45.5070    17.1690    17.8180   -22.0500 
  250.3750     2.4630    77.6030    23.1680    41.7560    16.7660    17.2910   -22.2030 
  250.5000     2.4350    77.6030    23.2000    27.7380    16.3840    16.8450   -22.3590 
  250.6250     2.4120    77.6030    23.2050    19.0840    16.1530    16.6230   -22.4270 
  250.7500     2.4010    77.6030    23.1930    16.3770    16.0670    16.5750   -22.3650 
  250.8750     2.3980    77.6030    23.1810    16.3480    16.0690    16.5970   -22.1880 
  251.0000     2.4000    77.6030    23.1800    17.3950    16.0770    16.5750   -21.9920 
  251.1250     2.4050    77.6030    23.1810    19.5340    16.0260    16.4430   -21.8880 
  251.2500     2.4070    77.6030    23.1310    20.2280    15.9300    16.2650   -21.8960 
  251.3750     2.4060    77.6030    23.0270    20.4770    15.8240    16.1110   -21.9740 
  251.5000     2.4080    77.6030    22.9510    21.6720    15.7310    16.0140   -22.0500 
  251.6250     2.4180    77.6030    22.9920    21.8610    15.6360    15.9330   -22.0810 
  251.7500     2.4310    77.6030    23.0760    20.5230    15.4940    15.7890   -22.0750 
  251.8750     2.4420    77.6030    23.1220    18.8150    15.2840    15.5610   -22.0730 
  252.0000     2.4460    77.6030    23.1250    17.2510    15.0270    15.2780   -22.1080 
  252.1250     2.4430    77.6030    23.1220    15.4570    14.7830    14.9870   -22.1420 
  252.2500     2.4390    77.6030    23.1250    16.5050    14.5900    14.7080   -22.1210 
  252.3750     2.4400    77.6030    23.1270    17.4390    14.4530    14.4380   -22.0040 
  252.5000     2.4540    77.6030    23.1250    16.8860    14.3730    14.1840   -21.7840 
  252.6250     2.4750    77.6030    23.1240    17.5240    14.3480    13.9880   -21.5370 
  252.7500     2.4890    77.6030    23.1410    19.2930    14.3510    13.8760   -21.3290 
  252.8750     2.4970    77.6030    23.1690    21.1440    14.3670    13.8430   -21.2100 
  253.0000     2.5070    77.6030    23.1870    21.8370    14.3830    13.8540   -21.2080 
  253.1250     2.5250    77.6030    23.1890    22.5090    14.3900    13.8690   -21.2640 
  253.2500     2.5340    77.6030    23.1920    23.3090    14.3930    13.8700   -21.3100 
  253.3750     2.5260    77.6030    23.1980    23.8150    14.3960    13.8560   -21.2910 
  253.5000     2.5090    77.6030    23.1970    23.1600    14.3980    13.8370   -21.1950 
  253.6250     2.4920    77.6030    23.1920    20.9870    14.3880    13.8290   -21.0810 
  253.7500     2.4700    77.6030    23.1890    19.2700    14.3650    13.8370   -21.0110 
  253.8750     2.4350    77.6030    23.1900    18.1300    14.3410    13.8520   -21.0050 
  254.0000     2.3980    77.6030    23.1900    17.2980    14.3270    13.8630   -21.0390 
  254.1250     2.3810    77.6030    23.1890    17.5130    14.3300    13.8590   -21.0520 
  254.2500     2.3920    77.6030    23.1900    17.6850    14.3370    13.8450   -21.0120 
  254.3750     2.4170    77.6030    23.1920    16.6280    14.3390    13.8370   -20.9060 
  254.5000     2.4410    77.6030    23.1750    14.6630    14.3390    13.8370   -20.7550 
  254.6250     2.4520    77.6030    23.1310    13.2090    14.3390    13.8370   -20.6220 
  254.7500     2.4540    77.6030    23.0910    12.5170    14.3390    13.8370   -20.5650 
  254.8750     2.4540    77.6030    23.0680    12.2020    14.3390    13.8370   -20.6100 
  255.0000     2.4560    77.6030    23.0660    11.7780    14.3390    13.8370   -20.7330 
  255.1250     2.4590    77.6030    23.0770    11.6660    14.3390    13.8370   -20.8430 
