~V
VERS. 2.00: Ver 2.00
~W
STRT.M 57.0000:
STOP.M 290.0000:
STEP.M 0.1250:
NULL. -999.2500:
UWI. DF3043:
~C
DEPT.M :
SP.MV :
DEN.GM/CC :
AC.US/MT :
GR.API :
CALI.CM :
RXO.OHMM :
RI. :
RML.OHMM :
~A
# ...
  197.0000   -19.4020     2.1940   405.3720    63.4990    24.6780   115.4820   138.0400   159.7730 
  197.1250   -19.3530     2.1950   404.0620    65.7480    24.6520   121.4820   136.5640   157.7700 
  197.2500   -19.2800     2.2020   403.2950    65.8240    24.6350   129.7720   137.1560   157.7630 
  197.3750   -19.1630     2.2110   403.7800    64.1030    24.6460   136.5480   137.2720   156.8240 
  197.5000   -19.0040     2.2190   405.4420    64.0850    24.6730   136.2140   134.9700   152.6570 
  197.6250   -18.7860     2.2230   407.0300    66.5340    24.6700   115.6660   128.6770   143.5420 
  197.7500   -18.5310     2.2250   407.4170    68.2010    24.5660    93.0120   119.2330   130.9500 
  197.8750   -18.2520     2.2280   406.7140    68.2200    24.3050    70.1120   107.6620   116.4750 
  198.0000   -17.9470     2.2360   405.2880    69.0620    23.9320    49.4720    95.2870   101.8030 
  198.1250   -17.6310     2.2520   404.3080    71.8230    23.5450    34.2140    83.7140    88.7820 
  198.2500   -17.3040     2.2670   405.6640    72.9610    23.1800    28.5570    74.1610    78.4940 
  198.3750   -16.9550     2.2700   410.2660    73.4060    22.8670    31.2160    67.5810    71.8080 
  198.5000   -16.5840     2.2580   417.7140    75.3270    22.7700    35.4930    64.6410    69.2310 
  198.6250   -16.1680     2.2550   419.2940    77.5570    23.0600    41.8590    66.3990    71.7350 
  198.7500   -15.7240     2.2880   400.1900    76.4690    23.4330    53.3580    72.2960    78.6260 
  198.8750   -15.2510     2.3620   353.4550    71.6600    23.5660    68.3780    81.4800    88.9570 
  199.0000   -14.7460     2.4630   290.8290    66.5690    23.3770    77.9490    90.4260    98.3100 
  199.1250   -14.2190     2.5630   243.3470    64.4810    23.1030    73.8280    88.9740    93.0900 
  199.2500   -13.6900     2.6380   223.5270    64.6400    23.0600    65.9470    72.8500    70.9810 
  199.3750   -13.1970     2.6790   219.8490    64.5920    23.2520    55.3710    48.9060    44.4160 
  199.5000   -12.7680     2.6850   220.1380    62.0060    23.4930    37.7490    28.0180    24.4660 
  199.6250   -12.4280     2.6560   233.3950    58.6740    23.6030    16.8050    15.7890    13.6090 
  199.7500   -12.1680     2.6130   273.5570    57.1850    23.6310     6.0320     9.2080     7.7300 
  199.8750   -11.9670     2.5750   335.1220    56.5220    23.5780     3.9190     5.9240     4.7790 
  200.0000   -11.8330     2.5480   392.9810    53.9050    23.4150     3.5420     4.3760     3.5010 
  200.1250   -11.7850     2.5230   420.9340    50.4450    23.3580     3.2230     3.8610     3.2680 
  200.2500   -11.8060     2.4910   424.8460    49.8640    23.5630     3.2160     3.8480     3.4960 
  200.3750   -11.8980     2.4530   418.5780    51.6350    23.8370     3.6280     4.1310     3.9300 
  200.5000   -12.0480     2.4150   414.4540    53.0170    23.9730     4.1190     4.5420     4.3820 
  200.6250   -12.2570     2.3760   417.2430    53.2000    23.9730     4.2180     4.9370     4.7100 
  200.7500   -12.4950     2.3420   423.8390    52.1300    23.9930     4.2570     5.2340     4.9030 
  200.8750   -12.7410     2.3190   429.5800    52.7140    24.0170     4.3430     5.4130     4.9980 
  201.0000   -12.9990     2.3140   432.7960    58.0630    23.9820     4.4890     5.5000     5.0510 
  201.1250   -13.2760     2.3270   437.1690    66.8310    23.9060     4.6540     5.5370     5.1390 
  201.2500   -13.5720     2.3460   444.9700    74.0440    23.8680     4.7430     5.5730     5.3080 
  201.3750   -13.8820     2.3610   454.1130    79.1150    23.9240     4.8130     5.6280     5.5820 
  201.5000   -14.1820     2.3680   458.3270    83.8600    24.0310     5.0850     5.7120     5.9610 
  201.6250   -14.4790     2.3740   449.4370    87.8880    24.0540     5.7160     5.8340     6.4430 
  201.7500   -14.7970     2.3820   430.4790    90.8910    24.0360     6.5800     6.0090     7.0200 
  201.8750   -15.1540     2.3870   410.2210    93.1120    24.0340     7.3590     6.2770     7.7420 
  202.0000   -15.5620     2.3850   398.0510    94.9370    24.1250     7.7430     6.6870     8.6900 
  202.1250   -16.0100     2.3790   394.6920    97.4980    24.2960     8.0630     7.3210     9.9990 
  202.2500   -16.4710     2.3830   389.1230    98.7710    24.3530     9.5690     8.1650    11.6150 
  202.3750   -16.9410     2.3990   376.6220    97.4840    24.2090    12.0460     9.1630    13.3970 
  202.5000   -17.3990     2.4140   363.4350    93.3870    23.9270    14.0410    10.1710    15.0600 
  202.6250   -17.8270     2.4130   363.0200    88.2290    23.6290    13.6140    10.9160    16.1270 
  202.7500   -18.2030     2.4000   374.7680    84.7180    23.2590    12.9240    11.2540    16.4540 
  202.8750   -18.4960     2.3900   390.4220    84.6150    22.7690    12.0520    11.1680    16.1150 
  203.0000   -18.6970     2.3940   401.7670    89.8880    22.3010    11.2850    10.7680    15.3800 
  203.1250   -18.7810     2.4050   405.5020    94.9810    22.1840    10.5440    10.2290    14.5870 
  203.2500   -18.7750     2.4120   406.3650    96.5470    22.5130    10.1660     9.7380    13.9640 
  203.3750   -18.7000     2.4120   408.1700    95.8360    23.1070     9.9370     9.3830    13.5850 
  203.5000   -18.5650     2.4060   412.1760    94.8070    23.6190     9.6100     9.2060    13.4780 
  203.6250   -18.3890     2.4050   415.4400    95.2780    23.8170     9.7370     9.2440    13.6800 
  203.7500   -18.1940     2.4050   415.5780    96.7110    23.8450    10.4490     9.4280    14.0860 
  203.8750   -17.9930     2.4010   412.7910    98.5470    23.8600    11.3820     9.6920    14.5870 
  204.0000   -17.8050     2.3940   408.8090    98.9150    23.9170    12.4470     9.9620    15.0420 
  204.1250   -17.6100     2.3890   406.1690    97.5950    23.9830    13.1100    10.1430    15.2740 
  204.2500   -17.3750     2.3860   405.1420    96.8980    24.0130    12.6550    10.1870    15.2390 
  204.3750   -17.0680     2.3770   405.1170    96.6220    24.0120    11.0260    10.0810    14.9700 
  204.5000   -16.6700     2.3650   406.1120    96.1440    24.0150     9.8460     9.8550    14.5440 
  204.6250   -16.1900     2.3630   410.0740    96.1900    24.0620     9.2020     9.5220    13.9610 
  204.7500   -15.6640     2.3790   417.3620    96.5290    24.1330     8.7950     9.0840    13.1950 
  204.8750   -15.1230     2.4040   426.1220    97.8060    24.2020     8.2900     8.5370    12.2440 
  205.0000   -14.5790     2.4190   434.4400   100.6280    24.2170     7.9020     7.9250    11.2130 
  205.1250   -14.0230     2.4170   440.9780   102.9380    24.1390     7.4730     7.3680    10.3480 
  205.2500   -13.4550     2.4130   444.5680   102.4920    24.0240     6.8450     6.9810     9.8390 
  205.3750   -12.8620     2.4190   442.9620    99.3590    23.9210     6.6040     6.8280     9.7580 
  205.5000   -12.2530     2.4300   434.1380    95.6060    23.8440     7.0480     6.8940    10.0070 
  205.6250   -11.6480     2.4370   419.8750    92.7850    23.7860     7.5630     7.0670    10.2920 
  205.7500   -11.0740     2.4340   408.2460    90.6260    23.7380     7.8520     7.1380    10.2520 
  205.8750   -10.5620     2.4170   404.8190    89.2650    23.7410     7.8000     6.9710     9.7190 
  206.0000   -10.1120     2.3860   409.9780    86.3820    23.9790     7.0200     6.5530     8.7890 
  206.1250    -9.7300     2.3570   418.5250    80.2760    24.6090     5.7910     6.0060     7.7890 
  206.2500    -9.3980     2.3410   423.1640    71.9090    25.0600     4.9900     5.5200     7.0220 
  206.3750    -9.1110     2.3380   421.4810    63.2870    24.8590     4.8060     5.1770     6.5730 
  206.5000    -8.8810     2.3410   415.5380    56.0160    24.1820     4.7940     4.9900     6.4020 
  206.6250    -8.7070     2.3460   409.5160    52.1170    23.7120     4.7680     4.9490     6.4340 
  206.7500    -8.5890     2.3520   405.5470    53.2610    23.6080     4.6970     4.9870     6.5480 
  206.8750    -8.5380     2.3530   403.5190    58.5040    23.5970     4.7160     5.0780     6.7140 
