~V
VERS. 2.00: Ver 2.00
~W
STRT.M 55.0000:
STOP.M 272.0000:
STEP.M 0.1250:
NULL. -999.2500:
UWI. DF3078:
~C
DEPT.M :
GR.API :
CALI.CM :
RXO.OHMM :
RI. :
RML.OHMM :
DEN.GM/CC :
SP.MV :
~A
# ...
  100.0000    74.1700    23.7400     9.2770     6.9800     9.5910  -999.2500   -13.8530 
  100.1250    77.9290    23.7740     9.2610     7.0430     9.6300  -999.2500   -14.0560 
  100.2500    75.7230    23.7940     9.2950     7.0770     9.6310  -999.2500   -14.2470 
  100.3750    70.3270    23.7520     9.3660     7.0880     9.6110  -999.2500   -14.4100 
  100.5000    67.8140    23.7320     9.4360     7.0870     9.5880  -999.2500   -14.5180 
  100.6250    70.2220    23.7200     9.4740     7.0930     9.5880  -999.2500   -14.6000 
  100.7500    73.7000    23.6980     9.5160     7.1160     9.6190  -999.2500   -14.6370 
  100.8750    77.2630    23.6540     9.5700     7.1580     9.6750  -999.2500   -14.6740 
  101.0000    78.6920    23.5900     9.6390     7.2080     9.7390  -999.2500   -14.7250 
  101.1250    75.3460    23.5470     9.7360     7.2570     9.7850  -999.2500   -14.7880 
  101.2500    70.1250    23.5110     9.8600     7.3010     9.8040  -999.2500   -14.8600 
  101.3750    67.2840    23.5040     9.9540     7.3380     9.8010  -999.2500   -14.9400 
  101.5000    69.2850    23.5820    10.0010     7.3640     9.7880  -999.2500   -15.0430 
  101.6250    71.0390    23.7290    10.0480     7.3720     9.7770  -999.2500   -15.1280 
  101.7500    68.9040    23.8290    10.0680     7.3620     9.7690  -999.2500   -15.1830 
  101.8750    67.4590    23.8130    10.0060     7.3390     9.7610  -999.2500   -15.1970 
  102.0000    69.9710    23.6470     9.9210     7.3060     9.7500  -999.2500   -15.1280 
  102.1250    72.4940    23.4960     9.9740     7.2710     9.7300  -999.2500   -14.9980 
  102.2500    71.7090    23.3200    10.1210     7.2320     9.6830  -999.2500   -14.8170 
  102.3750    70.4960    23.1540    10.2430     7.1790     9.5920  -999.2500   -14.5940 
  102.5000    69.9140    23.1170    10.2340     7.1010     9.4450  -999.2500   -14.3290 
  102.6250    68.5150    23.2540    10.0670     7.0030     9.2930  -999.2500   -14.0210 
  102.7500    67.7640    23.3310     9.9110     6.9660     9.2950  -999.2500   -13.7310 
  102.8750    68.3050    23.4450     9.8950     7.1060     9.6240  -999.2500   -13.4320 
  103.0000    69.6970    23.5630    10.0920     7.5280    10.3850  -999.2500   -13.1580 
  103.1250    70.8180    23.5790    11.3510     8.3030    11.5610  -999.2500   -12.9060 
  103.2500    70.3070    23.5880    15.2960     9.2390    12.7680  -999.2500   -12.6640 
  103.3750    68.5940    23.7710    20.5090    10.0310    13.5250  -999.2500   -12.4210 
  103.5000    67.2730    23.9830    20.8560    10.2950    13.3800  -999.2500   -12.1510 
  103.6250    68.1070    23.8930    15.2110     9.7410    12.1680  -999.2500   -11.8460 
  103.7500    71.0380    23.6160    10.3290     8.7590    10.6050  -999.2500   -11.4950 
  103.8750    74.7230    23.4490     8.4300     7.7390     9.2520  -999.2500   -11.1080 
  104.0000    78.6690    23.4720     7.7220     6.9530     8.4190  -999.2500   -10.6990 
  104.1250    81.4110    23.5830     7.6520     6.5590     8.2140  -999.2500   -10.2720 
  104.2500    82.3120    23.6470     7.8760     6.4470     8.3510  -999.2500    -9.8480 
  104.3750    82.3890    23.6520     8.1740     6.4840     8.5760  -999.2500    -9.4380 
  104.5000    82.9480    23.6250     8.4670     6.5110     8.6520  -999.2500    -9.0590 
  104.6250    83.7910    23.6300     8.5450     6.3780     8.4020  -999.2500    -8.7460 
  104.7500    85.8020    23.6760     8.2170     6.0980     7.9340  -999.2500    -8.4940 
  104.8750    91.3440    23.7240     7.4730     5.7610     7.4380  -999.2500    -8.3480 
  105.0000    96.2460    23.7740     6.7910     5.4910     7.1240  -999.2500    -8.2960 
  105.1250    90.8270    23.8220     6.8250     5.4300     7.1900  -999.2500    -8.3940 
  105.2500    79.0720    23.8230     7.3960     5.5900     7.5820  -999.2500    -8.5950 
  105.3750    70.1470    23.7730     8.0820     5.9420     8.1890  -999.2500    -8.8560 
  105.5000    67.3900    23.7350     8.4420     6.3960     8.8340  -999.2500    -9.1680 
  105.6250    68.1490    23.7580     8.4960     6.8000     9.2760  -999.2500    -9.4810 
  105.7500    69.9060    23.7160     8.5010     7.0430     9.4380  -999.2500    -9.7750 
  105.8750    70.9820    23.5930     8.3220     7.1080     9.3620  -999.2500    -9.9870 
  106.0000    70.2840    23.5110     7.8480     7.0390     9.1580  -999.2500   -10.1080 
  106.1250    71.4640    23.5280     7.4140     6.9040     8.9370  -999.2500   -10.1310 
  106.2500    76.8830    23.6020     7.3760     6.7640     8.7510  -999.2500   -10.0740 
  106.3750    81.4090    23.6630     7.4690     6.6340     8.5900  -999.2500    -9.9900 
  106.5000    80.4260    23.6970     7.3470     6.5090     8.4420  -999.2500    -9.9190 
  106.6250    76.3950    23.6920     7.0390     6.4020     8.3230  -999.2500    -9.8990 
  106.7500    76.7590    23.6650     6.9490     6.3270     8.2560  -999.2500    -9.9400 
  106.8750    80.9390    23.6330     7.1200     6.2920     8.2440  -999.2500   -10.0360 
  107.0000    84.2300    23.5950     7.2830     6.2910     8.2640  -999.2500   -10.1810 
  107.1250    85.2610    23.5920     7.6630     6.3000     8.2620  -999.2500   -10.3150 
  107.2500    83.6190    23.5840     7.9720     6.2850     8.2020  -999.2500   -10.4370 
  107.3750    79.7780    23.5780     7.9190     6.2350     8.0930  -999.2500   -10.5320 
  107.5000    77.0720    23.5990     7.5320     6.1650     7.9810  -999.2500   -10.5960 
  107.6250    77.4430    23.6090     7.2230     6.1110     7.9260  -999.2500   -10.6580 
  107.7500    79.4550    23.5610     7.2580     6.0910     7.9400  -999.2500   -10.6930 
  107.8750    79.3900    23.4750     7.5640     6.1150     8.0140  -999.2500   -10.7330 
  108.0000    75.2560    23.4440     7.9080     6.1740     8.1210  -999.2500   -10.7600 
  108.1250    70.0310    23.5580     7.9160     6.2420     8.2150  -999.2500   -10.8150 
  108.2500    68.8550    23.6220     7.8010     6.2940     8.2740  -999.2500   -10.9100 
  108.3750    71.3650    23.5510     7.7820     6.3280     8.3080  -999.2500   -11.0270 
  108.5000    73.2630    23.4310     7.9130     6.3580     8.3420  -999.2500   -11.1750 
  108.6250    72.9440    23.4230     8.1250     6.4080     8.4130  -999.2500   -11.3020 
  108.7500    72.7980    23.4620     8.2300     6.4850     8.5350  -999.2500   -11.4160 
  108.8750    71.0720    23.4050     8.1970     6.5820     8.7030  -999.2500   -11.5210 
  109.0000    68.1920    23.2100     8.0640     6.6880     8.8990  -999.2500   -11.6140 
  109.1250    67.3710    23.0910     8.0120     6.7800     9.0820  -999.2500   -11.6980 
  109.2500    68.5370    23.0240     8.1920     6.8390     9.2040  -999.2500   -11.7820 
  109.3750    68.8910    22.9390     8.4900     6.8440     9.2200  -999.2500   -11.8610 
  109.5000    67.7190    22.8480     8.6510     6.7790     9.1030  -999.2500   -11.9130 
  109.6250    68.9980    22.7790     8.5380     6.6350     8.8570  -999.2500   -11.9360 
  109.7500    73.0460    22.7140     8.3570     6.4630     8.5890  -999.2500   -11.9470 
  109.8750    75.0170    22.6660     8.1840     6.3330     8.4260  -999.2500   -11.9300 
  110.0000    71.3930    22.6960     8.1080     6.3290     8.5110  -999.2500   -11.9250 
  110.1250    65.3790    22.8220     8.2250     6.5860     9.0300  -999.2500   -11.9150 
  110.2500    62.1480    23.0210     8.4940     7.1260     9.9390  -999.2500   -11.8920 
  110.3750    60.5470    23.3220     8.7730     7.9280    11.1190  -999.2500   -11.8650 
  110.5000    59.1770    23.6590     9.0800     8.8640    12.2990  -999.2500   -11.8520 
  110.6250    63.5470    23.8400     9.4610     9.6060    12.9650  -999.2500   -11.8660 
  110.7500    69.4420    23.8600     9.7260     9.8600    12.8640  -999.2500   -11.8830 
  110.8750    71.3160    23.8210     9.7820     9.5560    12.0640  -999.2500   -11.9270 
  111.0000    70.2450    23.8040     9.6660     8.8800    10.9390  -999.2500   -11.9680 
  111.1250    70.6070    23.8220     9.4650     8.1540     9.9760  -999.2500   -12.0320 
