~V
VERS. 2.00: Ver 2.00
~W
STRT.M 57.0000:
STOP.M 272.0000:
STEP.M 0.1250:
NULL. -999.2500:
UWI. DF3050:
~C
DEPT.M :
SP.MV :
GR.API :
CALI.CM :
RXO.OHMM :
RI. :
RML.OHMM :
DEN.GM/CC :
~A
# ...
  259.5000   -10.8980    62.9930    24.1170     5.0240     4.5780     5.4180     2.3140 
  259.6250   -11.0040    63.6210    24.3250     5.1140     4.6040     5.3770     2.3140 
  259.7500   -11.0150    65.1970    24.3200     5.0610     4.6440     5.3550     2.3130 
  259.8750   -11.0380    66.6260    24.2120     4.9170     4.6880     5.3530     2.3150 
  260.0000   -11.1070    66.6260    24.0230     4.7790     4.7320     5.3850     2.3140 
  260.1250   -11.2120    66.6260    23.9560     4.7660     4.7780     5.4500     2.3000 
  260.2500   -11.3120    66.6260    24.1270     4.8670     4.8240     5.5340     2.2850 
  260.3750   -11.3950    66.6260    24.1550     4.9310     4.8650     5.6590     2.2820 
  260.5000   -11.4730    66.6260    24.1570     4.8520     4.8970     5.8110     2.2920 
  260.6250   -11.4920    66.6260    23.9650     4.7540     4.9200     5.9320     2.3030 
  260.7500   -11.5080    66.6260    24.0240     4.8410     4.9260     5.9660     2.3080 
  260.8750   -11.5080    66.6260    23.9870     5.4270     4.9110     5.9320     2.3130 
  261.0000   -11.4800    66.6260    24.1350     6.1580     4.8830     5.8540     2.3180 
  261.1250   -11.4010    66.6260    24.2640     6.2880     4.8510     5.7400     2.3160 
  261.2500   -11.3860    66.6260    24.5930     5.8910     4.8280     5.6290     2.3080 
  261.3750   -11.3580    66.6260    24.5680     5.7340     4.8400     5.5720     2.3050 
  261.5000   -11.3310    66.6260    24.3340     5.8580     4.8930     5.5790     2.3060 
  261.6250   -11.3030    66.6260    24.2660     5.8830     4.9730     5.6610     2.3020 
  261.7500   -11.3570    66.6260    24.2030     5.5940     5.0660     5.8230     2.2920 
  261.8750   -11.4040    66.6260    24.2200     5.1980     5.1580     5.9970     2.2870 
  262.0000   -11.4510    66.6260    24.2740     4.7420     5.2300     6.1520     2.2920 
  262.1250   -11.4980    66.6260    24.2830     4.3290     5.2680     6.2250     2.3030 
  262.2500   -11.5060    66.6260    24.1960     4.1850     5.2650     6.2120     2.3140 
  262.3750   -11.4830    66.6260    24.0650     4.4380     5.2230     6.0990     2.3220 
  262.5000   -11.4650    66.6260    24.0070     4.9770     5.1470     5.9250     2.3270 
  262.6250   -11.4380    66.6260    24.0600     5.4950     5.0540     5.7300     2.3300 
  262.7500   -11.3730    66.6260    24.2380     5.5960     4.9500     5.5350     2.3330 
  262.8750   -11.2880    66.6260    24.3030     5.5260     4.8400     5.3680     2.3380 
  263.0000   -11.1800    66.6260    24.2500     5.4500     4.7360     5.2400     2.3430 
  263.1250   -11.0900    66.6260    24.1220     5.5650     4.6530     5.1690     2.3430 
  263.2500   -11.0550    66.6260    24.0730     5.7180     4.5930     5.1430     2.3370 
  263.3750   -11.0810    66.6260    23.9940     5.7320     4.5610     5.1280     2.3280 
  263.5000   -11.0700    66.6260    23.9220     5.7670     4.5510     5.1120     2.3190 
  263.6250   -11.0840    66.6260    24.0140     5.7740     4.5610     5.1120     2.3090 
  263.7500   -11.0620    66.6260    24.0670     5.4390     4.5700     5.1000     2.2960 
  263.8750   -11.0900    66.6260    24.1330     5.0030     4.5750     5.0920     2.2820 
  264.0000   -11.1170    66.6260    24.0870     4.8350     4.5740     5.0840     2.2710 
  264.1250   -11.1510    66.6260    24.0780     4.8680     4.5710     5.0860     2.2710 
  264.2500   -11.1250    66.6260    24.1000     5.0260     4.5700     5.0700     2.2800 
  264.3750   -11.0840    66.6260    24.1060     5.1330     4.5690     5.0670     2.2960 
  264.5000   -11.0610    66.6260    24.2440     5.0560     4.5700     5.1040     2.3110 
  264.6250   -11.0170    66.6260    24.1190     4.8540     4.5760     5.1550     2.3200 
  264.7500   -11.0670    66.6260    24.0920     4.6650     4.5830     5.1940     2.3260 
  264.8750   -11.0990    66.6260    24.0830     4.4250     4.5940     5.2240     2.3330 
  265.0000   -11.1400    66.6260    24.0810     4.2360     4.6000     5.2240     2.3390 
  265.1250   -11.1570    66.6260    24.0730     4.4040     4.6050     5.2240     2.3440 
  265.2500   -11.2010    66.6260    24.0790     4.7700     4.6090     5.1870     2.3460 
  265.3750   -11.2360    66.6260    24.0830     5.2910     4.6110     5.1290     2.3490 
  265.5000   -11.2990    66.6260    24.0840     6.2090     4.6140     5.0540     2.3520 
  265.6250   -11.3580    66.6260    24.0870     6.9560     4.6110     4.9920     2.3510 
  265.7500   -11.3860    66.6260    24.1470     7.0130     4.6060     4.9790     2.3410 
  265.8750   -11.3830    66.6260    24.1230     6.4150     4.6060     4.9790     2.3220 
  266.0000   -11.3840    66.6260    24.1080     5.9370     4.6060     4.9790     2.3060 
  266.1250   -11.3760    66.6260    24.2730     5.6380     4.6060     4.9790     2.3060 
  266.2500   -11.4040    66.6260    24.1160     5.4000     4.6060     4.9790     2.3190 
  266.3750   -11.4680    66.6260    24.0030     5.2100     4.6060     4.9790     2.3350 
  266.5000   -11.5370    66.6260    24.0530     5.2020     4.6060     4.9790     2.3440 
  266.6250   -11.6020    66.6260    24.0590     5.6350     4.6060     4.9790     2.3420 
  266.7500   -11.6690    66.6260    24.0160     6.0190     4.6060     4.9790     2.3310 
  266.8750   -11.7060    66.6260    23.9120     6.3320     4.6060     4.9790     2.3190 
  267.0000   -11.7790    66.6260    23.8840     6.0380     4.6060     4.9790     2.3120 
  267.1250   -11.8520    66.6260    23.7950     5.2320     4.6060     4.9790     2.3100 
  267.2500   -11.9190    66.6260    23.8170     4.8240     4.6060     4.9790     2.3060 
  267.3750   -11.9190    66.6260    23.9550     4.5440     4.6060     4.9790     2.2980 
  267.5000   -11.9190    66.6260    23.9780     4.2150     4.6060     4.9790     2.2900 
  267.6250   -11.9190    66.6260    24.0580     4.0810     4.6060     4.9790     2.2880 
  267.7500  -999.2500    66.6260    23.8750     4.1570     4.6060     4.9790     2.2890 
  267.8750  -999.2500    66.6260    23.8170     4.1810     4.6060     4.9790     2.2890 
  268.0000  -999.2500    66.6260    23.7850     4.0390     4.6060     4.9790     2.2890 
  268.1250  -999.2500    66.6260    23.7680     3.9350     4.6060     4.9790     2.2870 
  268.2500  -999.2500    66.6260    23.5180     3.9270     4.6060     4.9790     2.2790 
  268.3750  -999.2500    66.6260    23.4630     3.8990     4.6060     4.9790     2.2580 
  268.5000  -999.2500    66.6260    23.4270     3.7960     4.6060     4.9790     2.2200 
  268.6250  -999.2500    66.6260    23.2480     3.7940     4.6060     4.9790     2.1770 
  268.7500  -999.2500    66.6260    22.9630     4.0370     4.6060     4.9790     2.1430 
  268.8750  -999.2500    66.6260    22.6350     4.0760     4.6060     4.9790     2.1160 
  269.0000  -999.2500    66.6260    21.8120     3.8920     4.6060     4.9790     2.0780 
  269.1250  -999.2500    66.6260    20.6000     3.8610     4.6060     4.9790     2.0190 
  269.2500  -999.2500    66.6260    19.0570     3.7440     4.6060     4.9790     1.9610 
  269.3750  -999.2500    66.6260    17.6840     3.6350     4.6060     4.9790     1.9220 
  269.5000  -999.2500    66.6260    16.7590     3.6800     4.6060     4.9790     1.9070 
  269.6250  -999.2500    66.6260    16.2710     3.7970     4.6060     4.9790     1.9030 
  269.7500  -999.2500    66.6260    15.7050     3.9160     4.6060     4.9790     1.8980 
  269.8750  -999.2500    66.6260    15.5270     4.0120     4.6060     4.9790     1.8930 
  270.0000  -999.2500    66.6260    15.4890     4.0550     4.6060     4.9790     1.8880 
  270.1250  -999.2500    66.6260    15.4300     4.0640     4.6060     4.9790     1.8840 
  270.2500  -999.2500    66.6260    15.3940     4.0690     4.6060     4.9790     1.8830 
  270.3750  -999.2500    66.6260    15.4450     4.0700     4.6060     4.9790     1.8890 
  270.5000  -999.2500    66.6260    15.4550     4.0700     4.6060     4.9790     1.9010 
  270.6250  -999.2500    66.6260    15.3870     4.0700     4.6060     4.9790     1.9120 
