~V
VERS. 2.00: Ver 2.00
~W
STRT.M 67.0000:
STOP.M 264.0000:
STEP.M 0.1250:
NULL. -999.2500:
UWI. DF3014:
~C
DEPT.M :
GR.API :
CALI.CM :
RXO.OHMM :
RI. :
RML.OHMM :
DEN.GM/CC :
SP.MV :
~A
# ...
  190.7500    58.0890    24.3990   135.0670   147.1690   159.4540     2.2260   -33.5710 
  190.8750    59.3730    24.2870   106.1920   137.6240   148.0110     2.2320   -33.4160 
  191.0000    59.0840    24.1920    86.6210   125.7280   134.8550     2.2360   -33.2510 
  191.1250    60.3270    24.1440    82.5070   115.1410   123.6720     2.2400   -33.0150 
  191.2500    61.8120    24.0640    81.2130   106.2000   114.2250     2.2480   -32.7360 
  191.3750    61.9880    24.1120    80.2030    98.1920   105.7450     2.2570   -32.4430 
  191.5000    63.2080    24.1180    77.9960    90.8400    97.9230     2.2620   -32.1960 
  191.6250    67.8750    23.9000    68.9430    83.9690    90.5670     2.2630   -32.0100 
  191.7500    70.1780    23.8620    57.4150    77.3310    83.5520     2.2680   -31.8570 
  191.8750    67.2770    23.8590    50.5700    71.4070    77.4540     2.2790   -31.7320 
  192.0000    63.2640    23.8350    48.6330    66.5930    72.6160     2.2950   -31.5610 
  192.1250    65.1020    23.6730    49.7050    63.2930    69.5200     2.3050   -31.3370 
  192.2500    70.3750    23.6060    49.2290    61.3030    67.9960     2.3070   -31.1190 
  192.3750    72.3960    23.5630    46.1600    60.7500    68.2160     2.3040   -30.9610 
  192.5000    69.8540    23.5390    39.7060    61.7120    70.1200     2.3010   -30.8360 
  192.6250    66.2430    23.4330    41.3840    64.1870    73.7190     2.2970   -30.7000 
  192.7500    63.5970    23.3290    51.8960    67.0360    77.6400     2.2890   -30.5760 
  192.8750    62.1060    23.2680    61.6850    68.8440    80.3810     2.2820   -30.4340 
  193.0000    61.4490    23.2460    63.0890    68.4860    80.5660     2.2930   -30.2740 
  193.1250    61.0430    23.2360    53.9350    64.8790    76.7420     2.3290   -30.1070 
  193.2500    60.5040    23.3800    52.2430    58.9580    70.0120     2.3660   -29.9480 
  193.3750    61.1520    23.6760    53.4870    52.0420    61.9710     2.3890   -29.7990 
  193.5000    64.7280    23.5830    46.8090    45.5410    54.4550     2.3950   -29.6400 
  193.6250    67.9690    23.5380    31.8820    40.9150    49.4280     2.3930   -29.5390 
  193.7500    68.1060    23.5190    28.2330    38.5220    47.2090     2.3880   -29.4330 
  193.8750    65.7780    23.5410    27.9300    38.4360    47.7740     2.3870   -29.2570 
  194.0000    61.9140    23.5520    29.7770    39.8740    50.0370     2.4030   -29.0600 
  194.1250    59.3830    23.5380    34.9120    41.3610    52.1730     2.4470   -28.8800 
  194.2500    61.0230    23.5860    40.8980    41.3670    52.4070     2.5050   -28.7160 
  194.3750    65.5510    23.5760    45.4160    39.1740    49.8000     2.5670   -28.5650 
  194.5000    68.6380    23.5530    49.3290    34.7450    44.2560     2.6200   -28.4380 
  194.6250    69.4210    23.4750    47.2750    28.9560    36.8130     2.6480   -28.2660 
  194.7500    71.9640    23.2450    37.0860    23.5230    29.7620     2.6510   -28.0020 
  194.8750    76.8840    23.0340    21.9220    19.1870    24.2160     2.6440   -27.7150 
  195.0000    79.8280    22.9640    11.4220    16.1520    20.5200     2.6370   -27.4260 
  195.1250    77.6410    23.0150    12.3360    14.5640    18.7630     2.6280   -27.1920 
  195.2500    72.8780    23.1220    13.5520    13.8130    18.0610     2.6090   -27.0200 
  195.3750    71.9320    23.2140    13.4600    13.6000    17.9500     2.5800   -26.8980 
  195.5000    78.3490    23.2300    13.5450    13.7150    18.1330     2.5540   -26.7670 
  195.6250    85.1740    23.2370    14.5640    13.9580    18.3140     2.5560   -26.5580 
  195.7500    85.4150    23.3320    14.2080    14.0080    18.1580     2.5810   -26.3430 
  195.8750    81.2840    23.5400    12.6850    13.7210    17.6070     2.6010   -26.1420 
  196.0000    79.2790    23.6550    11.3080    13.1510    16.7990     2.5960   -25.9430 
  196.1250    82.9580    23.8010    10.8090    12.3360    15.7790     2.5710   -25.7630 
  196.2500    87.6000    23.7390     9.9490    11.3540    14.5590     2.5460   -25.5990 
  196.3750    90.2660    23.6940     8.9900    10.2980    13.2580     2.5260   -25.4290 
  196.5000    90.3080    23.9020     8.1980     9.2860    12.0100     2.5110   -25.2360 
  196.6250    90.8260    23.9550     7.9020     8.4710    11.0070     2.5110   -25.0450 
  196.7500    93.3180    23.9640     7.6960     7.9210    10.4040     2.5240   -24.8420 
  196.8750    95.9240    23.9460     7.1280     7.7120    10.3290     2.5420   -24.6210 
  197.0000    97.2880    23.9360     6.5120     7.8960    10.8690     2.5600   -24.4310 
  197.1250    95.3280    23.8710     6.5890     8.5380    12.0470     2.5870   -24.2760 
  197.2500    91.4070    23.7850     7.7490     9.4680    13.4750     2.6170   -24.1380 
  197.3750    88.2110    23.6620     9.4670    10.4710    14.7990     2.6340   -23.9620 
  197.5000    87.9040    23.6450    11.3540    11.2340    15.6160     2.6300   -23.7840 
  197.6250    90.1420    23.6740    12.4400    11.3300    15.4430     2.6150   -23.5890 
  197.7500    92.0990    23.6500    12.1640    10.7540    14.3770     2.6010   -23.3840 
  197.8750    91.3400    23.6350    10.4860     9.6960    12.7100     2.5830   -23.2300 
  198.0000    85.1870    23.6020     8.2780     8.4860    10.9020     2.5620   -23.1310 
  198.1250    73.4040    23.4100     6.1400     7.4540     9.4430     2.5500   -23.0520 
  198.2500    64.9090    23.1490     4.8780     6.7190     8.5150     2.5510   -22.9450 
  198.3750    62.0680    23.0450     4.4520     6.3130     8.0740     2.5550   -22.8160 
  198.5000    61.7810    23.0490     4.3730     6.2000     8.0020     2.5470   -22.6740 
  198.6250    60.8660    23.1840     4.4460     6.3410     8.2170     2.5270   -22.5590 
  198.7500    60.8240    23.2100     4.5360     6.6300     8.5540     2.5070   -22.5270 
  198.8750    63.1320    23.2240     4.5370     7.0090     8.9500     2.4930   -22.5500 
  199.0000    65.3260    23.2100     4.4640     7.3930     9.3110     2.4850   -22.5940 
  199.1250    67.0870    23.1720     4.6170     7.6890     9.5490     2.4840   -22.6170 
  199.2500    70.5210    23.4640     4.9350     7.8410     9.6240     2.4880   -22.6430 
  199.3750    74.9490    23.7250     5.2850     7.7830     9.4950     2.4910   -22.6740 
  199.5000    78.1310    23.4270     5.6650     7.4940     9.1480     2.4840   -22.7040 
  199.6250    78.4350    23.4450     6.0710     6.9960     8.5690     2.4670   -22.7480 
  199.7500    78.5380    23.5300     6.0350     6.4190     7.9060     2.4520   -22.8380 
  199.8750    80.4320    23.5020     5.6180     5.8580     7.2780     2.4440   -22.9740 
  200.0000    84.6310    23.2920     5.1690     5.4230     6.8220     2.4410   -23.1250 
  200.1250    89.5020    23.1680     4.7220     5.2210     6.6990     2.4420   -23.2730 
  200.2500    90.3160    23.2260     4.7620     5.2850     6.9570     2.4420   -23.3900 
  200.3750    85.6630    23.2170     5.1700     5.6930     7.7110     2.4370   -23.4850 
  200.5000    79.4400    23.1460     6.1970     6.5360     9.1180     2.4270   -23.6310 
  200.6250    76.4820    23.1240     7.7520     8.0160    11.4630     2.4140   -23.8710 
  200.7500    75.4930    23.1800    10.1250    10.1760    14.7030     2.4010   -24.1190 
  200.8750    73.6970    23.2620    12.9900    13.0710    18.7300     2.3870   -24.3450 
  201.0000    70.4170    23.5010    18.5610    16.6260    23.2580     2.3720   -24.5160 
  201.1250    65.9030    23.5800    26.7060    20.4790    27.6310     2.3560   -24.6210 
  201.2500    62.4340    23.5740    31.7530    23.7990    31.0150     2.3360   -24.6930 
  201.3750    62.5730    23.5340    31.6540    25.8520    32.7840     2.3130   -24.7960 
  201.5000    66.3010    23.4800    29.0790    26.3680    32.7800     2.2930   -24.9120 
  201.6250    69.5020    23.5810    25.7620    25.4340    31.1330     2.2800   -25.0130 
  201.7500    69.9050    23.8040    23.6280    23.8490    28.8330     2.2730   -25.1080 
  201.8750    68.1540    23.8200    22.3680    22.1810    26.6200     2.2740   -25.1430 
