~V
VERS. 2.00: Ver 2.00
~W
STRT.M 64.0000:
STOP.M 262.0000:
STEP.M 0.1250:
NULL. -999.2500:
UWI. DF3019:
~C
DEPT.M :
GR.API :
RML.OHMM :
RI. :
RXO.OHMM :
CALI.CM :
DEN.GM/CC :
SP.MV :
~A
# ...
  120.2500    79.8930     9.0950     7.5430     8.2200    23.4790     2.2320   -27.5550 
  120.3750    80.6140     9.1590     7.5150     8.1630    23.4980     2.2510   -27.8820 
  120.5000    80.6620     9.4540     7.6500     8.3020    23.5020     2.2800   -28.2390 
  120.6250    81.5580     9.9330     7.9340     8.6660    23.5020     2.3070   -28.4200 
  120.7500    81.5000    10.4520     8.2810     9.0590    23.5020     2.3210   -28.6420 
  120.8750    78.2830    10.9180     8.6250     9.3360    23.5020     2.3150   -28.9360 
  121.0000    74.3590    11.2620     8.9130     9.5290    23.5030     2.2900   -29.2030 
  121.1250    74.2620    11.4220     9.0860     9.6300    23.5150     2.2560   -29.4000 
  121.2500    75.1200    11.4240     9.1440     9.6590    23.5410     2.2270   -29.6150 
  121.3750    73.2690    11.2970     9.0980     9.6230    23.5660     2.2100   -29.8390 
  121.5000    71.2850    11.0820     8.9750     9.4970    23.5760     2.2070   -29.9900 
  121.6250    72.1010    10.8350     8.8150     9.3060    23.5790     2.2180   -30.1510 
  121.7500    72.5380    10.6210     8.6710     9.0880    23.5800     2.2310   -30.2250 
  121.8750    71.5890    10.4690     8.5710     8.9830    23.5860     2.2390   -30.2180 
  122.0000    70.9050    10.3780     8.5190     9.1080    23.5940     2.2350   -30.2410 
  122.1250    71.5870    10.3250     8.4980     9.5880    23.6030     2.2150   -30.2360 
  122.2500    73.0830    10.2680     8.4720    10.5380    23.5710     2.1880   -30.2830 
  122.3750    75.1440    10.1890     8.4220    11.7830    23.5130     2.1630   -30.2760 
  122.5000    74.9710    10.0930     8.3520    11.6690    23.4490     2.1500   -30.2280 
  122.6250    70.5580    10.0100     8.2890     9.9360    23.4210     2.1530   -30.2410 
  122.7500    68.1660     9.9620     8.2610     9.0360    23.4150     2.1650   -30.1800 
  122.8750    70.3070     9.9560     8.2810     8.7990    23.4150     2.1770   -30.1780 
  123.0000    72.6930     9.9830     8.3410     8.8250    23.4150     2.1820   -30.1490 
  123.1250    72.3510    10.0280     8.4230     8.9100    23.4130     2.1770   -30.0510 
  123.2500    73.6930    10.0800     8.5020     8.9650    23.3980     2.1700   -29.9600 
  123.3750    77.0380    10.1430     8.5720     8.9310    23.3540     2.1670   -29.9100 
  123.5000    78.9980    10.2240     8.6380     8.8840    23.2650     2.1730   -29.8380 
  123.6250    78.0490    10.3190     8.6990     8.8020    23.1130     2.1870   -29.6620 
  123.7500    76.7000    10.3940     8.7370     8.6270    22.9960     2.2000   -29.5540 
  123.8750    75.6730    10.4020     8.7210     8.3870    22.9850     2.2080   -29.3770 
  124.0000    76.0800    10.3050     8.6200     8.3000    23.0830     2.2070   -29.1970 
  124.1250    77.7820    10.0780     8.4160     8.4210    23.2500     2.2020   -29.1180 
  124.2500    79.5300     9.7920     8.1640     8.4830    23.4580     2.1970   -28.9890 
  124.3750    81.6890     9.5220     7.9210     8.3890    23.6140     2.1950   -28.8380 
  124.5000    83.4790     9.3350     7.7410     8.1680    23.7090     2.1960   -28.7150 
  124.6250    81.2830     9.2860     7.6720     8.0210    23.7200     2.2000   -28.7220 
  124.7500    75.2830     9.3480     7.7030     8.2490    23.6830     2.2030   -28.7000 
  124.8750    71.1910     9.4950     7.8180     8.6480    23.6320     2.2050   -28.7500 
  125.0000    72.7520     9.6990     7.9980     8.6960    23.6280     2.2060   -28.7820 
  125.1250    76.9350     9.9380     8.2230     8.5290    23.6760     2.2080   -28.7380 
  125.2500    79.3830    10.1730     8.4560     8.4340    23.7280     2.2110   -28.7910 
  125.3750    79.2980    10.3680     8.6600     8.4120    23.7360     2.2150   -28.7990 
  125.5000    76.7650    10.4870     8.8030     8.7230    23.6970     2.2160   -28.8000 
  125.6250    72.2420    10.4800     8.8380     9.0030    23.5950     2.2100   -28.7650 
  125.7500    67.6580    10.3570     8.7690     8.8740    23.4880     2.1990   -28.6720 
  125.8750    65.4290    10.1370     8.6090     8.5210    23.3960     2.1850   -28.5700 
  126.0000    65.7530     9.8610     8.3900     8.1990    23.3270     2.1750   -28.4890 
  126.1250    67.5300     9.5870     8.1610     8.0960    23.3090     2.1730   -28.3910 
  126.2500    68.5320     9.3770     7.9740     8.1470    23.3090     2.1780   -28.2630 
  126.3750    69.0070     9.2750     7.8650     8.2770    23.3100     2.1860   -28.1170 
  126.5000    71.0240     9.3080     7.8600     8.3460    23.3200     2.1920   -27.9150 
  126.6250    76.1230     9.4990     7.9780     8.3860    23.3550     2.1900   -27.7090 
  126.7500    79.0020     9.7870     8.1760     8.6410    23.3950     2.1860   -27.5460 
  126.8750    76.8190    10.0880     8.3960     9.0110    23.4190     2.1890   -27.2960 
  127.0000    72.1660    10.2820     8.5500     9.2980    23.4430     2.2090   -27.0360 
  127.1250    71.8240    10.1910     8.5090     9.3920    23.4910     2.2460   -26.7590 
  127.2500    75.7530     9.8070     8.2500     9.3770    23.5440     2.2860   -26.3710 
  127.3750    79.0550     9.2290     7.8270     9.2040    23.6030     2.3090   -26.0290 
  127.5000    80.4800     8.6800     7.3880     8.7860    23.6640     2.3110   -25.7000 
  127.6250    80.5110     8.5340     7.2020     8.1460    23.7210     2.3020   -25.2940 
  127.7500    78.7100     8.9580     7.4250     7.8590    23.7570     2.3070   -24.8880 
  127.8750    76.7560     9.9570     8.1200     8.4080    23.8020     2.3400   -24.5190 
  128.0000    76.5760    11.3340     9.2060    10.0140    23.8750     2.3970   -24.1620 
  128.1250    78.8130    12.6600    10.4360    13.1980    24.0100     2.4490   -23.8150 
  128.2500    79.0290    13.5180    11.4360    16.9210    24.1550     2.4600   -23.5540 
  128.3750    75.4280    13.7630    11.9900    19.7890    24.1630     2.4180   -23.2520 
  128.5000    70.0750    13.5770    12.1200    20.3780    24.0100     2.3390   -22.9770 
  128.6250    67.5020    13.4340    12.1040    17.6390    23.7080     2.2680   -22.7070 
  128.7500    70.4920    13.6380    12.2370    13.8960    23.5260     2.2470   -22.3030 
  128.8750    76.7260    14.0550    12.4930    12.2940    23.5320     2.2880   -21.8670 
  129.0000    79.4000    14.2680    12.6060    13.2970    23.7570     2.3740   -21.2750 
  129.1250    76.5560    13.6710    12.1050    15.5450    24.0880     2.4590   -20.7210 
  129.2500    74.6140    12.2440    10.9090    18.2750    24.3380     2.4980   -20.1790 
  129.3750    78.5620    10.3070     9.2250    17.3060    24.4740     2.4840   -19.6190 
  129.5000    86.1760     8.4290     7.4760    10.8090    24.4930     2.4390   -19.1630 
  129.6250    92.7610     7.1310     6.1300     6.6540    24.3820     2.3890   -18.8060 
  129.7500    97.4320     6.4180     5.2800     5.1050    24.2460     2.3500   -18.5860 
  129.8750    99.1510     6.1440     4.8910     4.7070    24.2040     2.3240   -18.5260 
  130.0000    98.6910     6.2690     4.8690     4.6790    24.3080     2.3070   -18.7290 
  130.1250    98.8260     6.6450     5.1340     5.0370    24.4030     2.2980   -18.9980 
  130.2500    99.1730     7.0940     5.5280     5.4430    24.4230     2.2910   -19.3430 
  130.3750    97.4260     7.5320     5.9660     5.7640    24.3660     2.2820   -19.8160 
  130.5000    93.9030     7.8950     6.3740     5.9640    24.2270     2.2670   -20.2430 
  130.6250    92.2600     8.1150     6.6690     6.2350    24.0210     2.2510   -20.6490 
  130.7500    92.9730     8.1920     6.8300     6.6300    23.9260     2.2420   -21.0060 
  130.8750    93.0660     8.1420     6.8490     6.8630    23.9150     2.2430   -21.2810 
  131.0000    91.0830     8.0000     6.7460     6.6340    23.9220     2.2520   -21.3970 
  131.1250    88.1030     7.8190     6.5540     6.2400    23.9220     2.2660   -21.4390 
  131.2500    87.4840     7.6640     6.3430     6.1960    23.9220     2.2800   -21.4490 
  131.3750    90.4110     7.5660     6.1570     6.0920    23.9220     2.2950   -21.3570 
