~V
VERS. 2.00: Ver 2.00
~W
STRT.M 62.0000:
STOP.M 265.0000:
STEP.M 0.1250:
NULL. -999.2500:
UWI. DF3071:
~C
DEPT.M :
GR.API :
CALI.CM :
RXO.OHMM :
RI. :
RML.OHMM :
DEN.GM/CC :
SP.MV :
~A
# ...
  253.2500    68.4790    25.3750    15.6430    11.2400    13.2000     2.4420   -10.5680 
  253.3750    70.3000    25.3470    12.3980    11.0640    13.0140     2.4380   -10.3900 
  253.5000    72.0370    25.2930    11.5650    10.8470    12.7910     2.4410   -10.2600 
  253.6250    71.7670    25.2730    12.0500    10.6310    12.5620     2.4540   -10.1710 
  253.7500    70.4910    25.2610    12.4870    10.4410    12.3610     2.4660   -10.0750 
  253.8750    69.4670    25.2350    12.7630    10.2880    12.2140     2.4680   -10.0250 
  254.0000    68.5010    25.2050    13.2310    10.1740    12.1460     2.4610   -10.0050 
  254.1250    66.7650    25.1800    13.4650    10.1050    12.1810     2.4530    -9.9540 
  254.2500    64.7100    25.1700    12.6420    10.0790    12.2970     2.4500    -9.8570 
  254.3750    64.0100    25.1820    11.0330    10.0940    12.4600     2.4490    -9.7650 
  254.5000    66.7680    25.2140     9.9720    10.1380    12.6230     2.4480    -9.7160 
  254.6250    71.8350    25.2190     9.5220    10.1770    12.7260     2.4460    -9.6620 
  254.7500    75.0310    25.1540     9.4190    10.1780    12.7470     2.4530    -9.6390 
  254.8750    75.7030    25.0460     9.5300    10.1140    12.6740     2.4670    -9.6050 
  255.0000    75.7030    24.9840     9.4750     9.9750    12.5100     2.4840    -9.5550 
  255.1250    75.7030    25.0330     8.9110     9.7730    12.2720     2.4970    -9.5500 
  255.2500    75.7030    25.1330     8.5200     9.5740    12.0350     2.4980    -9.5890 
  255.3750    75.7030    25.2520     8.5690     9.4280    11.8790     2.4830    -9.6720 
  255.5000    75.7030    25.4200     8.6920     9.3620    11.8650     2.4510    -9.7160 
  255.6250    75.7030    25.6150     8.6150     9.3900    12.0150     2.4120    -9.7750 
  255.7500    75.7030    25.7030     8.9150     9.4600    12.2270     2.3930    -9.8800 
  255.8750    75.7030    25.6090    10.7230     9.5160    12.4050     2.4100   -10.0160 
  256.0000    75.7030    25.3430    14.3990     9.5160    12.4840     2.4480   -10.1520 
  256.1250    75.7030    25.0000    17.6080     9.4440    12.4380     2.4790   -10.2440 
  256.2500    75.7030    24.7090    17.9180     9.3310    12.3350     2.4890   -10.2830 
  256.3750    75.7030    24.5410    17.2390     9.2150    12.2270     2.4950   -10.2810 
  256.5000    75.7030    24.5120    18.7470     9.1330    12.1590     2.5020   -10.2660 
  256.6250    75.7030    24.5800    20.3710     9.1180    12.1670     2.5040   -10.2230 
  256.7500    75.7030    24.6800    20.3130     9.1650    12.2450     2.4820   -10.1520 
  256.8750    75.7030    24.7810    18.5610     9.2660    12.3750     2.4450   -10.0470 
  257.0000    75.7030    24.8690    15.7360     9.4040    12.5270     2.4200    -9.9840 
  257.1250    75.7030    24.9310    12.7810     9.5320    12.6440     2.4280    -9.9630 
  257.2500    75.7030    24.9600    10.8240     9.5960    12.6790     2.4530    -9.9140 
  257.3750    75.7030    24.9600    10.0190     9.5600    12.6020     2.4620    -9.8450 
  257.5000    75.7030    24.9460     9.5960     9.4090    12.4090     2.4590    -9.7700 
  257.6250    75.7030    24.9530     8.9660     9.1590    12.1270     2.4620    -9.6980 
  257.7500    75.7030    25.0040     8.1990     8.8870    11.8400     2.4720    -9.6050 
  257.8750    75.7030    25.0700     7.5160     8.6550    11.6140     2.4780    -9.5130 
  258.0000    75.7030    25.0990     7.2160     8.5150    11.4960     2.4810    -9.4280 
  258.1250    75.7030    25.1010     7.3680     8.5040    11.5190     2.4870    -9.3400 
  258.2500    75.7030    25.1280     7.5900     8.5900    11.6410     2.4920    -9.2800 
  258.3750    75.7030    25.1730     7.6590     8.7390    11.8230     2.4880    -9.2500 
  258.5000    75.7030    25.1980     7.6170     8.9130    12.0310     2.4720    -9.2460 
  258.6250    75.7030    25.1970     7.5850     9.0860    12.2330     2.4560    -9.2380 
  258.7500    75.7030    25.1960     7.5960     9.2460    12.4120     2.4540    -9.2200 
  258.8750    75.7030    25.1800     7.6250     9.3880    12.5580     2.4670    -9.1760 
  259.0000    75.7030    25.1460     7.6120     9.5010    12.6590     2.4840    -9.1660 
  259.1250    75.7030    25.1230     7.5300     9.5600    12.6900     2.4950    -9.1660 
  259.2500    75.7030    25.1060     7.4130     9.5610    12.6560     2.4960  -999.2500 
  259.3750    75.7030    25.0550     7.3460     9.5050    12.5650     2.4950  -999.2500 
  259.5000    75.7030    24.9680     7.3810     9.4100    12.4400     2.4910  -999.2500 
  259.6250    75.7030    24.9030     7.4550     9.3020    12.3100     2.4810  -999.2500 
  259.7500    75.7030    24.9120     7.5370     9.2040    12.1990     2.4630  -999.2500 
  259.8750    75.7030    24.9760     7.6950     9.1250    12.1110     2.4500  -999.2500 
  260.0000    75.7030    25.0540     7.8050     9.0680    12.0410     2.4460  -999.2500 
  260.1250    75.7030    25.1170     7.7090     9.0330    11.9830     2.4490  -999.2500 
  260.2500    75.7030    25.1570     7.5680     9.0120    11.9360     2.4580  -999.2500 
  260.3750    75.7030    25.1790     7.6240     8.9990    11.9080     2.4680  -999.2500 
  260.5000    75.7030    25.1900     7.8030     8.9910    11.8990     2.4720  -999.2500 
  260.6250    75.7030    25.1920     7.9830     8.9860    11.9020     2.4660  -999.2500 
  260.7500    75.7030    25.1960     8.1120     8.9860    11.9050     2.4590  -999.2500 
  260.8750    75.7030    25.1970     8.2710     8.9860    11.9060     2.4640  -999.2500 
  261.0000    75.7030    25.1970     8.4250     8.9860    11.9050     2.4770  -999.2500 
  261.1250    75.7030    25.2020     8.6300     8.9860    11.9060     2.4890  -999.2500 
  261.2500    75.7030    25.2140     8.7940     8.9860    11.9060     2.4920  -999.2500 
  261.3750    75.7030    25.2220     8.8460     8.9860    11.9060     2.4910  -999.2500 
  261.5000    75.7030    25.2190     8.7200     8.9860    11.9060     2.4890  -999.2500 
  261.6250    75.7030    25.2000     8.5750     8.9860    11.9060     2.4880  -999.2500 
  261.7500    75.7030    25.1530     8.4000     8.9860    11.9060     2.4850  -999.2500 
  261.8750    75.7030    25.0730     8.2070     8.9860    11.9060     2.4830  -999.2500 
  262.0000    75.7030    24.9860     8.0430     8.9860    11.9060     2.4830  -999.2500 
  262.1250    75.7030    24.9380     7.9550     8.9860    11.9060     2.4910  -999.2500 
  262.2500    75.7030    24.9060     7.7820     8.9860    11.9060     2.5140  -999.2500 
  262.3750    75.7030    24.8610     7.6430     8.9860    11.9060     2.5370  -999.2500 
  262.5000    75.7030    24.8130     7.7490     8.9860    11.9060     2.5390  -999.2500 
  262.6250    75.7030    24.7900     8.0510     8.9860    11.9060     2.5180  -999.2500 
  262.7500    75.7030    24.7880     8.3860     8.9860    11.9060     2.4880  -999.2500 
  262.8750    75.7030    24.7970     8.7830     8.9860    11.9060     2.4650  -999.2500 
  263.0000    75.7030    24.8260     9.3140     8.9860    11.9060     2.4470  -999.2500 
  263.1250    75.7030    24.8690     9.8840     8.9860    11.9060     2.4250  -999.2500 
  263.2500    75.7030    24.7540    10.4410     8.9860    11.9060     2.3810  -999.2500 
  263.3750    75.7030    24.1880    10.6730     8.9860    11.9060     2.3010  -999.2500 
  263.5000    75.7030    23.1590    10.4310     8.9860    11.9060     2.2040  -999.2500 
  263.6250    75.7030    22.1990    10.1310     8.9860    11.9060     2.1310  -999.2500 
  263.7500    75.7030    21.7420    10.0020     8.9860    11.9060     2.1170  -999.2500 
  263.8750    75.7030    21.6770     9.9760     8.9860    11.9060     2.1320  -999.2500 
  264.0000    75.7030    21.6960     9.9640     8.9860    11.9060     2.1510  -999.2500 
  264.1250    75.7030    21.6790     9.9510     8.9860    11.9060     2.1640  -999.2500 
  264.2500    75.7030    21.6610     9.9430     8.9860    11.9060     2.1690  -999.2500 
  264.3750    75.7030    21.6500     9.9410     8.9860    11.9060     2.1630  -999.2500 
