~V
VERS. 2.00: Ver 2.00
~W
STRT.M 64.0000:
STOP.M 262.0000:
STEP.M 0.1250:
NULL. -999.2500:
UWI. DF3019:
~C
DEPT.M :
GR.API :
RML.OHMM :
RI. :
RXO.OHMM :
CALI.CM :
DEN.GM/CC :
SP.MV :
~A
# ...
  232.7500    67.5820    27.2910    23.7880    30.7140    24.4890     2.2310   -19.5500 
  232.8750    62.9920    27.9220    24.5900    30.1010    24.5270     2.2380   -19.5380 
  233.0000    60.0560    27.6660    24.4600    27.3800    24.5270     2.2400   -19.6020 
  233.1250    62.0800    27.1820    23.9040    25.0080    24.5210     2.2380   -19.6220 
  233.2500    65.4470    27.0740    23.5260    24.5810    24.5130     2.2340   -19.6630 
  233.3750    66.6200    27.4970    23.5360    24.9770    24.5040     2.2300   -19.6720 
  233.5000    66.0230    28.3360    23.9070    25.6410    24.5000     2.2260   -19.6690 
  233.6250    65.0630    29.3400    24.4850    26.1410    24.4990     2.2240   -19.7060 
  233.7500    63.3300    30.2680    25.0620    26.0430    24.4990     2.2280   -19.6940 
  233.8750    62.2940    31.0870    25.5840    26.5200    24.4890     2.2410   -19.7550 
  234.0000    63.1600    31.9310    26.1300    26.8740    24.4430     2.2700   -19.7490 
  234.1250    65.6210    33.1180    26.9370    26.9940    24.3500     2.3080   -19.8080 
  234.2500    68.1080    34.8010    28.1420    27.0260    24.3210     2.3450   -19.9070 
  234.3750    70.9830    36.9550    29.7610    28.1690    24.3970     2.3690   -19.9750 
  234.5000    73.7820    39.3480    31.6420    30.8640    24.4470     2.3710   -20.1030 
  234.6250    74.9440    41.5910    33.4970    36.4790    24.4100     2.3650   -20.1200 
  234.7500    75.7220    43.4710    35.0950    43.1690    24.3750     2.3600   -20.2000 
  234.8750    76.4170    45.0190    36.3960    45.8810    24.4140     2.3640   -20.2450 
  235.0000    76.6480    46.4020    37.4820    40.8390    24.4890     2.3710   -20.3650 
  235.1250    78.1720    47.6410    38.3760    37.9760    24.5080     2.3690   -20.3870 
  235.2500    81.7060    48.3710    38.8840    37.9470    24.5000     2.3540   -20.4110 
  235.3750    85.9240    47.9630    38.5890    39.9250    24.4560     2.3280   -20.4170 
  235.5000    87.5230    45.9220    37.1210    40.9630    24.3190     2.3000   -20.3710 
  235.6250    86.2570    42.1930    34.3680    38.9230    23.9910     2.2810   -20.4370 
  235.7500    83.4430    38.0600    31.2060    36.2380    23.6150     2.2740   -20.4260 
  235.8750    80.7620    34.6990    28.4820    29.2680    23.3960     2.2760   -20.4430 
  236.0000    79.7030    32.9030    26.8200    22.4310    23.3680     2.2760   -20.4020 
  236.1250    79.0740    32.9660    26.5510    21.5910    23.3140     2.2680   -20.3330 
  236.2500    78.2220    33.9230    27.0720    24.0550    23.3540     2.2490   -20.2830 
  236.3750    77.3920    34.8630    27.7650    28.3330    23.5360     2.2260   -20.2050 
  236.5000    76.8280    34.9720    28.0000    30.3310    23.8260     2.2080   -20.1450 
  236.6250    77.0020    33.6350    27.2130    29.4900    24.0970     2.1970   -20.0110 
  236.7500    76.7900    31.3250    25.6340    28.6790    24.1740     2.1930   -19.8590 
  236.8750    75.8340    28.6710    23.6870    26.6140    24.2050     2.1930   -19.6880 
  237.0000    73.2410    26.3000    21.8510    24.1650    24.2160     2.1930   -19.4310 
  237.1250    71.0820    24.7360    20.5480    22.6150    24.2230     2.1920   -19.2700 
  237.2500    70.5410    23.9320    19.7880    21.4410    24.2330     2.1930   -18.9890 
  237.3750    72.0460    23.7160    19.4650    20.3870    24.1940     2.2010   -18.7680 
  237.5000    74.8600    23.7900    19.3400    19.5830    24.1110     2.2200   -18.5280 
  237.6250    78.3670    23.5530    19.0030    18.9680    24.0420     2.2470   -18.2560 
  237.7500    80.8730    22.5820    18.1460    18.3380    24.0670     2.2810   -18.0430 
  237.8750    80.1300    20.6430    16.6850    17.6500    24.0670     2.3200   -17.7830 
  238.0000    76.2490    18.0470    14.8020    16.7440    23.9400     2.3610   -17.6060 
  238.1250    72.1540    15.1250    12.9210    13.8870    23.6780     2.3990   -17.3670 
  238.2500    69.0020    12.7110    11.4410     9.7660    23.4890     2.4250   -17.2520 
  238.3750    64.6310    11.4140    10.5190     7.2570    23.5300     2.4330   -17.1010 
  238.5000    59.3840    11.0450    10.1150     6.9640    23.7200     2.4200   -17.0140 
  238.6250    56.3160    11.0120    10.0520     8.0320    23.8750     2.3980   -16.9120 
  238.7500    55.9490    10.9260     9.9970     9.9730    23.9390     2.3770   -16.8040 
  238.8750    57.1740    10.5910     9.7580    12.3370    23.9040     2.3610   -16.7920 
  239.0000    60.2760     9.9900     9.2810    11.7800    23.7350     2.3520   -16.7270 
  239.1250    64.8240     9.3020     8.6790     8.2500    23.5260     2.3470   -16.7840 
  239.2500    69.4260     8.7960     8.1830     6.2970    23.4450     2.3460   -16.7520 
  239.3750    71.6180     8.5990     7.9180     5.6910    23.5220     2.3450   -16.7110 
  239.5000    69.1780     8.7000     7.9000     5.6570    23.6370     2.3470   -16.7150 
  239.6250    65.8650     8.9790     8.0500     5.8360    23.6770     2.3500   -16.7080 
  239.7500    65.6140     9.2120     8.1860     6.0150    23.6930     2.3530   -16.7180 
  239.8750    66.9620     9.2610     8.1810     5.9410    23.7100     2.3520   -16.6740 
  240.0000    67.6710     9.0750     7.9810     5.6920    23.7230     2.3420   -16.6480 
  240.1250    69.8850     8.6990     7.6110     5.5120    23.7380     2.3300   -16.5660 
  240.2500    73.3180     8.3180     7.2250     5.5780    23.7780     2.3260   -16.4890 
  240.3750    73.5290     8.0850     6.9490     5.7420    23.8640     2.3410   -16.4680 
  240.5000    71.6720     8.1240     6.8810     5.9540    23.9580     2.3790   -16.3490 
  240.6250    71.5590     8.5380     7.1120     6.1850    24.0010     2.4280   -16.3350 
  240.7500    71.8270     9.2250     7.5780     6.4110    23.9380     2.4720   -16.2940 
  240.8750    71.9880    10.0680     8.2010     6.6200    23.8210     2.5010   -16.2990 
  241.0000    73.0980    10.9210     8.8710     6.8190    23.9680     2.5080   -16.2880 
  241.1250    73.8770    11.6170     9.4510     6.9840    23.9850     2.5060   -16.3090 
  241.2500    72.6560    12.1180     9.8840     7.1600    23.8430     2.5020   -16.2970 
  241.3750    71.9910    12.4560    10.1820     7.3030    23.7520     2.5000   -16.2620 
  241.5000    73.9010    12.7090    10.4010     7.3830    23.9790     2.4980   -16.3060 
  241.6250    77.0750    12.9620    10.6100     7.8230    24.1430     2.4920   -16.2900 
  241.7500    80.0020    13.2510    10.8450     9.0300    24.0350     2.4780   -16.3280 
  241.8750    82.1490    13.5710    11.0990    11.1390    23.7250     2.4560   -16.2830 
  242.0000    81.9900    13.8960    11.3480    14.0380    23.4670     2.4300   -16.3190 
  242.1250    80.3860    14.2010    11.5590    16.6490    23.4100     2.4070   -16.3000 
  242.2500    79.9640    14.4740    11.7290    17.7700    23.4170     2.3920   -16.2940 
  242.3750    79.2100    14.7000    11.8600    18.0120    23.4110     2.3880   -16.3290 
  242.5000    76.0020    14.8570    11.9580    17.5960    23.3980     2.3940   -16.2510 
  242.6250    71.6110    14.9120    12.0170    16.5560    23.4890     2.4020   -16.2350 
  242.7500    69.8990    14.8760    12.0400    15.5030    23.5600     2.4100   -16.1630 
  242.8750    70.3210    14.7710    12.0250    14.6210    23.5690     2.4150   -16.1280 
  243.0000    71.4930    14.6280    11.9780    14.1920    23.6550     2.4160   -16.0930 
  243.1250    73.2680    14.4760    11.9130    14.7470    23.8770     2.4170   -16.0030 
  243.2500    76.1250    14.3320    11.8480    15.5190    24.0250     2.4220   -15.9890 
  243.3750    78.8770    14.1980    11.7890    15.9110    24.0020     2.4320   -15.8880 
  243.5000    80.3020    14.0730    11.7360    16.3800    23.7710     2.4460   -15.8610 
  243.6250    79.6150    13.9560    11.6800    17.1080    23.5950     2.4590   -15.7650 
  243.7500    77.2460    13.8460    11.6140    16.9280    23.6500     2.4670   -15.6440 
  243.8750    76.0060    13.7410    11.5350    15.1540    23.8470     2.4680   -15.5650 
