~V
VERS. 2.00: Ver 2.00
~W
STRT.M 120.0000:
STOP.M 272.0000:
STEP.M 0.1250:
NULL. -999.2500:
UWI. DF3038:
~C
DEPT.M :
GR.API :
RML.OHMM :
RI. :
RXO.OHMM :
CALI.CM :
DEN.GM/CC :
SP.MV :
~A
# ...
  243.7500    80.8080    68.7740    59.0740    46.9740    24.1650     2.4680   -12.8430 
  243.8750    82.1760    73.8300    63.0950    52.3290    24.0310     2.4400   -12.6100 
  244.0000    81.9000    78.6550    67.0610    60.0100    24.1140     2.4110   -12.3490 
  244.1250    80.1100    80.6530    68.9250    63.2670    24.3500     2.3950   -12.0440 
  244.2500    78.6780    78.8910    67.8430    63.0810    24.5060     2.4020   -11.7660 
  244.3750    78.6410    73.8430    64.0380    62.7630    24.5530     2.4250   -11.4560 
  244.5000    81.3470    67.4110    58.8610    58.5400    24.4750     2.4500   -11.2320 
  244.6250    86.0600    62.6000    54.6390    52.9610    24.3330     2.4690   -10.8920 
  244.7500    87.4410    61.2810    53.0700    56.7310    24.2020     2.4790   -10.6250 
  244.8750    84.5230    64.0250    54.7730    66.1910    24.1850     2.4880   -10.3030 
  245.0000    79.9130    69.8920    59.1040    69.4760    24.0590     2.5050   -10.0420 
  245.1250    73.3430    75.8730    63.6910    61.1650    24.1080     2.5330    -9.7430 
  245.2500    65.8390    77.7900    65.1160    56.5080    24.1960     2.5660    -9.4830 
  245.3750    59.6770    72.5550    61.0030    60.1650    24.1070     2.5890    -9.2970 
  245.5000    55.6830    60.1040    51.1300    62.6780    24.0670     2.5930    -9.1570 
  245.6250    53.5600    43.7380    38.1780    40.2470    24.2850     2.5710    -9.0530 
  245.7500    53.9730    29.4860    26.7130    18.3680    24.3440     2.5270    -8.9340 
  245.8750    58.4170    19.0510    18.5330    10.3730    24.2450     2.4790    -8.8430 
  246.0000    65.3870    12.2550    13.5530     8.5810    24.1330     2.4360    -8.7660 
  246.1250    70.5110    10.2910    11.1530     8.5340    24.0910     2.4040    -8.7450 
  246.2500    71.0320     9.4970    10.0560     8.6720    24.0740     2.3860    -8.7480 
  246.3750    67.7050     9.3590     9.7320     8.7110    24.0370     2.3800    -8.7460 
  246.5000    64.6690     9.5220     9.8220     8.6110    23.9700     2.3810    -8.7660 
  246.6250    65.3870     9.7350    10.0580     8.6690    23.9600     2.3860    -8.8030 
  246.7500    65.8740     9.8650    10.2420     8.9060    24.0010     2.3910    -8.8940 
  246.8750    64.0190     9.8910    10.3120     9.0060    24.0800     2.3910    -9.0180 
  247.0000    62.5340     9.8400    10.2770     8.9870    24.1970     2.3870    -9.1690 
  247.1250    65.8080     9.7590    10.1720     8.9000    24.2530     2.3840    -9.3460 
  247.2500    72.3670     9.6880    10.0460     8.9480    24.2740     2.3910    -9.4770 
  247.3750    75.8050     9.6380     9.9130     9.0080    24.2910     2.4090    -9.6360 
  247.5000    71.9780     9.6040     9.7710     9.1220    24.3310     2.4330    -9.7120 
  247.6250    64.1440     9.5780     9.6110     9.4100    24.3510     2.4500    -9.8910 
  247.7500    59.5040     9.5620     9.4460     9.7400    24.3570     2.4490    -9.9810 
  247.8750    59.8270     9.5710     9.3010     9.6200    24.3570     2.4340   -10.0850 
  248.0000    62.6580     9.6220     9.2040     8.9330    24.3420     2.4190   -10.1210 
  248.1250    66.7830     9.7290     9.1850     8.6870    24.2900     2.4120   -10.1850 
  248.2500    69.0600     9.8770     9.2290     9.2480    24.2190     2.4190   -10.2490 
  248.3750    67.5950    10.0460     9.3180     9.9050    24.1930     2.4330   -10.3000 
  248.5000    65.2790    10.2120     9.4270    10.4390    24.2180     2.4470   -10.3170 
  248.6250    65.7740    10.3560     9.5340    10.9040    24.2760     2.4570   -10.2880 
  248.7500    66.8010    10.4820     9.6350    10.8130    24.3240     2.4600   -10.2220 
  248.8750    65.6820    10.6090     9.7390    10.1800    24.3490     2.4600   -10.1290 
  249.0000    63.6360    10.7600     9.8640     9.9180    24.3600     2.4570   -10.0240 
  249.1250    64.7140    10.9530    10.0290    10.3260    24.3780     2.4520    -9.9050 
  249.2500    67.2980    11.1630    10.2140    10.7830    24.3890     2.4470    -9.7520 
  249.3750    69.1420    11.3400    10.3780    11.1010    24.3830     2.4420    -9.5670 
  249.5000    69.8790    11.4230    10.4630    11.8640    24.3810     2.4380    -9.3950 
  249.6250    70.3470    11.3270    10.3840    12.6140    24.3920     2.4340    -9.2100 
  249.7500    70.3110    11.0570    10.1350    12.1470    24.3810     2.4270    -9.0810 
  249.8750    68.5220    10.6480     9.7410    10.2690    24.3930     2.4150    -9.0100 
  250.0000    66.1740    10.1690     9.2670     8.4260    24.4280     2.4010    -8.9980 
  250.1250    66.4770     9.7260     8.8080     7.3530    24.4600     2.3880    -8.9810 
  250.2500    67.5410     9.3970     8.4430     6.8210    24.4710     2.3840    -8.9740 
  250.3750    65.7950     9.2240     8.2170     6.7950    24.4600     2.3890    -8.9850 
  250.5000    60.6670     9.2180     8.1470     7.0210    24.4490     2.4010    -8.9980 
  250.6250    57.1930     9.3790     8.2490     7.2670    24.4370     2.4150    -9.0960 
  250.7500    58.1330     9.6390     8.4710     7.3680    24.4270     2.4260    -9.2000 
  250.8750    61.6530     9.9500     8.7710     7.6620    24.4220     2.4360    -9.2940 
  251.0000    65.1600    10.2620     9.1010     8.5770    24.4200     2.4470    -9.3520 
  251.1250    66.8420    10.5240     9.4050    10.0960    24.3960     2.4610    -9.4120 
  251.2500    66.6350    10.7190     9.6490    11.3720    24.3430     2.4740    -9.4770 
  251.3750    66.3940    10.8470     9.8210    11.5330    24.3000     2.4790    -9.5480 
  251.5000    66.5880    10.9260     9.9310    10.6010    24.2560     2.4720    -9.6330 
  251.6250    66.8530    10.9920    10.0070     9.6290    24.1990     2.4540    -9.6060 
  251.7500    66.3530    11.0880    10.0930     9.5230    24.1230     2.4410    -9.5600 
  251.8750    64.0910    11.2430    10.2190     9.8450    24.1610     2.4450    -9.4640 
  252.0000    60.4790    11.4640    10.3990    10.2860    24.3360     2.4660    -9.3640 
  252.1250    59.1310    11.7320    10.6250    11.3170    24.3250     2.4940    -9.2380 
  252.2500    61.7760    11.9820    10.8500    12.7030    24.2950     2.5050    -9.1140 
  252.3750    65.9140    12.1540    11.0240    12.6170    24.4050     2.4890    -8.9720 
  252.5000    68.1590    12.2070    11.1060    11.8530    24.4750     2.4520    -8.8030 
  252.6250    69.8650    12.1240    11.0740    10.8260    24.4200     2.4090    -8.6840 
  252.7500    70.8140    11.9850    10.9850    10.3550    24.2560     2.3850    -8.5530 
  252.8750    69.1120    11.8670    10.9010    10.1680    24.1480     2.3840    -8.4720 
  253.0000    66.4400    11.8410    10.8870    10.3550    24.3170     2.4020    -8.3570 
  253.1250    66.4270    11.9820    11.0130    10.4040    24.4810     2.4260    -8.2580 
  253.2500    68.7620    12.2770    11.2740    10.3350    24.4840     2.4370    -8.1470 
  253.3750    71.2980    12.7080    11.6610    10.1230    24.4720     2.4330    -8.0580 
  253.5000    72.3310    13.2260    12.1360    10.0130    24.5860     2.4230    -8.0400 
  253.6250    70.5330    13.7370    12.6230    10.0070    24.7010     2.4210    -7.9850 
  253.7500    67.0710    14.1280    13.0240    10.3550    24.6950     2.4340    -7.9450 
  253.8750    64.6140    14.3160    13.2630    10.7790    24.5720     2.4490    -7.8690 
  254.0000    63.5450    14.2730    13.3040    10.9710    24.5490     2.4520    -7.8870 
  254.1250    63.5600    14.0440    13.1620    11.2920    24.5520     2.4390    -7.8580 
  254.2500    64.0510    13.8140    12.9810    11.6160    24.5170     2.4220    -7.9240 
  254.3750    66.1550    13.7290    12.8850    11.6530    24.4720     2.4210    -7.9480 
  254.5000    68.9110    13.8740    12.9630    11.2490    24.3950     2.4460    -7.9610 
  254.6250    69.4040    14.2580    13.2600    11.3640    24.4400     2.4890    -7.9530 
  254.7500    67.3820    14.7220    13.6720    12.0320    24.4310     2.5300    -7.9790 
  254.8750    64.7280    15.1330    14.0930    13.2440    24.4400     2.5460    -8.0420 
