~V
VERS. 2.00: Ver 2.00
~W
STRT.M 60.0000:
STOP.M 270.0000:
STEP.M 0.1250:
NULL. -999.2500:
UWI. DF3075:
~C
DEPT.M :
GR.API :
RML.OHMM :
RI. :
RXO.OHMM :
CALI.CM :
DEN.GM/CC :
SP.MV :
~A
# ...
  217.5000    63.5640    67.1010    60.1950    53.3870    23.5270     2.2200   -20.0980 
  217.6250    62.9120    64.9840    58.5640    51.2030    23.5240     2.2140   -20.0730 
  217.7500    66.4370    63.1720    57.1500    47.8050    23.5350     2.2100   -20.1280 
  217.8750    71.8660    61.6680    55.9550    43.6680    23.5490     2.2080   -20.1920 
  218.0000    75.9900    60.5380    55.0160    40.1730    23.5610     2.2070   -20.3540 
  218.1250    76.5430    59.9200    54.3850    39.1670    23.5590     2.2090   -20.5750 
  218.2500    73.7680    59.6690    53.9550    39.4630    23.5450     2.2140   -20.9120 
  218.3750    68.8950    59.5830    53.5600    40.5130    23.5160     2.2220   -21.3320 
  218.5000    65.9160    59.4580    53.0380    42.4290    23.4810     2.2330   -21.8070 
  218.6250    67.8190    59.1780    52.2830    43.4100    23.4700     2.2420   -22.2770 
  218.7500    70.5230    58.8550    51.4550    42.8840    23.4770     2.2450   -22.6790 
  218.8750    71.2090    58.7680    50.7750    42.3760    23.5020     2.2410   -22.9810 
  219.0000    69.6620    59.3010    50.6010    44.2320    23.5680     2.2360   -23.1370 
  219.1250    68.4700    61.2230    51.5400    47.0720    23.6570     2.2440   -23.1950 
  219.2500    67.8080    64.9250    53.7810    46.7620    23.7850     2.2690   -23.1650 
  219.3750    67.8920    70.3730    57.5140    47.0050    23.9930     2.3000   -23.0610 
  219.5000    70.2230    77.7170    62.7960    51.1350    24.1930     2.3200   -22.8930 
  219.6250    73.3640    85.6700    69.6360    61.2210    24.3010     2.3130   -22.6520 
  219.7500    74.1980    93.9980    77.2860    77.6000    24.3280     2.2890   -22.4050 
  219.8750    71.8600   101.4970    85.1730    95.5280    24.3400     2.2600   -22.1760 
  220.0000    69.1250   107.5270    92.6270   107.0590    24.3410     2.2400   -21.9710 
  220.1250    69.9110   115.7580    98.7320   111.4860    24.3270     2.2300   -21.7230 
  220.2500    72.7370   121.8680   103.1900   115.8130    24.3000     2.2240   -21.3790 
  220.3750    75.3370   125.4560   105.7180   119.4760    24.2630     2.2180   -20.9350 
  220.5000    75.9570   126.2860   106.1230   121.8870    24.2300     2.2140   -20.3910 
  220.6250    73.6250   123.9700   104.0430   123.0470    24.1940     2.2110   -19.8320 
  220.7500    69.9820   119.4080   100.1180   123.0550    24.1740     2.2080   -19.3010 
  220.8750    67.8560   113.1350    94.7470   116.2470    24.1600     2.2050   -18.8160 
  221.0000    68.1630   106.0210    88.5280   102.5430    24.1360     2.2020   -18.4250 
  221.1250    69.3660    99.4280    82.4560    88.4600    24.1860     2.1990   -18.1630 
  221.2500    69.8890    94.4800    77.5290    77.2460    24.2200     2.1970   -18.0680 
  221.3750    72.2500    91.9000    74.5080    70.5110    24.2100     2.1960   -18.1340 
  221.5000    75.4420    92.1470    73.9450    68.0090    24.2010     2.1960   -18.3760 
  221.6250    74.4680    95.9820    76.5230    70.8580    24.2320     2.1970   -18.7590 
  221.7500    71.9800   102.8510    81.6370    75.6770    24.2990     2.1980   -19.1880 
  221.8750    72.2510   112.3210    88.7700    84.6550    24.3780     2.2000   -19.6080 
  222.0000    74.7780   123.5480    97.1440    98.2050    24.4400     2.2050   -19.9450 
  222.1250    76.0360   135.2030   105.7340   109.6790    24.4220     2.2160   -20.2390 
  222.2500    74.7950   145.6910   113.4860   116.1910    24.3710     2.2320   -20.4390 
  222.3750    72.0420   153.9490   119.7430   119.0880    24.3530     2.2420   -20.5520 
  222.5000    68.7750   159.3930   124.1540   120.9230    24.3760     2.2370   -20.5740 
  222.6250    68.7160   161.5710   126.4630   125.0560    24.3820     2.2110   -20.4990 
  222.7500    70.6440   161.5280   127.3430   133.0670    24.2920     2.1680   -20.3630 
  222.8750    71.0870   160.2540   127.4090   143.8690    24.1160     2.1280   -20.2000 
  223.0000    70.2400   158.9150   127.4490   153.2510    23.8810     2.1080   -20.0060 
  223.1250    68.7180   158.5350   128.2530   157.9080    23.7930     2.1180   -19.7570 
  223.2500    65.6810   158.7080   129.7220   155.0310    23.8510     2.1610   -19.4290 
  223.3750    62.3470   157.6600   130.8070   140.2660    23.9840     2.2170   -19.0690 
  223.5000    62.7330   152.2940   129.3760   108.8420    24.1500     2.2760   -18.6390 
  223.6250    66.6610   137.6040   121.4720   101.3340    24.2730     2.3280   -18.1550 
  223.7500    69.9430   114.5600   106.6100   111.1770    24.2730     2.3750   -17.6040 
  223.8750    71.9150    87.2290    86.2560   117.5840    24.1400     2.4260   -17.0260 
  224.0000    72.4910    61.1790    63.8240   109.3840    23.9770     2.4840   -16.4660 
  224.1250    69.2200    41.3360    43.9030    81.8830    23.8180     2.5440   -15.8980 
  224.2500    64.7240    27.3100    28.6350    57.9540    23.6940     2.5900   -15.4160 
  224.3750    63.8600    18.0340    18.2140    26.9680    23.6010     2.6070   -15.0030 
  224.5000    66.8460    12.2470    11.7930    11.0430    23.5350     2.5880   -14.7390 
  224.6250    68.9260     9.2260     8.5770     7.3700    23.5130     2.5390   -14.5950 
  224.7500    69.7660     8.2720     7.0260     6.3860    23.5100     2.4760   -14.6170 
  224.8750    74.5340     8.2190     6.4930     6.0320    23.5140     2.4190   -14.7070 
  225.0000    85.9840     8.7220     6.6010     6.1800    23.5250     2.3760   -14.8360 
  225.1250    98.3250     9.4520     7.1280     7.1950    23.5470     2.3510   -14.9540 
  225.2500   105.2900    10.0660     7.7550     8.6310    23.5790     2.3450   -15.0230 
  225.3750   109.0680    10.3920     8.2820     9.4380    23.6180     2.3510   -15.0180 
  225.5000   112.9770    10.3930     8.5960     9.0890    23.6520     2.3650   -14.9040 
  225.6250   115.8090    10.1490     8.6550     8.0490    23.6610     2.3840   -14.7450 
  225.7500   115.8990     9.8570     8.5830     7.4970    23.6560     2.4050   -14.5100 
  225.8750   112.5440     9.6320     8.4730     7.3400    23.6430     2.4250   -14.2520 
  226.0000   107.8920     9.5280     8.4040     7.4150    23.6280     2.4410   -13.9820 
  226.1250   106.7230     9.5520     8.4180     7.6570    23.5990     2.4510   -13.7640 
  226.2500   110.4090     9.6470     8.4730     8.1860    23.5770     2.4500   -13.5700 
  226.3750   114.7820     9.7680     8.5230     9.2630    23.5670     2.4420   -13.4400 
  226.5000   115.3860     9.8760     8.5220    10.6000    23.5750     2.4320   -13.3590 
  226.6250   115.1060     9.9420     8.4450    11.5990    23.6740     2.4230   -13.3110 
  226.7500   116.9090     9.9700     8.3240    11.1670    23.7270     2.4200   -13.2740 
  226.8750   121.0800    10.0100     8.2020     9.6110    23.7960     2.4180   -13.3010 
  227.0000   127.1280    10.1180     8.1200     8.4650    23.8520     2.4150   -13.3650 
  227.1250   130.5870    10.3350     8.1020     7.7760    23.8520     2.4100   -13.4690 
  227.2500   129.2000    10.5860     8.1180     7.8670    23.7810     2.4050   -13.6100 
  227.3750   123.6860    10.7860     8.1260     8.3810    23.7180     2.4070   -13.7550 
  227.5000   118.1100    10.8700     8.0750     9.3120    23.7070     2.4150   -13.9390 
  227.6250   115.7460    10.8460     7.9740    10.0330    23.7570     2.4270   -14.0840 
  227.7500   114.0840    10.8710     7.9140    10.1800    23.8480     2.4330   -14.2530 
  227.8750   112.1800    11.1610     8.0570     9.2340    23.9730     2.4290   -14.3860 
  228.0000   110.4120    11.9820     8.6230     8.7110    24.1050     2.4160   -14.5500 
  228.1250   108.4790    13.8160    10.0310    10.0100    24.1780     2.3970   -14.7230 
  228.2500   104.6070    16.7530    12.4260    13.5530    24.2220     2.3730   -14.9130 
  228.3750    97.4790    20.8000    15.8620    19.9610    24.2480     2.3470   -15.0970 
  228.5000    88.9920    25.7590    20.1860    29.4710    24.2570     2.3220   -15.2330 
  228.6250    81.8260    31.0710    25.0450    41.8840    24.2660     2.3010   -15.3870 
