~V
VERS. 2.00: Ver 2.00
~W
STRT.M 64.0000:
STOP.M 268.0000:
STEP.M 0.1250:
NULL. -999.2500:
UWI. DF3073:
~C
DEPT.M :
SP.MV :
GR.API :
CALI.CM :
RXO.OHMM :
RI. :
RML.OHMM :
DEN.GM/CC :
~A
# ...
  221.5000   -21.0390    64.9020    25.0820    85.9780   134.5630   173.9110     2.3060 
  221.6250   -20.7900    66.4280    25.1160   104.0470   128.7970   161.7200     2.2870 
  221.7500   -20.5600    63.7140    25.0930    97.5790   115.9010   140.0630     2.2530 
  221.8750   -20.3160    61.5140    24.9140    77.7800    99.8110   116.9820     2.2440 
  222.0000   -20.0320    62.8440    24.6530    64.5190    84.7600    98.6600     2.2790 
  222.1250   -19.7080    65.3550    24.4420    47.5870    74.1700    87.8580     2.3440 
  222.2500   -19.3460    66.7250    24.1930    32.9980    67.0440    81.3000     2.4030 
  222.3750   -18.9480    67.8760    24.2780    26.5590    61.6440    76.1980     2.4300 
  222.5000   -18.5680    69.4030    24.2230    27.0280    55.9670    70.0980     2.4430 
  222.6250   -18.2310    69.2150    24.1330    33.4460    47.6990    60.4800     2.4750 
  222.7500   -17.9370    67.2820    24.2070    52.1960    37.6200    48.3280     2.5470 
  222.8750   -17.6980    64.8970    24.4990    64.7260    27.6510    35.5880     2.6250 
  223.0000   -17.4580    62.4360    24.6280    50.1140    19.3300    24.4680     2.6520 
  223.1250   -17.1960    59.3810    24.4900    21.9830    13.5020    16.6160     2.6110 
  223.2500   -16.9640    56.7810    24.2210     9.1950     9.5960    11.5270     2.5330 
  223.3750   -16.7640    54.4390    24.1600     6.3250     7.2820     8.6540     2.4570 
  223.5000   -16.6040    53.9640    24.1480     5.7100     6.0670     7.3110     2.4040 
  223.6250   -16.5310    62.4370    24.1590     5.6330     5.6910     7.0620     2.3840 
  223.7500   -16.5250    79.0300    24.1330     5.5450     5.8030     7.3280     2.3980 
  223.8750   -16.5920    95.7320    24.1430     5.4480     6.2420     7.8560     2.4300 
  224.0000   -16.7200   104.6760    24.1710     5.6800     6.8520     8.4180     2.4540 
  224.1250   -16.8680   105.2140    24.4310     6.5030     7.4920     8.8600     2.4630 
  224.2500   -16.9950   104.9290    24.6020     7.2590     8.0430     9.1710     2.4610 
  224.3750   -17.0890   106.5140    24.6930     7.5310     8.4250     9.3220     2.4570 
  224.5000   -17.1110   108.6310    24.6530     7.4580     8.5900     9.3410     2.4530 
  224.6250   -17.0720   107.9190    24.6610     7.4080     8.5410     9.2580     2.4500 
  224.7500   -17.0460   106.5980    24.6570     7.4060     8.3580     9.1390     2.4460 
  224.8750   -17.0570   107.0500    24.6670     7.3250     8.1170     9.0310     2.4390 
  225.0000   -17.1100   108.1990    24.7760     7.2350     7.9010     8.9960     2.4310 
  225.1250   -17.2020   107.5370    24.8240     7.1450     7.7580     9.0600     2.4270 
  225.2500   -17.2810   106.4460    24.8630     7.1060     7.6860     9.1790     2.4280 
  225.3750   -17.3380   109.2420    24.8670     7.0280     7.6670     9.3420     2.4270 
  225.5000   -17.4030   116.9570    24.8690     7.0010     7.6850     9.5100     2.4140 
  225.6250   -17.4760   123.1790    24.8670     7.1420     7.7380     9.6450     2.3880 
  225.7500   -17.5280   121.5950    24.8590     7.3020     7.8370     9.7670     2.3630 
  225.8750   -17.5660   114.6380    24.8110     7.4090     7.9720     9.9050     2.3540 
  226.0000   -17.6290   109.4080    24.6660     7.4900     8.1240    10.0640     2.3620 
  226.1250   -17.7530   109.0280    24.6830     7.4460     8.2750    10.2110     2.3820 
  226.2500   -17.9190   109.1000    24.6490     7.5320     8.3990    10.3530     2.4020 
  226.3750   -18.0940   106.5390    24.6390     7.9280     8.4620    10.4560     2.4130 
  226.5000   -18.2630   103.7190    24.6480     8.2310     8.4490    10.4900     2.4160 
  226.6250   -18.4070   104.2200    24.6310     7.9980     8.3340    10.4100     2.4190 
  226.7500   -18.5470   107.1450    24.6220     7.5120     8.1310    10.1890     2.4270 
  226.8750   -18.7010   109.9990    24.6440     7.2250     7.8500     9.7940     2.4360 
  227.0000   -18.8860   112.0850    24.6620     7.3280     7.5280     9.2630     2.4350 
  227.1250   -19.0990   111.6060    24.6570     7.4590     7.2820     8.7750     2.4230 
  227.2500   -19.3190   108.1090    24.6460     7.4500     7.2470     8.5400     2.4090 
  227.3750   -19.5570   104.5710    24.6370     7.4760     7.5700     8.8610     2.4080 
  227.5000   -19.8010   103.3070    24.6320     7.6770     8.5020    10.2540     2.4170 
  227.6250   -20.0640   100.6730    24.6560     8.1750    10.7840    13.6090     2.4280 
  227.7500   -20.3500    93.1980    24.6200    11.0750    14.8960    19.1760     2.4260 
  227.8750   -20.6390    82.8380    24.4580    22.5720    21.5820    27.5550     2.3960 
  228.0000   -20.9230    74.4790    24.3390    40.0850    31.8670    39.4740     2.3450 
  228.1250   -21.2080    69.7070    24.2070    53.8990    47.2200    55.9980     2.2910 
  228.2500   -21.5060    66.0500    24.2160    64.4580    66.1240    75.6310     2.2550 
  228.3750   -21.7980    64.7710    24.2170    71.8650    85.9730    96.4650     2.2510 
  228.5000   -22.0640    65.9670    24.2980    71.8620   103.2760   115.4800     2.2560 
  228.6250   -22.2600    66.2550    24.0570    68.7760   115.4940   129.5890     2.2540 
  228.7500   -22.3990    64.9710    23.7230    66.4600   124.9430   140.9150     2.2430 
  228.8750   -22.4740    64.8640    23.4540    69.4600   133.2610   151.5850     2.2330 
  229.0000   -22.4910    66.9480    23.4940    75.9940   140.3720   161.3250     2.2290 
  229.1250   -22.4650    68.5060    23.4700    76.3550   144.9350   168.2580     2.2280 
  229.2500   -22.4300    68.2650    23.6330    74.1880   146.3010   170.5070     2.2240 
  229.3750   -22.4170    66.3630    23.8890    70.8590   143.4740   166.5520     2.2180 
  229.5000   -22.4600    64.1580    24.3530    67.3010   137.1180   157.7630     2.2170 
  229.6250   -22.5230    64.2390    24.7160    64.0670   128.8350   147.0690     2.2200 
  229.7500   -22.5430    66.2570    24.8150    62.5230   121.0160   137.5050     2.2240 
  229.8750   -22.4940    67.6010    24.8340    61.8930   115.0480   130.4290     2.2290 
  230.0000   -22.3750    66.5090    24.7290    59.2990   111.6880   126.3840     2.2400 
  230.1250   -22.2060    65.6460    24.6760    52.8810   110.4670   124.6680     2.2520 
  230.2500   -22.0330    65.4530    24.7020    56.8070   110.5080   124.2750     2.2600 
  230.3750   -21.8750    64.8210    24.6620    66.0060   111.1110   124.1500     2.2610 
  230.5000   -21.7400    63.8810    24.6810    68.9930   110.1320   121.5580     2.2560 
  230.6250   -21.6320    66.0520    24.6300    65.8120   105.0630   113.9150     2.2470 
  230.7500   -21.5150    68.7270    24.6300    60.4120    97.1300   103.2500     2.2370 
  230.8750   -21.3970    68.3680    24.5570    51.5990    87.9380    91.8580     2.2320 
  231.0000   -21.2830    68.6660    24.4210    45.5060    78.8000    81.3930     2.2330 
  231.1250   -21.1790    73.3350    24.3800    43.8730    71.7020    73.9670     2.2370 
  231.2500   -21.1030    75.9660    24.2360    39.5910    67.3340    69.7410     2.2430 
  231.3750   -21.0500    72.2380    23.9560    31.1770    65.4170    68.1810     2.2450 
  231.5000   -20.9900    66.9130    23.7340    28.5850    65.4250    68.4220     2.2470 
  231.6250   -20.9580    67.7550    23.6370    34.4300    66.0250    68.8100     2.2540 
  231.7500   -20.9470    70.7220    23.6410    37.8680    65.5930    67.8000     2.2700 
  231.8750   -20.9370    71.6280    23.8410    35.5920    63.7490    65.2350     2.2840 
  232.0000   -20.9290    71.2170    24.1790    33.8980    61.0740    61.8810     2.2900 
  232.1250   -20.8860    70.6690    24.7680    35.3660    58.0260    58.3570     2.2970 
  232.2500   -20.8100    70.2580    25.0620    34.5680    54.9460    55.0450     2.3070 
  232.3750   -20.7200    69.9460    25.1130    29.3810    52.1920    52.2720     2.3150 
  232.5000   -20.6360    70.5910    25.1180    25.5970    49.7040    49.8970     2.3130 
  232.6250   -20.5770    70.2080    25.1180    37.3210    46.8790    47.2610     2.3020 
