~V
VERS. 2.00: Ver 2.00
~W
STRT.M 120.0000:
STOP.M 278.0000:
STEP.M 0.1250:
NULL. -999.2500:
UWI. DF3047:
~C
DEPT.M :
DEN.GM/CC :
SP.MV :
AC.US/MT :
GR.API :
CALI.CM :
RXO.OHMM :
RI. :
RML.OHMM :
~A
# ...
  180.0000     2.2060   -22.5680   391.4030    59.2060    25.9980    72.3580   141.9740   155.7010 
  180.1250     2.2200   -22.6580   390.2590    62.3480    26.0150    78.6990   139.2300   150.8600 
  180.2500     2.2360   -22.7190   384.8250    66.1270    26.1570    81.3160   130.1970   139.4730 
  180.3750     2.2530   -22.7670   377.6260    68.1640    26.3720    79.8890   119.5040   127.4910 
  180.5000     2.2660   -22.8130   371.6670    67.9470    26.5410    79.4400   111.2250   119.2450 
  180.6250     2.2670   -22.8480   368.7820    65.4190    26.5400    84.8680   108.5420   117.6430 
  180.7500     2.2570   -22.8770   367.8480    64.7430    26.4310    92.2420   111.1230   121.7420 
  180.8750     2.2430   -22.9120   368.2440    66.8990    26.3320    96.8920   117.8900   130.1070 
  181.0000     2.2300   -22.9410   370.3730    67.5240    26.3460    97.9860   126.2330   139.6970 
  181.1250     2.2210   -22.9660   375.1710    62.8070    26.5090    98.0330   131.6050   145.1510 
  181.2500     2.2180   -23.0050   381.0330    56.8860    26.6990    96.3130   131.5600   143.9310 
  181.3750     2.2270   -23.0410   385.3120    54.8520    26.8200    87.9320   126.5160   137.0210 
  181.5000     2.2440   -23.0650   385.7140    57.5480    26.8130    74.1840   119.0330   127.8640 
  181.6250     2.2570   -23.0930   381.8540    61.1480    26.7160    67.8300   112.7300   120.8080 
  181.7500     2.2590   -23.1440   377.4150    63.1990    26.6680    76.9860   109.8410   117.9700 
  181.8750     2.2540   -23.1950   375.3940    62.9900    26.7020    96.0190   111.0280   119.7950 
  182.0000     2.2480   -23.2370   376.9280    62.6130    26.7660   110.0260   115.7870   125.5440 
  182.1250     2.2460   -23.2850   380.8120    64.2440    26.8010   110.0900   122.7710   133.6520 
  182.2500     2.2420   -23.3450   384.0030    64.9680    26.8070   107.9450   129.6840   141.6080 
  182.3750     2.2370   -23.4170   384.9620    63.5400    26.8030   110.5990   135.4820   148.3520 
  182.5000     2.2350   -23.4900   383.6680    62.2310    26.8070   115.4860   140.1880   154.0760 
  182.6250     2.2400   -23.5520   381.2960    62.2020    26.8160   117.0620   144.5200   159.7620 
  182.7500     2.2490   -23.5720   379.3960    62.0700    26.8170   114.7820   149.0000   165.8630 
  182.8750     2.2540   -23.5650   378.4950    61.0310    26.8010   110.4320   153.4580   172.0150 
  183.0000     2.2500   -23.5630   378.5940    60.2570    26.7390   104.4630   157.3350   177.3640 
  183.1250     2.2360   -23.5400   379.7490    59.9800    26.5720    96.2520   159.1000   179.8490 
  183.2500     2.2150   -23.4620   381.7550    59.1460    26.3620    88.8630   157.6100   178.1040 
  183.3750     2.1940   -23.3570   384.3770    57.9650    26.2650    85.9160   152.4280   171.8180 
  183.5000     2.1830   -23.2590   387.1330    56.3560    26.3720    85.4220   144.5990   162.5490 
  183.6250     2.1890   -23.1400   389.3060    56.5420    26.5650    78.9380   136.1240   152.7810 
  183.7500     2.2060   -23.0030   390.2740    59.7060    26.6360    68.2940   128.2320   143.6860 
  183.8750     2.2250   -22.8710   389.1800    63.4850    26.5890    64.1450   120.4440   134.5350 
  184.0000     2.2460   -22.7360   385.1140    66.8090    26.5780    72.9870   111.7320   124.1820 
  184.1250     2.2710   -22.5930   377.3770    68.5400    26.6680    81.2210   101.6090   112.3490 
  184.2500     2.2910   -22.4740   368.1440    69.4590    26.7150    73.4360    91.4370   100.8140 
  184.3750     2.3000   -22.3580   360.4090    71.0260    26.6590    57.6580    82.8260    91.4490 
  184.5000     2.2990   -22.2200   357.3250    72.8090    26.5570    51.9560    77.0850    85.6400 
  184.6250     2.2880   -22.0860   361.3930    74.9870    26.5210    62.8950    75.4630    84.6130 
  184.7500     2.2720   -21.9730   369.8080    75.6150    26.5620    77.1500    77.1680    87.2240 
  184.8750     2.2590   -21.8570   379.1710    74.0560    26.6220    84.7620    81.3210    92.2810 
  185.0000     2.2550   -21.7260   386.4600    71.1850    26.6160    85.8180    86.5220    98.0370 
  185.1250     2.2600   -21.6040   389.7470    68.3700    26.4820    87.9070    90.8490   102.2360 
  185.2500     2.2670   -21.4920   390.1000    66.6670    26.2920    93.3350    93.2920   104.0810 
  185.3750     2.2680   -21.3840   388.5600    65.7400    26.1260    99.2810    93.9140   103.9820 
  185.5000     2.2640   -21.2790   386.0870    67.3410    26.0250   102.1800    93.4180   102.9210 
  185.6250     2.2560   -21.1810   383.5120    73.5290    26.0040    99.3720    92.5560   101.8040 
  185.7500     2.2500   -21.0960   381.4660    78.8210    26.0360    95.1850    91.8850   101.1310 
  185.8750     2.2500   -21.0140   380.1790    79.5480    26.1320    93.5320    91.4940   100.8450 
  186.0000     2.2530   -20.9280   379.5460    75.1950    26.3120    94.6450    90.7350    99.9610 
  186.1250     2.2540   -20.8240   379.3470    70.1310    26.5320    96.0720    87.6750    96.0490 
  186.2500     2.2530   -20.6990   379.4540    68.3120    26.6560    96.9080    81.6610    88.6240 
  186.3750     2.2550   -20.5610   379.9350    68.0840    26.6030    94.3610    73.5390    79.0600 
  186.5000     2.2580   -20.4150   380.5730    68.0320    26.4380    82.9600    65.2510    69.8360 
  186.6250     2.2580   -20.2700   380.6580    68.9230    26.3140    66.0020    59.1970    63.6730 
  186.7500     2.2530   -20.1340   379.9050    70.5940    26.3030    58.6410    56.1810    61.1100 
  186.8750     2.2510   -20.0110   378.5940    71.6990    26.3730    66.2030    56.1620    61.8260 
  187.0000     2.2570   -19.8960   377.2040    72.7590    26.4670    78.4380    58.3230    64.7000 
  187.1250     2.2690   -19.7930   375.8230    75.3310    26.5520    78.7610    61.3610    68.0530 
  187.2500     2.2810   -19.7090   374.1810    75.8450    26.6210    71.5640    63.8130    70.3290 
  187.3750     2.2890   -19.6520   372.4410    73.1400    26.6790    67.4840    65.1980    71.2380 
  187.5000     2.2920   -19.6360   371.4110    70.5910    26.7190    67.9960    66.0210    71.7000 
  187.6250     2.2890   -19.6380   372.2850    72.5570    26.6860    71.0840    67.7170    73.5360 
  187.7500     2.2770   -19.6250   374.7240    74.6880    26.5520    78.7030    70.9130    77.2120 
  187.8750     2.2560   -19.6150   377.8330    73.7940    26.3320    90.5010    75.0290    81.8410 
  188.0000     2.2380   -19.6250   380.6830    70.8270    26.1130   101.1530    78.6650    85.7070 
  188.1250     2.2370   -19.6500   382.7000    69.1480    25.9910   103.9890    79.8200    86.5230 
  188.2500     2.2480   -19.6850   384.1410    69.6490    25.9820    99.4220    78.1280    84.1480 
  188.3750     2.2570   -19.7260   385.3000    70.2040    26.1160    90.7040    74.2860    79.6870 
  188.5000     2.2640   -19.7570   386.3190    69.5390    26.3630    83.1580    69.8630    75.0700 
  188.6250     2.2760   -19.7980   387.0110    68.8960    26.5920    80.4780    66.7000    72.2850 
  188.7500     2.2910   -19.8590   387.1780    69.7900    26.7220    78.9150    65.3320    71.6040 
  188.8750     2.3010   -19.9290   386.7860    71.3530    26.8010    77.1180    65.6040    72.6680 
  189.0000     2.3000   -20.0060   386.0270    71.4840    26.8770    77.1780    66.9250    74.6780 
  189.1250     2.2900   -20.0880   385.2150    70.9370    26.9150    80.1300    68.4090    76.5400 
  189.2500     2.2830   -20.1650   384.4440    70.2780    26.9050    81.9200    69.4210    77.6750 
  189.3750     2.2810   -20.2440   383.4570    68.9890    26.8700    80.6050    70.0120    78.2970 
  189.5000     2.2830   -20.3420   382.0260    67.5290    26.8260    77.7370    70.6230    79.0450 
  189.6250     2.2750   -20.4280   380.3790    66.5440    26.7920    77.4590    72.0020    80.8610 
  189.7500     2.2580   -20.5110   379.0890    64.8060    26.7680    81.8530    74.5030    84.0850 
  189.8750     2.2400   -20.5850   378.1900    62.3140    26.7290    89.4800    78.1520    88.6540 
