~V
VERS. 2.00: Ver 2.00
~W
STRT.M 67.0000:
STOP.M 279.0000:
STEP.M 0.1250:
NULL. -999.2500:
UWI. DF3057:
~C
DEPT.M :
GR.API :
CALI.CM :
RXO.OHMM :
RI. :
RML.OHMM :
DEN.GM/CC :
SP.MV :
~A
# ...
  123.2500   104.5430    24.2020     6.9550     5.9360     7.9180     2.4520   -25.8980 
  123.3750   100.6120    24.2030     7.5740     6.0430     8.0450     2.4640   -25.9650 
  123.5000    95.0410    24.2010     7.5080     6.0980     8.0890     2.4460   -26.0410 
  123.6250    93.3610    24.2080     6.8440     6.0840     8.0240     2.4030   -26.1000 
  123.7500    94.0610    24.1950     6.6240     6.0360     7.9240     2.3600   -26.1570 
  123.8750    94.1910    24.0330     6.6220     5.9790     7.8240     2.3350   -26.2180 
  124.0000    94.2070    24.4200     6.5830     5.9280     7.7680     2.3310   -26.2670 
  124.1250    96.2730    24.7210     6.6810     5.9180     7.7980     2.3310   -26.3200 
  124.2500    96.8150    24.8380     6.7560     5.9330     7.8580     2.3230   -26.4190 
  124.3750    95.2740    24.8220     6.6960     5.9430     7.8740     2.3140   -26.5640 
  124.5000    94.9640    24.8040     6.5270     5.9290     7.8280     2.3070   -26.7000 
  124.6250    97.8000    24.7210     6.5400     5.8800     7.7280     2.3010   -26.7100 
  124.7500    99.7600    24.5330     6.7250     5.8140     7.5800     2.2940   -26.6840 
  124.8750    99.3440    24.1770     7.0230     5.7700     7.4720     2.2950   -26.7130 
  125.0000    98.3150    24.0120     6.8510     5.8020     7.4810     2.3100   -26.8340 
  125.1250    97.6120    24.3530     6.5630     5.9340     7.6390     2.3340   -27.0430 
  125.2500    96.1840    24.6030     6.6130     6.1470     7.9230     2.3540   -27.1970 
  125.3750    91.9830    24.5570     6.9360     6.4190     8.2680     2.3660   -27.2140 
  125.5000    86.6700    24.6540     7.2910     6.6790     8.5560     2.3760   -27.1210 
  125.6250    86.6200    24.6780     8.1800     6.8280     8.6450     2.3830   -27.0690 
  125.7500    91.6270    24.8020     9.6240     6.8180     8.5260     2.3810   -27.0720 
  125.8750    96.8390    24.7680     9.6280     6.6360     8.1930     2.3680   -27.1250 
  126.0000    98.0690    24.7930     8.0110     6.3130     7.6980     2.3510   -27.1820 
  126.1250    96.5190    24.8230     6.6530     5.9290     7.1760     2.3490   -27.1890 
  126.2500    94.3830    24.8970     6.3610     5.5780     6.7400     2.3710   -27.1690 
  126.3750    92.8170    24.9080     6.2180     5.2890     6.4150     2.4060   -27.2230 
  126.5000    92.6620    24.7740     6.0920     5.0870     6.2160     2.4260   -27.4260 
  126.6250    94.8340    24.6780     5.9800     4.9700     6.1070     2.4070   -27.7520 
  126.7500    96.8990    24.5090     5.9560     4.9030     6.0230     2.3750   -28.0630 
  126.8750    96.1040    24.3050     5.9980     4.9110     6.0210     2.3650   -28.2550 
  127.0000    92.5450    24.1550     6.2140     5.0490     6.2180     2.3820   -28.4020 
  127.1250    87.6550    23.8670     6.6060     5.3890     6.7290     2.3940   -28.6150 
  127.2500    82.1130    23.7540     6.9710     5.9310     7.5460     2.3920   -28.9540 
  127.3750    75.8680    23.7280     7.6590     6.6850     8.6570     2.4000   -29.3560 
  127.5000    69.4700    23.7600     9.2010     7.6010     9.9380     2.4370   -29.7740 
  127.6250    67.2110    24.4680    16.6290     8.5430    11.1630     2.4760   -30.1460 
  127.7500    68.3680    24.5570    25.2350     9.3380    12.1340     2.4770   -30.4790 
  127.8750    69.3650    24.9270    27.1640     9.8240    12.6750     2.4270   -30.8110 
  128.0000    67.6340    25.1120    25.0550     9.9230    12.6990     2.3450   -31.1650 
  128.1250    64.3360    25.4120    20.3420     9.7050    12.3190     2.2770   -31.5800 
  128.2500    63.6350    25.7450    15.9000     9.4000    11.8730     2.2480   -31.9880 
  128.3750    65.9290    26.3170    10.9120     9.1150    11.5150     2.2470   -32.2960 
  128.5000    69.1060    26.3210     9.1590     8.9460    11.3750     2.2480   -32.4700 
  128.6250    69.2510    26.1040     9.2730     8.9730    11.5420     2.2460   -32.6120 
  128.7500    67.1060    25.9660     9.8500     9.1020    11.8350     2.2510   -32.8450 
  128.8750    66.2830    25.4920    10.4140     9.2650    12.1310     2.2570   -33.1700 
  129.0000    68.5890    24.8940    10.9250     9.4170    12.3670     2.2550   -33.4950 
  129.1250    72.6160    24.5290    10.6020     9.5060    12.4880     2.2530   -33.7240 
  129.2500    74.0090    24.2570    10.3880     9.5380    12.4890     2.2650   -33.8760 
  129.3750    71.1900    24.0090    10.2460     9.5160    12.4270     2.2840   -34.0010 
  129.5000    66.4630    23.9330    10.6280     9.4680    12.3570     2.2910   -34.1170 
  129.6250    64.8660    24.0880    11.4190     9.4310    12.3240     2.2730   -34.2470 
  129.7500    64.9460    24.3780    11.6030     9.4110    12.3270     2.2360   -34.3520 
  129.8750    62.9590    24.4880    11.6080     9.3940    12.3280     2.1950   -34.3610 
  130.0000    59.0240    24.6330    11.7650     9.3610    12.2650     2.1730   -34.2580 
  130.1250    56.9950    24.8550    11.5470     9.3030    12.1090     2.1860   -34.0580 
  130.2500    58.9940    24.8960    11.4870     9.2300    11.8890     2.2190   -33.8370 
  130.3750    64.6630    24.5990    11.2830     9.1600    11.6580     2.2460   -33.6930 
  130.5000    70.7750    24.3560    10.5930     9.1240    11.4970     2.2530   -33.6170 
  130.6250    72.2260    24.1680    10.0820     9.1860    11.5290     2.2380   -33.4720 
  130.7500    68.6660    24.1670    10.0510     9.3240    11.6590     2.2200   -33.1540 
  130.8750    64.6490    24.4530    10.2920     9.4480    11.7590     2.2140   -32.7660 
  131.0000    64.8510    25.0210    10.3960     9.4710    11.6950     2.2290   -32.4400 
  131.1250    68.7590    25.0830    10.3310     9.3100    11.3740     2.2700   -32.2060 
  131.2500    70.1260    24.8950    10.2850     8.9830    10.8160     2.3390   -31.9430 
  131.3750    69.2710    24.4880    10.0670     8.5400    10.1260     2.4230   -31.5550 
  131.5000    70.7410    24.4010     9.4400     8.0690     9.4310     2.4840   -31.1280 
  131.6250    74.8240    24.6110     8.1330     7.6340     8.8440     2.4700   -30.8140 
  131.7500    74.8850    24.6070     7.4030     7.2840     8.4110     2.4040   -30.6400 
  131.8750    71.8510    24.5830     7.6320     7.0330     8.1230     2.3340   -30.4890 
  132.0000    70.9330    24.7890     8.3070     6.8300     7.8880     2.2940   -30.2990 
  132.1250    75.7600    24.8980     8.2060     6.6440     7.6560     2.2980   -30.1170 
  132.2500    82.6240    24.8780     7.2760     6.4660     7.4110     2.3260   -30.0490 
  132.3750    87.3450    24.5350     6.3770     6.3040     7.1710     2.3580   -30.0900 
  132.5000    87.4370    24.3150     6.0700     6.1530     6.9400     2.3730   -30.1220 
  132.6250    82.3320    24.6010     6.2340     6.0590     6.8240     2.3670   -30.0210 
  132.7500    76.5960    24.9210     6.4970     6.0410     6.8200     2.3550   -29.9750 
  132.8750    75.1210    25.0010     6.7410     6.0710     6.8870     2.3430   -30.0850 
  133.0000    78.8620    24.8890     6.8120     6.1120     6.9710     2.3350   -30.2320 
  133.1250    83.7160    24.9420     6.7660     6.1140     6.9890     2.3340   -30.3380 
  133.2500    84.9490    24.8720     6.7090     6.0610     6.9210     2.3430   -30.5120 
  133.3750    83.3180    24.6340     6.9670     5.9490     6.7680     2.3550   -30.7500 
  133.5000    81.0840    24.5520     7.1190     5.7930     6.5620     2.3650   -31.0180 
  133.6250    79.7820    24.5990     6.8280     5.6520     6.3830     2.3680   -31.3340 
  133.7500    80.4020    24.7080     6.4330     5.5810     6.3160     2.3700   -31.6250 
  133.8750    83.3840    24.5920     6.4370     5.6310     6.4200     2.3720   -31.9490 
  134.0000    84.5320    24.5550     6.6830     5.8240     6.7240     2.3730   -32.4280 
  134.1250    82.3290    24.5640     7.9520     6.2230     7.3190     2.3750   -33.0500 
  134.2500    80.0990    24.5010    11.6150     6.8010     8.1470     2.3870   -33.5870 
  134.3750    78.6310    24.3310    17.3310     7.5410     9.1490     2.4030   -34.0780 
