~V
VERS. 2.00: Ver 2.00
~W
STRT.M 60.0000:
STOP.M 283.0000:
STEP.M 0.1250:
NULL. -999.2500:
UWI. DF3045:
~C
DEPT.M :
DEN.GM/CC :
SP.MV :
AC.US/MT :
GR.API :
CALI.CM :
RXO.OHMM :
RI. :
RML.OHMM :
~A
# ...
  240.0000     2.2410   -29.0790   392.5220    62.2760    23.7520    60.9490    61.4340    63.3660 
  240.1250     2.2380   -29.0570   391.4490    63.8280    23.3970    54.2990    55.2630    57.1350 
  240.2500     2.2460   -29.0940   389.4170    67.9670    23.0490    46.8600    49.2060    50.9870 
  240.3750     2.2610   -29.1850   387.9460    70.4430    22.8450    39.1520    43.9810    45.6940 
  240.5000     2.2760   -29.2980   387.7830    71.4120    22.8780    30.7870    39.9560    41.5870 
  240.6250     2.2900   -29.4260   388.5210    74.6180    23.1260    23.9260    37.5950    39.2400 
  240.7500     2.3060   -29.5480   389.2780    78.7260    23.1530    21.3810    36.9780    38.8690 
  240.8750     2.3180   -29.6430   389.7210    79.1670    22.9540    21.5820    38.2220    40.5180 
  241.0000     2.3200   -29.6770   390.1470    76.8480    22.8490    24.8640    41.3260    44.1250 
  241.1250     2.3180   -29.6490   390.7300    74.2950    22.8070    30.6660    46.7290    50.0300 
  241.2500     2.3150   -29.6090   391.6440    71.1300    23.0120    37.5640    53.7900    57.3700 
  241.3750     2.3060   -29.5930   392.7420    66.8700    23.3880    45.3130    61.3590    64.9630 
  241.5000     2.2870   -29.6150   393.5780    63.1110    23.8190    59.2490    67.9640    71.3620 
  241.6250     2.2670   -29.7330   394.0520    63.1860    24.0330    93.0250    71.6710    74.5450 
  241.7500     2.2570   -29.9390   394.4080    65.0780    24.3050   123.6610    72.0550    74.2620 
  241.8750     2.2560   -30.1900   394.2790    68.3450    24.1530   125.0230    69.5350    71.1810 
  242.0000     2.2630   -30.4940   392.9930    70.5840    24.0210    94.6080    65.6540    67.0540 
  242.1250     2.2760   -30.8020   390.8210    68.3700    23.7880    60.3770    62.5970    64.1790 
  242.2500     2.2890   -31.0640   389.0090    64.7380    23.6350    48.4080    61.8210    63.9560 
  242.3750     2.2990   -31.2440   389.2080    64.0980    23.4900    53.0070    64.3730    67.2330 
  242.5000     2.3020   -31.3780   391.4170    67.8520    23.4390    62.9260    70.5630    74.2360 
  242.6250     2.2970   -31.4410   393.7170    70.2410    23.4560    77.1060    80.1590    84.4720 
  242.7500     2.2880   -31.4490   392.6620    70.3620    24.0400    91.8850    90.4100    95.0290 
  242.8750     2.2820   -31.4700   386.1970    71.7380    24.3170   106.3480    98.1930   102.5290 
  243.0000     2.2810   -31.5310   378.9220    73.3550    24.3280   132.2010   100.7830   104.1260 
  243.1250     2.2790   -31.6610   376.2720    70.2290    24.0370   147.6920    96.5990    98.4800 
  243.2500     2.2730   -31.8390   380.1340    63.4490    23.8190   140.7330    88.7670    89.4500 
  243.3750     2.2690   -32.0630   387.3600    60.5520    23.7610   113.7250    80.4540    80.6280 
  243.5000     2.2720   -32.2930   393.1890    65.6360    23.7190    82.7370    74.2640    74.5310 
  243.6250     2.2790   -32.4820   396.1480    72.1270    23.7650    62.1030    72.6550    73.2370 
  243.7500     2.2810   -32.6040   396.7500    71.7540    23.7640    66.4130    75.6890    76.4420 
  243.8750     2.2760   -32.6170   395.7370    65.4570    23.7210    88.5210    83.1080    83.8680 
  244.0000     2.2660   -32.4950   394.4900    60.0760    23.7600   114.2480    93.6110    94.5800 
  244.1250     2.2640   -32.2520   393.7320    61.3900    23.7470   134.5950   105.7270   107.3440 
  244.2500     2.2720   -31.9520   393.3190    63.6820    23.7070   152.2620   117.3700   119.7450 
  244.3750     2.2740   -31.6420   393.2060    63.3240    23.6330   163.0570   126.1820   128.9460 
  244.5000     2.2570   -31.3170   393.1220    61.7780    23.4800   164.6170   129.9500   132.2870 
  244.6250     2.2370   -31.0220   392.8720    61.2990    23.4630   154.7620   127.8850   129.2810 
  244.7500     2.2300   -30.7380   392.4790    61.1500    23.4500   139.7780   122.2630   122.8210 
  244.8750     2.2370   -30.4730   391.8030    61.7190    23.4630   135.6360   114.3950   114.2790 
  245.0000     2.2490   -30.1950   390.4090    63.8450    23.5590   145.4840   105.3390   104.7200 
  245.1250     2.2590   -29.8960   387.9720    66.6790    23.6530   148.7550    96.2710    95.4640 
  245.2500     2.2690   -29.5670   385.3600    66.9090    23.7590   121.0570    88.1610    87.3800 
  245.3750     2.2840   -29.1690   384.9180    65.8720    23.8720    94.5170    81.7000    81.0730 
  245.5000     2.3110   -28.7190   381.4870    66.2280    24.0540    82.3110    77.3700    76.8350 
  245.6250     2.3440   -28.2460   366.2780    68.9420    23.9600    77.6250    75.1300    74.6740 
  245.7500     2.3690   -27.8250   336.8050    71.1720    23.8000    71.0090    74.5930    74.1490 
  245.8750     2.3770   -27.4910   306.5040    72.7430    23.9050    64.5050    75.3980    74.9600 
  246.0000     2.3820   -27.2730   290.8180    73.5240    24.2950    67.2300    77.2260    76.7710 
  246.1250     2.4120   -27.1250   284.7890    74.4570    24.3220    78.2630    79.4610    79.0350 
  246.2500     2.4680   -26.9890   271.0120    76.3260    24.2890    91.4370    81.2330    80.9470 
  246.3750     2.5250   -26.8540   243.1680    79.6670    24.3160    98.0860    82.1350    82.1430 
  246.5000     2.5310   -26.7490   225.0030    82.1320    24.1400    96.4150    82.0930    82.5900 
  246.6250     2.4970   -26.6170   230.6260    80.4460    24.2560    81.0910    81.3100    82.5320 
  246.7500     2.4620   -26.4280   247.0580    78.0730    24.2430    74.5240    80.3450    82.5020 
  246.8750     2.4550   -26.1800   247.1850    75.2380    24.3470    80.9430    79.8680    83.2450 
  247.0000     2.4720   -25.8820   235.7480    71.7510    24.3640    85.5670    80.8840    85.5950 
  247.1250     2.4930   -25.5900   233.8240    70.1230    24.1030    75.9930    84.4950    90.5860 
  247.2500     2.5200   -25.3850   248.6760    73.1940    24.0360    83.2010    90.9140    98.3560 
  247.3750     2.5620   -25.2630   261.5620    79.3290    23.9300   114.4360   100.0130   109.0660 
  247.5000     2.6210   -25.1630   255.2290    81.7230    24.2350   166.1200   111.4890   122.4230 
  247.6250     2.6780   -25.1140   235.0240    77.1450    24.1230   201.6300   124.7890   138.1680 
  247.7500     2.7160   -25.0770   216.5700    71.3700    24.2030   188.7000   138.3050   154.4610 
  247.8750     2.7320   -25.0270   210.2410    68.3510    24.2390   161.7240   148.3210   166.5050 
  248.0000     2.7250   -24.9730   209.9120    68.0790    24.4220   150.8830   149.3220   165.8670 
  248.1250     2.6980   -24.8860   208.6220    67.9360    24.7190   175.0000   133.8000   143.2010 
  248.2500     2.6620   -24.7450   204.6340    66.8990    24.3490   223.2700   107.1650   109.8090 
  248.3750     2.6410   -24.5890   200.8000    63.7640    23.7600   242.0330    77.3430    76.7910 
  248.5000     2.6460   -24.4430   197.7210    58.3840    23.7970   206.1180    51.2670    50.4850 
  248.6250     2.6470   -24.3240   191.8150    52.7040    24.2210   125.0930    33.1090    33.2710 
  248.7500     2.6220   -24.2690   186.7620    47.8960    24.3190    56.6180    21.2080    22.1350 
  248.8750     2.5800   -24.2600   202.6500    46.7560    24.1690    17.5200    13.9880    15.2850 
  249.0000     2.5410   -24.3020   247.4390    50.2460    24.0050     6.8000     9.9440    11.2900 
  249.1250     2.5060   -24.3850   310.4310    54.4910    23.7830     5.6130     7.9020     9.3380 
  249.2500     2.4710   -24.4400   366.8100    56.1890    23.7780     5.2220     6.8050     8.4450 
  249.3750     2.4380   -24.4530   392.0250    56.5790    23.7040     4.9880     6.3090     8.1870 
  249.5000     2.4130   -24.4610   399.2130    58.4660    23.4870     4.9470     6.2030     8.2740 
  249.6250     2.3890   -24.4150   410.1650    59.4430    23.5030     5.1440     6.3130     8.4560 
  249.7500     2.3660   -24.3330   435.4850    59.8610    23.5900     5.2970     6.4620     8.5960 
  249.8750     2.3470   -24.2370   450.9170    60.8870    23.7150     5.2730     6.5960     8.6480 
