~V
VERS. 2.00: Ver 2.00
~W
STRT.M 60.0000:
STOP.M 275.0000:
STEP.M 0.1250:
NULL. -999.2500:
UWI. DF3003:
~C
DEPT.M :
DEN.GM/CC :
SP.MV :
AC.US/MT :
GR.API :
RML.OHMM :
RI. :
RXO.OHMM :
CALI.CM :
~A
   60.0000     1.9930     0.0000   184.7110  -999.2500  -999.2500  -999.2500  -999.2500  -999.2500 
   60.1250     1.9940    21.5460   184.3950  -999.2500  -999.2500  -999.2500  -999.2500  -999.2500 
   60.2500     1.9920    86.0650   184.0680  -999.2500  -999.2500  -999.2500  -999.2500  -999.2500 
   60.3750     1.9890    85.9080   183.8650  -999.2500  -999.2500  -999.2500  -999.2500  -999.2500 
   60.5000     1.9870    85.9150   183.6490  -999.2500  -999.2500  -999.2500  -999.2500  -999.2500 
   60.6250     1.9880    85.8270   183.3830  -999.2500  -999.2500  -999.2500  -999.2500  -999.2500 
   60.7500     1.9910    85.5830   183.3420  -999.2500  -999.2500  -999.2500  -999.2500  -999.2500 
   60.8750     1.9950    85.2790   183.3330  -999.2500  -999.2500  -999.2500  -999.2500  -999.2500 
   61.0000     1.9980    84.9020   183.3330  -999.2500  -999.2500  -999.2500  -999.2500  -999.2500 
   61.1250     2.0020    84.1650   183.3330  -999.2500  -999.2500  -999.2500  -999.2500  -999.2500 
   61.2500     2.0060    82.8390   183.3350  -999.2500  -999.2500  -999.2500  -999.2500  -999.2500 
   61.3750     2.0090    80.7160   183.3470  -999.2500  -999.2500  -999.2500  -999.2500  -999.2500 
   61.5000     2.0100    77.9250   183.4250     0.0000     0.0000     0.0000     0.0000     0.0000 
   61.6250     2.0100    75.1370   183.5590     0.0000     0.0000     0.0000     0.0000     0.0000 
   61.7500     2.0080    72.7160   183.7760     0.0000     0.0000     0.0000     0.0000     0.0000 
   61.8750     2.0040    70.6970   184.1150     0.0000     0.0000     0.0000     0.0000     0.0000 
   62.0000     1.9980    69.2390   184.3340     0.0000     0.0000     0.0000     0.0000     0.0000 
   62.1250     1.9870    68.6840   184.5480     0.0000     0.0000     0.0000     0.0000     0.0000 
   62.2500     1.9740    68.8090   184.7570     0.0000     0.0000     0.0000     0.0000     0.0000 
   62.3750     1.9610    69.3090   184.8110    27.3640     7.0850     0.1800  3148.2030    19.0010 
   62.5000     1.9500    69.8250   184.6540    36.5390     9.5930     0.2430  4197.6060    25.3350 
   62.6250     1.9430    69.7290   184.4180    37.8800     9.7320     0.2440  4197.6060    25.3330 
   62.7500     1.9400    69.0800   184.2060    38.1870     9.8550     0.2430  4197.6060    25.3310 
   62.8750     1.9390    68.0520   184.1710    36.3830     9.9630     0.2400  4197.6060    25.3310 
   63.0000     1.9400    66.6510   184.1670    33.9950    10.0270     0.2370  4197.6060    25.3340 
   63.1250     1.9430    64.9200   184.1670    34.5290     9.9880     0.2360  4197.6060    25.3350 
   63.2500     1.9470    63.0980   184.1710    36.6090     9.8580     0.2370  4197.6060    25.3360 
   63.3750     1.9530    61.3360   184.1950    36.9530     9.7000     0.2370  4197.6060    25.3360 
   63.5000     1.9640    59.8080   184.3500    35.2030     9.5940     0.2370  4197.6060    25.3360 
   63.6250     1.9790    58.9060   184.6170    34.6740     9.5730     0.2360  4197.6060    25.3360 
   63.7500     1.9960    58.4530   185.0410    36.4760     9.5560     0.2340  4197.6060    25.3360 
   63.8750     2.0130    58.1280   185.7080    37.6130     9.4720     0.2340  4197.6060    25.3360 
   64.0000     2.0270    57.7570   187.4150    37.0970     9.2880     0.2340  3797.2690    25.3360 
   64.1250     2.0390    57.1510   190.7140    36.6120     9.0090     0.2330  3175.2080    25.3360 
   64.2500     2.0490    56.5480   195.6820    36.2480     8.6830     0.2300  2142.3750    25.3350 
   64.3750     2.0580    56.3440   201.5590    36.1540     8.3230     0.2250   494.5780    25.3330 
   64.5000     2.0670    56.6520   201.5980    37.6400     7.9350     0.2190    12.5530    25.3210 
   64.6250     2.0760    57.5340   191.4860    39.9570     7.5670     0.2150     3.6120    25.2870 
   64.7500     2.0850    59.0170   173.7230    40.1270     7.2780     0.2150     1.5340    25.2080 
   64.8750     2.0950    61.1820   152.8750    38.5200     7.0630     0.2170     0.9460    25.0410 
   65.0000     2.1050    63.8170   138.5680    36.3470     6.8060     0.2190     0.8620    24.7470 
   65.1250     2.1130    66.3070   140.2350    35.8740     6.2520     0.2150     0.9190    24.3350 
   65.2500     2.1220    68.3120   161.9830    38.2520     5.2920     0.2000     0.9950    23.9710 
   65.3750     2.1360    69.8040   204.8730    42.6320     3.9780     0.1710     1.0470    23.6570 
   65.5000     2.1680    70.7810   255.5330    46.2450     2.6040     0.1300     1.0680    23.4750 
   65.6250     2.2330    70.8200   289.5750    47.3570     1.6010     0.0870     1.0990    23.4690 
   65.7500     2.3220    69.5480   304.8540    48.7330     0.9960     0.0510     1.2070    23.6010 
   65.8750     2.4030    66.6680   314.3440    50.2370     0.6640     0.0250     1.5260    23.9310 
   66.0000     2.4120    62.2720   325.0170    50.8790     0.4900     0.0110     2.2860    24.5900 
   66.1250     2.2880    56.8310   336.1470    50.1260     0.4310     0.0230     3.6130    25.7430 
   66.2500     2.1050    50.7610   363.9580    48.9900     0.4930     0.0930     5.2930    27.2770 
   66.3750     1.9220    43.9350   401.4900    51.0120     0.7500     0.2800     6.8200    29.2670 
   66.5000     1.7660    36.5390   439.1080    56.4800     1.2940     0.6570     7.5710    31.6340 
   66.6250     1.6620    28.9830   462.9950    61.2950     2.2140     1.3230     7.5150    33.0960 
   66.7500     1.6150    21.7230   474.3350    63.0960     3.3450     2.2190     7.2310    33.3190 
   66.8750     1.6300    15.0850   475.6740    65.0470     4.4370     3.2430     6.9310    32.6350 
   67.0000     1.7040     9.3480   468.0620    68.8380     5.2080     4.2480     6.6520    31.0040 
   67.1250     1.8280     4.8650   449.1230    71.4470     5.5370     5.0650     6.7270    28.2100 
   67.2500     1.9610     1.3670   428.2480    73.3530     5.6870     5.6770     7.2470    25.3990 
   67.3750     2.0720    -1.2290   418.8720    76.0220     5.8110     6.1070     7.8190    23.8840 
   67.5000     2.1400    -3.0860   426.9960    78.4440     5.9700     6.3950     8.0960    23.4380 
   67.6250     2.1670    -4.3520   439.9150    80.1090     6.1800     6.5720     8.1130    23.3810 
   67.7500     2.1790    -5.3140   441.8870    83.2920     6.4160     6.6990     8.1340    23.3700 
   67.8750     2.1890    -6.1100   435.1630    86.3390     6.6560     6.8080     8.2160    23.3660 
   68.0000     2.2040    -6.8340   427.0700    86.2210     6.8850     6.9130     8.4390    23.3670 
   68.1250     2.2210    -7.6300   418.4850    82.6030     7.0940     7.0010     8.8130    23.3750 
   68.2500     2.2320    -8.4940   410.2720    80.2750     7.2800     7.0480     9.2220    23.4050 
   68.3750     2.2290    -9.4310   408.3940    80.5330     7.4350     7.0370     9.4120    23.4600 
   68.5000     2.2140   -10.5210   416.9920    82.3180     7.5470     6.9710     9.1200    23.5610 
   68.6250     2.1910   -11.6620   433.5390    84.9330     7.6150     6.8770     8.6660    23.6970 
   68.7500     2.1690   -12.7640   448.4790    86.0950     7.6690     6.8010     8.4370    23.8010 
   68.8750     2.1550   -13.8060   456.6690    82.9340     7.7320     6.7700     8.3470    23.7580 
   69.0000     2.1480   -14.7750   457.6310    77.6460     7.8160     6.7960     8.5340    23.5880 
   69.1250     2.1480   -15.5590   454.3300    76.0890     7.9110     6.8690     8.8100    23.4730 
   69.2500     2.1490   -16.1180   450.7860    77.9140     7.9830     6.9500     9.0670    23.4410 
   69.3750     2.1440   -16.4710   447.9840    79.3780     8.0090     7.0130     9.1200    23.4650 
   69.5000     2.1340   -16.7040   446.1810    78.1660     7.9900     7.0430     9.0700    23.5210 
   69.6250     2.1220   -16.8580   446.1930    77.1390     7.9430     7.0330     9.0500    23.6510 
   69.7500     2.1190   -16.9820   447.5320    77.4510     7.9100     7.0050     8.9470    23.8230 
   69.8750     2.1280   -17.1750   448.7180    77.7230     7.9110     6.9770     8.6710    23.9250 
