~V
VERS. 2.00: Ver 2.00
~W
STRT.M 56.0000:
STOP.M 296.0000:
STEP.M 0.1250:
NULL. -999.2500:
UWI. DF301:
~C
DEPT.M :
DEN.GM/CC :
SP.MV :
AC.US/MT :
GR.API :
CALI.CM :
RXO.OHMM :
RI. :
RML.OHMM :
~A
# ...
  196.0000     2.5480    -6.3750   291.6870    66.6270    24.1780    15.8040    14.0050    15.3090 
  196.1250     2.5490    -6.6710   302.4530    71.8700    24.1690    15.8980    13.7240    15.0300 
  196.2500     2.5330    -7.1770   318.8550    76.4480    24.1660    15.9600    13.5000    14.8040 
  196.3750     2.5030    -7.7900   338.4220    80.2010    24.2110    15.8080    13.3890    14.7060 
  196.5000     2.4650    -8.5720   358.2000    83.5460    24.1840    16.0870    13.4180    14.7690 
  196.6250     2.4250    -9.3870   375.1300    85.9010    24.0600    17.0540    13.5650    14.9610 
  196.7500     2.3870   -10.2370   386.5610    87.0610    23.9270    17.7990    13.7760    15.2090 
  196.8750     2.3570   -11.0940   393.7380    85.7310    23.9080    17.7890    13.9840    15.4320 
  197.0000     2.3470   -11.8970   398.2110    82.3220    23.9650    17.7130    14.1670    15.6090 
  197.1250     2.3600   -12.6580   401.2630    80.3800    24.0720    18.0380    14.3160    15.7530 
  197.2500     2.3790   -13.1980   403.1160    82.5060    24.1910    18.5290    14.4390    15.8880 
  197.3750     2.3910   -13.5770   403.7120    85.3700    24.2370    18.8970    14.5550    16.0210 
  197.5000     2.3980   -13.7340   403.1240    84.9670    24.2540    19.0250    14.6640    16.1390 
  197.6250     2.4030   -13.8030   401.9150    84.0980    24.2830    18.9480    14.7570    16.2290 
  197.7500     2.4000   -13.8720   400.9280    86.6770    24.3100    18.9510    14.8370    16.2900 
  197.8750     2.3890   -13.8710   400.6290    90.2010    24.2200    18.9380    14.9080    16.3220 
  198.0000     2.3830   -13.7770   401.0390    92.5510    24.0240    18.8200    14.9340    16.2830 
  198.1250     2.4030   -13.5510   402.1100    92.8390    23.8800    18.6770    14.8360    16.0950 
  198.2500     2.4100   -13.2320   404.3500    91.2940    23.9720    18.6110    14.4920    15.6540 
  198.3750     2.4100   -12.8820   408.2570    89.1290    24.2020    17.9200    13.9340    15.0160 
  198.5000     2.4100   -12.4870   414.1180    87.8620    24.4800    16.3700    13.2570    14.2820 
  198.6250     2.4120   -11.8700   421.3660    88.5110    24.7050    14.7160    12.6000    13.5950 
  198.7500     2.4170   -11.5950   428.2590    88.7640    24.8240    14.0150    12.1170    13.1100 
  198.8750     2.4140   -11.3680   433.1120    87.8990    24.8700    14.4380    11.8310    12.8450 
  199.0000     2.3970   -11.2000   435.4180    86.9640    24.8540    15.0130    11.7130    12.7610 
  199.1250     2.3800   -11.0810   435.8890    86.9320    24.8160    14.9430    11.6960    12.7750 
  199.2500     2.3860   -11.0200   435.9880    86.6130    24.7840    14.5320    11.6940    12.7760 
  199.3750     2.4070   -10.9450   436.9240    85.0680    24.7780    14.1370    11.6420    12.6880 
  199.5000     2.4190   -10.8820   438.9230    83.8170    24.7820    13.9540    11.5140    12.4900 
  199.6250     2.4130   -10.8290   441.5140    85.9160    24.7980    14.0420    11.3050    12.1980 
  199.7500     2.3980   -10.6900   443.2560    88.7170    24.7880    14.2830    11.0040    11.8260 
  199.8750     2.3830   -10.4310   442.2300    88.1980    24.7680    14.2820    10.6380    11.4100 
  200.0000     2.3690   -10.0560   436.5860    86.0790    24.7540    13.8940    10.2420    10.9800 
  200.1250     2.3620    -9.6190   425.5090    85.6320    24.7530    13.1270     9.8800    10.5930 
  200.2500     2.3720    -9.1090   409.9410    84.5400    24.7540    12.4540     9.6560    10.3450 
  200.3750     2.3940    -8.6110   394.3330    78.4980    24.7520    12.1670     9.5950    10.2660 
  200.5000     2.4270    -8.1420   382.2890    70.8450    24.7430    12.3650     9.6860    10.3450 
  200.6250     2.4660    -7.6600   375.8290    66.2190    24.7200    13.1400     9.8870    10.5300 
  200.7500     2.4960    -7.2030   375.1170    66.0690    24.6920    13.3740    10.1310    10.7420 
  200.8750     2.5070    -6.8360   376.6440    66.5960    24.6540    12.6140    10.3450    10.9100 
  201.0000     2.5030    -6.6050   377.9240    64.2740    24.6260    11.6140    10.4880    10.9920 
  201.1250     2.4980    -6.4580   377.6740    59.2910    24.6090    11.3570    10.5200    10.9480 
  201.2500     2.5010    -6.4750   376.3860    54.7940    24.6190    11.6680    10.3640    10.7100 
  201.3750     2.5130    -6.6350   376.3590    53.4860    24.6130    11.7160    10.0260    10.3040 
  201.5000     2.5230    -6.7910   379.4950    52.8190    24.6030    11.1140     9.5590     9.7910 
  201.6250     2.5200    -7.0330   386.3560    50.8240    24.6330     9.9760     9.0680     9.2840 
  201.7500     2.4940    -7.4760   395.5270    52.0650    24.7300     9.1100     8.6950     8.9440 
  201.8750     2.4600    -7.9480   403.5580    59.6640    24.8720     8.9600     8.5020     8.8270 
  202.0000     2.4320    -8.4680   408.4500    69.6000    24.9430     9.2400     8.4990     8.9160 
  202.1250     2.4180    -9.0310   410.2730    73.6390    24.9020     9.7190     8.6250     9.1110 
  202.2500     2.4180    -9.5610   411.1040    70.8220    24.7960     9.9300     8.7350     9.2220 
  202.3750     2.4220   -10.0240   413.2600    69.7240    24.7520     9.9020     8.6940     9.1260 
  202.5000     2.4300   -10.4620   416.9250    72.1580    24.7650     9.7380     8.4830     8.8290 
  202.6250     2.4420   -10.9000   420.7630    72.6050    24.8010     9.3670     8.1930     8.4560 
  202.7500     2.4510   -11.2890   422.9930    68.4240    24.8230     8.9570     7.9990     8.2380 
  202.8750     2.4560   -11.7630   423.8920    64.8830    24.8190     9.2380     8.0310     8.3290 
  203.0000     2.4620   -12.3480   424.7730    65.1810    24.7680    10.4780     8.3530     8.7910 
  203.1250     2.4730   -13.0660   426.7970    70.0660    24.6630    12.0040     8.9730     9.6000 
  203.2500     2.4700   -13.9440   429.8860    76.1760    24.4960    13.4750     9.8750    10.6730 
  203.3750     2.4460   -14.9180   432.4370    79.7810    24.3110    15.1020    10.9030    11.8030 
  203.5000     2.4120   -16.0090   433.2860    81.2370    24.1650    16.8790    11.9300    12.8500 
  203.6250     2.3900   -17.1330   432.1060    82.8940    24.0690    18.2200    12.8460    13.7310 
  203.7500     2.3830   -18.2160   429.1980    83.5130    24.0180    18.9750    13.5850    14.4160 
  203.8750     2.3780   -19.1730   425.5280    82.5710    23.9510    19.5460    14.1920    14.9830 
  204.0000     2.3720   -19.9650   421.4020    82.7000    23.8430    20.0660    14.6920    15.4740 
  204.1250     2.3750   -20.5790   416.8180    84.7320    23.7510    20.5350    15.1110    15.9070 
  204.2500     2.3960   -20.9070   411.6950    88.4310    23.8640    21.0930    15.4640    16.2710 
  204.3750     2.4210   -21.1350   406.4470    90.6750    24.1440    21.5270    15.7610    16.5660 
  204.5000     2.4330   -21.2270   401.6440    89.5560    24.3090    21.6690    15.9840    16.7800 
  204.6250     2.4290   -21.1350   397.9840    85.7490    24.1890    21.6290    16.1080    16.9050 
  204.7500     2.4220   -21.0030   396.5490    83.7340    23.7580    21.8830    16.1030    16.9220 
  204.8750     2.4230   -20.8830   397.4600    84.1030    23.3620    21.9430    16.0020    16.8620 
  205.0000     2.4290   -20.7640   400.5580    84.2830    23.3350    21.2500    15.8440    16.7580 
  205.1250     2.4370   -20.7220   405.0950    84.1120    23.5000    20.1810    15.6820    16.6500 
  205.2500     2.4420   -20.7520   409.7060    86.1390    23.6170    20.0050    15.5850    16.5880 
  205.3750     2.4450   -20.7960   413.0680    88.0200    23.6990    20.5300    15.5770    16.5910 
  205.5000     2.4420   -20.9270   414.6310    87.8460    23.7460    21.0370    15.6670    16.6670 
  205.6250     2.4360   -21.1030   414.4860    86.4870    23.7600    21.1720    15.8460    16.8160 
  205.7500     2.4300   -21.2100   412.8840    84.3140    23.8670    21.1470    16.0890    17.0290 
  205.8750     2.4160   -21.2870   410.4290    81.7310    24.0960    21.2500    16.3250    17.2510 
