~V
VERS. 2.00: Ver 2.00
~W
STRT.M 90.0000:
STOP.M 264.0000:
STEP.M 0.1250:
NULL. -999.2500:
UWI. DF3021:
~C
DEPT.M :
AC.US/MT :
DEN.GM/CC :
GR.API :
CALI.CM :
RXO.OHMM :
RI. :
RML.OHMM :
SP.MV :
~A
# ...
  220.0000   337.0990     2.3640    61.9160    23.9610     6.9460     6.6120     7.0050   -17.3120 
  220.1250   337.8300     2.3650    61.5680    23.9900     7.0780     6.5210     6.9950   -17.2370 
  220.2500   337.7050     2.3700    64.5120    23.9970     7.1970     6.4860     7.0420   -17.1410 
  220.3750   337.3240     2.3840    67.3610    23.9610     7.3030     6.5010     7.1380   -17.0680 
  220.5000   337.8020     2.3980    66.3050    23.9030     7.3460     6.5530     7.2680   -17.0010 
  220.6250   339.2710     2.3930    62.4260    23.9230     7.3470     6.6330     7.4240   -16.9310 
  220.7500   339.5800     2.3730    61.3790    23.9010     7.4930     6.7200     7.5870   -16.8480 
  220.8750   337.1320     2.3550    64.1230    23.8680     7.7460     6.7950     7.7290   -16.7570 
  221.0000   332.5930     2.3540    66.5210    23.8930     7.8600     6.8380     7.8180   -16.6770 
  221.1250   329.0410     2.3650    66.4090    23.8440     7.7850     6.8280     7.8150   -16.6130 
  221.2500   328.3120     2.3720    64.2910    23.7480     7.6540     6.7800     7.7430   -16.5770 
  221.3750   329.7650     2.3690    62.3220    23.7490     7.5960     6.7110     7.6380   -16.5540 
  221.5000   331.6040     2.3660    61.6390    23.8970     7.6290     6.6460     7.5450   -16.5490 
  221.6250   332.2940     2.3800    63.2760    23.9920     7.7720     6.6160     7.5160   -16.5600 
  221.7500   331.8180     2.4060    64.3430    24.0500     8.0620     6.6260     7.5560   -16.5980 
  221.8750   330.2400     2.4270    63.7760    24.0710     8.2750     6.6730     7.6500   -16.6770 
  222.0000   327.4500     2.4340    64.2640    24.0860     8.2150     6.7360     7.7640   -16.7690 
  222.1250   324.1420     2.4240    65.5380    24.1110     8.1130     6.7820     7.8450   -16.8740 
  222.2500   322.9510     2.4040    64.5770    24.1350     8.3100     6.7900     7.8570   -16.9580 
  222.3750   326.2380     2.3830    62.7230    24.1190     8.4140     6.7570     7.7980   -17.0280 
  222.5000   333.9420     2.3700    63.6760    24.0660     7.9240     6.7000     7.6920   -17.0800 
  222.6250   342.3110     2.3590    65.6340    24.0540     7.1120     6.6420     7.5850   -17.1070 
  222.7500   346.6100     2.3390    65.8100    24.0430     6.7370     6.5990     7.5170   -17.1350 
  222.8750   345.2200     2.3170    65.7980    24.0530     6.8390     6.5790     7.5010   -17.1210 
  223.0000   339.3040     2.3120    67.1620    24.0620     7.0660     6.5830     7.5270   -17.1110 
  223.1250   331.6470     2.3330    69.8610    24.0440     7.1510     6.6130     7.5720   -17.0650 
  223.2500   325.2740     2.3560    70.7120    23.9910     7.1150     6.6610     7.6160   -17.0220 
  223.3750   321.5580     2.3690    69.1840    23.9530     7.2060     6.7280     7.6660   -16.9700 
  223.5000   320.8430     2.3740    65.9970    23.9500     7.6010     6.8170     7.7480   -16.9150 
  223.6250   322.8470     2.3760    62.9390    23.9370     8.1040     6.9400     7.8890   -16.8590 
  223.7500   325.7940     2.3730    61.6390    23.9100     8.5700     7.0820     8.0680   -16.7930 
  223.8750   328.3040     2.3600    60.9200    23.8850     9.5570     7.2230     8.2460   -16.7370 
  224.0000   329.5420     2.3410    60.2760    23.8410    11.5330     7.3360     8.3750   -16.6650 
  224.1250   329.7000     2.3270    60.3170    23.9220    13.2430     7.3900     8.4120   -16.6040 
  224.2500   329.7410     2.3250    62.5500    24.0770    12.4570     7.3920     8.3770   -16.5430 
  224.3750   329.3440     2.3340    66.1670    24.0650    10.0800     7.3590     8.2990   -16.4960 
  224.5000   327.2070     2.3450    67.6060    23.8030     8.3140     7.3120     8.2170   -16.4580 
  224.6250   322.4780     2.3510    67.3230    23.3010     7.6860     7.2710     8.1640   -16.4560 
  224.7500   317.6420     2.3540    68.0120    23.0210     7.3120     7.2460     8.1450   -16.4790 
  224.8750   315.5650     2.3580    68.5790    23.0080     7.0440     7.2390     8.1530   -16.4930 
  225.0000   317.4820     2.3580    68.1470    23.1200     6.9850     7.2450     8.1770   -16.5070 
  225.1250   321.6200     2.3430    67.5860    23.3670     7.1860     7.2700     8.2230   -16.5250 
  225.2500   323.9680     2.3160    68.0820    23.6430     7.4000     7.3220     8.3020   -16.5650 
  225.3750   322.6360     2.2970    68.6590    23.8200     7.6190     7.4060     8.4200   -16.6090 
  225.5000   317.8320     2.3080    69.7370    23.7810     7.8390     7.5170     8.5630   -16.6530 
  225.6250   310.9920     2.3510    70.0460    23.6180     7.9350     7.6330     8.6890   -16.6670 
  225.7500   304.7490     2.3930    67.8860    23.6680     7.7990     7.7310     8.7700   -16.6530 
  225.8750   301.3560     2.4130    65.4050    23.8370     7.7160     7.8030     8.8020   -16.6670 
  226.0000   301.9310     2.4140    63.7820    23.9600     7.8830     7.8620     8.8170   -16.6960 
  226.1250   304.9070     2.4100    63.3330    23.9660     8.0590     7.9510     8.8820   -16.7450 
  226.2500   306.6310     2.4120    62.9990    23.9280     8.3630     8.1060     9.0500   -16.7660 
  226.3750   306.2810     2.4170    62.7250    23.9120     8.8660     8.3470     9.3400   -16.7690 
  226.5000   305.2560     2.4210    62.8260    23.9160     9.8460     8.6600     9.7210   -16.7510 
  226.6250   304.7510     2.4200    64.2410    23.9160    11.9240     8.9940    10.1070   -16.7370 
  226.7500   303.8770     2.4190    66.6220    23.9110    14.2510     9.2790    10.4040   -16.7230 
  226.8750   301.8650     2.4230    65.6340    23.9850    14.9780     9.4830    10.5770   -16.6910 
  227.0000   299.0230     2.4270    61.9060    24.1020    13.9480     9.6150    10.6520   -16.6530 
  227.1250   295.6670     2.4210    61.0820    24.1320    12.9180     9.7090    10.6960   -16.6120 
  227.2500   291.4230     2.4100    63.0400    24.0820    12.6660     9.7930    10.7610   -16.5980 
  227.3750   286.4520     2.4020    64.3540    24.0440    12.7050     9.8610    10.8340   -16.5940 
  227.5000   282.5590     2.3980    65.1440    24.0910    12.5730     9.8920    10.8710   -16.6100 
  227.6250   282.7520     2.3940    67.1960    24.1090    11.8390     9.8670    10.8210   -16.6500 
  227.7500   285.8640     2.3900    69.2170    24.0870    10.7000     9.8120    10.7070   -16.7050 
  227.8750   288.5120     2.3890    73.1860    24.0470     9.5810     9.7780    10.5940   -16.7830 
  228.0000   288.0900     2.3910    79.1680    23.9820     9.0400     9.8220    10.5690   -16.8480 
  228.1250   285.5430     2.4030    79.9160    23.8840     9.3470    10.0150    10.7300   -16.8970 
  228.2500   284.0470     2.4250    74.7220    23.8690    10.6590    10.3420    11.0570   -16.9090 
  228.3750   283.4600     2.4490    69.2230    23.9010    12.6380    10.7620    11.4980   -16.8940 
  228.5000   281.3490     2.4610    67.0010    23.9130    14.9590    11.1910    11.9500   -16.8360 
  228.6250   275.8420     2.4610    68.8070    23.8870    16.9150    11.4970    12.2490   -16.6990 
  228.7500   268.9330     2.4630    72.2660    23.8820    17.1810    11.6040    12.3090   -16.4940 
  228.8750   262.7900     2.4690    75.1410    23.8440    15.8970    11.5010    12.1200   -16.1890 
  229.0000   259.7190     2.4730    74.8990    23.7800    14.4600    11.2470    11.7640   -15.8170 
  229.1250   264.1350     2.4650    70.9990    23.7400    14.4880    10.9620    11.3990   -15.3860 
  229.2500   276.2280     2.4490    66.8480    23.7530    15.2650    10.7770    11.1750   -14.9760 
  229.3750   291.5340     2.4300    64.5530    23.8780    16.0740    10.7730    11.1730   -14.5790 
  229.5000   301.7760     2.4120    65.1710    24.0320    16.9800    10.9860    11.4190   -14.2130 
  229.6250   298.8360     2.4020    66.6600    24.0640    18.2420    11.4420    11.9160   -13.8990 
  229.7500   286.6680     2.4090    67.3270    23.8980    18.9780    12.0490    12.5500   -13.6240 
  229.8750   271.9460     2.4310    67.5680    23.6230    18.5340    12.7220    13.2260   -13.4090 
