~V
VERS. 2.00: Ver 2.00
~W
STRT.M 64.0000:
STOP.M 268.0000:
STEP.M 0.1250:
NULL. -999.2500:
UWI. DF3002:
~C
DEPT.M :
GR.API :
RML.OHMM :
RI. :
RXO.OHMM :
DEN.GM/CC :
SP.MV :
~A
# ...
  115.5000    98.2080     7.4830     6.4260     7.2770     2.2600   -25.5190 
  115.6250   101.4920     7.2830     6.2640     6.8660     2.2730   -25.2550 
  115.7500   107.0190     7.1980     6.1680     6.3970     2.2780   -25.1190 
  115.8750   110.6230     7.2670     6.1790     6.3640     2.2760   -25.0110 
  116.0000   109.8540     7.4580     6.2950     6.7510     2.2690   -24.7800 
  116.1250   104.0360     7.6660     6.4580     7.2510     2.2610   -24.6720 
  116.2500    97.5730     7.7760     6.5760     7.4940     2.2570   -24.6520 
  116.3750    94.6340     7.7400     6.5960     7.6070     2.2590   -24.4990 
  116.5000    96.1180     7.5800     6.5120     7.5450     2.2710   -24.3410 
  116.6250   100.9340     7.3740     6.3640     7.1070     2.3010   -24.2770 
  116.7500   104.5650     7.2100     6.2240     6.8490     2.3420   -24.0660 
  116.8750   107.0230     7.1200     6.1260     6.8430     2.3770   -23.8650 
  117.0000   108.7120     7.0980     6.0790     6.9580     2.3870   -23.7910 
  117.1250   108.4540     7.1150     6.0750     7.2330     2.3620   -23.6820 
  117.2500   108.6420     7.1320     6.0890     6.6980     2.3190   -23.6140 
  117.3750   109.0190     7.1360     6.1070     6.2870     2.2790   -23.6890 
  117.5000   107.9300     7.1370     6.1300     6.3660     2.2560   -23.7610 
  117.6250   104.7240     7.1780     6.1820     6.5860     2.2550   -23.8850 
  117.7500   100.7970     7.2950     6.2820     6.7440     2.2620   -24.0870 
  117.8750    98.9530     7.4890     6.4360     6.7390     2.2710   -24.2220 
  118.0000    99.0380     7.7100     6.6150     6.5950     2.2770   -24.3900 
  118.1250   100.1860     7.8360     6.7400     6.7630     2.2800   -24.5240 
  118.2500    99.7640     7.7860     6.7430     7.0440     2.2760   -24.4900 
  118.3750    97.6610     7.5440     6.6000     7.2600     2.2620   -24.4290 
  118.5000    97.1190     7.1850     6.3450     7.1520     2.2350   -24.3530 
  118.6250   100.2730     6.8690     6.0850     6.6750     2.2060   -24.1650 
  118.7500   105.1510     6.7280     5.9340     6.1600     2.1870   -24.0690 
  118.8750   108.3490     6.8000     5.9440     5.9700     2.1850   -23.9910 
  119.0000   107.2130     7.0340     6.1010     6.1010     2.2010   -23.7730 
  119.1250   103.5620     7.2970     6.3260     6.3050     2.2300   -23.6570 
  119.2500   101.5540     7.4390     6.4930     6.5310     2.2640   -23.6330 
  119.3750   101.8000     7.3900     6.5230     6.4850     2.2940   -23.5080 
  119.5000   102.5930     7.1620     6.3950     6.1310     2.3150   -23.4310 
  119.6250   104.6730     6.8390     6.1470     5.7840     2.3190   -23.5140 
  119.7500   110.7680     6.5450     5.8800     5.5440     2.3110   -23.4950 
  119.8750   118.2600     6.3250     5.6470     5.3990     2.3020   -23.5370 
  120.0000   121.7910     6.1740     5.4640     5.3790     2.3020   -23.7850 
  120.1250   116.6550     6.0600     5.3230     5.4980     2.3190   -23.9940 
  120.2500   108.7190     5.9560     5.2050     5.6800     2.3420   -24.2610 
  120.3750   107.4170     5.8780     5.1180     5.8070     2.3560   -24.7340 
  120.5000   112.9350     5.8580     5.0840     5.8750     2.3540   -25.2560 
  120.6250   114.2570     5.9420     5.1430     5.8590     2.3330   -25.8100 
  120.7500   106.4450     6.1080     5.2950     5.9490     2.3070   -26.4430 
  120.8750    96.0590     6.3520     5.5520     6.2710     2.2810   -27.0220 
  121.0000    90.2500     6.7220     5.9310     6.7980     2.2600   -27.5630 
  121.1250    87.3650     7.3210     6.4960     7.1900     2.2490   -28.1300 
  121.2500    83.9460     8.2480     7.2480     7.3840     2.2520   -28.6010 
  121.3750    80.5420     9.4840     8.1670     7.6040     2.2760   -29.0310 
  121.5000    77.5950    10.8760     9.1590     8.0850     2.3190   -29.4680 
  121.6250    76.7300    12.1030    10.0160     8.7950     2.3800   -29.7120 
  121.7500    76.8700    12.5780    10.5480     9.3420     2.4440   -29.9770 
  121.8750    76.5850    12.5430    10.6450     9.2890     2.5000   -30.2840 
  122.0000    76.5080    12.0800    10.3400     8.8420     2.5370   -30.4200 
  122.1250    76.9560    11.4240     9.8000     8.6010     2.5390   -30.5890 
  122.2500    76.8690    10.8850     9.3010     8.5680     2.5070   -30.8780 
  122.3750    75.3020    10.6170     8.9910     8.6140     2.4460   -31.0520 
  122.5000    73.5890    10.6480     8.9270     8.6790     2.3710   -31.1280 
  122.6250    73.8920    10.9280     9.1090     8.9810     2.3030   -31.3250 
  122.7500    73.7000    11.2860     9.4080     9.4090     2.2550   -31.4030 
  122.8750    71.6530    11.6180     9.7360     9.7310     2.2280   -31.3610 
  123.0000    70.3300    11.8610    10.0220     9.8360     2.2170   -31.4450 
  123.1250    70.6400    11.9780    10.2110     9.8210     2.2110   -31.4740 
  123.2500    73.1810    12.0120    10.3180     9.7910     2.2000   -31.3350 
  123.3750    76.8530    11.9900    10.3650     9.7810     2.1840   -31.2740 
  123.5000    78.9540    11.9350    10.3710     9.9150     2.1700   -31.2620 
  123.6250    75.4060    11.8740    10.3550    10.2320     2.1690   -31.0870 
  123.7500    71.7020    11.8500    10.3490    10.4030     2.1850   -30.9870 
  123.8750    74.2210    11.9050    10.3830    10.3600     2.2160   -30.9160 
  124.0000    80.2030    12.0590    10.4790    10.1920     2.2520   -30.7560 
  124.1250    80.6950    12.2970    10.6420    10.0830     2.2750   -30.6870 
  124.2500    76.4010    12.5230    10.8170    10.0960     2.2790   -30.6610 
  124.3750    73.3470    12.6480    10.9440    10.1680     2.2620   -30.5980 
  124.5000    74.3400    12.6120    10.9750    10.2380     2.2350   -30.5790 
  124.6250    76.2660    12.4010    10.8780    10.2990     2.2060   -30.5620 
  124.7500    75.4950    12.1380    10.7270    10.3340     2.1850   -30.5210 
  124.8750    73.0520    11.9490    10.6050    10.3400     2.1720   -30.5070 
  125.0000    72.3340    11.9350    10.5930    10.3610     2.1680   -30.4500 
  125.1250    73.6550    12.1470    10.7450    10.4050     2.1750   -30.3800 
  125.2500    73.9760    12.4600    10.9800    10.5140     2.1900   -30.3590 
  125.3750    73.4580    12.7340    11.2020    10.7240     2.2130   -30.2500 
  125.5000    73.7920    12.8500    11.3130    10.9630     2.2390   -30.1090 
  125.6250    76.0020    12.7170    11.2350    11.0340     2.2610   -30.1590 
  125.7500    78.3090    12.4260    11.0250    10.5590     2.2710   -30.1820 
  125.8750    78.5360    12.0780    10.7600    10.2400     2.2650   -30.1730 
  126.0000    75.0780    11.7630    10.5130    10.2120     2.2450   -30.2920 
  126.1250    69.6060    11.5460    10.3430    10.2910     2.2150   -30.3570 
  126.2500    66.0720    11.4130    10.2480    10.3690     2.1840   -30.3340 
  126.3750    67.4660    11.3380    10.2110    10.4580     2.1600   -30.4170 
  126.5000    72.3410    11.2970    10.2120    10.5510     2.1470   -30.5050 
  126.6250    75.9600    11.2810    10.2420    10.5890     2.1460   -30.4200 
  126.7500    77.0340    11.2870    10.2940    10.4610     2.1520   -30.4050 
  126.8750    76.6490    11.3060    10.3600    10.1010     2.1570   -30.4120 
  127.0000    75.5390    11.3160    10.4210     9.8580     2.1590   -30.3160 
  127.1250    73.0430    11.2640    10.4320     9.9160     2.1580   -30.2440 
  127.2500    70.7860    11.1170    10.3590    10.0640     2.1570   -30.1600 
  127.3750    70.5220    10.8660    10.1910    10.1040     2.1590   -29.9990 
  127.5000    72.5030    10.5490     9.9520    10.0380     2.1620   -29.8830 
  127.6250    76.6320    10.2590     9.7130     9.9010     2.1640   -29.7840 
  127.7500    79.8090    10.0850     9.5540     9.6480     2.1650   -29.6080 
  127.8750    79.0010    10.0750     9.5210     9.3420     2.1610   -29.5240 
  128.0000    75.0720    10.2250     9.6210     9.3780     2.1550   -29.4190 
  128.1250    71.5180    10.4800     9.8220     9.7230     2.1520   -29.2540 
  128.2500    69.9220    10.7110    10.0140     9.9540     2.1560   -29.2210 
