~V
VERS. 2.00: Ver 2.00
~W
STRT.M 56.0000:
STOP.M 296.0000:
STEP.M 0.1250:
NULL. -999.2500:
UWI. DF301:
~C
DEPT.M :
DEN.GM/CC :
SP.MV :
AC.US/MT :
GR.API :
CALI.CM :
RXO.OHMM :
RI. :
RML.OHMM :
~A
# ...
   66.0000  -999.2500    34.6270  -999.2500    68.9980    30.2060     5.2590     2.7050     1.7190 
   66.1250  -999.2500    24.4820  -999.2500    76.0380    29.9220     5.2510     3.7100     2.3630 
   66.2500  -999.2500    16.1730  -999.2500    89.5030    27.3430     5.5930     4.2870     2.6870 
   66.3750  -999.2500    10.0920  -999.2500   102.6250    25.6560     5.5920     4.5930     2.8460 
   66.5000  -999.2500     6.3100  -999.2500   109.7930    25.0760     5.2760     4.7810     2.9810 
   66.6250  -999.2500     3.9980  -999.2500   113.2930    25.0280     4.9770     4.9190     3.1430 
   66.7500  -999.2500     2.4640  -999.2500   115.2370    25.0490     4.9300     5.0030     3.2990 
   66.8750  -999.2500     1.2240  -999.2500   113.9570    25.0460     4.9920     5.0180     3.3990 
   67.0000  -999.2500     0.2320  -999.2500   109.9980    25.0580     5.0350     4.9390     3.4100 
   67.1250  -999.2500    -0.5860  -999.2500   107.1550    25.0610     5.0190     4.7610     3.3360 
   67.2500  -999.2500    -1.3460  -999.2500   106.6920    25.0610     4.9050     4.5380     3.2300 
   67.3750  -999.2500    -2.1090  -999.2500   106.2180    25.0470     4.7800     4.4070     3.1950 
   67.5000  -999.2500    -2.8960  -999.2500   104.5170    25.0380     4.8540     4.5200     3.3320 
   67.6250  -999.2500    -3.7220  -999.2500   101.3990    25.0040     5.6310     5.0600     3.7590 
   67.7500  -999.2500    -4.6440  -999.2500    95.4270    24.8570     9.0150     6.4230     4.7740 
   67.8750  -999.2500    -5.6360  -999.2500    85.4330    24.5890    14.9130     8.8430     6.6260 
   68.0000  -999.2500    -6.6530  -999.2500    72.7750    24.3800    22.8720    12.5310     9.4940 
   68.1250  -999.2500    -7.6860  -999.2500    63.5500    24.2710    31.5500    17.1080    12.9240 
   68.2500  -999.2500    -8.7420  -999.2500    63.5740    24.1950    36.5270    20.5020    15.2950 
   68.3750  -999.2500    -9.8260  -999.2500    66.2910    24.0780    36.4510    20.7640    15.5230 
   68.5000  -999.2500   -10.9060  -999.2500    66.8840    23.9790    30.1090    18.2160    13.8360 
   68.6250  -999.2500   -11.9280  -999.2500    64.6820    23.9360    20.1200    14.6730    11.3980 
   68.7500  -999.2500   -12.8300  -999.2500    61.3330    24.0850    12.7490    11.7040     9.3910 
   68.8750  -999.2500   -13.5990  -999.2500    58.3250    24.3290     9.3720     9.6430     8.0780 
   69.0000  -999.2500   -14.2720  -999.2500    58.1540    24.5420     8.4490     8.3960     7.3550 
   69.1250  -999.2500   -14.8310  -999.2500    61.8360    24.5560     8.1990     7.7650     7.0740 
   69.2500  -999.2500   -15.2770  -999.2500    67.1080    24.4050     7.8720     7.5860     7.1270 
   69.3750  -999.2500   -15.5940  -999.2500    72.7130    24.1980     7.4720     7.6070     7.3310 
   69.5000  -999.2500   -15.8190  -999.2500    76.1710    23.9690     7.1720     7.7200     7.5940 
   69.6250  -999.2500   -15.9950  -999.2500    74.8370    23.8000     7.0900     7.8740     7.8560 
   69.7500  -999.2500   -16.1390  -999.2500    72.0720    23.8090     7.1430     8.0460     8.0750 
   69.8750  -999.2500   -16.2700  -999.2500    72.2670    23.8970     7.3500     8.1930     8.1860 
   70.0000  -999.2500   -16.3760  -999.2500    74.5200    23.9790     7.6410     8.2710     8.1210 
   70.1250  -999.2500   -16.4800  -999.2500    74.6560    24.0220     7.8740     8.2560     7.9270 
   70.2500  -999.2500   -16.6160  -999.2500    73.8740    24.0440     7.8350     8.1520     7.7750 
   70.3750  -999.2500   -16.7800  -999.2500    74.5630    24.0660     7.6960     8.0170     7.7550 
   70.5000  -999.2500   -16.9450  -999.2500    74.1540    24.0830     7.6430     7.8960     7.8160 
   70.6250  -999.2500   -17.1070  -999.2500    71.4700    24.1310     7.7150     7.8270     7.8950 
   70.7500  -999.2500   -17.2740  -999.2500    68.9120    24.1320     7.8490     7.8420     7.9830 
   70.8750  -999.2500   -17.4790  -999.2500    69.0720    24.0720     7.8190     7.9140     8.0780 
   71.0000  -999.2500   -17.7520  -999.2500    70.9740    24.0190     7.7260     8.0120     8.1830 
   71.1250  -999.2500   -18.0900  -999.2500    70.9430    24.0200     7.6280     8.0960     8.2880 
   71.2500  -999.2500   -18.4230  -999.2500    69.2790    24.0550     7.6340     8.1330     8.3870 
   71.3750  -999.2500   -18.7240  -999.2500    68.0930    24.0690     7.7160     8.1310     8.4180 
   71.5000  -999.2500   -19.0140  -999.2500    67.6430    24.0600     7.7490     8.1140     8.3070 
   71.6250  -999.2500   -19.2860  -999.2500    67.3170    24.0480     7.7390     8.1070     8.1040 
   71.7500  -999.2500   -19.5370  -999.2500    67.5540    24.0700     7.8490     8.1280     7.9890 
   71.8750  -999.2500   -19.7480  -999.2500    70.0500    24.0470     7.9410     8.1550     8.0020 
   72.0000  -999.2500   -19.8580  -999.2500    72.6860    23.9400     7.8650     8.1500     8.0400 
   72.1250  -999.2500   -19.9200  -999.2500    72.7880    23.7910     7.7120     8.0790     8.0230 
   72.2500  -999.2500   -19.9540  -999.2500    70.9980    23.7090     7.5870     7.9330     7.9650 
   72.3750  -999.2500   -19.9520  -999.2500    70.9900    23.6870     7.5190     7.7670     7.9020 
   72.5000  -999.2500   -19.9650  -999.2500    73.2940    23.6500     7.5230     7.6330     7.8650 
   72.6250  -999.2500   -20.0560  -999.2500    76.3970    23.6000     7.6670     7.5700     7.8830 
   72.7500  -999.2500   -20.1700  -999.2500    77.9700    23.5250     7.8500     7.5990     7.9840 
   72.8750  -999.2500   -20.2820  -999.2500    77.9760    23.4430     8.0420     7.6830     8.1430 
   73.0000  -999.2500   -20.4760  -999.2500    76.2200    23.3750     8.1250     7.7850     8.3280 
   73.1250  -999.2500   -20.6760  -999.2500    72.7990    23.3190     8.0710     7.8640     8.5090 
   73.2500  -999.2500   -20.8440  -999.2500    68.7150    23.2950     8.0020     7.8880     8.6640 
   73.3750  -999.2500   -21.0190  -999.2500    65.4940    23.2920     7.9860     7.8640     8.7860 
   73.5000  -999.2500   -21.0870  -999.2500    65.0750    23.3140     8.0050     7.8080     8.8630 
   73.6250  -999.2500   -21.0580  -999.2500    67.2390    23.3720     8.0550     7.7370     8.8830 
   73.7500  -999.2500   -21.0210  -999.2500    68.0400    23.4730     8.1780     7.6710     8.8440 
   73.8750  -999.2500   -20.9350  -999.2500    66.3200    23.4920     8.3080     7.6190     8.7880 
   74.0000  -999.2500   -20.7720  -999.2500    63.2480    23.4810     8.4090     7.5870     8.7520 
   74.1250  -999.2500   -20.5530  -999.2500    60.3420    23.4750     8.4780     7.5730     8.7520 
   74.2500  -999.2500   -20.2280  -999.2500    57.8330    23.5560     8.5050     7.5760     8.7800 
   74.3750  -999.2500   -19.8620  -999.2500    58.1670    23.6160     8.5140     7.5950     8.8090 
   74.5000  -999.2500   -19.4660  -999.2500    62.3940    23.6160     8.4860     7.6280     8.8280 
   74.6250  -999.2500   -19.0210  -999.2500    67.1080    23.5340     8.4100     7.6680     8.8350 
   74.7500  -999.2500   -18.5860  -999.2500    67.6780    23.4000     8.3110     7.6860     8.8060 
   74.8750  -999.2500   -18.1770  -999.2500    66.3140    23.2880     8.2160     7.6320     8.7010 
   75.0000  -999.2500   -17.6660  -999.2500    65.4000    23.2700     8.1310     7.4620     8.4840 
   75.1250  -999.2500   -17.0290  -999.2500    66.0990    23.3200     7.9890     7.1750     8.1650 
   75.2500  -999.2500   -16.3600  -999.2500    70.3740    23.4500     7.6440     6.8400     7.8470 
   75.3750  -999.2500   -15.6880  -999.2500    77.9700    23.6410     7.0680     6.5770     7.6720 
   75.5000  -999.2500   -15.1800  -999.2500    87.0340    23.8620     6.6690     6.4660     7.7190 
   75.6250  -999.2500   -14.8630  -999.2500    93.4520    24.0550     6.9680     6.5320     7.9690 
   75.7500  -999.2500   -14.5040  -999.2500    92.2970    24.0680     8.1550     6.7260     8.2770 
   75.8750  -999.2500   -14.1390  -999.2500    84.4310    23.9390     9.1860     6.8870     8.4330 
