~V
VERS. 2.00: Ver 2.00
~W
STRT.M 54.0000:
STOP.M 250.0000:
STEP.M 0.1250:
NULL. -999.2500:
UWI. DF3016:
~C
DEPT.M :
GR.API :
RML.OHMM :
RI. :
RXO.OHMM :
CALI.CM :
DEN.GM/CC :
SP.MV :
~A
# ...
  211.5000    67.3360    91.1940    80.9360    72.9830    24.1800     2.2480   -23.7730 
  211.6250    68.2460   103.2680    91.4140    81.7130    24.0300     2.3450   -23.9210 
  211.7500    65.6490   117.3590   104.1920   102.6090    24.0500     2.4520   -23.9870 
  211.8750    61.2910   130.5640   116.8980   132.3250    24.1410     2.5360   -23.9930 
  212.0000    59.8060   139.2800   126.3990   165.6940    24.2280     2.5880   -23.9010 
  212.1250    64.5460   139.2150   128.7210   179.8370    24.2070     2.6140   -23.8200 
  212.2500    70.7600   132.0530   124.5900   172.7450    24.2110     2.6220   -23.7030 
  212.3750    73.3010   121.9450   116.9420   137.1770    24.2510     2.6070   -23.5440 
  212.5000    72.0880   114.3640   110.2860    93.8400    24.3270     2.5710   -23.3210 
  212.6250    72.1070   113.6670   108.8900    76.5530    24.4020     2.5270   -23.0450 
  212.7500    75.1030   116.9060   111.1780    79.9730    24.4700     2.4980   -22.7050 
  212.8750    78.3730   118.4850   112.4660    97.6690    24.4790     2.5100   -22.2780 
  213.0000    78.7640   111.7480   106.7550   126.3650    24.3670     2.5530   -21.8080 
  213.1250    76.8870    91.8890    88.6650   160.4780    24.1630     2.6040   -21.3350 
  213.2500    74.6640    65.4480    63.7440   184.0380    24.0700     2.6280   -20.8890 
  213.3750    72.6590    41.5010    40.1090   155.4650    24.0630     2.5980   -20.5490 
  213.5000    70.3290    25.4150    23.4810    69.7430    24.0460     2.5380   -20.3550 
  213.6250    70.5920    16.0960    15.0910    25.9740    24.0300     2.4730   -20.3640 
  213.7500    74.7800    11.8330    11.1140    11.2290    24.0460     2.4270   -20.5260 
  213.8750    79.6200    10.4290     9.6460     8.2920    24.1240     2.4100   -20.8160 
  214.0000    82.0190    10.5710     9.6030     8.6020    24.2540     2.4120   -21.2280 
  214.1250    83.5170    11.5090    10.4340     9.6840    24.3360     2.4220   -21.6430 
  214.2500    87.4750    12.5450    11.5080    10.2250    24.3520     2.4340   -22.1010 
  214.3750    92.4370    13.3310    12.4500    10.6410    24.3250     2.4410   -22.5260 
  214.5000    96.9030    13.6940    13.0100    10.8030    24.3000     2.4440   -22.9130 
  214.6250   103.3870    13.5900    13.0580    10.7640    24.2870     2.4430   -23.1750 
  214.7500   111.3570    13.2380    12.7840    10.7700    24.2950     2.4390   -23.4010 
  214.8750   117.8440    12.8150    12.3540    11.0070    24.3030     2.4380   -23.6310 
  215.0000   120.8400    12.5710    11.9340    11.2880    24.3150     2.4420   -23.8770 
  215.1250   120.5290    12.7900    11.7570    11.7690    24.3420     2.4480   -24.2580 
  215.2500   117.2370    13.6640    12.0050    12.8340    24.3610     2.4540   -24.6790 
  215.3750   111.6410    15.2550    12.8810    14.4990    24.3680     2.4540   -25.1510 
  215.5000   106.9370    17.7680    14.5680    16.7430    24.3690     2.4470   -25.6410 
  215.6250   103.9020    20.9740    17.3010    19.6860    24.3830     2.4360   -26.1670 
  215.7500    99.0610    24.6670    20.7770    25.1920    24.4010     2.4220   -26.6600 
  215.8750    93.1160    28.8310    24.6010    32.0230    24.3960     2.4070   -27.1250 
  216.0000    88.8540    32.8610    28.2140    37.1470    24.3800     2.3920   -27.5330 
  216.1250    85.6830    35.6880    30.9000    40.2280    24.3690     2.3790   -27.8200 
  216.2500    81.4720    37.3870    32.5590    42.9000    24.3690     2.3690   -28.0360 
  216.3750    77.8880    38.3030    33.4040    43.6800    24.3690     2.3640   -28.1660 
  216.5000    76.8410    39.0010    33.8950    43.5430    24.3690     2.3610   -28.2100 
  216.6250    78.0380    40.1160    34.5850    43.1190    24.3690     2.3590   -28.2030 
  216.7500    79.6160    41.8360    35.7410    42.9660    24.3690     2.3550   -28.1490 
  216.8750    79.7600    44.0090    37.3280    44.2300    24.3690     2.3500   -28.0360 
  217.0000    77.2020    46.1840    39.0600    47.1470    24.3690     2.3450   -27.9050 
  217.1250    75.8600    47.5910    40.3620    50.1770    24.3650     2.3420   -27.7270 
  217.2500    77.1140    47.8840    40.8680    51.8120    24.3500     2.3440   -27.5420 
  217.3750    78.3380    47.0830    40.4960    52.2130    24.3230     2.3490   -27.3480 
  217.5000    76.5960    45.5840    39.4780    50.0700    24.3120     2.3560   -27.1730 
  217.6250    73.9800    44.0030    38.2480    45.9840    24.3260     2.3620   -26.9680 
  217.7500    73.6090    42.8080    37.2300    42.1160    24.3420     2.3660   -26.7970 
  217.8750    74.3390    42.1140    36.5690    42.0840    24.3310     2.3680   -26.6450 
  218.0000    74.3200    41.8570    36.2620    43.2700    24.3280     2.3670   -26.5010 
  218.1250    73.9450    41.9750    36.2890    43.7710    24.3520     2.3620   -26.4080 
  218.2500    74.0210    42.3960    36.5760    40.0970    24.3660     2.3520   -26.2970 
  218.3750    73.8480    43.2060    37.1730    38.2330    24.3690     2.3400   -26.1900 
  218.5000    75.1430    44.5320    38.1820    38.7140    24.3690     2.3300   -26.0800 
  218.6250    78.6900    46.5510    39.7800    41.7930    24.3640     2.3250   -26.0220 
  218.7500    79.3830    49.0920    41.8680    45.0980    24.3300     2.3230   -25.9640 
  218.8750    75.7400    51.9890    44.3220    46.8390    24.2520     2.3210   -25.9430 
  219.0000    71.6540    55.0800    46.9930    47.6770    24.1860     2.3170   -25.9400 
  219.1250    73.1430    58.3360    49.8120    50.2530    24.1310     2.3100   -25.9400 
  219.2500    76.3440    61.8440    52.8090    54.2530    24.0600     2.3020   -25.9640 
  219.3750    75.4570    65.7650    56.1050    57.8860    23.9770     2.2940   -26.0020 
  219.5000    69.6960    70.1900    59.7830    59.9480    23.9150     2.2880   -26.0680 
  219.6250    65.6110    75.0340    63.8010    63.6080    23.8430     2.2850   -26.1180 
  219.7500    67.4180    79.8080    67.7750    70.0770    23.7920     2.2840   -26.1440 
  219.8750    72.2940    83.9680    71.2620    77.0910    23.7740     2.2870   -26.1340 
  220.0000    74.7000    86.9690    73.8050    82.9190    23.8060     2.2920   -26.0740 
  220.1250    74.6930    88.0970    74.7990    87.8010    23.8530     2.2960   -26.0020 
  220.2500    75.5740    87.4700    74.3280    88.9600    23.9420     2.2990   -25.8760 
  220.3750    75.9000    85.2460    72.5150    87.7330    24.0990     2.3000   -25.7170 
  220.5000    74.2240    81.8120    69.6740    89.3850    24.2960     2.3010   -25.4940 
  220.6250    71.0890    77.8150    66.3150    89.9720    24.4250     2.3010   -25.1940 
  220.7500    70.3740    74.3290    63.3080    85.4980    24.4640     2.2980   -24.8570 
  220.8750    73.0880    72.3350    61.4620    75.9970    24.4480     2.2920   -24.4870 
  221.0000    76.4390    72.6760    61.5120    69.1000    24.3880     2.2880   -24.0910 
  221.1250    77.2870    76.1270    64.2230    68.5640    24.3320     2.2920   -23.6010 
  221.2500    74.7660    81.4880    68.7550    71.8820    24.2990     2.3110   -23.0800 
  221.3750    70.7990    86.9800    73.7660    82.0980    24.2970     2.3390   -22.5190 
  221.5000    69.0920    90.1640    77.2680    97.0900    24.2680     2.3610   -21.9180 
  221.6250    69.1620    87.8290    76.4830   110.4780    24.2450     2.3680   -21.2950 
  221.7500    66.7320    80.2020    71.1900   106.5140    24.2470     2.3590   -20.6480 
  221.8750    62.8330    68.9610    62.4130    92.6280    24.2450     2.3450   -19.9830 
  222.0000    61.5690    56.8330    52.2560    73.8760    24.2310     2.3400   -19.3240 
  222.1250    64.9120    46.5570    43.1290    53.8790    24.2640     2.3450   -18.7410 
  222.2500    68.9580    38.7930    35.9970    40.8270    24.3000     2.3510   -18.2010 
  222.3750    71.7930    33.3220    30.8610    33.8930    24.3340     2.3480   -17.7380 
  222.5000    74.0700    29.5810    27.3070    29.5010    24.3530     2.3340   -17.3520 
  222.6250    74.0990    27.1250    24.9850    26.0820    24.3510     2.3140   -17.0550 
