~V
VERS. 2.00: Ver 2.00
~W
STRT.M 62.0000:
STOP.M 265.0000:
STEP.M 0.1250:
NULL. -999.2500:
UWI. DF3071:
~C
DEPT.M :
GR.API :
CALI.CM :
RXO.OHMM :
RI. :
RML.OHMM :
DEN.GM/CC :
SP.MV :
~A
# ...
   73.2500    92.8990    23.6270     7.3990     7.1470     7.4930  -999.2500   -13.9600 
   73.3750    88.2380    23.5000     7.9190     7.2350     7.6570  -999.2500   -14.3280 
   73.5000    81.4870    23.3890     8.4360     7.3350     7.8360  -999.2500   -14.7690 
   73.6250    76.2960    23.3470     8.5340     7.4920     8.0910  -999.2500   -15.3000 
   73.7500    71.8390    23.3610     8.4410     7.7330     8.4530  -999.2500   -15.7920 
   73.8750    67.4840    23.3650     8.2400     8.0530     8.8930  -999.2500   -16.2630 
   74.0000    63.8150    23.2750     8.1160     8.3940     9.3150  -999.2500   -16.7080 
   74.1250    63.5520    23.0940     8.4050     8.6120     9.5460  -999.2500   -17.0380 
   74.2500    66.9470    22.9480     8.8430     8.6140     9.5250  -999.2500   -17.2610 
   74.3750    70.7710    22.9270     8.8910     8.4020     9.2810  -999.2500   -17.4440 
   74.5000    71.0550    23.0770     8.5620     8.0760     8.9250  -999.2500   -17.5730 
   74.6250    69.2320    23.3980     8.4260     7.7770     8.6050  -999.2500   -17.6720 
   74.7500    70.1350    23.7360     8.4650     7.5890     8.3930  -999.2500   -17.7920 
   74.8750    72.3350    23.9850     8.5130     7.5230     8.2850  -999.2500   -17.8600 
   75.0000    71.5670    24.1190     8.4970     7.5400     8.2430  -999.2500   -17.8420 
   75.1250    70.1920    24.1510     8.4660     7.5830     8.2420  -999.2500   -17.7330 
   75.2500    70.4960    24.1230     8.4580     7.6450     8.3020  -999.2500   -17.5570 
   75.3750    70.8990    24.0850     8.4470     7.7780     8.4680  -999.2500   -17.2700 
   75.5000    70.7810    24.0990     8.4490     8.0160     8.7380  -999.2500   -16.8760 
   75.6250    71.7050    24.1790     8.5230     8.2990     8.9920  -999.2500   -16.2670 
   75.7500    73.5030    24.2380     8.7320     8.4440     9.0300  -999.2500   -15.5000 
   75.8750    74.9680    24.2140     9.1360     8.2830     8.7150  -999.2500   -14.6080 
   76.0000    78.8250    24.1350     9.4660     7.7510     8.0410  -999.2500   -13.6550 
   76.1250    87.8160    24.1520     8.4840     6.9470     7.1600  -999.2500   -12.7590 
   76.2500    96.9700    24.2970     6.8660     6.1550     6.3590  -999.2500   -11.9910 
   76.3750   101.9190    24.4690     5.7100     5.5340     5.7990  -999.2500   -11.3990 
   76.5000   102.9550    24.5560     5.4250     5.1440     5.5270  -999.2500   -10.9980 
   76.6250   103.9690    24.5560     5.4950     5.0060     5.5160  -999.2500   -10.7930 
   76.7500   105.5470    24.5670     5.4790     5.0120     5.5970  -999.2500   -10.7830 
   76.8750   106.1440    24.6070     5.3730     5.0550     5.6370  -999.2500   -10.9740 
   77.0000   106.0840    24.6230     5.3040     5.0300     5.5510  -999.2500   -11.3000 
   77.1250   107.0870    24.5510     5.4340     4.8900     5.3540  -999.2500   -11.7310 
   77.2500   107.4180    24.4270     5.7860     4.7730     5.2380  -999.2500   -12.1380 
   77.3750   106.2970    24.3010     6.2330     4.8520     5.4200  -999.2500   -12.5510 
   77.5000   104.5550    24.1990     6.4120     5.2740     6.0850  -999.2500   -12.9700 
   77.6250   103.7340    24.1720     6.5940     6.1970     7.3690  -999.2500   -13.5860 
   77.7500   100.5540    24.2400     8.4730     7.4810     8.9390  -999.2500   -14.3490 
   77.8750    90.7410    24.3640    13.7190     8.8010    10.3170  -999.2500   -15.2590 
   78.0000    76.4390    24.4650    18.6680     9.6220    10.9890  -999.2500   -16.2720 
   78.1250    66.9100    24.3840    16.8690     9.4830    10.6230  -999.2500   -17.3420 
   78.2500    65.7910    24.0730    11.8850     8.8110     9.7210  -999.2500   -18.4490 
   78.3750    69.1640    23.6310     8.9970     8.0630     8.7950  -999.2500   -19.5110 
   78.5000    71.4090    23.2390     8.2410     7.5380     8.2000  -999.2500   -20.5060 
   78.6250    70.8300    23.0300     8.2020     7.3850     8.0760  -999.2500   -21.2960 
   78.7500    70.0260    22.9210     8.1980     7.4630     8.2080  -999.2500   -21.9010 
   78.8750    69.8820    22.8750     8.1690     7.6290     8.4230  -999.2500   -22.3360 
   79.0000    69.5520    22.8930     8.1400     7.7690     8.5950  -999.2500   -22.6190 
   79.1250    69.4470    22.9480     8.1480     7.8160     8.6550  -999.2500   -22.7550 
   79.2500    70.3760    23.0070     8.1320     7.7880     8.6310  -999.2500   -22.7700 
   79.3750    71.7940    23.0410     8.0690     7.7050     8.5540  -999.2500   -22.7000 
   79.5000    72.3790    23.0210     8.0070     7.5880     8.4550  -999.2500   -22.5590 
   79.6250    72.2590    22.9730     7.9250     7.4510     8.3580  -999.2500   -22.3730 
   79.7500    72.9730    22.8940     7.8150     7.3140     8.2780  -999.2500   -22.1230 
   79.8750    73.8100    22.7040     7.8120     7.1880     8.2200  -999.2500   -21.8180 
   80.0000    73.6290    22.3910     8.0370     7.0810     8.1910  -999.2500   -21.5120 
   80.1250    74.2310    22.1270     8.2660     7.0010     8.1960  -999.2500   -21.2140 
   80.2500    76.4040    22.0250     8.2410     6.9420     8.2190  -999.2500   -20.9690 
   80.3750    78.0490    22.0250     8.0360     6.8970     8.2440  -999.2500   -20.7440 
   80.5000    78.2820    22.0830     7.8880     6.8620     8.2610  -999.2500   -20.5800 
   80.6250    77.1760    22.2970     7.9210     6.8410     8.2750  -999.2500   -20.4150 
   80.7500    77.1190    22.6140     8.0540     6.8450     8.3060  -999.2500   -20.3410 
   80.8750    77.6580    22.9490     8.1280     6.8790     8.3660  -999.2500   -20.3230 
   81.0000    75.7090    23.3090     8.1150     6.9420     8.4520  -999.2500   -20.2910 
   81.1250    71.6250    23.6800     8.0950     7.0240     8.5430  -999.2500   -20.2540 
   81.2500    69.6060    23.8920     8.0870     7.0950     8.6090  -999.2500   -20.1640 
   81.3750    71.8800    23.8350     8.0270     7.1270     8.6260  -999.2500   -20.0380 
   81.5000    76.1930    23.6140     7.8660     7.0980     8.5780  -999.2500   -19.8680 
   81.6250    78.1850    23.4330     7.7080     6.9910     8.4570  -999.2500   -19.6770 
   81.7500    78.6050    23.3140     7.5750     6.8310     8.2920  -999.2500   -19.4020 
   81.8750    78.7370    23.1910     7.3810     6.6540     8.1250  -999.2500   -19.0870 
   82.0000    80.4990    23.0440     7.1090     6.5070     8.0080  -999.2500   -18.7880 
   82.1250    82.6880    22.9310     6.9000     6.4550     8.0170  -999.2500   -18.5110 
   82.2500    83.4250    22.8830     6.8230     6.5080     8.1580  -999.2500   -18.2950 
   82.3750    83.6220    22.8680     6.8660     6.6640     8.4100  -999.2500   -18.1540 
   82.5000    83.1970    22.8460     7.0490     6.8900     8.7170  -999.2500   -18.0900 
   82.6250    80.4250    22.8170     7.3160     7.1210     8.9840  -999.2500   -18.1190 
   82.7500    77.9700    22.8010     7.5230     7.2890     9.1480  -999.2500   -18.2510 
   82.8750    77.3850    22.8070     7.6970     7.3670     9.1860  -999.2500   -18.4340 
   83.0000    77.2650    22.8350     7.9880     7.3580     9.1210  -999.2500   -18.6340 
   83.1250    76.5760    22.8630     8.4700     7.2830     8.9970  -999.2500   -18.8480 
   83.2500    76.4310    22.8810     8.8420     7.1900     8.8800  -999.2500   -19.0530 
   83.3750    75.8300    22.9030     8.8200     7.1100     8.8070  -999.2500   -19.2730 
   83.5000    73.1380    22.9330     8.3790     7.0600     8.7920  -999.2500   -19.4050 
   83.6250    68.8970    22.9820     7.8120     7.0420     8.8170  -999.2500   -19.4560 
   83.7500    67.4880    23.0370     7.3710     7.0180     8.8130  -999.2500   -19.3580 
   83.8750    69.9430    23.0130     7.1090     6.9350     8.7090  -999.2500   -19.0750 
   84.0000    74.7520    22.8160     6.9760     6.7510     8.4590  -999.2500   -18.6340 
   84.1250    79.5070    22.4350     6.9160     6.4520     8.0610  -999.2500   -18.0000 
   84.2500    83.8810    22.0390     6.7990     6.1080     7.6130  -999.2500   -17.3150 
   84.3750    87.1230    21.7510     6.5130     5.7770     7.1950  -999.2500   -16.5700 
