~V
VERS. 2.00: Ver 2.00
~W
STRT.M 63.0000:
STOP.M 272.0000:
STEP.M 0.1250:
NULL. -999.2500:
UWI. DF3013:
~C
DEPT.M :
DEN.GM/CC :
SP.MV :
AC.US/MT :
GR.API :
CALI.CM :
RXO.OHMM :
RI. :
RML.OHMM :
~A
# ...
  173.0000     2.2470   -15.5630   417.1840    63.6160    25.0360    65.5770    72.3300    72.5150 
  173.1250     2.2660   -15.5630   410.6870    67.7070    24.9620    57.9790    62.2080    62.0100 
  173.2500     2.2940   -15.5510   399.8160    72.5020    24.8960    50.6650    54.1140    53.8050 
  173.3750     2.3240   -15.5300   387.1200    74.6360    24.8250    38.8500    48.2110    48.0750 
  173.5000     2.3470   -15.5230   378.3730    74.0490    24.7340    26.8760    44.6870    44.8860 
  173.6250     2.3550   -15.5560   379.1950    73.1090    24.5960    20.6990    43.7450    44.2490 
  173.7500     2.3490   -15.6190   386.7930    74.1190    24.4280    20.2420    44.3980    45.0280 
  173.8750     2.3340   -15.6810   397.4800    75.6110    24.2720    22.2340    45.8220    46.3230 
  174.0000     2.3200   -15.7090   408.1830    75.3460    24.1710    24.0070    47.1030    47.2450 
  174.1250     2.3110   -15.6860   416.4660    74.1470    24.1390    21.6330    47.3380    47.0730 
  174.2500     2.3040   -15.6480   421.4880    74.4630    24.1350    19.3480    46.6630    46.2120 
  174.3750     2.3010   -15.6220   423.5610    76.4390    24.1430    20.2740    45.7040    45.4130 
  174.5000     2.3070   -15.6150   424.1310    78.7840    24.1600    22.3800    45.2240    45.3810 
  174.6250     2.3180   -15.6250   424.2440    81.0710    24.1800    23.3450    45.8960    46.6100 
  174.7500     2.3230   -15.6410   424.2600    82.1440    24.2060    24.5910    47.4960    48.6840 
  174.8750     2.3130   -15.6650   424.0270    80.2950    24.2940    27.6570    49.5660    51.0940 
  175.0000     2.2910   -15.7020   423.9270    77.1010    24.5060    30.7940    51.5470    53.3330 
  175.1250     2.2740   -15.7520   424.2370    74.8890    24.7890    30.7860    52.9800    55.0340 
  175.2500     2.2700   -15.8090   424.4160    73.9540    24.9710    30.0850    53.9520    56.3040 
  175.3750     2.2740   -15.8590   423.8320    73.6500    25.0030    33.0670    54.6590    57.2980 
  175.5000     2.2780   -15.8880   422.3100    73.8270    24.9630    39.8130    55.2790    58.1400 
  175.6250     2.2790   -15.8890   420.6890    75.6700    24.9390    45.4680    55.8580    58.8510 
  175.7500     2.2820   -15.8780   419.5710    77.8010    24.9350    48.4010    56.3640    59.4480 
  175.8750     2.2810   -15.8840   418.9380    77.9480    24.9320    50.1040    56.8060    60.0070 
  176.0000     2.2760   -15.9260   418.4060    75.6090    24.9150    51.0160    57.3000    60.7010 
  176.1250     2.2740   -16.0010   417.8480    73.9090    24.8730    53.3830    58.1370    61.8600 
  176.2500     2.2790   -16.0780   417.4560    74.0670    24.8070    57.7200    59.5240    63.6420 
  176.3750     2.2830   -16.1350   417.2160    74.2710    24.6980    61.7230    61.5710    66.0890 
  176.5000     2.2810   -16.1700   417.3970    74.2900    24.5420    63.1700    64.2010    69.0430 
  176.6250     2.2750   -16.2020   418.0570    76.4360    24.4060    62.2320    67.1800    72.1740 
  176.7500     2.2740   -16.2530   418.7320    77.4950    24.3490    64.1160    70.1230    75.1070 
  176.8750     2.2800   -16.3380   418.9380    75.4470    24.3500    67.5650    72.7840    77.6310 
  177.0000     2.2870   -16.4600   418.5760    73.5760    24.3540    69.6860    74.9920    79.6090 
  177.1250     2.2890   -16.6260   418.2700    75.3180    24.3450    70.4040    76.4410    80.7410 
  177.2500     2.2880   -16.8280   418.4460    78.0890    24.3620    71.1060    76.9670    80.8920 
  177.3750     2.2810   -17.0450   419.0090    80.0340    24.4400    72.0900    76.3940    79.9810 
  177.5000     2.2730   -17.2430   419.5130    81.2360    24.5990    71.7610    74.9330    78.3890 
  177.6250     2.2680   -17.3880   419.5790    80.7310    24.8210    68.0220    73.4970    77.2860 
  177.7500     2.2670   -17.4850   418.9820    77.8140    25.0210    62.7540    73.3560    77.9250 
  177.8750     2.2670   -17.5520   417.5050    74.3110    25.1480    63.5480    75.5420    81.2380 
  178.0000     2.2630   -17.6200   415.2430    71.3190    25.2040    83.6040    80.7530    87.7680 
  178.1250     2.2600   -17.7140   413.2580    69.7500    25.2220   110.9800    89.6400    98.0560 
  178.2500     2.2630   -17.8350   412.6890    71.0300    25.2320   126.9810   101.0660   110.9450 
  178.3750     2.2710   -17.9660   412.9890    75.0980    25.2350   129.8040   114.0630   125.4920 
  178.5000     2.2760   -18.0930   412.9170    78.3150    25.2350   131.1130   127.6780   140.7480 
  178.6250     2.2740   -18.2090   412.2370    76.7430    25.2320   134.3930   141.2950   156.1200 
  178.7500     2.2700   -18.3140   412.5100    71.7220    25.2370   147.7460   154.7520   171.4570 
  178.8750     2.2710   -18.4110   414.1200    64.8840    25.2760   198.2420   167.7630   186.4500 
  179.0000     2.2740   -18.5050   414.7960    60.4410    25.3480   242.0240   179.3140   199.8820 
  179.1250     2.2650   -18.5890   411.0920    61.5750    25.3780   202.6830   186.8540   208.5870 
  179.2500     2.2420   -18.6590   404.5280    65.3900    25.3260   143.4470   189.3750   211.2350 
  179.3750     2.2200   -18.7080   398.9590    67.6320    25.2090   109.9700   186.9790   207.9180 
  179.5000     2.2130   -18.7280   397.4910    66.5350    25.0260   118.2070   181.1240   200.3920 
  179.6250     2.2260   -18.7170   400.5920    65.4810    24.7130   128.3550   173.6720   190.8590 
  179.7500     2.2410   -18.6990   405.4970    66.6380    24.3260   132.5230   166.2300   181.2430 
  179.8750     2.2520   -18.6980   409.1680    68.8180    23.9890   134.9450   159.2130   172.1100 
  180.0000     2.2590   -18.7280   408.5480    70.3570    23.7880   133.3240   152.6660   163.5950 
  180.1250     2.2620   -18.7690   403.4890    69.3880    23.7400   125.1610   146.5140   155.6610 
  180.2500     2.2580   -18.7830   399.9840    68.5920    23.7630   116.6130   140.4240   147.9080 
  180.3750     2.2530   -18.7440   401.4660    67.7540    23.7970   111.1710   134.0090   139.9470 
  180.5000     2.2580   -18.6510   405.5820    67.0140    23.8030   109.6160   126.9150   131.5390 
  180.6250     2.2760   -18.5190   407.0870    67.3280    23.7910   102.3750   119.2210   123.0520 
  180.7500     2.2920   -18.3900   406.0890    67.9330    23.8050    86.9190   111.9020   115.4930 
  180.8750     2.2980   -18.2900   405.2830    69.7430    23.8340    77.5710   105.9250   109.7710 
  181.0000     2.2940   -18.2410   406.4790    71.9860    23.8330    74.2550   101.9840   106.4570 
  181.1250     2.2790   -18.2500   409.7410    73.3500    23.7710    79.5220   100.7160   106.0730 
  181.2500     2.2590   -18.2910   413.6050    72.7970    23.6900    92.9430   101.6030   107.9400 
  181.3750     2.2440   -18.3430   415.9040    71.2220    23.6380   107.1580   104.4890   111.8550 
  181.5000     2.2440   -18.3920   414.4830    70.8220    23.7030   118.8960   109.4470   117.8860 
  181.6250     2.2570   -18.4300   409.7070    71.2130    24.0040   119.9140   117.2810   126.9220 
  181.7500     2.2640   -18.4630   406.0290    70.9090    24.4290   116.9960   128.1270   139.1510 
  181.8750     2.2590   -18.4990   406.1270    68.8740    24.7780   141.0400   142.2290   154.7960 
  182.0000     2.2480   -18.5430   409.5150    65.1830    24.9330   189.0210   158.9420   173.0460 
  182.1250     2.2430   -18.5960   413.1380    60.8850    24.9320   218.0550   175.2690   190.1250 
  182.2500     2.2440   -18.6530   414.9260    58.9330    24.9010   217.7150   185.9190   199.5830 
  182.3750     2.2440   -18.6940   415.1490    61.2920    24.8740   204.3670   185.9520   195.6640 
  182.5000     2.2420   -18.7070   415.0000    65.5060    24.8600   188.3060   173.4610   177.3570 
  182.6250     2.2410   -18.6950   415.2140    66.5100    24.8600   166.5950   150.8620   149.9400 
  182.7500     2.2460   -18.6880   415.2640    64.5450    24.8620   129.8840   126.4180   123.0410 
  182.8750     2.2540   -18.7080   414.9900    63.6670    24.8630    88.6750   104.6430   100.6710 
