~V
VERS. 2.00: Ver 2.00
~W
STRT.M 67.0000:
STOP.M 279.0000:
STEP.M 0.1250:
NULL. -999.2500:
UWI. DF3057:
~C
DEPT.M :
GR.API :
CALI.CM :
RXO.OHMM :
RI. :
RML.OHMM :
DEN.GM/CC :
SP.MV :
~A
# ...
  190.7500    71.7340    25.7270    43.6830    65.4630    72.9790     2.2860   -36.2740 
  190.8750    67.9920    25.8960    52.6570    72.1370    80.4830     2.2740   -36.3120 
  191.0000    66.3410    25.9180    58.1750    78.7350    87.8880     2.2620   -36.4600 
  191.1250    68.3450    25.7150    58.2580    84.3400    94.3990     2.2560   -36.7420 
  191.2500    70.0200    25.7280    56.2950    88.7210    99.7870     2.2540   -37.0330 
  191.3750    68.8770    25.8040    55.9600    91.7380   103.9550     2.2550   -37.2240 
  191.5000    64.7830    25.6930    59.5550    93.7620   107.3870     2.2580   -37.2950 
  191.6250    60.9520    25.6820    65.9720    95.5520   110.9900     2.2660   -37.3170 
  191.7500    59.2220    25.7220    68.9400    97.8440   115.5750     2.2810   -37.3900 
  191.8750    59.4340    25.7970    70.0800   101.2020   121.6980     2.2960   -37.5180 
  192.0000    60.8190    25.8590    68.8460   105.9310   129.4310     2.2990   -37.6610 
  192.1250    62.4280    25.6960    68.4190   112.2170   138.8140     2.2870   -37.7510 
  192.2500    63.8270    25.6850    75.2810   119.1650   148.9330     2.2690   -37.7470 
  192.3750    63.3530    25.7470    91.5680   126.2950   159.1510     2.2530   -37.6870 
  192.5000    61.2940    25.8570   107.1610   133.3820   169.1410     2.2440   -37.6550 
  192.6250    58.8450    25.7820   108.0740   140.5790   179.0170     2.2440   -37.7610 
  192.7500    59.7850    25.5370    98.0560   148.7570   189.9750     2.2500   -37.9570 
  192.8750    64.0430    25.4030    91.7530   158.6760   203.1330     2.2630   -38.1220 
  193.0000    66.3710    25.4700    94.2880   171.3170   219.7820     2.2810   -38.1680 
  193.1250    64.2710    25.3910   107.7290   187.3490   241.1610     2.3060   -38.0990 
  193.2500    60.1360    25.1860   129.5550   205.1180   265.5800     2.3350   -37.9970 
  193.3750    56.4210    25.1650   148.3380   222.4640   290.4690     2.3570   -37.9310 
  193.5000    54.8270    25.3980   148.9010   236.5720   311.4120     2.3580   -37.9050 
  193.6250    56.6110    25.5780   133.1500   243.4900   321.8190     2.3290   -37.8150 
  193.7500    57.4270    25.5570   126.2430   243.5350   321.7930     2.2900   -37.6220 
  193.8750    54.5960    25.7120   129.7970   238.4500   314.0950     2.2590   -37.3000 
  194.0000    50.1750    25.7710   134.0390   230.2130   301.7850     2.2420   -36.9110 
  194.1250    49.6920    25.9130   134.0180   219.8740   286.7050     2.2320   -36.5010 
  194.2500    53.7930    25.7730   125.5460   208.3120   269.8200     2.2280   -36.1700 
  194.3750    60.1610    25.7890   111.0230   195.0420   250.4640     2.2350   -35.9080 
  194.5000    63.3560    25.7530   105.6150   179.6690   228.1860     2.2470   -35.5810 
  194.6250    60.7800    25.7560   116.7900   162.3750   203.9540     2.2510   -35.0860 
  194.7500    60.6140    25.7500   122.1780   144.6280   179.6730     2.2420   -34.5080 
  194.8750    65.5800    25.7730   104.6760   127.2340   156.9320     2.2250   -33.9890 
  195.0000    69.8290    25.8120    78.4970   111.5130   137.2220     2.2090   -33.5740 
  195.1250    68.5620    25.7470    65.1860    99.0820   122.2250     2.2070   -33.2660 
  195.2500    66.7500    25.7310    60.1300    89.6760   110.9790     2.2190   -32.9550 
  195.3750    66.9020    25.7450    58.0900    82.9260   103.0080     2.2360   -32.5620 
  195.5000    67.7480    25.7860    55.3920    78.4280    97.9040     2.2510   -32.1290 
  195.6250    67.3470    25.7700    54.4120    76.2350    95.6320     2.2610   -31.7720 
  195.7500    67.1450    25.7220    54.3990    75.5920    95.1720     2.2670   -31.5190 
  195.8750    67.7550    25.7530    55.6930    76.3240    96.3050     2.2720   -31.3660 
  196.0000    68.9850    25.8230    56.7170    78.2530    98.8400     2.2790   -31.2500 
  196.1250    69.3550    25.8230    55.1700    81.2970   102.6560     2.2890   -31.0580 
  196.2500    67.5010    25.7470    55.9340    84.9240   106.9290     2.2960   -30.7710 
  196.3750    64.6770    25.7350    59.8500    88.4670   110.9240     2.2950   -30.4440 
  196.5000    62.7860    25.7590    64.5440    91.0680   113.6050     2.2860   -30.1580 
  196.6250    61.1690    25.8470    66.5380    91.6450   113.7490     2.2710   -30.0010 
  196.7500    59.4600    25.8220    67.0050    89.9860   111.1030     2.2640   -29.8530 
  196.8750    60.4850    25.8730    66.1900    85.8180   105.3360     2.2710   -29.5730 
  197.0000    65.9690    25.7990    63.8730    79.4550    96.9910     2.2860   -29.1460 
  197.1250    72.2600    25.9220    60.9160    71.8690    87.5260     2.2890   -28.6910 
  197.2500    73.3050    25.8110    57.0750    64.6380    78.7470     2.2770   -28.3070 
  197.3750    69.3040    25.8510    51.1920    58.6700    71.6220     2.2720   -28.0190 
  197.5000    64.2870    25.9460    43.5470    54.4720    66.8500     2.2930   -27.7920 
  197.6250    61.2030    25.9170    37.3770    52.9980    65.5000     2.3290   -27.4560 
  197.7500    59.3000    25.7420    35.2390    54.3800    67.7760     2.3420   -27.0050 
  197.8750    58.4870    25.6000    36.6360    58.4700    73.1350     2.3340   -26.5490 
  198.0000    58.3070    25.5630    40.3200    63.6960    79.6270     2.3370   -26.2060 
  198.1250    57.3230    25.4260    48.9200    66.3150    82.6930     2.3910   -25.9250 
  198.2500    55.0550    25.1460    53.6050    63.2930    79.2620     2.4780   -25.6470 
  198.3750    54.6770    25.0540    55.6070    54.0730    68.6460     2.5650   -25.3100 
  198.5000    56.4530    24.8120    73.7630    41.3500    53.3330     2.6290   -24.8700 
  198.6250    58.0750    24.6030    98.1960    29.2880    37.8580     2.6660   -24.3910 
  198.7500    59.8480    24.3320    86.6510    19.9680    25.4290     2.6800   -24.0040 
  198.8750    63.2180    23.9880    45.2780    13.6110    16.8650     2.6620   -23.7530 
  199.0000    64.7280    23.9310    15.4600     9.7910    11.7510     2.6140   -23.5640 
  199.1250    59.2160    24.1570     6.9080     7.9670     9.3990     2.5640   -23.4180 
  199.2500    52.6700    24.2520     5.9360     7.1430     8.4910     2.5390   -23.2560 
  199.3750    50.2620    24.2120     5.8700     6.9710     8.4280     2.5360   -23.1040 
  199.5000    51.1780    24.1940     5.9220     7.2490     8.8660     2.5360   -23.0280 
  199.6250    52.1500    24.2300     5.9850     7.7790     9.4940     2.5280   -23.1400 
  199.7500    54.1900    24.2550     6.0180     8.3350    10.0710     2.5220   -23.3810 
  199.8750    58.9100    24.1490     6.1640     8.7770    10.4870     2.5250   -23.6130 
  200.0000    65.7270    24.1530     6.5270     9.0290    10.6970     2.5300   -23.7780 
  200.1250    74.5120    24.0720     6.9380     9.0480    10.6920     2.5220   -23.8910 
  200.2500    85.4690    23.8980     7.0960     8.8760    10.5410     2.5060   -24.0680 
  200.3750    94.9250    23.8710     7.0180     8.5710    10.3340     2.4940   -24.3590 
  200.5000    98.1720    23.9170     6.8860     8.2300    10.2110     2.4920   -24.7480 
  200.6250    97.3860    24.2440     6.8450     8.0090    10.3700     2.4930   -25.1210 
  200.7500    99.4030    24.5200     6.9030     7.9830    10.8730     2.4910   -25.3790 
  200.8750   104.5710    24.9520     7.3600     8.1870    11.7370     2.4920   -25.6180 
  201.0000   107.7580    25.3470     8.1590     8.6240    12.9020     2.5010   -25.9430 
  201.1250   103.6500    25.4290     9.2250     9.1980    14.1640     2.5040   -26.4370 
  201.2500    94.6360    25.2430    10.0220     9.7470    15.2550     2.4800   -26.9710 
  201.3750    88.3530    24.9830    11.2030    10.1640    16.0340     2.4370   -27.4360 
  201.5000    89.0960    24.8610    12.1560    10.4000    16.4510     2.4030   -27.7790 
  201.6250    90.6020    25.0210    12.2360    10.4300    16.5720     2.4000   -28.0130 
  201.7500    88.3040    25.0850    11.3440    10.3580    16.6240     2.4120   -28.2770 
  201.8750    87.4460    25.1090    10.6980    10.3160    16.8280     2.4190   -28.5860 
