~V
VERS. 2.00: Ver 2.00
~W
STRT.M 55.0000:
STOP.M 252.0000:
STEP.M 0.1250:
NULL. -999.2500:
UWI. DF3024:
~C
DEPT.M :
GR.API :
RML.OHMM :
RI. :
RXO.OHMM :
CALI.CM :
DEN.GM/CC :
SP.MV :
~A
# ...
  133.7500    86.1230     9.2510     7.7120     9.2210    24.2360     2.3650   -17.4750 
  133.8750    87.9420     9.8070     8.1200     8.5250    24.2310     2.3890   -17.4140 
  134.0000    88.1260    10.9260     8.9520     9.1990    24.2110     2.4300   -17.3590 
  134.1250    81.3600    12.5450    10.2530    11.2330    24.1710     2.4800   -17.1470 
  134.2500    69.9910    14.2870    11.7790    14.1080    24.1500     2.5260   -17.0420 
  134.3750    59.6380    15.8590    13.2980    16.8210    24.1440     2.5620   -17.0420 
  134.5000    55.4380    17.0720    14.6000    17.5240    24.1260     2.5850   -16.9320 
  134.6250    56.3610    17.8800    15.5440    16.6640    24.1030     2.5990   -16.8340 
  134.7500    56.6170    18.5180    16.2550    16.8240    24.0810     2.6030   -16.8430 
  134.8750    55.4200    19.1190    16.8400    17.7440    24.0690     2.5990   -16.8480 
  135.0000    54.2590    19.6760    17.3290    18.6450    24.0420     2.5880   -16.8280 
  135.1250    53.8290    19.9800    17.6000    19.4210    23.9710     2.5750   -16.8280 
  135.2500    52.7940    19.8800    17.5540    19.3080    23.9150     2.5620   -16.8490 
  135.3750    53.9310    19.3260    17.1420    19.0940    23.9340     2.5500   -16.7980 
  135.5000    59.5430    18.4200    16.4250    18.7430    24.0200     2.5370   -16.7120 
  135.6250    64.1840    17.3820    15.5640    16.8570    24.0890     2.5240   -16.7620 
  135.7500    63.9570    16.4860    14.7890    14.8500    24.1340     2.5140   -16.7300 
  135.8750    62.5360    15.8970    14.2480    13.5710    24.1420     2.5080   -16.5750 
  136.0000    63.3000    15.7020    14.0320    13.1130    24.1500     2.5030   -16.5410 
  136.1250    65.0560    15.9650    14.2140    12.9880    24.1480     2.4920   -16.5460 
  136.2500    65.9330    16.5100    14.6650    13.1120    24.1260     2.4790   -16.3980 
  136.3750    66.3430    17.1650    15.2520    13.6300    24.0790     2.4670   -16.3230 
  136.5000    65.2890    17.7330    15.8150    14.5230    24.0420     2.4620   -16.3580 
  136.6250    63.3930    17.9800    16.1460    15.2100    24.0570     2.4650   -16.2190 
  136.7500    64.2900    17.8560    16.1740    14.8760    24.1010     2.4720   -16.1110 
  136.8750    68.2950    17.3910    15.8940    14.2020    24.1340     2.4830   -16.1120 
  137.0000    71.6940    16.7070    15.3850    13.4200    24.1500     2.4970   -15.9800 
  137.1250    69.7260    16.0010    14.7930    12.8610    24.1570     2.5120   -15.8320 
  137.2500    64.0480    15.4510    14.2830    12.1200    24.1610     2.5230   -15.8420 
  137.3750    59.9720    15.1310    13.9320    11.4410    24.1790     2.5270   -15.7890 
  137.5000    59.2770    15.0220    13.7500    11.2260    24.2140     2.5250   -15.6320 
  137.6250    57.7020    15.0440    13.6960    11.7900    24.2310     2.5220   -15.6530 
  137.7500    54.5190    15.0640    13.6660    12.7240    24.2360     2.5210   -15.7140 
  137.8750    53.9100    15.0190    13.6030    13.5740    24.2360     2.5220   -15.6420 
  138.0000    57.1340    14.9050    13.4920    13.4150    24.2360     2.5260   -15.5650 
  138.1250    60.7050    14.7810    13.3730    12.5910    24.2360     2.5310   -15.5690 
  138.2500    63.4050    14.7440    13.3220    12.3220    24.2360     2.5370   -15.5310 
  138.3750    64.4270    14.8840    13.4130    12.6190    24.2320     2.5420   -15.4380 
  138.5000    62.3020    15.2660    13.7050    13.2930    24.2170     2.5440   -15.3750 
  138.6250    58.9410    15.9410    14.2580    13.6430    24.1850     2.5410   -15.3210 
  138.7500    58.5850    16.7790    14.9870    14.0850    24.1610     2.5380   -15.2080 
  138.8750    60.4690    17.6310    15.7820    14.7100    24.1510     2.5390   -15.0760 
  139.0000    60.7850    18.3290    16.4960    15.9340    24.1540     2.5420   -15.0400 
  139.1250    57.2130    18.6950    16.9430    17.8190    24.2070     2.5420   -15.0430 
  139.2500    53.3390    18.7760    17.1030    18.6170    24.2070     2.5320   -14.9480 
  139.3750    52.4420    18.6680    17.0250    17.6570    24.1430     2.5140   -14.9130 
  139.5000    54.2290    18.4850    16.8130    16.5340    24.0550     2.4920   -14.9970 
  139.6250    54.7320    18.2830    16.5420    16.1830    24.0260     2.4780   -14.9070 
  139.7500    54.7200    18.0230    16.2300    16.3100    24.0550     2.4760   -14.7990 
  139.8750    55.9170    17.6400    15.8370    16.5270    24.1080     2.4820   -14.8730 
  140.0000    57.0280    17.1160    15.3450    16.4670    24.1870     2.4910   -14.8990 
  140.1250    58.0560    16.5400    14.8060    15.5450    24.2210     2.4940   -14.7910 
  140.2500    61.5640    16.0880    14.3570    14.4640    24.2280     2.4940   -14.8260 
  140.3750    66.1880    15.8810    14.1020    13.3560    24.2290     2.4930   -14.8890 
  140.5000    67.4030    15.9530    14.0840    12.7000    24.2260     2.4930   -14.8080 
  140.6250    64.0040    16.2520    14.2840    13.2970    24.2170     2.4960   -14.8630 
  140.7500    61.3910    16.5860    14.5480    14.5670    24.2130     2.4980   -15.0240 
  140.8750    60.7050    16.8150    14.7510    15.2840    24.2270     2.4970   -15.0760 
  141.0000    60.9620    16.8480    14.8000    14.3440    24.2360     2.4920   -15.0820 
  141.1250    62.1690    16.6360    14.6310    13.6400    24.2360     2.4850   -15.1850 
  141.2500    65.3060    16.2710    14.3180    13.5980    24.2280     2.4770   -15.2810 
  141.3750    69.3850    15.8410    13.9400    13.7280    24.2040     2.4730   -15.3270 
  141.5000    72.2450    15.4400    13.5830    13.3810    24.1700     2.4730   -15.3330 
  141.6250    71.8200    15.1770    13.3410    13.0120    24.1570     2.4740   -15.3220 
  141.7500    68.6700    15.0920    13.2380    12.9120    24.1540     2.4730   -15.2750 
  141.8750    65.4390    15.1910    13.2800    12.9750    24.1570     2.4650   -15.1720 
  142.0000    64.1900    15.4300    13.4380    13.0520    24.1660     2.4520   -15.1010 
  142.1250    65.0620    15.7160    13.6540    13.4200    24.2090     2.4380   -15.0670 
  142.2500    65.8240    15.9250    13.8330    13.7020    24.2270     2.4280   -14.9090 
  142.3750    65.6580    15.9800    13.9160    13.8260    24.2310     2.4260   -14.7040 
  142.5000    64.1230    15.8610    13.8770    13.7460    24.2300     2.4320   -14.6670 
  142.6250    62.8470    15.5930    13.7180    13.1700    24.2300     2.4430   -14.6540 
  142.7500    64.6680    15.2990    13.5210    12.5790    24.2240     2.4570   -14.5270 
  142.8750    67.8170    15.0800    13.3560    12.3610    24.2120     2.4700   -14.5150 
  143.0000    67.7150    15.0130    13.2810    12.4030    24.2230     2.4810   -14.6310 
  143.1250    65.2500    15.1570    13.3530    12.5660    24.2310     2.4900   -14.6050 
  143.2500    64.2560    15.4510    13.5480    12.9280    24.2360     2.4950   -14.6060 
  143.3750    65.2750    15.8280    13.8360    13.5270    24.2360     2.4990   -14.7730 
  143.5000    65.8130    16.2110    14.1670    14.0650    24.2360     2.5020   -14.8690 
  143.6250    65.8300    16.5220    14.4850    14.1470    24.2360     2.5020   -14.8630 
  143.7500    66.2710    16.7570    14.7600    14.3210    24.2360     2.5000   -15.0030 
  143.8750    67.1850    16.9420    14.9950    14.8150    24.2360     2.4940   -15.1620 
  144.0000    67.3850    17.1120    15.2010    15.0430    24.2290     2.4850   -15.1860 
  144.1250    65.1370    17.2700    15.3730    14.7560    24.2040     2.4770   -15.3020 
  144.2500    63.2960    17.3520    15.4650    14.4330    24.1640     2.4750   -15.5590 
  144.3750    64.2200    17.2400    15.3830    14.4360    24.1270     2.4820   -15.8060 
  144.5000    66.2820    16.8150    15.0260    14.4850    24.0920     2.4940   -16.0590 
  144.6250    67.0330    15.9730    14.2940    14.2170    24.1190     2.5040   -16.3630 
  144.7500    68.0920    14.8700    13.3170    13.5040    24.2130     2.5050   -16.6720 
  144.8750    73.5110    13.6910    12.2490    12.1270    24.3340     2.4920   -17.0460 
