~V
VERS. 2.00: Ver 2.00
~W
STRT.M 55.0000:
STOP.M 272.0000:
STEP.M 0.1250:
NULL. -999.2500:
UWI. DF3078:
~C
DEPT.M :
GR.API :
CALI.CM :
RXO.OHMM :
RI. :
RML.OHMM :
DEN.GM/CC :
SP.MV :
~A
   55.0000  -999.2500  -999.2500  -999.2500  -999.2500  -999.2500  -999.2500    39.1070 
   55.1250  -999.2500  -999.2500  -999.2500  -999.2500  -999.2500  -999.2500    37.3690 
   55.2500  -999.2500  -999.2500  -999.2500  -999.2500  -999.2500  -999.2500    36.0270 
   55.3750  -999.2500  -999.2500  -999.2500  -999.2500  -999.2500  -999.2500    35.1790 
   55.5000  -999.2500  -999.2500  -999.2500  -999.2500  -999.2500  -999.2500    34.8980 
   55.6250  -999.2500  -999.2500  -999.2500  -999.2500  -999.2500  -999.2500    35.3110 
   55.7500  -999.2500  -999.2500  -999.2500  -999.2500  -999.2500  -999.2500    36.3350 
   55.8750  -999.2500  -999.2500  -999.2500  -999.2500  -999.2500  -999.2500    37.9300 
   56.0000  -999.2500  -999.2500  -999.2500  -999.2500  -999.2500  -999.2500    39.9860 
   56.1250  -999.2500  -999.2500  -999.2500  -999.2500  -999.2500  -999.2500    42.4210 
   56.2500  -999.2500  -999.2500  -999.2500  -999.2500  -999.2500  -999.2500    45.0180 
   56.3750  -999.2500  -999.2500  -999.2500  -999.2500  -999.2500  -999.2500    47.6650 
   56.5000  -999.2500  -999.2500  -999.2500  -999.2500  -999.2500  -999.2500    50.2940 
   56.6250  -999.2500  -999.2500  -999.2500  -999.2500  -999.2500  -999.2500    52.8200 
   56.7500  -999.2500  -999.2500  -999.2500  -999.2500  -999.2500  -999.2500    55.1260 
   56.8750  -999.2500  -999.2500  -999.2500  -999.2500  -999.2500  -999.2500    57.1110 
   57.0000  -999.2500  -999.2500  -999.2500  -999.2500  -999.2500  -999.2500    58.7370 
   57.1250  -999.2500  -999.2500  -999.2500  -999.2500  -999.2500  -999.2500    59.9360 
   57.2500  -999.2500  -999.2500  -999.2500  -999.2500  -999.2500  -999.2500    60.8380 
   57.3750  -999.2500  -999.2500  -999.2500  -999.2500  -999.2500  -999.2500    61.4760 
   57.5000  -999.2500  -999.2500  -999.2500  -999.2500  -999.2500  -999.2500    61.8360 
   57.6250  -999.2500  -999.2500  -999.2500  -999.2500  -999.2500  -999.2500    61.9150 
   57.7500  -999.2500  -999.2500  -999.2500  -999.2500  -999.2500  -999.2500    61.8570 
   57.8750  -999.2500  -999.2500  -999.2500  -999.2500  -999.2500  -999.2500    61.7350 
   58.0000  -999.2500  -999.2500  -999.2500  -999.2500  -999.2500  -999.2500    61.5860 
   58.1250  -999.2500  -999.2500  -999.2500  -999.2500  -999.2500  -999.2500    61.4530 
   58.2500  -999.2500  -999.2500  -999.2500  -999.2500  -999.2500  -999.2500    61.3600 
   58.3750  -999.2500  -999.2500  -999.2500  -999.2500  -999.2500  -999.2500    61.3450 
   58.5000  -999.2500  -999.2500  -999.2500  -999.2500  -999.2500  -999.2500    61.4390 
   58.6250  -999.2500  -999.2500  -999.2500  -999.2500  -999.2500  -999.2500    61.6510 
   58.7500  -999.2500  -999.2500  -999.2500  -999.2500  -999.2500  -999.2500    61.8880 
   58.8750  -999.2500  -999.2500  -999.2500  -999.2500  -999.2500  -999.2500    62.1240 
   59.0000  -999.2500  -999.2500  -999.2500  -999.2500  -999.2500  -999.2500    62.3480 
   59.1250  -999.2500  -999.2500  -999.2500  -999.2500  -999.2500  -999.2500    62.5370 
   59.2500  -999.2500  -999.2500  -999.2500  -999.2500  -999.2500  -999.2500    62.7110 
   59.3750  -999.2500  -999.2500  -999.2500  -999.2500  -999.2500  -999.2500    62.8530 
   59.5000    51.0490    25.3000     1.5110     0.1840     6.5290  -999.2500    62.9460 
   59.6250    51.0490    25.3000     1.5110     0.1840     6.5290  -999.2500    62.9630 
   59.7500    50.5210    25.3000     1.5250     0.1870     6.5020  -999.2500    62.9430 
   59.8750    50.0170    25.3000     1.5350     0.1940     6.4230  -999.2500    62.8770 
   60.0000    51.8080    25.3000     1.5020     0.2000     6.3410  -999.2500    62.7750 
   60.1250    54.7750    25.3000     1.4870     0.2010     6.3100  -999.2500    62.6270 
   60.2500    55.0860    25.3000     1.5000     0.1970     6.3160  -999.2500    62.4120 
   60.3750    51.8440    25.3000     1.5410     0.1910     6.3060  -999.2500    62.1150 
   60.5000    49.1830    25.3000     1.5840     0.1840     6.2340  -999.2500    61.7380 
   60.6250    51.5880    25.3000     1.5910     0.1790     6.0880  -999.2500    61.2810 
   60.7500    54.8450    25.3000     1.5740     0.1740     5.9260  -999.2500    60.7160 
   60.8750    53.6180    25.3000     1.5830     0.1720     5.7880  -999.2500    60.0190 
   61.0000    50.1450    25.3000     1.6330     0.1760     5.6990  -999.2500    59.2010 
   61.1250    51.6430    25.3000     1.6640     0.1860     5.6600  -999.2500    58.2850 
   61.2500    56.1850    25.3000     1.6370     0.2000     5.6310  -999.2500    57.3280 
   61.3750    57.8050    25.3000     1.5820     0.2120     5.5810  -999.2500    56.3430 
   61.5000    55.4960    25.3000     1.5410     0.2210     5.4900  -999.2500    55.3510 
   61.6250    53.1890    25.3000     1.5160     0.2240     5.3530  -999.2500    54.4210 
   61.7500    51.9050    25.3000     1.4520     0.2250     5.1980  -999.2500    53.6130 
   61.8750    51.6340    25.3000     1.3700     0.2240     5.0450  -999.2500    53.0110 
   62.0000    51.0860    25.3000     1.3280     0.2240     4.9040  -999.2500    52.6430 
   62.1250    49.8930    25.3000     1.3230     0.2230     4.7660  -999.2500    52.5350 
   62.2500    48.3840    25.3000     1.3290     0.2220     4.6160  -999.2500    52.5940 
   62.3750    47.3950    25.3000     1.2940     0.2190     4.4470  -999.2500    52.8000 
   62.5000    46.2540    25.3000     1.2190     0.2150     4.2710  -999.2500    53.1010 
   62.6250    45.2980    25.3000     1.1660     0.2090     4.1190  -999.2500    53.4300 
   62.7500    46.9580    25.3000     1.1820     0.2040     4.0080  -999.2500    53.7500 
   62.8750    49.6660    25.3000     1.2430     0.2010     3.9290  -999.2500    54.0150 
   63.0000    50.8370    25.3000     1.3030     0.2030     3.8530  -999.2500    54.2170 
   63.1250    50.7050    25.3000     1.3150     0.2090     3.7460  -999.2500    54.3420 
   63.2500    50.1110    25.3000     1.2930     0.2170     3.6080  -999.2500    54.4550 
   63.3750    48.5740    25.3000     1.2480     0.2230     3.4580  -999.2500    54.5950 
   63.5000    47.6850    25.3000     1.2050     0.2290     3.3210  -999.2500    54.7780 
   63.6250    49.7820    25.3000     1.1630     0.2350     3.2230  -999.2500    54.9820 
   63.7500    52.3330    25.3000     1.1270     0.2430     3.1620  -999.2500    55.1810 
   63.8750    52.6000    25.3000     1.0920     0.2510     3.1400  -999.2500    55.3560 
   64.0000    49.9500    25.3000     1.0550     0.2580     3.1660  -999.2500    55.4490 
   64.1250    47.0050    25.3000     1.0120     0.2600     3.2660  -999.2500    55.3800 
   64.2500    46.8660    25.3000     0.9630     0.2530     3.4260  -999.2500    55.1070 
   64.3750    49.5630    25.3000     0.9120     0.2350     3.5570  -999.2500    54.5550 
   64.5000    51.2830    25.3000     0.8710     0.2030     3.4450  -999.2500    53.6800 
   64.6250    49.7650    25.3000     0.8400     0.1570     2.7590  -999.2500    52.4170 
   64.7500    48.7750    25.3000     0.8140     0.1050     1.7730  -999.2500    50.7280 
   64.8750    49.7650    25.3000     0.7980     0.0560     0.9400  -999.2500    48.4930 
   65.0000    51.6420    25.3000     0.8090     0.0170     0.4730  -999.2500    45.5300 
   65.1250    53.6580    25.3000     0.8780    -0.0020     0.3810  -999.2500    41.5360 
   65.2500    56.2660    25.3000     1.1330     0.0100     0.5460  -999.2500    36.5510 
   65.3750    60.0530    25.4910     1.8900     0.0880     0.9820  -999.2500    30.7650 
   65.5000    65.5270    26.0260     3.2880     0.2930     1.7840  -999.2500    24.5590 
   65.6250    72.6070    26.5640     5.1440     0.7870     3.2410  -999.2500    18.2070 
   65.7500    76.5470    26.2750     6.6030     1.6610     5.3930  -999.2500    11.9740 
   65.8750    75.0680    25.2880     7.5360     2.9170     7.8050  -999.2500     6.1120 
   66.0000    72.0590    24.4080     8.3780     4.3120     9.3470  -999.2500     0.8970 
   66.1250    72.2600    24.0200     9.5860     5.3940     9.3650  -999.2500    -3.2470 
