~V
VERS. 2.00: Ver 2.00
~W
STRT.M 60.0000:
STOP.M 275.0000:
STEP.M 0.1250:
NULL. -999.2500:
UWI. DF3003:
~C
DEPT.M :
DEN.GM/CC :
SP.MV :
AC.US/MT :
GR.API :
RML.OHMM :
RI. :
RXO.OHMM :
CALI.CM :
~A
# ...
  120.0000     2.5800    -8.0740   233.3970    79.1860    11.4730     9.5110    14.2610    23.9630 
  120.1250     2.5690    -8.5930   236.0110    76.8750    11.5050     9.9770    12.8220    23.9010 
  120.2500     2.5130    -9.0360   262.4270    77.1030    10.8220     9.7470    10.3720    23.9040 
  120.3750     2.4340    -9.4190   301.2350    79.5030     9.9110     9.0860     8.6010    23.9450 
  120.5000     2.3560    -9.6800   342.3270    80.4400     9.1260     8.3050     7.5980    24.0170 
  120.6250     2.3010    -9.7870   375.0420    75.5980     8.5440     7.5800     7.2050    24.1240 
  120.7500     2.2700    -9.6560   394.6170    71.5930     7.9930     6.8970     6.8290    24.2000 
  120.8750     2.2530    -9.3280   403.8170    75.1490     7.3490     6.2010     6.2390    24.2700 
  121.0000     2.2390    -8.9970   409.9730    83.4640     6.5890     5.4810     5.4390    24.3840 
  121.1250     2.2210    -8.6870   417.8840    89.4350     5.8220     4.8090     4.7140    24.5620 
  121.2500     2.2070    -8.4720   424.2460    92.5890     5.2420     4.3000     4.3310    24.6860 
  121.3750     2.2090    -8.3480   423.7550    96.3120     5.0470     4.0970     4.3520    24.5470 
  121.5000     2.2370    -8.4050   412.6930    99.4100     5.4340     4.3600     4.8050    24.1710 
  121.6250     2.2960    -8.7330   385.8350    97.9710     6.6660     5.3260     6.7150    23.6870 
  121.7500     2.3700    -9.2470   345.6180    92.0870     8.5520     6.8820    10.5330    23.3860 
  121.8750     2.4340    -9.9490   300.4950    83.0230    10.7350     8.7890    15.3080    23.1960 
  122.0000     2.4680   -10.6150   266.2610    73.8580    12.6070    10.6000    19.8290    23.0480 
  122.1250     2.4520   -11.2660   263.4800    69.3720    13.2500    11.6100    21.2140    22.8760 
  122.2500     2.4020   -11.9210   289.7500    69.6960    12.6220    11.6240    16.3850    22.7610 
  122.3750     2.3390   -12.5620   331.9480    72.3970    11.2960    10.8670    11.2340    22.7220 
  122.5000     2.2820   -13.2090   371.4720    75.9190    10.0490     9.8510     9.3620    22.7440 
  122.6250     2.2430   -13.7080   392.1210    77.4380     9.3650     9.0660     8.9800    22.8080 
  122.7500     2.2190   -14.1130   398.6310    75.8330     9.1290     8.6210     8.7820    22.9460 
  122.8750     2.2040   -14.4440   399.1140    73.4690     9.1770     8.4610     8.5980    23.1500 
  123.0000     2.1970   -14.7660   398.6810    72.4800     9.3490     8.4730     8.4910    23.2700 
  123.1250     2.1940   -15.0390   398.7370    72.5310     9.5280     8.5600     8.4810    23.5420 
  123.2500     2.1940   -15.2180   399.1770    72.6010     9.6640     8.6500     8.5540    23.6010 
  123.3750     2.1960   -15.3690   399.7300    72.8340     9.7570     8.7260     8.6540    23.6760 
  123.5000     2.1970   -15.4010   399.9270    73.0140     9.8160     8.7850     8.6850    23.7180 
  123.6250     2.1950   -15.3750   399.8080    72.6800     9.8510     8.8300     8.6920    23.7570 
  123.7500     2.1920   -15.3220   399.8540    71.5130     9.8730     8.8670     8.7860    23.8290 
  123.8750     2.1880   -15.2140   400.0360    70.0700     9.8850     8.8930     8.8850    23.9280 
  124.0000     2.1850   -15.0540   399.7680    69.6140     9.8860     8.9050     8.8740    23.9620 
  124.1250     2.1850   -14.8250   398.3580    68.5180     9.8710     8.8980     8.8100    23.9670 
  124.2500     2.1830   -14.6690   396.2460    66.0560     9.8480     8.8800     8.7270    23.9670 
  124.3750     2.1790   -14.5510   394.4420    66.0030     9.8210     8.8550     8.5720    23.9670 
  124.5000     2.1720   -14.4620   394.6160    69.3930     9.7870     8.8200     8.3740    23.9670 
  124.6250     2.1660   -14.4230   398.2610    70.4980     9.7100     8.7490     8.1600    23.9660 
  124.7500     2.1640   -14.3590   404.7230    69.6570     9.5600     8.6150     7.9750    23.9620 
  124.8750     2.1680   -14.3180   414.3270    70.7510     9.3190     8.3950     7.7710    23.9530 
  125.0000     2.1780   -14.3220   423.5500    73.4430     9.0030     8.0930     7.4840    23.9330 
  125.1250     2.1910   -14.3820   425.1350    74.9460     8.6540     7.7360     7.1510    23.8880 
  125.2500     2.2040   -14.4050   419.4760    75.4220     8.3360     7.3880     6.8020    23.8200 
  125.3750     2.2130   -14.3590   412.0050    75.9520     8.0900     7.1020     6.6270    23.7850 
  125.5000     2.2190   -14.3230   406.7360    75.5890     7.9480     6.9160     6.6700    23.7070 
  125.6250     2.2200   -14.1980   403.1140    73.7160     7.9510     6.8730     6.7420    23.6810 
  125.7500     2.2180   -14.1210   400.4190    72.8240     8.0680     6.9440     6.9060    23.6460 
  125.8750     2.2150   -14.0310   399.0590    73.6680     8.2590     7.1000     7.1620    23.5700 
  126.0000     2.2100   -13.8900   398.4950    75.2450     8.4620     7.2950     7.4820    23.5160 
  126.1250     2.2040   -13.6700   398.8380    75.1050     8.6050     7.4770     7.7290    23.4340 
  126.2500     2.1970   -13.4350   400.0310    73.4470     8.6750     7.6220     7.8260    23.4010 
  126.3750     2.1920   -13.2370   401.3810    70.5260     8.7040     7.7410     7.7080    23.3570 
  126.5000     2.1910   -12.9990   401.5560    66.7830     8.7570     7.8670     7.5670    23.2610 
  126.6250     2.1980   -12.8360   399.2050    66.4370     8.9080     8.0430     7.7420    23.1830 
  126.7500     2.2090   -12.6540   395.2410    69.2250     9.1460     8.2570     8.2210    23.1690 
  126.8750     2.2190   -12.4730   391.4180    72.0600     9.4070     8.4570     8.6640    23.1680 
  127.0000     2.2230   -12.3220   389.6650    72.0210     9.5740     8.5620     8.9850    23.1740 
  127.1250     2.2190   -12.2000   391.7530    69.6530     9.4770     8.4560     8.9440    23.1860 
  127.2500     2.2120   -12.0470   397.1890    67.2200     9.1130     8.1410     8.6140    23.2140 
  127.3750     2.2080   -11.8130   404.6610    66.7940     8.5380     7.6680     8.1140    23.2860 
  127.5000     2.2080   -11.6390   411.4920    71.1380     7.8830     7.1270     7.6210    23.3440 
  127.6250     2.2140   -11.4300   413.5750    78.9150     7.3180     6.6470     7.3180    23.4230 
  127.7500     2.2230   -11.2030   410.5550    84.1190     6.9990     6.3500     7.4630    23.5660 
  127.8750     2.2330   -10.9340   404.2730    81.7020     7.1260     6.4040     8.1900    23.7150 
  128.0000     2.2480   -10.5960   396.0900    73.7490     7.9880     7.0430     9.5040    23.9030 
  128.1250     2.2780   -10.2890   381.5610    68.0230     9.8840     8.6290    12.0510    24.0270 
  128.2500     2.3250    -9.9610   354.3890    68.2820    12.4510    10.9870    16.5720    24.0710 
  128.3750     2.3850    -9.6700   313.4870    70.3440    15.0030    13.6590    23.3380    24.0730 
  128.5000     2.4460    -9.3510   269.1490    69.7100    16.7200    15.8190    30.6480    24.0660 
  128.6250     2.4820    -9.0050   244.5560    67.7600    16.2890    16.1890    33.7390    24.0460 
  128.7500     2.4780    -8.7280   250.4350    67.1380    13.9770    14.6560    29.7410    24.0050 
  128.8750     2.4390    -8.5070   282.6880    69.3530    10.9140    11.9010    20.0330    23.9350 
  129.0000     2.3810    -8.4240   324.8830    74.7340     8.3030     9.0410    10.6110    23.8500 
  129.1250     2.3280    -8.4560   358.7470    80.4260     6.7130     6.9470     6.0930    23.7990 
  129.2500     2.2900    -8.5920   384.3750    83.6280     5.7960     5.5890     4.9090    23.7820 
  129.3750     2.2700    -8.8330   408.5020    87.9780     5.2760     4.7850     4.6190    23.7790 
  129.5000     2.2630    -9.1320   430.2570    96.7110     4.9150     4.3400     4.4760    23.7780 
  129.6250     2.2670    -9.5650   440.2410   101.4430     4.6400     4.1250     4.1700    23.7650 
  129.7500     2.2730   -10.0480   439.4240    96.5480     4.4740     4.0160     3.9720    23.7260 
  129.8750     2.2780   -10.6760   433.8280    90.0770     4.5470     3.9980     4.0740    23.6430 
