~V
VERS. 2.00: Ver 2.00
~W
STRT.M 110.0000:
STOP.M 277.0000:
STEP.M 0.1250:
NULL. -999.2500:
UWI. DF3015:
~C
DEPT.M :
DEN.GM/CC :
SP.MV :
AC.US/MT :
GR.API :
CALI.CM :
RXO.OHMM :
RI. :
RML.OHMM :
~A
# ...
  180.0000     2.2540   -24.6240   409.0160    68.7390    25.2580    75.6770    80.8810    88.2740 
  180.1250     2.2540   -24.8990   410.3500    71.4800    25.2580    77.2790    81.6570    88.8540 
  180.2500     2.2560   -25.1500   411.6330    72.9880    25.2580    79.2040    81.6740    88.7140 
  180.3750     2.2610   -25.3370   413.0800    72.2060    25.2580    80.5530    80.5340    87.3160 
  180.5000     2.2730   -25.4890   414.8180    69.5650    25.2580    79.9190    78.0530    84.4250 
  180.6250     2.2860   -25.6230   416.4540    67.0060    25.2580    76.8250    74.6080    80.5680 
  180.7500     2.2930   -25.7440   417.4150    67.5090    25.2580    70.9760    71.4860    77.2620 
  180.8750     2.2860   -25.8150   417.4750    69.9900    25.2580    64.5800    69.7720    75.7030 
  181.0000     2.2660   -25.8450   416.8380    69.6550    25.2580    62.5030    70.2110    76.6350 
  181.1250     2.2440   -25.8460   416.1110    65.8090    25.2580    65.5740    73.4700    80.6910 
  181.2500     2.2320   -25.8280   415.7650    63.5700    25.2580    72.4400    78.8040    86.9590 
  181.3750     2.2280   -25.8500   415.7660    65.1890    25.2580    78.0670    85.1820    94.2350 
  181.5000     2.2260   -25.8780   415.9100    66.3530    25.2580    83.2610    90.9070   100.5420 
  181.6250     2.2280   -25.9270   415.9820    66.0230    25.2580    94.1750    93.5840   103.0400 
  181.7500     2.2330   -25.9520   415.9100    66.3910    25.2580   104.1980    92.9160   101.5570 
  181.8750     2.2400   -25.9420   415.6500    67.6130    25.2580   100.9250    89.8950    97.5300 
  182.0000     2.2440   -25.9320   415.1890    68.3070    25.2580    84.7150    86.5200    93.4830 
  182.1250     2.2440   -25.9390   414.6590    68.0130    25.2570    72.7790    85.5910    92.6330 
  182.2500     2.2360   -25.9790   414.2900    66.1110    25.2540    72.4860    88.5880    96.3450 
  182.3750     2.2230   -26.0240   414.2030    63.5950    25.2510    84.1350    96.2100   105.2250 
  182.5000     2.2100   -26.0930   414.3270    62.9760    25.2510   104.8200   107.8110   118.5060 
  182.6250     2.2100   -26.2050   414.3640    63.3110    25.2410   126.4690   119.9620   132.0860 
  182.7500     2.2230   -26.3380   414.1010    63.2980    25.2140   133.2930   126.7710   138.6110 
  182.8750     2.2440   -26.4910   413.5190    63.1010    25.1860   128.7420   124.2670   133.3630 
  183.0000     2.2630   -26.5830   412.7150    63.1700    25.1640   113.5870   112.8410   118.0590 
  183.1250     2.2770   -26.5460   411.8540    63.0630    25.0770    85.1310    97.0870    99.6380 
  183.2500     2.2890   -26.4520   411.1930    64.2350    24.9090    59.6930    82.9460    84.3130 
  183.3750     2.2970   -26.3730   411.0250    67.8110    24.7590    45.4890    72.6850    73.7480 
  183.5000     2.2960   -26.3610   411.5760    70.3320    24.6990    39.8730    66.7530    67.8900 
  183.6250     2.2870   -26.3230   412.7950    69.2840    24.7000    40.1260    65.3200    66.6520 
  183.7500     2.2820   -26.3150   414.0710    68.8180    24.6990    42.3290    66.8470    68.3240 
  183.8750     2.2810   -26.3360   414.8670    73.4310    24.7020    44.2650    70.2080    71.6860 
  184.0000     2.2800   -26.4290   414.9550    77.5490    24.7040    44.9250    74.0420    75.3020 
  184.1250     2.2720   -26.6220   414.6320    75.8640    24.7180    45.9300    76.7930    77.5890 
  184.2500     2.2610   -26.8480   414.5700    69.9570    24.7590    48.8100    77.9280    78.1920 
  184.3750     2.2500   -27.0290   415.0410    66.6470    24.8340    52.7050    77.6400    77.5120 
  184.5000     2.2440   -27.1130   415.8750    67.9890    24.9370    56.6590    76.5390    76.3110 
  184.6250     2.2470   -27.1870   416.5500    71.5770    25.1010    60.9150    75.1860    75.2190 
  184.7500     2.2500   -27.2470   416.6910    73.8760    25.2660    64.5670    73.9170    74.4510 
  184.8750     2.2430   -27.3030   416.2270    70.7590    25.3690    65.2370    72.9860    74.2080 
  185.0000     2.2300   -27.3610   415.3820    65.8340    25.4060    62.7180    72.8290    74.9130 
  185.1250     2.2260   -27.4430   414.5320    63.0870    25.4070    61.8370    74.4260    77.6070 
  185.2500     2.2310   -27.5420   413.9440    62.3780    25.3770    64.3270    78.4250    82.9370 
  185.3750     2.2360   -27.6160   413.6790    61.3670    25.3120    73.1800    85.6210    91.7280 
  185.5000     2.2330   -27.7170   413.6070    61.2240    25.2650    89.8220    96.4980   104.5440 
  185.6250     2.2270   -27.8880   413.4650    63.1420    25.2490   111.6490   111.2070   121.7730 
  185.7500     2.2250   -28.1090   413.1300    63.7990    25.2490   130.0510   127.6110   141.1490 
  185.8750     2.2280   -28.3260   412.6920    60.3440    25.2490   147.2050   143.5710   160.0590 
  186.0000     2.2330   -28.5020   412.3380    57.2580    25.2490   161.9830   157.0660   175.7890 
  186.1250     2.2330   -28.5910   412.2680    56.9240    25.2490   167.1090   166.4900   186.1880 
  186.2500     2.2330   -28.6430   412.4560    57.7310    25.2490   167.8460   172.8500   192.7200 
  186.3750     2.2400   -28.7350   412.8520    59.5310    25.2490   173.7030   176.8920   196.4230 
  186.5000     2.2490   -28.8310   413.3820    62.1440    25.2490   184.0310   178.9590   197.7460 
  186.6250     2.2450   -28.8950   414.0040    62.5330    25.2490   186.9320   178.7440   196.3800 
  186.7500     2.2320   -28.9150   414.6110    60.1860    25.2490   181.8140   176.2520   192.3410 
  186.8750     2.2240   -28.9550   415.0900    58.6160    25.2490   171.7590   170.3920   184.1830 
  187.0000     2.2270   -28.9990   415.4280    59.7000    25.2410   160.6210   159.5690   169.9360 
  187.1250     2.2360   -29.0660   415.7550    62.8320    25.2160   150.3190   142.6810   149.0340 
  187.2500     2.2400   -29.1090   416.2160    68.0240    25.1760   136.9190   123.3170   126.6170 
  187.3750     2.2440   -29.0670   416.8350    72.3270    25.1010   110.5710   105.1880   107.0350 
  187.5000     2.2550   -28.9720   417.5300    70.7240    24.9330    76.2680    91.2120    92.8470 
  187.6250     2.2680   -28.8540   418.1530    65.7670    24.7020    55.8890    83.6500    85.6070 
  187.7500     2.2670   -28.7300   418.5560    64.4980    24.5790    48.2260    81.3030    83.5770 
  187.8750     2.2510   -28.5960   418.6320    66.7740    24.5440    46.6370    83.0530    85.5470 
  188.0000     2.2310   -28.4950   418.3140    65.9250    24.5400    48.0330    87.3510    89.9580 
  188.1250     2.2270   -28.4320   417.4690    62.9980    24.5470    51.6100    92.2100    94.7370 
  188.2500     2.2370   -28.4050   415.9340    63.4700    24.6110    56.5330    95.5950    97.8550 
  188.3750     2.2480   -28.4580   412.9340    67.3480    24.8050    62.2250    96.5330    98.4880 
  188.5000     2.2510   -28.5690   407.3370    68.9940    25.0890    68.5270    94.9940    96.8260 
  188.6250     2.2480   -28.6920   398.1410    67.1460    25.3970    76.0170    91.3470    93.3730 
  188.7500     2.2520   -28.7770   387.6460    63.2490    25.5310    80.8880    86.8350    89.2430 
  188.8750     2.2690   -28.7770   379.4200    58.6580    25.5620    76.6830    82.5070    85.4060 
  189.0000     2.2900   -28.7100   377.0400    55.1970    25.5490    67.4430    79.3250    82.7440 
  189.1250     2.2900   -28.6730   382.6710    52.6760    25.5180    61.2110    78.0000    81.8860 
  189.2500     2.2590   -28.6260   391.0920    50.9210    25.4940    61.2190    78.3480    82.6060 
  189.3750     2.2190   -28.4890   395.0380    51.3810    25.4860    71.5690    80.5660    85.0550 
  189.5000     2.2050   -28.2810   387.7880    53.4500    25.4770    91.3950    84.9730    89.5450 
  189.6250     2.2410   -28.0570   366.9670    54.1110    25.4520    96.7670    91.9700    96.5990 
  189.7500     2.3050   -27.8580   344.0420    52.3330    25.4200    94.4950   100.0240   104.7540 
  189.8750     2.3680   -27.6980   331.5160    51.9940    25.4050   111.1410   105.8250   110.0810 
