~V
VERS. 2.00: Ver 2.00
~W
STRT.M 125.0000:
STOP.M 269.0000:
STEP.M 0.1250:
NULL. -999.2500:
UWI. DF3004:
~C
DEPT.M :
GR.API :
RML.OHMM :
RI. :
RXO.OHMM :
CALI.CM :
DEN.GM/CC :
SP.MV :
~A
# ...
  237.5000    67.6540    94.0970    79.2920    77.3420    24.2050     2.2810   -19.9520 
  237.6250    65.9130    92.9460    78.6760    82.1210    24.2510     2.2810   -19.8780 
  237.7500    66.8310    92.4280    78.7080    85.9250    24.2350     2.2750   -19.8240 
  237.8750    65.1990    92.8810    79.6600    88.0250    24.0690     2.2700   -19.6880 
  238.0000    60.8250    94.5230    81.7020    87.6600    23.7030     2.2690   -19.6410 
  238.1250    60.7120    97.4350    84.9100    90.8450    23.5600     2.2700   -19.4550 
  238.2500    65.2440   100.8390    88.6110    94.6250    23.5570     2.2720   -19.3080 
  238.3750    69.6860   103.7000    91.9170    99.0000    23.5870     2.2710   -19.1440 
  238.5000    70.0550   104.5970    93.5740   108.0440    23.6090     2.2680   -18.9330 
  238.6250    66.3590   101.2420    91.5150   108.9200    23.6160     2.2660   -18.7220 
  238.7500    63.9390    93.3040    85.3200   104.1320    23.6290     2.2690   -18.4840 
  238.8750    65.7530    81.3660    75.3450    97.6530    23.6690     2.2780   -18.3060 
  239.0000    69.5150    67.4410    63.2340    88.6890    23.8250     2.2920   -18.0420 
  239.1250    73.4210    54.8230    51.8230    75.4370    24.0980     2.3070   -17.8800 
  239.2500    79.8010    45.7730    43.2870    57.3610    24.1710     2.3200   -17.7550 
  239.3750    86.2880    41.2750    38.6080    41.2890    24.1270     2.3250   -17.6210 
  239.5000    88.0580    41.5700    38.1150    34.4370    24.1300     2.3200   -17.6150 
  239.6250    83.2780    47.2170    42.5340    41.3370    24.1770     2.3080   -17.5290 
  239.7500    77.2380    56.7500    50.7780    57.2890    24.2170     2.2900   -17.5050 
  239.8750    72.4540    68.8110    61.7500    80.4920    24.2520     2.2740   -17.4160 
  240.0000    70.4010    81.2140    73.4270    97.7840    24.2750     2.2630   -17.4010 
  240.1250    72.7850    90.3940    82.3580   103.4250    24.2850     2.2600   -17.3870 
  240.2500    73.4390    94.2630    86.3750   103.5200    24.2860     2.2650   -17.3710 
  240.3750    70.8170    92.2630    84.8730   101.9000    24.2520     2.2740   -17.3400 
  240.5000    67.6440    85.6670    78.9980    99.9650    24.1750     2.2830   -17.1810 
  240.6250    66.1750    76.8960    70.9120    90.8010    24.0510     2.2870   -17.0960 
  240.7500    66.6910    68.7110    63.1800    74.6420    24.0370     2.2850   -16.9190 
  240.8750    67.5220    62.2690    56.9210    58.3710    23.9870     2.2790   -16.8200 
  241.0000    67.9520    57.8540    52.4750    50.6800    24.0510     2.2710   -16.6260 
  241.1250    68.0960    55.3830    49.8630    49.7780    24.1340     2.2660   -16.4290 
  241.2500    70.5770    54.0070    48.3480    49.6330    24.2280     2.2630   -16.2840 
  241.3750    75.0530    53.3010    47.5440    49.5790    24.2730     2.2590   -16.0930 
  241.5000    76.9940    53.0080    47.1740    48.8370    24.2860     2.2560   -16.0460 
  241.6250    73.1510    53.1100    47.1530    48.5220    24.2610     2.2530   -15.9760 
  241.7500    69.5090    53.6400    47.4480    48.6070    24.2230     2.2530   -15.8900 
  241.8750    71.5270    54.7320    48.1530    49.9200    24.2160     2.2580   -15.8280 
  242.0000    76.9880    56.5060    49.3700    51.8970    24.2500     2.2650   -15.7710 
  242.1250    78.3640    59.1380    51.2380    53.1430    24.2560     2.2710   -15.7560 
  242.2500    77.6210    62.3930    53.5750    53.8980    24.2280     2.2760   -15.6340 
  242.3750    77.4200    65.9830    56.1440    55.4980    24.2080     2.2780   -15.5620 
  242.5000    75.0790    69.4790    58.6030    59.2490    24.1930     2.2790   -15.4600 
  242.6250    68.6350    72.3480    60.5290    66.0830    24.1670     2.2830   -15.3170 
  242.7500    63.9010    74.5750    61.9180    71.9700    24.1320     2.2900   -15.2590 
  242.8750    64.1020    76.5180    63.0510    75.2930    24.1160     2.2990   -15.0730 
  243.0000    67.7610    78.8330    64.4430    74.0290    24.1140     2.3060   -14.9230 
  243.1250    73.4710    82.3580    66.7690    71.4640    24.1140     2.3110   -14.6770 
  243.2500    79.5160    86.9760    69.9960    73.8030    24.1140     2.3230   -14.4990 
  243.3750    84.0140    91.9740    73.6220    81.3130    24.1140     2.3520   -14.2750 
  243.5000    85.8150    96.1100    76.7110    89.1390    24.1140     2.3980   -13.9950 
  243.6250    83.5770    97.5410    77.8320    95.4640    24.1130     2.4530   -13.7280 
  243.7500    78.5090    95.8970    76.5980    97.1750    24.1110     2.5040   -13.3880 
  243.8750    73.9680    91.4500    73.1210    90.5780    24.1120     2.5360   -13.1670 
  244.0000    73.6900    85.0930    68.0300    82.0970    24.1130     2.5520   -12.8780 
  244.1250    77.3820    77.9200    62.1720    67.8140    24.1140     2.5590   -12.6880 
  244.2500    80.3140    71.0880    56.5330    63.4290    24.1190     2.5580   -12.4450 
  244.3750    79.1580    65.3220    51.7200    64.2850    24.1360     2.5510   -12.2070 
  244.5000    75.2040    61.2410    48.2200    61.7910    24.1660     2.5440   -12.0730 
  244.6250    73.0960    59.7290    46.7080    55.5800    24.1580     2.5450   -11.8800 
  244.7500    74.6230    60.6470    47.0570    51.8900    24.1310     2.5600   -11.7310 
  244.8750    76.3470    63.8590    49.1400    56.5830    24.1190     2.5870   -11.6090 
  245.0000    75.1780    68.7990    52.5180    64.4770    24.1190     2.6040   -11.5050 
  245.1250    72.0010    74.1520    56.1930    69.0400    24.0740     2.5930   -11.3970 
  245.2500    68.7740    77.6830    58.5290    71.5570    24.0490     2.5500   -11.2820 
  245.3750    66.6300    77.1190    57.9260    68.5730    24.0370     2.4940   -11.2370 
  245.5000    64.6090    70.9000    53.2540    58.9340    24.0440     2.4580   -11.1020 
  245.6250    59.9080    58.3010    44.2460    59.1330    24.1160     2.4550   -11.0820 
  245.7500    53.9760    43.5000    33.7320    70.6670    24.1640     2.4810   -11.0990 
  245.8750    50.3090    29.6890    24.1510    83.2480    24.1630     2.5090   -11.0290 
  246.0000    51.4760    18.6700    16.9710    55.3510    24.1510     2.5100   -11.0350 
  246.1250    57.0660    12.8940    12.6880    23.0500    24.1020     2.4810   -10.9760 
  246.2500    63.1010     9.6640    10.1980    11.0490    24.0650     2.4390   -10.9860 
  246.3750    68.8910     8.5970     8.8830     8.0370    24.0600     2.4030   -10.9470 
  246.5000    71.7440     8.2070     8.3070     7.4890    24.1170     2.3820   -10.9740 
  246.6250    68.7630     8.2070     8.2160     7.3290    24.3160     2.3740   -10.9450 
  246.7500    64.9660     8.3180     8.3140     7.0350    24.5730     2.3780   -10.9220 
  246.8750    65.6200     8.4350     8.4670     6.8090    24.6800     2.3910   -10.9360 
  247.0000    69.1690     8.5120     8.5990     6.7330    24.6170     2.4070   -10.9010 
  247.1250    69.3550     8.5360     8.6670     6.6760    24.4270     2.4170   -10.9130 
  247.2500    67.4730     8.5290     8.6790     6.4920    24.4720     2.4150   -10.8520 
  247.3750    67.4230     8.5080     8.6460     6.4390    24.5200     2.3980   -10.8920 
  247.5000    68.2310     8.4950     8.5830     6.5100    24.2730     2.3740   -10.8520 
  247.6250    66.7070     8.5130     8.5050     6.6010    24.2040     2.3520   -10.8410 
  247.7500    64.4890     8.5670     8.4340     6.6700    24.3100     2.3400   -10.8670 
  247.8750    62.7050     8.6520     8.3810     6.8040    24.2640     2.3410   -10.8250 
  248.0000    62.2490     8.7540     8.3490     6.8840    24.2130     2.3500   -10.8400 
  248.1250    62.8310     8.8460     8.3280     7.0520    24.1590     2.3620   -10.9010 
  248.2500    62.5670     8.9040     8.2960     7.2540    24.2090     2.3750   -10.9410 
  248.3750    60.4110     8.9160     8.2370     7.3020    24.2260     2.3860   -10.9390 
  248.5000    57.6370     8.8860     8.1470     7.0400    24.2340     2.3960   -10.9310 
  248.6250    57.4130     8.8300     8.0380     6.4920    24.2600     2.4040   -10.9340 
