~V
VERS. 2.00: Ver 2.00
~W
STRT.M 60.0000:
STOP.M 264.0000:
STEP.M 0.1250:
NULL. -999.2500:
UWI. DF303:
~C
DEPT.M :
DEN.GM/CC :
SP.MV :
AC.US/MT :
GR.API :
CALI.CM :
RXO.OHMM :
RI. :
RML.OHMM :
~A
# ...
  130.0000     2.5490   -19.5930   324.0770   101.6260    24.6350    12.4010     7.6640     8.3690 
  130.1250     2.4880   -19.4440   367.5100   105.0340    24.6350     7.8700     6.3100     6.5270 
  130.2500     2.4160   -19.4040   404.2880    99.6260    24.6350     5.5980     5.3050     5.3370 
  130.3750     2.3510   -19.4560   423.8510    94.0530    24.6330     5.0270     4.7280     4.7860 
  130.5000     2.3120   -19.5510   427.8860    92.1940    24.6230     5.0690     4.5140     4.7020 
  130.6250     2.3040   -19.6740   424.7100    92.4950    24.5660     5.2900     4.5630     4.8860 
  130.7500     2.3060   -19.8040   422.3550    92.5880    24.4670     5.5510     4.6880     5.0800 
  130.8750     2.3040   -19.9290   422.7890    95.3170    24.3830     5.6560     4.7960     5.1740 
  131.0000     2.3040   -20.0200   425.7250   104.9010    24.3480     5.5640     4.8710     5.1840 
  131.1250     2.3090   -20.1040   429.1160   113.2870    24.3480     5.4220     4.9700     5.2310 
  131.2500     2.3070   -20.1730   429.7490   112.0590    24.3320     5.5650     5.1440     5.3960 
  131.3750     2.2930   -20.2000   425.0070   103.8780    24.2930     6.0200     5.3950     5.6810 
  131.5000     2.2850   -20.1910   414.3140    98.4850    24.2620     6.6490     5.6730     6.0200 
  131.6250     2.3060   -20.1450   401.5690    98.4270    24.2230     7.0010     5.8580     6.2620 
  131.7500     2.3410   -20.0510   394.4180    95.5930    24.1980     6.8020     5.8680     6.2950 
  131.8750     2.3660   -19.9240   396.7850    92.9170    24.2770     6.2080     5.6910     6.1020 
  132.0000     2.3670   -19.8070   406.5090    92.7450    24.5340     5.6750     5.3840     5.7680 
  132.1250     2.3490   -19.6770   416.7720    95.9300    24.6860     5.4980     5.0290     5.4150 
  132.2500     2.3320   -19.5540   423.2560   101.7050    24.7400     5.3400     4.6890     5.1110 
  132.3750     2.3260   -19.4530   426.7890   107.8480    24.7450     5.1190     4.3730     4.8460 
  132.5000     2.3280   -19.4040   429.7670   110.3250    24.7480     4.8980     4.0640     4.5630 
  132.6250     2.3290   -19.4180   433.8050   107.1730    24.7450     4.6960     3.7430     4.1960 
  132.7500     2.3280   -19.5170   439.0770   105.7210    24.7440     4.5190     3.4500     3.8140 
  132.8750     2.3350   -19.6980   445.2360   108.4560    24.7430     4.3760     3.2800     3.5750 
  133.0000     2.3500   -19.9650   450.0210   107.3650    24.7430     4.3290     3.3560     3.6670 
  133.1250     2.3820   -20.3370   444.5900    97.2970    24.7430     4.8010     3.8890     4.3730 
  133.2500     2.4400   -20.8010   421.9450    88.2590    24.7430     6.7380     4.9350     5.7760 
  133.3750     2.5300   -21.3700   382.3480    85.3920    24.7430    11.8990     6.5090     7.9580 
  133.5000     2.6230   -22.0090   337.7950    84.4310    24.7290    20.5290     8.3660    10.6680 
  133.6250     2.6580   -22.7380   312.0720    78.6980    24.6740    26.3240     9.6450    12.5360 
  133.7500     2.6110   -23.5150   315.2130    72.6620    24.5630    23.9090     9.7070    12.3250 
  133.8750     2.4980   -24.2610   343.0680    70.8800    24.4380    16.5360     8.7500    10.5270 
  134.0000     2.3630   -24.9370   381.4900    73.7310    24.3590    10.5220     7.4810     8.5550 
  134.1250     2.2600   -25.5390   413.2300    76.4760    24.3300     7.9130     6.5080     7.3550 
  134.2500     2.2040   -26.0350   432.0140    74.7590    24.3300     7.1640     5.9310     6.8530 
  134.3750     2.1820   -26.4020   439.7830    70.3830    24.3320     7.0540     5.6890     6.8530 
  134.5000     2.1770   -26.6750   441.5100    69.1850    24.3340     7.0810     5.6790     7.1330 
  134.6250     2.1810   -26.8260   441.0540    74.4950    24.3300     7.0400     5.7960     7.4780 
  134.7500     2.1890   -26.9010   440.1060    78.3560    24.3290     6.9740     5.9370     7.7450 
  134.8750     2.1930   -26.9620   438.9730    77.6970    24.3300     6.9740     6.0660     7.9150 
  135.0000     2.1880   -27.0050   438.0520    75.1410    24.3230     7.0670     6.1780     8.0230 
  135.1250     2.1820   -27.0170   437.6020    75.0350    24.3070     7.1520     6.2710     8.1000 
  135.2500     2.1830   -27.0600   437.3330    77.3110    24.2790     7.2410     6.3580     8.1760 
  135.3750     2.1900   -27.1070   437.0910    77.5920    24.2500     7.3640     6.4480     8.2680 
  135.5000     2.1970   -27.1210   436.9940    73.9880    24.2330     7.5390     6.5490     8.3830 
  135.6250     2.2030   -27.1340   437.3400    70.2840    24.2060     7.7970     6.6690     8.5200 
  135.7500     2.2030   -27.1270   438.1940    70.6350    24.1510     8.0810     6.8000     8.6580 
  135.8750     2.1930   -27.0780   439.6970    72.9190    24.0770     8.2660     6.9300     8.7720 
  136.0000     2.1770   -26.9990   441.8890    73.2860    24.0330     8.2460     7.0500     8.8490 
  136.1250     2.1690   -26.8740   444.2220    72.4570    24.0120     8.1240     7.1470     8.8870 
  136.2500     2.1710   -26.6810   445.6220    72.2090    23.9880     8.0010     7.2300     8.9120 
  136.3750     2.1790   -26.4250   445.4660    71.9310    23.9620     7.9480     7.3020     8.9380 
  136.5000     2.1850   -26.1200   443.9970    74.1280    23.9590     7.9940     7.3510     8.9470 
  136.6250     2.1850   -25.7210   442.2330    79.0600    24.0240     8.1380     7.3110     8.8410 
  136.7500     2.1820   -25.2110   441.1620    80.7330    24.1550     8.2980     7.1210     8.5210 
  136.8750     2.1800   -24.5920   441.0400    78.5120    24.2850     8.3500     6.7410     7.9340 
  137.0000     2.1850   -23.8690   441.8760    77.5220    24.4060     8.0620     6.1970     7.1280 
  137.1250     2.2030   -23.0610   444.0420    84.9420    24.4450     7.1710     5.5820     6.2590 
  137.2500     2.2360   -22.2280   447.3110    96.7360    24.4500     6.0690     5.0350     5.5270 
  137.3750     2.2750   -21.4420   450.6850   104.9640    24.4460     5.2430     4.6360     5.0360 
  137.5000     2.3050   -20.7030   452.4080   105.0490    24.4450     4.9310     4.4160     4.8070 
  137.6250     2.3150   -20.0480   450.6290    99.6820    24.4270     4.9860     4.3780     4.8130 
  137.7500     2.3150   -19.5290   446.4380    97.3640    24.3710     5.1380     4.4320     4.9020 
  137.8750     2.3100   -19.1390   441.7100    99.3690    24.3270     5.2380     4.4990     4.9520 
  138.0000     2.3020   -18.8730   438.4650   100.8310    24.3130     5.1880     4.5110     4.8730 
  138.1250     2.2990   -18.7470   438.5760    99.0160    24.3110     4.9960     4.4330     4.6530 
  138.2500     2.3140   -18.6630   441.5160   101.7340    24.3110     4.7640     4.3180     4.4080 
  138.3750     2.3450   -18.5840   445.7790   111.5220    24.3150     4.5700     4.2270     4.2400 
  138.5000     2.3740   -18.5260   448.9150   117.1650    24.3180     4.4600     4.2120     4.2170 
  138.6250     2.3810   -18.4720   447.9690   108.1120    24.3200     4.5620     4.3160     4.3840 
  138.7500     2.3710   -18.4220   443.0950   100.2460    24.3220     4.8150     4.4900     4.6690 
  138.8750     2.3550   -18.3810   436.0140   101.9230    24.3300     5.1100     4.6680     4.9730 
  139.0000     2.3410   -18.3430   429.5560   105.4940    24.3390     5.3170     4.7590     5.1630 
  139.1250     2.3290   -18.2910   427.1080   102.7000    24.3460     5.3120     4.6440     5.0500 
  139.2500     2.3250   -18.2570   429.1790   101.0280    24.3470     5.1040     4.3420     4.6520 
  139.3750     2.3350   -18.2470   435.3410   102.0580    24.3460     4.7750     3.9590     4.1320 
  139.5000     2.3570   -18.2510   443.9420   101.3020    24.3480     4.4720     3.6670     3.7510 
  139.6250     2.3810   -18.3090   448.5770    97.1630    24.3460     4.4050     3.7090     3.8460 
  139.7500     2.4040   -18.3910   438.9880    90.2560    24.3470     4.9780     4.2100     4.5530 
  139.8750     2.4430   -18.5010   408.1450    81.9180    24.3460     7.2500     5.3260     6.0480 
