~V
VERS. 2.00: Ver 2.00
~W
STRT.M 130.0000:
STOP.M 280.0000:
STEP.M 0.1250:
NULL. -999.2500:
UWI. DF3042:
~C
DEPT.M :
DEN.GM/CC :
GR.API :
RML.OHMM :
RI. :
RXO.OHMM :
CALI.CM :
SP.MV :
~A
# ...
  208.7500     2.3960    85.3660    10.2490     7.8980     8.6010    24.9520   -12.8910 
  208.8750     2.3980    84.7360    10.7520     8.2710     9.2460    24.9190   -13.0970 
  209.0000     2.3970    81.9220    11.4220     8.8230    10.0950    24.8980   -13.3610 
  209.1250     2.3850    80.7310    12.3100     9.5830    11.3360    24.8930   -13.6180 
  209.2500     2.3640    81.7530    13.4430    10.5440    13.0580    24.8930   -13.9160 
  209.3750     2.3350    81.9510    14.8890    11.7470    14.8440    24.8930   -14.2360 
  209.5000     2.3060    80.7360    16.6940    13.2410    16.3610    24.8930   -14.5630 
  209.6250     2.2880    81.7280    18.9250    15.1180    18.6420    24.8930   -14.9660 
  209.7500     2.2910    82.4880    21.5090    17.3470    22.4040    24.8930   -15.2920 
  209.8750     2.3160    80.4140    24.4500    19.9410    27.3990    24.8930   -15.6880 
  210.0000     2.3540    76.2720    27.7610    22.9050    31.4280    24.8930   -16.0280 
  210.1250     2.3840    75.3330    31.4610    26.2470    35.2900    24.8930   -16.4020 
  210.2500     2.3920    75.6390    35.3050    29.7500    38.3760    24.8930   -16.7660 
  210.3750     2.3800    74.0750    38.9450    33.1340    42.6270    24.8930   -17.1080 
  210.5000     2.3570    71.3100    41.9460    36.0450    46.0280    24.8930   -17.4250 
  210.6250     2.3340    70.4680    43.8020    38.0390    48.1040    24.8930   -17.6450 
  210.7500     2.3150    71.4750    44.7770    39.2560    48.0310    24.8930   -17.9230 
  210.8750     2.2960    72.6680    45.4410    40.0970    44.5730    24.8930   -18.1140 
  211.0000     2.2740    73.3250    46.6100    41.2080    42.3890    24.8930   -18.3170 
  211.1250     2.2500    74.3940    49.2370    43.4300    44.0930    24.8930   -18.4630 
  211.2500     2.2280    75.2900    53.2410    46.8650    49.1750    24.8930   -18.5940 
  211.3750     2.2140    74.5000    58.0590    51.1890    57.1510    24.8920   -18.7030 
  211.5000     2.2090    71.3400    62.6600    55.6300    67.9850    24.8870   -18.8420 
  211.6250     2.2110    67.5200    65.5200    58.9360    73.3900    24.8790   -18.9790 
  211.7500     2.2160    66.4170    66.2110    60.5320    74.6320    24.8750   -19.1130 
  211.8750     2.2210    67.8260    65.1080    60.4850    72.9770    24.8710   -19.2520 
  212.0000     2.2250    68.7420    63.3170    59.5210    70.3460    24.8620   -19.3850 
  212.1250     2.2280    68.0720    62.4050    58.8490    66.1340    24.8450   -19.5170 
  212.2500     2.2290    68.7760    62.9000    59.2740    64.5000    24.8430   -19.6170 
  212.3750     2.2290    70.6590    64.5900    60.8730    64.3210    24.8480   -19.7340 
  212.5000     2.2280    71.1230    66.7970    63.0660    65.6090    24.8440   -19.8420 
  212.6250     2.2300    68.3850    67.9200    64.4900    69.2810    24.7690   -19.9600 
  212.7500     2.2350    65.5510    67.4560    64.0070    73.0020    24.7260   -20.0840 
  212.8750     2.2390    65.9050    65.2660    61.2410    72.3200    24.6920   -20.2300 
  213.0000     2.2410    68.6280    62.1480    56.8760    68.3910    24.6690   -20.3060 
  213.1250     2.2370    71.7680    59.9070    52.6770    64.5940    24.6440   -20.5180 
  213.2500     2.2330    74.3010    57.3760    50.3300    57.4630    24.6220   -20.7060 
  213.3750     2.2300    76.7420    58.1740    50.5780    49.8180    24.6260   -20.9350 
  213.5000     2.2290    77.3200    61.7700    53.2830    48.3020    24.6610   -21.1240 
  213.6250     2.2290    73.3900    66.7710    57.5130    58.5920    24.6830   -21.3450 
  213.7500     2.2270    69.2290    70.9300    61.3530    72.0580    24.6640   -21.5480 
  213.8750     2.2220    67.6560    72.8060    63.4870    76.5260    24.6530   -21.7650 
  214.0000     2.2150    67.4760    72.0320    63.4060    72.7260    24.6640   -22.0400 
  214.1250     2.2060    67.6900    69.7450    61.7690    67.7920    24.6760   -22.2150 
  214.2500     2.1990    68.7040    68.5720    60.7270    62.0160    24.6980   -22.4550 
  214.3750     2.1950    70.6570    70.4690    62.0520    57.0170    24.7330   -22.6940 
  214.5000     2.1930    72.9710    76.6690    66.9730    55.3740    24.7560   -22.9610 
  214.6250     2.1910    73.5730    88.1770    76.5010    62.4870    24.7630   -23.2270 
  214.7500     2.1900    71.2310   103.1320    89.1070    77.8860    24.7720   -23.4800 
  214.8750     2.1920    67.4050   119.3630   102.9970    97.9630    24.7850   -23.7110 
  215.0000     2.1970    64.6010   134.0830   115.8840   120.3450    24.8040   -23.9200 
  215.1250     2.2090    63.0230   144.1310   125.1610   134.4550    24.8420   -24.1100 
  215.2500     2.2230    62.8490   149.8740   130.8870   136.1400    24.8890   -24.2740 
  215.3750     2.2300    64.3150   152.6230   134.1490   131.2090    24.9500   -24.3640 
  215.5000     2.2250    66.5520   154.2550   136.3490   129.4840    25.0490   -24.4450 
  215.6250     2.2040    67.2300   155.0870   137.7740   130.8500    25.1570   -24.4700 
  215.7500     2.1740    66.8540   153.7860   137.1760   130.2560    25.2720   -24.5480 
  215.8750     2.1460    65.7450   148.2430   132.6450   129.3420    25.3050   -24.5760 
  216.0000     2.1350    63.4720   138.4390   123.0600   128.6920    25.2340   -24.6640 
  216.1250     2.1450    62.4630   124.3820   109.0060   130.8580    25.1340   -24.7540 
  216.2500     2.1730    64.2630   109.6250    94.6810   133.3300    25.0350   -24.8050 
  216.3750     2.2040    67.3340    96.2150    83.5470   111.7740    24.9430   -24.9280 
  216.5000     2.2210    69.0540    90.0580    77.7290    79.1870    24.8890   -25.0610 
  216.6250     2.2170    68.8060    91.3980    78.2180    69.2170    24.8740   -25.2440 
  216.7500     2.1970    67.6040    96.4140    82.2720    74.9340    24.8740   -25.3420 
  216.8750     2.1730    65.8070   101.7980    87.2490    92.9800    24.8710   -25.5080 
  217.0000     2.1550    65.0760   104.3500    90.3840   111.3200    24.8530   -25.5920 
  217.1250     2.1510    67.4100   101.4000    89.1080   107.4480    24.8010   -25.7280 
  217.2500     2.1630    69.8130    94.6860    84.3470    89.6370    24.7440   -25.8450 
  217.3750     2.1910    70.4680    86.8790    78.0570    72.6170    24.7120   -25.9580 
  217.5000     2.2250    70.2350    80.6410    72.5310    62.4630    24.6920   -26.0380 
  217.6250     2.2530    70.0050    78.2360    69.9660    59.5590    24.6490   -26.1570 
  217.7500     2.2640    69.5180    79.5950    70.6160    60.1510    24.6480   -26.2820 
  217.8750     2.2460    69.0890    84.4910    74.3870    62.5070    24.6860   -26.4110 
  218.0000     2.2110    68.8980    92.2810    80.7710    65.9660    24.7590   -26.5380 
  218.1250     2.1700    68.3040   101.9040    88.9270    71.1960    24.7920   -26.6620 
  218.2500     2.1380    66.1560   111.2210    97.0200    80.6080    24.8400   -26.7880 
  218.3750     2.1250    62.8670   118.4740   103.5150    93.1260    24.8830   -26.9150 
  218.5000     2.1280    59.8990   122.3710   107.2130   102.2100    24.9250   -27.0200 
  218.6250     2.1390    59.8630   122.0180   107.1540   103.1160    24.9070   -27.1100 
  218.7500     2.1530    63.2050   118.9450   104.5080    98.8810    24.9330   -27.1880 
  218.8750     2.1660    66.3720   114.5300   100.4130    94.2280    24.9350   -27.2930 
  219.0000     2.1770    67.4240   110.0770    96.0620    88.6520    24.8190   -27.3930 
  219.1250     2.1860    67.8200   106.7400    92.5810    84.5840    24.7200   -27.4900 
  219.2500     2.1920    69.7190   104.9380    90.4640    81.8970    24.6480   -27.6640 
  219.3750     2.1960    71.0420   105.0990    90.1310    79.6870    24.6110   -27.7690 
  219.5000     2.1980    68.7230   107.7130    92.0150    78.3590    24.5970   -27.9780 
  219.6250     2.2010    65.5450   113.6730    96.9090    82.9120    24.6020   -28.0880 
  219.7500     2.2030    67.5690   122.2720   104.2260    88.0750    24.6080   -28.2590 
  219.8750     2.2040    71.6010   132.3350   113.0320    92.9640    24.6160   -28.3800 
