~V
VERS. 2.00: Ver 2.00
~W
STRT.M 60.0000:
STOP.M 232.0000:
STEP.M 0.1250:
NULL. -999.2500:
UWI. DF3065:
~C
DEPT.M :
GR.API :
CALI.CM :
RXO.OHMM :
RI. :
RML.OHMM :
DEN.GM/CC :
SP.MV :
~A
# ...
  127.5000    98.6550    24.7780     8.9650     5.2520     7.4290     2.3570   -16.2980 
  127.6250   102.8830    24.7770     8.8890     5.2980     7.5230     2.3440   -16.3910 
  127.7500   103.5050    24.8050     8.9820     5.3580     7.6460     2.3300   -16.5190 
  127.8750   100.0720    24.9260     9.1920     5.4810     7.8720     2.3170   -16.6770 
  128.0000    96.9460    24.9660     9.2590     5.7070     8.2490     2.3090   -16.8450 
  128.1250    97.2960    24.8160     9.3890     6.0510     8.7900     2.3040   -17.0070 
  128.2500    98.2390    24.7680    10.0410     6.4680     9.4120     2.3000   -17.1910 
  128.3750    96.6850    24.6090    12.5970     6.8800     9.9770     2.3010   -17.3760 
  128.5000    89.5130    24.3700    15.0860     7.1710    10.3190     2.3180   -17.5510 
  128.6250    82.3840    23.7950    14.7420     7.1850    10.2360     2.3490   -17.6960 
  128.7500    84.0800    23.4620    11.5370     6.9240     9.7800     2.3730   -17.7590 
  128.8750    93.5150    23.5080     8.8140     6.4400     9.0500     2.3750   -17.7450 
  129.0000   103.3090    23.7840     7.7490     5.8510     8.2210     2.3630   -17.6720 
  129.1250   106.7690    24.2060     7.7390     5.3290     7.5540     2.3500   -17.5800 
  129.2500   106.9620    24.5970     7.9020     4.9710     7.1810     2.3350   -17.4730 
  129.3750   107.3230    24.6680     8.2140     4.8170     7.1380     2.3050   -17.3390 
  129.5000   107.4140    24.6080     8.3680     4.8780     7.4100     2.2640   -17.2140 
  129.6250   105.0870    24.4920     8.4620     5.1360     7.9120     2.2330   -17.1170 
  129.7500   103.1130    24.4470     8.1090     5.4910     8.4650     2.2310   -17.0800 
  129.8750   100.2470    24.3250     7.6460     5.8720     8.9920     2.2470   -17.0950 
  130.0000    95.7370    24.1440     7.6560     6.2230     9.4350     2.2670   -17.1560 
  130.1250    93.6800    24.0700     8.4460     6.4730     9.7230     2.2870   -17.2390 
  130.2500    96.1570    24.3100     9.3770     6.6000     9.8550     2.3090   -17.3120 
  130.3750   100.2770    24.4280    10.6370     6.5750     9.7820     2.3290   -17.4030 
  130.5000   100.7930    24.4090    11.0240     6.3830     9.4810     2.3460   -17.4860 
  130.6250    98.6150    24.4520    10.2760     6.0640     9.0070     2.3580   -17.5560 
  130.7500    96.2560    24.4370     9.0790     5.7610     8.5810     2.3620   -17.6150 
  130.8750    94.3850    24.3070     7.7850     5.5900     8.3950     2.3520   -17.6660 
  131.0000    93.9240    24.1110     6.5970     5.6900     8.7860     2.3330   -17.7110 
  131.1250    93.3710    23.9780     6.4820     6.3420    10.2750     2.3210   -17.7570 
  131.2500    89.9900    23.9620     9.2230     7.5890    12.6200     2.3200   -17.8010 
  131.3750    82.5290    24.0290    16.8130     9.3580    15.4930     2.3040   -17.8360 
  131.5000    74.9040    24.0830    27.5680    11.3810    18.3070     2.2580   -17.8580 
  131.6250    72.8850    24.2140    32.9590    13.0230    20.0540     2.2010   -17.8670 
  131.7500    73.3850    24.2950    31.3300    13.7190    20.1950     2.1630   -17.8680 
  131.8750    73.7990    24.5820    24.8410    13.2370    18.6910     2.1520   -17.8430 
  132.0000    77.1840    24.5900    16.8570    11.9080    16.1820     2.1690   -17.8070 
  132.1250    83.9090    24.4930    11.9350    10.4200    13.7260     2.2190   -17.7630 
  132.2500    87.5960    24.4800    13.4160     9.3470    12.1440     2.3070   -17.7330 
  132.3750    86.4070    24.4520    19.3780     8.7990    11.5210     2.4020   -17.6990 
  132.5000    84.5470    24.4430    18.8610     8.7180    11.6170     2.4680   -17.6560 
  132.6250    84.2160    24.3210    14.1920     9.0670    12.2630     2.4870   -17.6170 
  132.7500    83.0540    24.1890    13.9340     9.6420    13.0890     2.4750   -17.5680 
  132.8750    81.9140    24.1050    17.3010    10.3580    13.9720     2.4630   -17.5470 
  133.0000    80.2190    23.7820    16.1880    11.2170    14.9880     2.4480   -17.5340 
  133.1250    75.1630    23.6840    13.7300    12.2570    16.3060     2.4260   -17.5250 
  133.2500    68.5710    24.1670    18.3210    13.3860    17.7400     2.4180   -17.5090 
  133.3750    64.5700    24.6270    25.3640    14.5060    19.0690     2.4440   -17.4800 
  133.5000    63.4990    24.6620    28.5370    15.4010    19.9630     2.5000   -17.4460 
  133.6250    62.8300    24.6080    26.5690    15.5990    19.9160     2.5630   -17.4160 
  133.7500    63.5910    24.5080    23.6360    15.1700    19.1920     2.5960   -17.3790 
  133.8750    66.9010    24.5970    18.5100    14.4810    18.3110     2.5820   -17.3510 
  134.0000    70.3880    24.6020    14.0330    13.9060    17.7340     2.5300   -17.3190 
  134.1250    70.8540    24.5430    14.1020    13.7210    17.8200     2.4760   -17.2810 
  134.2500    67.6650    24.3280    17.4380    14.1320    18.7960     2.4650   -17.2490 
  134.3750    61.9570    24.1550    21.8510    15.2370    20.6230     2.4990   -17.1840 
  134.5000    56.4840    24.1190    24.9620    16.8510    22.8640     2.5570   -17.1360 
  134.6250    54.1830    24.1280    26.2430    18.6180    24.9040     2.6110   -17.0740 
  134.7500    54.6260    24.1460    25.3110    20.0910    26.2830     2.6320   -17.0330 
  134.8750    57.3240    24.1200    22.8910    20.9470    26.7660     2.6240   -17.0040 
  135.0000    60.7990    24.0870    20.3460    21.0910    26.4580     2.6030   -16.9700 
  135.1250    63.4270    23.9420    20.0170    20.7750    25.8170     2.5840   -16.9280 
  135.2500    65.9950    23.9070    20.7150    20.4770    25.3640     2.5700   -16.8790 
  135.3750    68.1170    23.9930    22.0660    20.2930    25.1950     2.5550   -16.8790 
  135.5000    68.3710    24.0580    22.2930    20.2750    25.2880     2.5390   -16.8700 
  135.6250    66.6170    24.1000    23.0310    20.4090    25.5420     2.5310   -16.8790 
  135.7500    67.6910    24.2250    23.9920    20.5700    25.7760     2.5390   -16.9030 
  135.8750    70.5270    24.4460    24.2720    20.6950    25.8890     2.5490   -16.9000 
  136.0000    70.8520    24.5980    23.3370    20.7600    25.8410     2.5490   -16.8970 
  136.1250    68.0400    24.5990    23.7530    20.7170    25.5990     2.5400   -16.9030 
  136.2500    65.6490    24.6110    23.3790    20.5410    25.1640     2.5280   -16.9320 
  136.3750    66.3490    24.5580    22.0590    20.2180    24.5230     2.5170   -16.9240 
  136.5000    68.0810    24.6000    21.9530    19.7510    23.7230     2.5050   -16.9210 
  136.6250    66.2960    24.5230    21.7200    19.1790    22.8810     2.4940   -16.9150 
  136.7500    61.6590    24.4520    21.0370    18.5990    22.0900     2.4960   -16.8950 
  136.8750    58.8430    24.3040    19.5470    18.0630    21.4170     2.5110   -16.8910 
  137.0000    61.0990    24.4810    18.9900    17.6440    20.9580     2.5290   -16.8820 
  137.1250    64.1520    24.5060    19.4350    17.4540    20.7920     2.5360   -16.8910 
  137.2500    63.3500    24.6150    21.4480    17.4740    20.8490     2.5330   -16.9030 
  137.3750    59.6890    24.7870    22.5740    17.6600    21.0710     2.5300   -16.9430 
  137.5000    56.6460    24.8120    22.1440    17.9590    21.3970     2.5310   -17.0010 
  137.6250    56.6430    24.8050    21.3500    18.3050    21.7030     2.5280   -17.0620 
  137.7500    57.8900    24.7630    21.5400    18.5810    21.8940     2.5160   -17.1010 
  137.8750    60.4400    24.5820    21.7110    18.6890    21.8570     2.5060   -17.1140 
  138.0000    63.7440    24.7160    21.4400    18.5400    21.5380     2.5070   -17.1440 
  138.1250    65.9220    24.7650    20.2790    18.0860    20.9290     2.5200   -17.1720 
  138.2500    65.4880    24.7440    18.2150    17.4580    20.1760     2.5320   -17.1560 
  138.3750    64.0810    24.8030    16.9620    16.7580    19.3880     2.5340   -17.1410 
  138.5000    63.0360    24.8110    16.5790    16.0770    18.6720     2.5280   -17.1170 
  138.6250    62.8010    24.7820    16.9830    15.5580    18.2040     2.5220   -17.0740 
