~V
VERS. 2.00: Ver 2.00
~W
STRT.M 105.0000:
STOP.M 279.0000:
STEP.M 0.1250:
NULL. -999.2500:
UWI. DF3027:
~C
DEPT.M :
DEN.GM/CC :
AC.US/MT :
GR.API :
CALI.CM :
RXO.OHMM :
RI. :
RML.OHMM :
SP.MV :
~A
  105.0000     2.3140   347.3880    71.3650    29.7590    15.6750     9.2950    13.0130   -23.0180 
  105.1250     2.3730   334.5630    70.3420    29.7380    18.1560     9.8210    13.7430   -21.9950 
  105.2500     2.4100   335.2260    70.4710    29.7830    19.3960     9.8450    13.5930   -20.8620 
  105.3750     2.4100   349.2870    72.1850    29.8920    17.4580     9.2230    12.4050   -19.6990 
  105.5000     2.3770   371.0530    78.5540    30.0090    12.7480     8.1340    10.5530   -18.6070 
  105.6250     2.3270   391.3610    90.0570    30.1070     8.3890     6.9770     8.7600   -17.6390 
  105.7500     2.2860   404.9720   100.2700    30.2060     6.1610     6.0600     7.4790   -16.8090 
  105.8750     2.2650   412.4330   103.5160    30.2870     5.5790     5.4640     6.7750   -16.1560 
  106.0000     2.2620   417.1020   101.1910    30.3170     5.5740     5.1650     6.5340   -15.6760 
  106.1250     2.2620   421.9010    98.5960    30.3170     5.4780     5.1140     6.5930   -15.3570 
  106.2500     2.2600   426.5990    96.2600    30.3130     5.3200     5.1720     6.7260   -15.1470 
  106.3750     2.2580   429.0960    92.9380    30.2970     5.3380     5.2690     6.8460   -14.9910 
  106.5000     2.2600   427.1580    91.2880    30.2680     5.6170     5.3670     6.9350   -14.8410 
  106.6250     2.2640   418.6610    93.6220    30.2510     5.9660     5.4460     6.9940   -14.6970 
  106.7500     2.2720   405.6810    96.8810    30.2670     6.0560     5.4940     7.0110   -14.5590 
  106.8750     2.2850   391.3690    94.8440    30.3110     5.8840     5.4990     6.9720   -14.4190 
  107.0000     2.2980   379.7080    91.4940    30.3730     5.6370     5.4570     6.8690   -14.2960 
  107.1250     2.3010   374.8730    94.5550    30.4590     5.4740     5.3620     6.7020   -14.2220 
  107.2500     2.2970   376.2110   101.9810    30.5320     5.4960     5.2350     6.5120   -14.2120 
  107.3750     2.2970   381.8300   105.7480    30.5480     5.7060     5.1080     6.3550   -14.3030 
  107.5000     2.3040   389.3400   108.4640    30.5100     5.8050     5.0230     6.2950   -14.4970 
  107.6250     2.3050   396.8620   112.5910    30.4780     5.4950     5.0370     6.4170   -14.7690 
  107.7500     2.2870   403.4550   111.7750    30.4640     5.3410     5.1520     6.7010   -15.0680 
  107.8750     2.2610   408.5530   104.5810    30.3930     5.9410     5.3430     7.0830   -15.3620 
  108.0000     2.2490   411.4640    97.6860    30.2260     7.0890     5.5450     7.4270   -15.6280 
  108.1250     2.2620   410.5440    95.1730    30.0810     7.6620     5.6560     7.5490   -15.8410 
  108.2500     2.2840   404.9100    94.2180    30.0960     7.3680     5.6630     7.4710   -16.0250 
  108.3750     2.3060   393.5740    93.4230    30.2380     6.7930     5.6370     7.3560   -16.2170 
  108.5000     2.3420   377.1510    93.2500    30.3680     6.5210     5.6870     7.4190   -16.4370 
  108.6250     2.4110   359.8180    92.0960    30.3840     6.9300     5.9500     7.9050   -16.7310 
  108.7500     2.4830   348.4720    88.7570    30.3350     8.0560     6.4510     8.8010   -17.1450 
  108.8750     2.5150   347.5070    85.0400    30.2720     9.5180     7.1600     9.9910   -17.6890 
  109.0000     2.4800   356.6410    82.7040    30.2320    10.4860     7.9630    11.2260   -18.3440 
  109.1250     2.4020   370.3540    83.2660    30.2250    10.5890     8.6570    12.1550   -19.0910 
  109.2500     2.3430   380.4750    84.3570    30.2270    10.5980     9.1160    12.6590   -19.8610 
  109.3750     2.3170   383.7530    83.1250    30.2300    10.8050     9.3130    12.7690   -20.5950 
  109.5000     2.3050   381.4390    80.7340    30.2340    11.0040     9.2910    12.6010   -21.2680 
  109.6250     2.2770   378.0830    81.1230    30.2370    11.0430     9.0970    12.2370   -21.8460 
  109.7500     2.2390   377.6630    85.1060    30.2390    10.9770     8.7940    11.7360   -22.3330 
  109.8750     2.2130   380.6990    87.2740    30.2420    10.7300     8.4010    11.1170   -22.7830 
  110.0000     2.2100   385.7360    86.4860    30.2500    10.2710     7.9680    10.4670   -23.2370 
  110.1250     2.2210   390.8260    86.4560    30.2700     9.7260     7.5900     9.9480   -23.7260 
  110.2500     2.2240   395.1540    87.0750    30.2960     9.4100     7.3270     9.6360   -24.2660 
  110.3750     2.2140   399.0650    86.1840    30.3100     9.5610     7.2040     9.5480   -24.8550 
  110.5000     2.1980   403.1960    82.7520    30.3060    10.1610     7.2190     9.6590   -25.4630 
  110.6250     2.1880   407.7120    77.7250    30.2940    10.8900     7.3620     9.9260   -26.0690 
  110.7500     2.1830   411.7040    72.4920    30.2860    11.4800     7.5700    10.2530   -26.6410 
  110.8750     2.1780   414.0890    70.7570    30.2860    11.9620     7.7920    10.5660   -27.1090 
  111.0000     2.1800   414.2300    73.1950    30.2930    12.3730     7.9700    10.7940   -27.4280 
  111.1250     2.1920   412.1590    75.6490    30.3040    12.6110     8.0390    10.8540   -27.5650 
  111.2500     2.2010   409.2730    74.8280    30.3130    12.6690     7.9930    10.7610   -27.5340 
  111.3750     2.2000   406.2960    72.9540    30.3150    12.5020     7.8500    10.5470   -27.3410 
  111.5000     2.1960   403.2320    71.5130    30.3150    12.0260     7.6490    10.2750   -27.0220 
  111.6250     2.1960   399.6900    71.3970    30.3150    11.3730     7.4380    10.0130   -26.5730 
  111.7500     2.1990   395.9860    74.0420    30.3150    10.9590     7.2540     9.7860   -26.0190 
  111.8750     2.2020   393.4830    78.5840    30.3150    10.9130     7.1070     9.5990   -25.3910 
  112.0000     2.2070   396.1970    80.5100    30.3150    11.0200     7.0240     9.4950   -24.7050 
  112.1250     2.2190   406.1760    77.8200    30.3150    10.9590     7.0990     9.6560   -23.9950 
  112.2500     2.2430   415.5100    74.5920    30.3130    10.8850     7.4010    10.2130   -23.3200 
  112.3750     2.2810   417.3770    75.2350    30.3170    11.7450     7.9830    11.2520   -22.7270 
  112.5000     2.3280   411.6330    78.4740    30.3630    15.3610     8.8450    12.7260   -22.2710 
  112.6250     2.3650   403.6930    79.6080    30.4760    23.2020     9.8700    14.3340   -22.0440 
  112.7500     2.3720   397.1110    78.1640    30.5580    28.9970    10.7130    15.4630   -22.0420 
  112.8750     2.3390   392.3290    78.8480    30.5010    26.7800    11.0480    15.6300   -22.2490 
  113.0000     2.2800   389.2410    81.8020    30.3170    18.6240    10.7580    14.7720   -22.6550 
  113.1250     2.2270   387.0290    83.1650    30.1520    12.7460     9.9980    13.3080   -23.2210 
  113.2500     2.1980   385.1770    82.0550    30.0860    10.7040     9.1900    11.9470   -23.8360 
  113.3750     2.1890   384.3400    82.0580    30.0780    10.5330     8.5560    11.0070   -24.4120 
  113.5000     2.1940   385.4750    81.0590    30.0650    10.8520     8.1800    10.5500   -24.8510 
  113.6250     2.2030   389.0530    77.3460    30.0360    11.1310     8.0760    10.5210   -25.0070 
  113.7500     2.2070   393.5150    74.7440    30.0120    11.3980     8.1270    10.7030   -24.8260 
  113.8750     2.2090   397.3490    76.8990    30.0020    11.7750     8.2630    10.9830   -24.2910 
  114.0000     2.2200   397.7300    80.4900    29.9970    12.2470     8.4090    11.2370   -23.4200 
  114.1250     2.2560   390.8710    80.7760    30.0120    12.4460     8.4320    11.2590   -22.2500 
  114.2500     2.3080   380.2550    82.0590    30.1160    12.0810     8.2500    10.9430   -20.9210 
  114.3750     2.3530   372.4940    87.9500    30.3170    11.0720     7.8400    10.2790   -19.5220 
  114.5000     2.3710   372.8420    95.7620    30.5260     9.5200     7.2620     9.3840   -18.1390 
  114.6250     2.3570   382.0640   100.3550    30.6330     7.7430     6.6360     8.4610   -16.8680 
  114.7500     2.3280   394.5710   100.3060    30.6720     6.3390     6.0840     7.6880   -15.7820 
  114.8750     2.2980   406.5630    98.7160    30.6940     5.6700     5.6610     7.1330   -14.9180 
