~V
VERS. 2.00: Ver 2.00
~W
STRT.M 60.0000:
STOP.M 238.0000:
STEP.M 0.1250:
NULL. -999.2500:
UWI. DF308:
~C
DEPT.M :
DEN.GM/CC :
SP.MV :
AC.US/MT :
GR.API :
CALI.CM :
RXO.OHMM :
RI. :
RML.OHMM :
~A
# ...
  130.0000     2.5120   -17.5130   336.2530    74.9990    23.5840    25.0830    18.2630    17.7140 
  130.1250     2.4640   -17.3670   370.0310    87.6710    23.6690    17.3140    14.8130    13.5030 
  130.2500     2.4240   -17.2230   390.8670    94.7410    23.7010    11.3290    11.9130    11.1900 
  130.3750     2.4190   -17.1170   388.3870    94.1120    23.7000     8.8100    10.2110    10.5830 
  130.5000     2.4570   -17.0370   365.4880    84.5630    23.6850    10.0750     9.7510    10.6710 
  130.6250     2.5160   -16.9660   335.5920    70.1110    23.6640    14.4420    10.6310    12.5010 
  130.7500     2.5600   -16.9240   311.6340    60.0600    23.6530    17.6900    12.5630    15.4370 
  130.8750     2.5770   -16.8920   295.6790    56.3850    23.6550    18.4750    15.3000    18.9350 
  131.0000     2.5740   -16.8540   285.0530    54.4450    23.6080    18.4500    18.2920    22.2640 
  131.1250     2.5720   -16.8570   277.5980    48.9580    23.4710    19.3830    20.7310    24.6470 
  131.2500     2.5870   -16.8670   272.5740    41.5670    23.3470    20.9540    22.4000    26.1460 
  131.3750     2.6130   -16.8620   270.4840    36.9840    23.2900    22.5250    23.4240    26.9990 
  131.5000     2.6340   -16.8670   271.4880    36.5910    23.2880    24.3710    23.9430    27.3570 
  131.6250     2.6320   -16.8620   275.5330    39.4130    23.3880    25.9150    23.8820    27.1240 
  131.7500     2.6150   -16.8420   280.9320    45.2380    23.5660    25.8790    23.3830    26.4770 
  131.8750     2.6050   -16.8310   285.5390    52.3660    23.7640    24.0390    22.6880    25.7390 
  132.0000     2.6180   -16.8060   286.8580    55.8600    23.9420    22.3120    22.1560    25.3720 
  132.1250     2.6480   -16.7580   282.4460    55.8090    24.0090    22.5980    22.2220    25.9050 
  132.2500     2.6720   -16.7020   273.9720    56.7270    23.9490    24.6820    22.8990    27.2030 
  132.3750     2.6800   -16.6410   265.1230    58.8350    23.8120    27.9470    23.9660    28.8120 
  132.5000     2.6800   -16.5860   261.3550    59.4510    23.6870    30.9190    24.9080    29.9520 
  132.6250     2.6710   -16.5400   268.2420    57.8260    23.6230    30.6610    24.8850    29.5700 
  132.7500     2.6500   -16.4880   281.5180    57.7670    23.5840    26.4660    23.7970    27.8040 
  132.8750     2.6190   -16.4320   293.5960    58.5040    23.5800    21.4260    22.0960    25.4040 
  133.0000     2.5900   -16.3970   297.9690    57.4820    23.6410    18.6550    20.4630    23.3100 
  133.1250     2.5780   -16.3420   292.9250    52.8290    23.7720    18.5050    19.4980    22.2960 
  133.2500     2.5830   -16.2930   285.2400    46.9790    23.8970    19.7020    19.2450    22.2660 
  133.3750     2.6000   -16.2580   279.7750    44.4410    24.0040    21.6660    19.5730    22.9180 
  133.5000     2.6170   -16.1950   278.4250    46.3990    24.0600    23.3100    20.1840    23.7710 
  133.6250     2.6180   -16.1670   280.7590    50.5440    24.0730    23.1610    20.6390    24.2470 
  133.7500     2.6080   -16.1710   284.3160    51.7890    24.0560    21.9060    20.7210    24.1990 
  133.8750     2.6010   -16.1570   287.4800    50.4640    24.0090    20.5240    20.5020    23.8020 
  134.0000     2.6050   -16.1410   288.6570    51.6180    23.9590    19.9190    20.1980    23.3790 
  134.1250     2.6090   -16.1570   286.6160    56.9650    23.9700    19.4840    20.0620    23.2730 
  134.2500     2.6040   -16.1800   283.3320    59.1170    23.9940    19.2920    20.1560    23.5220 
  134.3750     2.5960   -16.2170   281.2810    56.8530    23.9580    19.7120    20.4240    24.0020 
  134.5000     2.5950   -16.2630   281.6820    54.7550    23.8660    20.3500    20.7420    24.5080 
  134.6250     2.5980   -16.2670   283.5750    56.8000    23.7840    20.8140    20.9760    24.8340 
  134.7500     2.5960   -16.2660   285.1870    58.1500    23.7280    20.9380    21.0970    24.9590 
  134.8750     2.5960   -16.2690   286.2900    55.9570    23.7170    20.9860    21.1360    24.9650 
  135.0000     2.6040   -16.2570   287.1510    53.3260    23.7730    20.8470    21.1850    25.0150 
  135.1250     2.6150   -16.2470   287.0410    52.4260    23.9000    21.2940    21.4040    25.3350 
  135.2500     2.6160   -16.2200   284.9710    50.9090    23.9740    22.3490    21.8350    25.9420 
  135.3750     2.6060   -16.1740   281.6670    48.0420    23.9920    23.8770    22.4330    26.7380 
  135.5000     2.5940   -16.1590   280.0730    45.8620    23.9790    25.5810    23.0760    27.5450 
  135.6250     2.5810   -16.1540   283.8870    47.2430    23.9490    26.6410    23.5420    28.0710 
  135.7500     2.5630   -16.1380   291.2260    48.6190    23.9360    26.4210    23.6590    28.1170 
  135.8750     2.5450   -16.1530   298.2960    49.4940    23.9330    24.9000    23.3350    27.5950 
  136.0000     2.5380   -16.1830   302.0700    53.0420    23.9300    23.2480    22.6020    26.5790 
  136.1250     2.5500   -16.1860   301.5010    58.4990    23.8860    22.2930    21.5930    25.2780 
  136.2500     2.5650   -16.2140   298.4050    60.9280    23.7950    21.5190    20.6060    24.0810 
  136.3750     2.5710   -16.2460   294.2240    59.0860    23.7230    20.8280    19.8670    23.2730 
  136.5000     2.5670   -16.2440   290.9010    55.7300    23.7430    20.5790    19.5120    23.0010 
  136.6250     2.5560   -16.2660   290.9840    53.6030    23.8690    20.5230    19.5950    23.2950 
  136.7500     2.5400   -16.3020   293.8060    51.5930    23.9960    21.2770    19.9380    23.8780 
  136.8750     2.5230   -16.3110   297.0180    50.3650    24.0390    22.5810    20.3940    24.5220 
  137.0000     2.5140   -16.3240   298.3280    50.9990    24.0480    23.2320    20.8030    25.0020 
  137.1250     2.5220   -16.3500   296.9670    51.6620    24.0270    22.2340    21.0040    25.1290 
  137.2500     2.5370   -16.3540   294.9270    52.3620    23.9500    21.5250    21.0040    24.9910 
  137.3750     2.5450   -16.3590   293.8360    54.1520    23.7950    21.9390    20.8560    24.7080 
  137.5000     2.5410   -16.3540   294.3160    56.7070    23.7070    22.3620    20.6240    24.3740 
  137.6250     2.5360   -16.3280   296.0880    59.8740    23.6540    21.9300    20.3500    24.0310 
  137.7500     2.5430   -16.2840   298.0940    63.4990    23.5240    21.2810    20.0680    23.6920 
  137.8750     2.5560   -16.2260   299.9460    67.7040    23.3110    21.0450    19.8000    23.3840 
  138.0000     2.5600   -16.1650   301.7430    70.7170    23.1020    21.1460    19.5850    23.1680 
  138.1250     2.5390   -16.1020   303.6280    70.1950    22.8900    21.4240    19.4910    23.1240 
  138.2500     2.5140   -16.0280   304.8470    66.8930    22.7430    21.4700    19.5080    23.2080 
  138.3750     2.5060   -15.9480   304.0120    61.1070    22.7010    21.1080    19.5890    23.3260 
  138.5000     2.5240   -15.8910   300.6150    55.7200    22.8550    20.7070    19.6550    23.3610 
  138.6250     2.5460   -15.8200   296.5210    54.9750    23.2960    20.7500    19.6130    23.2050 
  138.7500     2.5510   -15.7590   294.7140    56.6380    23.7380    20.7830    19.4530    22.8890 
  138.8750     2.5390   -15.7300   295.4170    58.5290    23.9940    20.4000    19.1960    22.4690 
  139.0000     2.5240   -15.6890   296.2620    59.1950    24.0510    19.6450    18.8850    22.0180 
  139.1250     2.5230   -15.6510   294.2780    57.3860    24.0900    19.3880    18.5720    21.6200 
  139.2500     2.5360   -15.6470   290.3270    55.9330    24.1470    19.3490    18.2820    21.2900 
  139.3750     2.5510   -15.6330   286.4790    56.8770    24.1680    18.8560    18.0040    21.0000 
  139.5000     2.5570   -15.6160   284.0300    58.0860    24.1000    17.8270    17.7210    20.7140 
  139.6250     2.5570   -15.6140   282.9700    56.4370    24.0230    17.1320    17.4220    20.4020 
  139.7500     2.5610   -15.6070   282.8080    55.7100    23.9980    16.9640    17.0920    20.0410 
  139.8750     2.5710   -15.6080   284.1090    58.1320    24.0290    17.0500    16.7170    19.6100 
