~V
VERS. 2.00: Ver 2.00
~W
STRT.M 60.0000:
STOP.M 277.0000:
STEP.M 0.1250:
NULL. -999.2500:
UWI. DF3044:
~C
DEPT.M :
GR.API :
CALI.CM :
RXO.OHMM :
RI. :
RML.OHMM :
DEN.GM/CC :
SP.MV :
~A
# ...
  138.7500    57.6330    23.5730     8.9000     9.2420    10.9890     2.1670   -28.8990 
  138.8750    56.2550    23.6620     8.9120     9.2690    10.9990     2.1620   -29.0130 
  139.0000    60.5120    23.8460     8.9280     9.3180    11.0290     2.1700   -29.1150 
  139.1250    66.8280    23.9640     8.9530     9.4150    11.0920     2.1830   -29.2140 
  139.2500    67.0870    23.8870     9.1590     9.5620    11.1880     2.1980   -29.3100 
  139.3750    62.5090    23.7060     9.7660     9.7350    11.3090     2.2110   -29.3840 
  139.5000    59.7550    23.5580    10.6620     9.8870    11.4320     2.2190   -29.4140 
  139.6250    60.5090    23.4510    10.8150     9.9630    11.5210     2.2180   -29.3730 
  139.7500    60.2140    23.3790    10.3200     9.9740    11.5520     2.2090   -29.2770 
  139.8750    59.3600    23.3460     9.7430     9.9480    11.5280     2.1980   -29.1530 
  140.0000    58.9860    23.3360     9.4860     9.9190    11.4860     2.1920   -28.9870 
  140.1250    57.9560    23.3290     9.4770     9.9220    11.5030     2.1940   -28.7800 
  140.2500    58.1800    23.3190     9.4860     9.9590    11.6060     2.2060   -28.5570 
  140.3750    60.3550    23.3100     9.5610     9.9930    11.7170     2.2310   -28.3250 
  140.5000    64.2600    23.3050     9.8600     9.9440    11.6940     2.2710   -28.1270 
  140.6250    68.8580    23.3060    10.5500     9.6980    11.3700     2.3080   -27.9850 
  140.7500    71.0370    23.3090    10.8890     9.2720    10.8020     2.3130   -27.9010 
  140.8750    69.1900    23.3040    10.0590     8.7650    10.1410     2.2810   -27.8720 
  141.0000    66.0120    23.2850     8.4160     8.3360     9.5950     2.2330   -27.9260 
  141.1250    63.5900    23.2480     7.5340     8.1780     9.4090     2.1940   -28.0280 
  141.2500    63.7990    23.2290     7.9170     8.2970     9.5900     2.1690   -28.1450 
  141.3750    66.4570    23.2230     8.6870     8.6260    10.0590     2.1580   -28.2630 
  141.5000    67.5670    23.2230     9.1970     9.0410    10.6410     2.1590   -28.3650 
  141.6250    63.9540    23.2230     9.4170     9.3820    11.0600     2.1690   -28.4410 
  141.7500    60.2180    23.2230     9.5380     9.5680    11.1870     2.1750   -28.4780 
  141.8750    59.0340    23.2230     9.5550     9.6050    11.0750     2.1720   -28.4870 
  142.0000    56.7990    23.2230     9.4410     9.5430    10.8730     2.1670   -28.4500 
  142.1250    53.3740    23.2230     9.2610     9.4340    10.6980     2.1670   -28.3600 
  142.2500    54.0330    23.2230     9.0850     9.3190    10.5580     2.1660   -28.2430 
  142.3750    56.9100    23.2220     8.9420     9.2180    10.4240     2.1630   -28.1120 
  142.5000    57.2890    23.2170     8.7910     9.1350    10.2770     2.1610   -27.9440 
  142.6250    54.6960    23.2050     8.6690     9.0660    10.1370     2.1610   -27.7340 
  142.7500    53.5450    23.1880     8.5940     9.0180    10.0610     2.1570   -27.4960 
  142.8750    54.8350    23.1710     8.5690     9.0490    10.1360     2.1500   -27.2210 
  143.0000    58.4900    23.1600     8.5950     9.2570    10.4590     2.1570   -26.8890 
  143.1250    61.9190    23.1700     8.8490     9.7260    11.0890     2.2050   -26.5440 
  143.2500    62.1540    23.2160     9.3800    10.2670    11.7860     2.2870   -26.1780 
  143.3750    58.8210    23.2930    10.3890    10.5410    12.1540     2.3770   -25.7850 
  143.5000    56.8540    23.3840    11.9720    10.1920    11.7490     2.4430   -25.3880 
  143.6250    64.9740    23.4950    13.1710     9.0390    10.2920     2.4510   -25.0210 
  143.7500    79.8260    23.7270    11.5500     7.5820     8.4150     2.4170   -24.6840 
  143.8750    90.9700    24.0780     8.1290     6.2440     6.7080     2.3700   -24.3830 
  144.0000    93.0940    24.3840     5.6030     5.2520     5.5030     2.3380   -24.1440 
  144.1250    90.8510    24.5260     4.9380     4.6750     4.9360     2.3370   -23.9550 
  144.2500    94.5680    24.5800     4.8910     4.3810     4.8010     2.3470   -23.8240 
  144.3750   102.0440    24.5740     5.0260     4.2990     4.9360     2.3480   -23.7520 
  144.5000   102.7040    24.5250     5.1830     4.3670     5.1610     2.3330   -23.7350 
  144.6250    93.6290    24.4740     5.2280     4.5240     5.3140     2.3080   -23.7350 
  144.7500    86.1120    24.4400     5.1880     4.6820     5.3680     2.2890   -23.7350 
  144.8750    84.9620    24.4050     5.1960     4.7880     5.3560     2.2800   -23.7210 
  145.0000    86.2970    24.3840     5.2620     4.8240     5.3170     2.2800   -23.7050 
  145.1250    85.7290    24.3730     5.3930     4.8200     5.2930     2.2850   -23.6620 
  145.2500    86.7140    24.3720     5.4680     4.8400     5.3130     2.2840   -23.6010 
  145.3750    87.9860    24.3880     5.5010     4.9100     5.3950     2.2700   -23.5120 
  145.5000    87.0180    24.4260     5.5400     5.0180     5.5310     2.2520   -23.3750 
  145.6250    84.2980    24.4150     5.7490     5.0950     5.6610     2.2550   -23.2010 
  145.7500    85.8450    24.3830     5.9350     5.0640     5.6810     2.2820   -23.0030 
  145.8750    93.1860    24.3520     5.9130     4.8830     5.5210     2.3170   -22.8050 
  146.0000   100.7050    24.3370     5.5670     4.5720     5.1810     2.3380   -22.5940 
  146.1250   103.6630    24.3310     5.0190     4.2000     4.7460     2.3410   -22.4330 
  146.2500   104.6720    24.3330     4.5340     3.8580     4.3500     2.3410   -22.3050 
  146.3750   104.4550    24.3380     4.1960     3.5840     4.0630     2.3420   -22.2360 
  146.5000   102.8520    24.3710     4.0400     3.3880     3.9040     2.3480   -22.2410 
  146.6250    99.5300    24.4570     4.0590     3.2920     3.8810     2.3570   -22.3410 
  146.7500    96.4580    24.5560     4.1650     3.2990     3.9550     2.3630   -22.5300 
  146.8750    94.3070    24.5980     4.3620     3.4180     4.1220     2.3570   -22.7970 
  147.0000    92.5870    24.5950     4.6630     3.6410     4.3870     2.3320   -23.1490 
  147.1250    89.0040    24.5660     5.0380     3.9650     4.7780     2.2860   -23.5320 
  147.2500    82.9760    24.5020     5.3640     4.3830     5.2910     2.2310   -23.9120 
  147.3750    76.4160    24.3960     5.7420     4.9250     5.9460     2.1820   -24.2510 
  147.5000    71.6430    24.2370     6.3150     5.6200     6.7600     2.1580   -24.5340 
  147.6250    69.0780    24.1390     6.8920     6.4530     7.7110     2.1780   -24.7070 
  147.7500    67.5330    24.1320     7.1930     7.2480     8.6100     2.2270   -24.7690 
  147.8750    66.1620    24.2120     7.2960     7.7710     9.1770     2.2800   -24.7130 
  148.0000    65.6230    24.3490     7.5070     7.8150     9.1330     2.3140   -24.5340 
  148.1250    69.7770    24.4130     7.7720     7.2870     8.3500     2.3160   -24.2340 
  148.2500    77.3230    24.4320     7.5320     6.5200     7.2880     2.3180   -23.8880 
  148.3750    84.9310    24.4360     6.6140     5.7790     6.3210     2.3420   -23.5410 
  148.5000    90.2520    24.4460     5.5740     5.2180     5.6610     2.3860   -23.2290 
  148.6250    91.1560    24.4610     5.2320     4.9060     5.4000     2.4150   -22.9800 
  148.7500    87.5200    24.4500     5.6410     4.7790     5.4060     2.4040   -22.8020 
  148.8750    80.2350    24.4180     6.1070     4.8020     5.5770     2.3640   -22.6920 
  149.0000    75.3570    24.3770     6.1700     4.9360     5.8070     2.3200   -22.6490 
  149.1250    75.7360    24.3490     5.7880     5.1340     6.0230     2.2920   -22.6750 
  149.2500    75.8530    24.3230     5.6920     5.3410     6.2160     2.2760   -22.7130 
  149.3750    73.3530    24.2990     5.8530     5.5250     6.3840     2.2690   -22.7380 
  149.5000    70.2010    24.2730     6.1710     5.6550     6.4870     2.2730   -22.7410 
  149.6250    70.2390    24.2570     6.4770     5.7040     6.4520     2.2950   -22.7000 
  149.7500    72.3440    24.2440     6.6610     5.7130     6.3290     2.3340   -22.5910 
  149.8750    77.2970    24.2400     6.6600     5.7670     6.2530     2.3870   -22.4240 
