~V
VERS. 2.00: Ver 2.00
~W
STRT.M 100.0000:
STOP.M 264.0000:
STEP.M 0.1250:
NULL. -999.2500:
UWI. DF3023:
~C
DEPT.M :
GR.API :
CALI.CM :
RXO.OHMM :
RI. :
RML.OHMM :
SP.MV :
DEN.GM/CC :
AC.US/MT :
~A
# ...
  110.0000   107.2770    24.6850     4.6160     3.9020     4.8800   -10.9010     2.3530   455.3850 
  110.1250   104.2640    24.7990     4.5990     3.9840     4.9190   -10.7050     2.3580   452.5110 
  110.2500   102.8750    24.7830     4.6130     4.1470     5.0600   -10.5900     2.3370   448.3780 
  110.3750   101.8930    24.7390     4.8170     4.3680     5.2750   -10.5440     2.3130   443.7490 
  110.5000    97.4270    24.7170     5.2050     4.6070     5.4970   -10.5530     2.2980   439.9360 
  110.6250    92.7500    24.7010     5.5230     4.7970     5.6170   -10.6300     2.2940   439.0120 
  110.7500    94.0010    24.6570     5.3750     4.8850     5.5890   -10.7740     2.2890   440.4670 
  110.8750    99.2690    24.5850     5.1330     4.8430     5.4140   -10.9460     2.2860   443.1770 
  111.0000   103.8250    24.5150     4.9710     4.6760     5.1330   -11.0990     2.2950   445.9410 
  111.1250   104.9830    24.4770     4.7840     4.4180     4.8230   -11.2330     2.3080   449.6210 
  111.2500   107.6320    24.4700     4.5240     4.1500     4.5580   -11.3600     2.3160   455.0570 
  111.3750   113.5080    24.5360     4.2620     3.9170     4.3690   -11.4640     2.3330   461.1680 
  111.5000   119.0220    24.7270     4.0690     3.7360     4.2570   -11.5500     2.3700   464.2580 
  111.6250   117.2110    25.0060     4.0460     3.6160     4.2080   -11.6500     2.4140   461.1870 
  111.7500   109.5090    25.2270     4.1220     3.5340     4.1820   -11.8050     2.4210   456.6740 
  111.8750   103.5680    25.4230     4.1850     3.4690     4.1550   -12.0690     2.4040   454.9610 
  112.0000   100.6500    25.7610     4.2080     3.4130     4.1250   -12.4800     2.3820   455.7730 
  112.1250    99.5700    26.1520     4.0290     3.3950     4.1370   -13.0280     2.3530   453.9220 
  112.2500    99.9060    26.2120     4.0860     3.4770     4.2790   -13.6190     2.3230   446.4570 
  112.3750    99.8720    25.8730     4.5450     3.7360     4.6720   -14.2140     2.3130   430.3120 
  112.5000    95.4340    25.4420     5.7230     4.2650     5.4470   -14.8130     2.3240   399.6350 
  112.6250    86.1330    25.1830     7.1660     5.2370     6.8030   -15.4390     2.3530   347.2220 
  112.7500    78.6200    24.9100     8.7860     6.6480     8.6640   -16.1280     2.4110   285.6010 
  112.8750    74.0720    24.5390     9.9760     8.3800    10.7860   -16.8620     2.5080   231.8440 
  113.0000    70.4170    24.2840    10.2490    10.0270    12.5570   -17.5580     2.6100   201.8490 
  113.1250    69.2460    24.3640     9.7460    10.7850    12.9300   -18.0950     2.6600   211.1980 
  113.2500    71.1590    24.5390     9.0670    10.4980    11.9610   -18.4620     2.6270   253.3650 
  113.3750    73.7600    24.5640     8.7220     9.5160    10.3410   -18.6860     2.5290   312.8850 
  113.5000    74.3740    24.4070     8.5840     8.3640     8.8240   -18.8150     2.3980   364.8000 
  113.6250    73.5160    24.1760     8.8620     7.4690     7.9190   -18.8700     2.2840   388.9930 
  113.7500    72.7280    23.9880     9.1930     6.9680     7.6340   -18.8420     2.2280   396.9600 
  113.8750    72.6940    23.9120     9.6280     6.8890     7.8910   -18.7030     2.2270   395.7850 
  114.0000    73.7370    23.9810     9.4940     7.1460     8.4770   -18.4760     2.2590   378.8210 
  114.1250    74.7330    24.1460     9.3970     7.4750     8.9290   -18.2310     2.3120   342.2060 
  114.2500    73.5340    24.3370    12.2930     7.4670     8.7540   -17.9970     2.3970   316.7340 
  114.3750    72.6470    24.5490    15.3040     6.9160     7.8160   -17.7550     2.4740   332.0930 
  114.5000    75.5990    24.7620    13.0750     5.9470     6.4610   -17.5020     2.4840   386.9870 
  114.6250    81.5310    24.8900     6.5860     4.9650     5.3150   -17.2700     2.4350   441.8310 
  114.7500    85.2230    24.8800     4.2130     4.2670     4.6600   -17.1400     2.4040   464.4000 
  114.8750    86.4850    24.7690     4.2610     3.9270     4.4970   -17.2160     2.3810   457.5120 
  115.0000    86.6320    24.6190     5.1200     3.9280     4.7180   -17.5650     2.3330   441.4210 
  115.1250    85.0190    24.4760     6.3530     4.2240     5.1690   -18.2060     2.2710   434.8700 
  115.2500    80.8400    24.3690     7.2090     4.6250     5.6180   -19.0010     2.2440   439.3260 
  115.3750    76.2460    24.3130     7.0310     5.0060     5.9660   -19.8490     2.2470   448.7830 
  115.5000    74.9820    24.2850     6.1300     5.3170     6.2360   -20.6750     2.2590   454.9800 
  115.6250    78.5230    24.2300     6.0000     5.5950     6.5280   -21.4060     2.2690   453.2460 
  115.7500    81.9220    24.1650     6.8030     5.8890     6.8760   -22.0480     2.2670   447.7520 
  115.8750    82.5230    24.1690     8.1710     6.1940     7.2280   -22.6300     2.2460   442.0910 
  116.0000    81.1970    24.2780     9.2850     6.4550     7.4850   -23.1670     2.2190   437.5990 
  116.1250    79.3600    24.3990     9.3500     6.5640     7.5290   -23.6510     2.2160   434.5730 
  116.2500    77.5000    24.4000     8.9700     6.5170     7.4150   -24.0850     2.2210   432.3210 
  116.3750    75.3300    24.2750     8.5280     6.3830     7.2680   -24.4370     2.2140   431.0180 
  116.5000    73.5770    24.1100     8.4050     6.2710     7.2230   -24.6660     2.2050   430.7280 
  116.6250    73.7510    23.9650     8.7800     6.2990     7.3980   -24.7540     2.2100   430.6910 
  116.7500    74.5050    23.8330     9.2320     6.4810     7.7570   -24.7660     2.2190   429.9580 
  116.8750    74.5830    23.7190     9.7370     6.7820     8.2240   -24.7490     2.2260   428.0800 
  117.0000    74.1690    23.6410    10.0480     7.1140     8.6640   -24.7470     2.2470   426.2780 
  117.1250    75.1210    23.5970    10.2860     7.3320     8.8900   -24.7990     2.2650   426.4360 
  117.2500    76.4120    23.5620    10.4450     7.3720     8.8680   -24.9050     2.2630   427.5770 
  117.3750    76.0930    23.5400    10.3390     7.2470     8.6520   -25.0600     2.2580   427.9720 
  117.5000    75.9220    23.5480     9.6580     7.0370     8.3680   -25.2500     2.2390   426.8520 
  117.6250    76.2220    23.5970     9.4250     6.8640     8.1800   -25.4360     2.1900   425.6840 
  117.7500    74.4810    23.6760     9.9240     6.8060     8.1610   -25.5930     2.1530   424.7140 
  117.8750    71.9130    23.7850    10.6560     6.8880     8.3220   -25.7360     2.1650   421.1890 
  118.0000    69.9940    23.9020    10.8410     7.1010     8.6380   -25.8790     2.1950   412.9740 
  118.1250    69.3750    23.9790    10.5700     7.4230     9.0530   -26.0480     2.2210   402.3670 
  118.2500    68.4570    23.9970    10.4100     7.7800     9.4580   -26.2540     2.2690   396.6800 
  118.3750    66.6630    23.9570    10.5460     8.1180     9.7860   -26.4740     2.3190   399.0790 
  118.5000    64.7760    23.8780    11.2180     8.4030    10.0120   -26.6630     2.3160   407.1370 
  118.6250    63.4690    23.7910    13.0720     8.6200    10.1400   -26.7840     2.2580   414.9530 
  118.7500    62.8240    23.7590    13.8040     8.7720    10.2010   -26.8630     2.2150   418.7560 
  118.8750    61.7940    23.8390    13.5760     8.8410    10.1830   -26.9220     2.2130   419.3180 
  119.0000    60.1930    24.0460    13.4470     8.8040    10.0560   -26.9740     2.2270   419.3270 
  119.1250    60.9060    24.2940    13.2370     8.6180     9.7680   -27.0090     2.2250   421.6840 
  119.2500    64.5250    24.4560    12.4610     8.3080     9.3540   -26.9650     2.2170   426.2210 
  119.3750    68.1560    24.5010    11.2260     7.9140     8.8670   -26.7900     2.2220   430.8550 
  119.5000    68.1900    24.4770    10.2280     7.4940     8.3860   -26.4970     2.2300   433.2090 
  119.6250    63.6080    24.4440     9.9210     7.1270     8.0070   -26.1530     2.2290   432.1250 
  119.7500    60.6410    24.4110     9.6780     6.8610     7.7650   -25.8200     2.2290   430.1380 
  119.8750    63.0630    24.3640     9.4090     6.7270     7.6770   -25.5200     2.2280   429.3970 
