~V
VERS. 2.00: Ver 2.00
~W
STRT.M 64.0000:
STOP.M 278.0000:
STEP.M 0.1250:
NULL. -999.2500:
UWI. DF3056:
~C
DEPT.M :
SP.MV :
GR.API :
CALI.CM :
RXO.OHMM :
RI. :
RML.OHMM :
DEN.GM/CC :
~A
# ...
  154.0000   -15.0060    56.8200    24.8640    18.7970    17.5010    17.5960     2.5260 
  154.1250   -15.2010    61.7070    24.9840    18.0670    17.0390    17.2190     2.5260 
  154.2500   -15.3720    64.6610    24.9610    17.9450    16.7230    17.0260     2.5260 
  154.3750   -15.4830    64.9150    24.9210    18.2100    16.5260    16.9690     2.5340 
  154.5000   -15.5120    65.0060    24.8350    19.0180    16.3970    16.9780     2.5450 
  154.6250   -15.5050    65.8240    24.8040    19.9380    16.2820    16.9920     2.5490 
  154.7500   -15.4700    66.0350    24.7840    19.5740    16.1460    16.9870     2.5430 
  154.8750   -15.4620    65.0770    24.7810    18.3850    16.0090    17.0190     2.5350 
  155.0000   -15.4880    61.9300    24.7940    17.8580    15.9520    17.1710     2.5340 
  155.1250   -15.5520    56.7790    24.8780    18.1690    15.9920    17.4370     2.5450 
  155.2500   -15.6740    52.7760    24.8280    18.8310    16.0470    17.7260     2.5640 
  155.3750   -15.8370    53.5060    24.7870    19.7280    16.0470    17.9580     2.5820 
  155.5000   -16.0310    59.1670    24.6850    19.8080    15.9130    18.0220     2.5860 
  155.6250   -16.1890    63.9680    24.5420    19.8790    15.5390    17.7700     2.5740 
  155.7500   -16.2810    64.8820    24.4800    19.3940    14.9910    17.2870     2.5630 
  155.8750   -16.2990    62.5170    24.4650    17.7170    14.3940    16.7250     2.5570 
  156.0000   -16.2930    59.3930    24.4680    15.5400    13.8530    16.2280     2.5530 
  156.1250   -16.2580    59.2490    24.4880    14.8240    13.4870    15.9730     2.5410 
  156.2500   -16.2050    62.6080    24.5220    15.3610    13.3200    15.9520     2.5260 
  156.3750   -16.1650    64.5120    24.5080    15.5940    13.3220    16.1190     2.5230 
  156.5000   -16.1710    61.9230    24.4400    14.8470    13.4280    16.3970     2.5470 
  156.6250   -16.2700    56.9850    24.3210    13.6630    13.6190    16.7390     2.5920 
  156.7500   -16.4490    55.5690    24.3120    13.3380    13.8510    17.1090     2.6280 
  156.8750   -16.6550    57.3940    24.4060    13.7680    14.0510    17.4090     2.6380 
  157.0000   -16.8300    59.8390    24.4200    14.5140    14.1680    17.5840     2.6250 
  157.1250   -16.9550    60.4370    24.5070    14.4290    14.1830    17.6250     2.6000 
  157.2500   -17.0560    57.6290    24.5590    14.7400    14.1210    17.5340     2.5770 
  157.3750   -17.1290    55.6570    24.4760    15.8910    13.9620    17.2920     2.5640 
  157.5000   -17.1590    58.9020    24.2880    17.1250    13.7450    16.9560     2.5600 
  157.6250   -17.1650    64.4710    24.0050    16.7720    13.5530    16.6600     2.5550 
  157.7500   -17.1750    66.2190    23.7370    15.9650    13.4620    16.4950     2.5490 
  157.8750   -17.2390    64.7400    23.6320    15.7640    13.5590    16.5670     2.5450 
  158.0000   -17.4150    66.2240    23.9330    15.8260    13.8970    16.9250     2.5400 
  158.1250   -17.6980    69.9470    24.3170    16.1450    14.4300    17.4310     2.5280 
  158.2500   -18.0220    70.9810    24.7250    17.0300    14.9050    17.7760     2.5130 
  158.3750   -18.3750    71.1310    24.7790    17.9110    15.1020    17.7460     2.5060 
  158.5000   -18.7390    72.6610    24.8000    17.9920    14.8530    17.2020     2.5040 
  158.6250   -19.1230    74.6030    24.8790    17.9060    14.0190    16.0150     2.4910 
  158.7500   -19.5110    75.4240    24.9100    16.8740    12.8400    14.5080     2.4690 
  158.8750   -19.8570    78.6600    24.8770    15.5930    11.5630    12.9700     2.4490 
  159.0000   -20.1540    85.2950    24.9060    13.0780    10.4080    11.6610     2.4360 
  159.1250   -20.4430    89.3820    24.8530    11.0660     9.5340    10.7730     2.4210 
  159.2500   -20.7670    88.0420    24.8270    10.8480     8.9490    10.2770     2.4010 
  159.3750   -21.1380    84.0830    24.8210    11.6710     8.6290    10.0960     2.3910 
  159.5000   -21.5630    82.5580    24.8130    11.7010     8.4950    10.1010     2.4010 
  159.6250   -22.0180    85.7920    24.8080    11.4820     8.4980    10.2200     2.4300 
  159.7500   -22.5030    88.5000    24.7880    10.8440     8.5720    10.3930     2.4570 
  159.8750   -23.0150    88.0870    24.7130    10.4670     8.7050    10.5960     2.4710 
  160.0000   -23.5090    86.9930    24.4900    10.7570     8.9100    10.8740     2.4680 
  160.1250   -23.9490    88.2030    24.3830    11.1380     9.3020    11.4430     2.4540 
  160.2500   -24.3240    90.5000    24.2210    11.5960    10.0080    12.5090     2.4370 
  160.3750   -24.6530    92.0440    24.1500    12.2800    11.1380    14.2400     2.4150 
  160.5000   -24.9730    90.6570    24.4030    15.2790    12.8430    16.8720     2.3850 
  160.6250   -25.3010    85.0340    24.7510    19.8090    15.5380    20.9610     2.3500 
  160.7500   -25.6320    80.6690    24.9710    24.1770    19.4150    26.5770     2.3150 
  160.8750   -25.9860    82.4120    25.0300    30.6500    24.7060    33.7100     2.2800 
  161.0000   -26.4130    85.8780    25.1880    42.9320    31.2500    41.8540     2.2510 
  161.1250   -26.9150    82.7430    25.2340    61.8560    38.1970    49.7560     2.2390 
  161.2500   -27.4530    76.9590    25.2700    77.4100    44.1480    55.9950     2.2430 
  161.3750   -27.9960    72.7880    25.2650    85.2460    48.1330    59.6240     2.2540 
  161.5000   -28.4750    69.6060    25.2330    86.8070    49.8860    60.5260     2.2640 
  161.6250   -28.8610    65.2270    25.0410    81.8880    49.6560    59.3570     2.2670 
  161.7500   -29.1880    61.6640    25.0120    70.7470    49.1340    58.3170     2.2620 
  161.8750   -29.4660    59.8490    25.0050    55.1470    49.2360    58.4360     2.2560 
  162.0000   -29.6770    58.5050    25.0190    56.4200    50.4670    60.1160     2.2550 
  162.1250   -29.8340    59.5350    25.0940    70.9720    53.1370    63.2850     2.2570 
  162.2500   -29.9850    63.6950    25.2460    82.8550    56.2070    66.4740     2.2570 
  162.3750   -30.1720    67.6700    25.2570    81.0410    58.6200    68.4750     2.2560 
  162.5000   -30.4150    68.4230    25.1930    77.1180    59.7640    68.7030     2.2560 
  162.6250   -30.7200    67.4820    25.0360    70.4690    59.2030    66.8210     2.2580 
  162.7500   -31.0670    69.5880    25.0140    64.7440    57.2750    63.4730     2.2650 
  162.8750   -31.4330    73.6320    25.0070    62.6890    54.6630    59.7330     2.2800 
  163.0000   -31.7990    77.5510    25.0070    62.7810    52.5210    56.9310     2.2940 
  163.1250   -32.1470    79.9790    25.0330    57.4960    51.6030    55.8030     2.2900 
  163.2500   -32.4280    77.6570    25.1420    53.8380    51.9950    56.2580     2.2710 
  163.3750   -32.6530    71.2140    25.2580    54.7970    53.8610    58.3830     2.2460 
  163.5000   -32.8610    66.8980    25.3480    55.5250    57.2470    62.0890     2.2320 
  163.6250   -33.0710    70.0930    25.4540    55.8690    62.1810    67.2820     2.2360 
  163.7500   -33.3120    75.3900    25.6240    63.3550    68.2940    73.5850     2.2470 
  163.8750   -33.5850    78.3010    25.6810    75.4250    75.3030    80.6630     2.2530 
  164.0000   -33.8610    77.4100    25.6900    82.5000    82.6140    87.9200     2.2550 
  164.1250   -34.1810    71.3920    25.6860    86.8300    89.4720    94.6390     2.2600 
  164.2500   -34.5780    65.2850    25.6900    98.1310    95.6990   100.7090     2.2690 
  164.3750   -34.9970    65.1740    25.6910   110.4390   101.0880   105.9580     2.2730 
  164.5000   -35.4100    68.9770    25.6910   113.5220   105.2730   110.0860     2.2670 
  164.6250   -35.7720    70.2790    25.6910   105.2580   107.9660   112.7480     2.2520 
  164.7500   -36.0140    68.1220    25.6910    97.6890   109.0750   113.8600     2.2360 
  164.8750   -36.1700    66.2420    25.6910    99.4470   108.6390   113.3890     2.2230 
  165.0000   -36.2950    65.7600    25.6910   111.3110   107.1580   111.8710     2.2150 
  165.1250   -36.3880    64.8500    25.6890   119.8560   105.1420   109.8300     2.2120 
