~V
VERS. 2.00: Ver 2.00
~W
STRT.M 130.0000:
STOP.M 279.0000:
STEP.M 0.1250:
NULL. -999.2500:
UWI. DF307:
~C
DEPT.M :
DEN.GM/CC :
AC.US/MT :
GR.API :
CALI.CM :
RXO.OHMM :
RI. :
RML.OHMM :
SP.MV :
~A
# ...
  200.0000     2.2650   392.3150    73.4630    26.4480    29.2570    47.9510    54.6290   -26.1140 
  200.1250     2.2610   394.7030    74.2580    26.3740    29.1450    47.0510    53.6590   -26.1040 
  200.2500     2.2650   395.0620    77.0560    26.2790    30.4700    46.3320    52.9450   -26.0720 
  200.3750     2.2650   393.0370    81.4040    26.2100    32.7650    46.0870    52.8800   -26.0330 
  200.5000     2.2590   389.2040    84.4110    26.2120    34.3510    46.6950    53.9150   -25.9650 
  200.6250     2.2530   385.3280    83.1650    26.3120    34.2980    48.6290    56.5550   -25.8890 
  200.7500     2.2510   383.3650    79.8660    26.4430    34.2710    51.6530    60.4240   -25.7980 
  200.8750     2.2470   384.0090    77.5410    26.5430    35.3670    55.3510    64.9270   -25.6760 
  201.0000     2.2380   386.5140    77.0140    26.5900    37.1960    58.9630    69.0710   -25.5250 
  201.1250     2.2320   388.8350    77.6610    26.6090    38.4260    61.2640    71.3340   -25.3870 
  201.2500     2.2310   389.1250    79.0560    26.6130    38.4120    61.7610    71.3140   -25.2750 
  201.3750     2.2320   386.6660    80.0910    26.5930    37.3120    60.5270    69.3200   -25.1660 
  201.5000     2.2340   381.7070    78.4590    26.5670    35.8050    58.1470    66.2320   -25.0980 
  201.6250     2.2380   375.5780    73.0920    26.5560    34.6750    55.4350    63.0930   -25.0550 
  201.7500     2.2370   370.8400    68.6000    26.5540    34.0300    53.0670    60.5490   -25.0320 
  201.8750     2.2330   369.2600    66.7350    26.5550    33.6780    51.2740    58.7620   -25.0820 
  202.0000     2.2310   371.0590    66.2890    26.5540    33.3890    50.1190    57.7630   -25.2010 
  202.1250     2.2320   374.6530    68.9680    26.5500    33.2640    49.8760    57.8710   -25.3430 
  202.2500     2.2350   377.4780    74.8960    26.5470    33.9290    50.6620    59.2000   -25.5120 
  202.3750     2.2380   378.6500    78.8940    26.5480    35.8090    52.5600    61.7800   -25.7110 
  202.5000     2.2410   378.4860    77.8090    26.5520    38.4340    55.2990    65.2170   -25.9010 
  202.6250     2.2470   377.5650    76.0010    26.5520    40.6240    58.1050    68.4430   -26.0930 
  202.7500     2.2570   376.1030    75.9290    26.5450    41.1600    59.8660    70.0900   -26.2740 
  202.8750     2.2660   373.9300    75.6880    26.5220    39.5170    59.7560    69.2370   -26.4210 
  203.0000     2.2660   371.3710    74.9880    26.4520    36.9300    57.6710    66.0290   -26.5330 
  203.1250     2.2630   369.7670    75.9350    26.3070    36.0370    54.4380    61.8520   -26.6110 
  203.2500     2.2650   370.1780    77.1170    26.1400    36.4540    51.5600    58.5280   -26.6460 
  203.3750     2.2680   372.7760    77.8250    26.0150    36.5060    49.8140    56.8430   -26.6520 
  203.5000     2.2660   376.6670    78.0780    25.9700    36.1980    49.4410    56.8680   -26.6310 
  203.6250     2.2600   379.9900    77.6230    26.0050    37.0510    50.2120    58.0870   -26.5950 
  203.7500     2.2600   381.4670    76.5490    26.0670    38.1140    51.1240    59.2150   -26.5580 
  203.8750     2.2640   381.2780    74.2710    26.1240    37.6200    51.4650    59.4100   -26.5030 
  204.0000     2.2660   380.9480    71.9620    26.1650    35.6060    50.8330    58.2840   -26.4430 
  204.1250     2.2660   382.6750    70.8180    26.1880    33.9740    49.1140    55.8770   -26.4030 
  204.2500     2.2650   386.3160    71.6480    26.1800    33.6980    46.9940    53.1770   -26.3710 
  204.3750     2.2570   390.1610    74.5680    26.1280    33.8500    45.1880    51.0890   -26.3480 
  204.5000     2.2400   392.0690    77.4870    26.0430    33.2460    44.3040    50.3130   -26.3580 
  204.6250     2.2220   390.4680    78.3230    25.9610    32.5840    44.9910    51.6040   -26.3600 
  204.7500     2.2150   386.7650    77.0990    25.9060    33.6980    47.2470    54.8410   -26.3520 
  204.8750     2.2190   382.6590    74.3050    25.8820    36.3160    50.9050    59.6630   -26.3490 
  205.0000     2.2290   379.5200    72.2200    25.8860    38.4610    55.1680    64.9150   -26.3530 
  205.1250     2.2420   378.0770    71.3620    25.9140    38.7350    58.1630    68.0840   -26.3200 
  205.2500     2.2590   377.7450    72.3180    25.9380    37.7390    58.4460    67.5790   -26.2920 
  205.3750     2.2780   377.7090    74.5050    25.9410    35.1310    55.8150    63.5600   -26.2820 
  205.5000     2.2900   376.6630    77.7190    25.8990    30.7590    51.5670    58.0670   -26.2940 
  205.6250     2.2950   372.8360    80.9970    25.7820    26.5990    48.0370    54.1560   -26.3350 
  205.7500     2.3010   366.9340    81.5640    25.6160    24.8180    46.6770    53.2340   -26.4110 
  205.8750     2.3070   361.3780    79.3060    25.4500    25.6510    47.9070    55.5470   -26.5290 
  206.0000     2.3090   359.3320    76.5060    25.2970    28.0540    51.5040    60.5830   -26.6650 
  206.1250     2.3050   363.1340    75.3360    25.1160    30.1270    56.5650    66.8670   -26.8430 
  206.2500     2.2960   369.6170    75.7670    24.9330    30.6420    60.8850    71.5700   -27.0260 
  206.3750     2.2800   374.8550    77.0380    24.8210    29.8710    62.7190    72.6810   -27.2050 
  206.5000     2.2590   376.5110    79.2360    24.7810    28.8110    61.4920    70.0090   -27.3830 
  206.6250     2.2510   375.8580    81.7840    24.7050    28.0340    57.9660    65.1540   -27.5460 
  206.7500     2.2580   376.6010    82.0910    24.5540    27.3970    54.1690    60.5900   -27.6920 
  206.8750     2.2710   379.3540    79.4460    24.4040    27.0640    51.2120    57.4120   -27.8220 
  207.0000     2.2830   381.7870    75.8760    24.3350    27.5490    49.6440    56.0200   -27.9720 
  207.1250     2.2860   380.4450    73.5760    24.3780    29.7690    49.8100    56.6670   -28.1250 
  207.2500     2.2810   375.9800    72.9000    24.4750    33.9580    51.2740    58.7620   -28.2770 
  207.3750     2.2710   370.9690    73.5910    24.5790    39.8530    53.6460    61.7630   -28.4450 
  207.5000     2.2630   368.0540    74.6240    24.6470    46.1150    56.2780    64.8200   -28.6250 
  207.6250     2.2610   368.7940    75.1400    24.6640    50.2350    58.1750    66.6650   -28.8010 
  207.7500     2.2620   371.7300    73.7640    24.6660    51.1820    58.7710    66.7660   -29.0090 
  207.8750     2.2660   375.3050    71.4910    24.6710    49.7490    57.9620    65.2100   -29.2270 
  208.0000     2.2710   378.0160    70.0670    24.6670    48.0170    56.1360    62.6760   -29.4360 
  208.1250     2.2760   378.3500    71.6460    24.6540    47.3920    54.0150    60.1650   -29.6800 
  208.2500     2.2800   376.6790    74.1610    24.6700    47.1680    52.2880    58.3610   -29.9380 
  208.3750     2.2850   374.2980    74.3150    24.7650    47.2180    51.2030    57.4380   -30.2030 
  208.5000     2.2920   372.8580    72.4580    24.9490    48.3480    50.7590    57.2900   -30.4740 
  208.6250     2.2940   373.3780    69.7110    25.1450    50.6910    50.7990    57.6450   -30.7370 
  208.7500     2.2950   374.5410    67.6660    25.2630    52.5980    50.9870    58.1190   -30.9760 
  208.8750     2.2940   374.7720    67.5250    25.2980    53.4020    51.3120    58.7550   -31.1920 
  209.0000     2.2860   373.3040    69.8470    25.2960    53.2410    52.0550    59.9540   -31.3750 
  209.1250     2.2640   370.9780    72.3970    25.2940    52.7880    53.9260    62.6170   -31.5040 
  209.2500     2.2380   370.0260    71.8500    25.2910    54.2190    57.3320    67.1880   -31.5760 
  209.3750     2.2230   372.0700    69.8540    25.3100    59.7770    62.5580    73.9470   -31.5900 
  209.5000     2.2260   377.5600    69.0650    25.3760    68.9890    69.3990    82.6060   -31.5630 
  209.6250     2.2410   385.1000    69.1210    25.4750    77.1560    76.8980    91.9630   -31.5240 
  209.7500     2.2490   391.1460    69.4490    25.5540    80.5270    83.4310    99.9740   -31.4800 
  209.8750     2.2430   393.2460    70.8320    25.5900    78.9470    87.9360   105.2750   -31.4480 
