~V
VERS. 2.00: Ver 2.00
~W
STRT.M 64.0000:
STOP.M 257.0000:
STEP.M 0.1250:
NULL. -999.2500:
UWI. DF3069:
~C
DEPT.M :
GR.API :
CALI.CM :
RXO.OHMM :
RI. :
RML.OHMM :
DEN.GM/CC :
SP.MV :
~A
# ...
  199.0000    61.1030    23.6510   145.7050   198.7200   222.4270     2.3630   -38.6370 
  199.1250    61.6760    24.0160   151.6000   205.9410   229.1610     2.2960   -38.9380 
  199.2500    61.7850    24.3020   141.5080   204.2030   224.6240     2.2350   -39.1380 
  199.3750    63.3090    24.2420   126.7070   192.3420   208.2250     2.2000   -39.2090 
  199.5000    62.6050    24.1850   115.9180   172.5890   183.8800     2.1880   -39.2350 
  199.6250    58.0870    24.2020   116.2870   149.5650   157.2240     2.1850   -39.3330 
  199.7500    55.6500    24.2170   118.5100   127.2730   132.3170     2.1840   -39.5370 
  199.8750    58.3550    24.2490   112.1300   107.2650   110.6400     2.1880   -39.7550 
  200.0000    65.0800    24.3720    97.3440    90.8970    93.4010     2.2000   -39.8880 
  200.1250    71.4590    24.5350    78.7870    79.8610    81.9580     2.2160   -39.8830 
  200.2500    73.9790    24.5240    60.6020    73.2390    75.0760     2.2270   -39.8420 
  200.3750    71.8040    24.5140    53.8450    70.3040    71.9000     2.2260   -39.8830 
  200.5000    67.9810    24.4920    59.4650    70.1030    71.4110     2.2150   -40.0650 
  200.6250    68.1480    24.3850    62.6890    71.7140    72.6370     2.2080   -40.2900 
  200.7500    70.4760    24.2660    61.4350    73.7450    74.1710     2.2100   -40.4060 
  200.8750    72.6450    24.4250    60.1420    75.4000    75.1210     2.2130   -40.4310 
  201.0000    72.8200    24.5420    62.1900    76.0100    74.9820     2.2090   -40.4310 
  201.1250    71.5410    24.6020    64.6370    74.9370    73.3050     2.1990   -40.5500 
  201.2500    71.0010    24.5350    62.9190    72.4490    70.4170     2.1930   -40.8120 
  201.3750    71.4800    24.5680    58.8590    68.7920    66.5790     2.2000   -41.1110 
  201.5000    71.2750    24.5250    53.6810    64.3510    62.2250     2.2160   -41.3150 
  201.6250    68.6550    24.5030    49.6310    59.7350    57.9950     2.2320   -41.3900 
  201.7500    67.5830    24.4210    46.6250    55.6770    54.5070     2.2420   -41.4770 
  201.8750    69.6950    24.2920    42.1450    52.7480    52.3240     2.2460   -41.6320 
  202.0000    72.1740    24.4230    33.9650    51.5510    52.0360     2.2490   -41.8890 
  202.1250    72.2670    24.2300    28.1400    52.9200    54.4840     2.2540   -42.2140 
  202.2500    70.7570    24.1820    30.0840    56.8370    59.6670     2.2580   -42.5020 
  202.3750    69.4690    24.1020    42.0160    63.3740    67.6480     2.2540   -42.7210 
  202.5000    69.1130    23.9160    56.5770    72.4730    78.4100     2.2420   -42.9130 
  202.6250    68.7270    23.8030    65.2260    84.3850    92.2650     2.2310   -43.1680 
  202.7500    67.0500    23.6680    67.6650    98.4840   108.7140     2.2300   -43.5300 
  202.8750    63.3040    24.0010    70.7040   114.2370   127.4130     2.2340   -43.9640 
  203.0000    59.0470    24.1720    76.6520   130.9050   147.6700     2.2330   -44.3710 
  203.1250    57.1890    24.1690    83.8030   147.4170   168.3650     2.2240   -44.6320 
  203.2500    57.5400    23.9710    90.0890   163.0300   188.4020     2.2150   -44.7950 
  203.3750    58.8850    23.7630    93.3760   177.0400   206.8450     2.2110   -44.9810 
  203.5000    60.3540    23.9660    98.3110   188.6180   222.3720     2.2080   -45.2620 
  203.6250    62.3160    24.1660   100.0020   196.4500   233.0470     2.2030   -45.6330 
  203.7500    64.2450    24.1710    97.5910   201.4600   240.0480     2.2010   -45.9480 
  203.8750    64.3830    23.9920    85.2920   204.8530   244.8890     2.2110   -46.1400 
  204.0000    62.1480    23.9560    71.9910   207.8140   249.1500     2.2360   -46.2440 
  204.1250    57.8300    23.5770    74.4390   211.1580   254.0320     2.2600   -46.3600 
  204.2500    55.0330    23.3830    85.8730   215.0570   259.3780     2.2670   -46.5770 
  204.3750    55.9610    23.6530    91.3400   219.0790   264.6260     2.2610   -46.8390 
  204.5000    58.9370    23.9540    92.8770   222.8800   269.2140     2.2530   -47.0310 
  204.6250    61.6430    24.1790    99.0190   225.9510   272.4030     2.2450   -47.0370 
  204.7500    62.3770    24.2700   110.2280   227.7310   273.4890     2.2300   -46.9330 
  204.8750    60.6140    24.3560   125.3120   227.5960   271.6910     2.2130   -46.8250 
  205.0000    57.7460    24.2540   133.8280   225.2490   266.7390     2.2130   -46.8050 
  205.1250    57.2320    24.2550   131.8250   220.5950   258.5920     2.2380   -46.8650 
  205.2500    59.6470    24.3010   128.2790   214.1010   247.9610     2.2700   -46.8480 
  205.3750    61.8070    24.2620   128.8990   206.0180   235.3170     2.2910   -46.7030 
  205.5000    61.8490    24.2330   133.3060   196.8580   221.4660     2.2950   -46.4640 
  205.6250    61.2340    24.2330   131.7550   187.0190   207.2860     2.2830   -46.2760 
  205.7500    61.2530    24.2320   125.4220   176.8390   193.0610     2.2670   -46.2010 
  205.8750    63.3030    24.2220   120.9780   166.1190   178.4990     2.2550   -46.2180 
  206.0000    66.6470    24.2320   118.5420   154.6840   163.6000     2.2480   -46.1890 
  206.1250    68.0750    24.2050   112.5130   142.4930   148.6000     2.2420   -45.9790 
  206.2500    66.8230    24.2210   104.0780   129.9040   133.8110     2.2300   -45.6830 
  206.3750    64.8460    24.2230    96.7070   117.6760   120.2390     2.2120   -45.4150 
  206.5000    63.7060    24.2150    87.1930   106.8620   108.8130     2.1980   -45.2740 
  206.6250    62.2760    24.2440    79.7990    98.6650   100.6350     2.2040   -45.2270 
  206.7500    58.8860    24.2310    75.1770    93.4590    95.6220     2.2150   -45.0970 
  206.8750    56.3760    24.2490    71.2720    91.5500    94.1030     2.2470   -44.8300 
  207.0000    58.0590    24.2550    63.3820    92.8690    95.9260     2.2430   -44.5060 
  207.1250    64.0940    24.2330    61.4360    97.2950   100.9840     2.2270   -44.3210 
  207.2500    68.2630    24.2450    68.5740   103.6230   108.1890     2.2110   -44.3290 
  207.3750    67.2040    24.2180    80.5960   111.1840   116.7240     2.2020   -44.4000 
  207.5000    63.3700    24.2250    89.4190   118.6540   125.2830     2.1930   -44.3900 
  207.6250    61.2640    24.2320    93.9230   124.6670   132.5130     2.1840   -44.2510 
  207.7500    60.6250    24.2270    95.9110   128.8970   138.0570     2.1830   -44.1370 
  207.8750    60.1670    24.1900    96.3420   131.3730   141.7520     2.2020   -44.1370 
  208.0000    60.9560    23.9260    95.9020   132.5110   143.8750     2.2410   -44.2490 
  208.1250    62.2510    23.7020   100.5420   133.2970   145.8830     2.2730   -44.3880 
  208.2500    62.1510    23.7050   103.8440   134.9500   149.1000     2.2750   -44.4200 
  208.3750    61.7400    23.8120    98.8690   137.7460   153.8080     2.2470   -44.3420 
  208.5000    63.3450    23.8860    93.9760   141.6130   159.7650     2.2140   -44.2310 
  208.6250    65.3880    23.9220    99.3050   145.7170   165.9530     2.2050   -44.1260 
  208.7500    64.7790    23.8880   108.5340   148.0080   169.8110     2.2210   -44.0570 
  208.8750    63.6210    23.8560   116.3280   147.1700   169.4950     2.2460   -43.9430 
  209.0000    63.1970    23.6720   122.1020   142.7800   164.5300     2.2640   -43.6700 
  209.1250    62.4950    23.3720   119.4530   135.3320   155.6690     2.2750   -43.1670 
  209.2500    61.5330    23.2970   113.6760   126.7520   145.6770     2.2790   -42.5690 
  209.3750    62.5630    23.3040   103.7820   119.0520   137.2980     2.2770   -41.9800 
  209.5000    65.1120    23.3210    88.8020   114.3160   132.8760     2.2650   -41.4430 
  209.6250    66.3880    23.2880    80.1430   114.6180   134.3410     2.2460   -40.9450 
  209.7500    67.5340    23.3020    81.5830   119.3670   140.7160     2.2280   -40.3210 
  209.8750    69.1550    23.3410    93.0470   127.7540   151.3510     2.2160   -39.5600 
  210.0000    67.9970    23.3030   109.2550   138.6720   165.3430     2.2200   -38.7780 
  210.1250    62.4520    23.2830   116.6890   150.1570   179.9050     2.2400   -38.1280 
