~V
VERS. 2.00: Ver 2.00
~W
STRT.M 63.0000:
STOP.M 272.0000:
STEP.M 0.1250:
NULL. -999.2500:
UWI. DF3013:
~C
DEPT.M :
DEN.GM/CC :
SP.MV :
AC.US/MT :
GR.API :
CALI.CM :
RXO.OHMM :
RI. :
RML.OHMM :
~A
# ...
  143.0000     2.6540   -10.4650   241.8460    55.9230    24.4070    18.4580    21.5050    23.8420 
  143.1250     2.6400   -10.2780   245.9850    53.7660    24.6320    17.2730    19.6530    21.6050 
  143.2500     2.6290   -10.1170   247.6540    52.9860    24.6900    16.9390    18.2090    20.1240 
  143.3750     2.6210    -9.9900   248.9940    53.9020    24.6770    16.6150    17.3430    19.4090 
  143.5000     2.6170    -9.8890   252.1770    53.8770    24.6470    16.8290    16.9970    19.2700 
  143.6250     2.6150    -9.8020   256.7070    50.8440    24.6250    16.8570    17.0410    19.4580 
  143.7500     2.6090    -9.7130   259.8400    47.9790    24.6350    16.5110    17.2180    19.6590 
  143.8750     2.5980    -9.6120   260.5990    48.3360    24.6700    17.2250    17.4140    19.7630 
  144.0000     2.5870    -9.4910   260.1520    50.4950    24.7050    18.2910    17.5990    19.7800 
  144.1250     2.5870    -9.3620   261.0470    51.7120    24.7200    17.9620    17.7820    19.7740 
  144.2500     2.5960    -9.2450   262.5230    51.9840    24.7210    17.2960    17.9690    19.7890 
  144.3750     2.6050    -9.1590   262.2760    52.3150    24.7100    17.3040    18.1270    19.8000 
  144.5000     2.6080    -9.1130   259.7850    53.7890    24.6900    17.6350    18.1900    19.7240 
  144.6250     2.6060    -9.0990   258.1130    55.2080    24.6670    17.6500    18.0340    19.4220 
  144.7500     2.6030    -9.0840   259.8920    55.0380    24.6520    17.4360    17.6310    18.8650 
  144.8750     2.5970    -9.0480   264.1600    54.0430    24.6580    16.7650    16.9910    18.0830 
  145.0000     2.5800    -8.9770   268.7630    54.7830    24.6900    15.5490    16.1930    17.1860 
  145.1250     2.5550    -8.8680   272.6730    58.1840    24.7350    14.4350    15.3940    16.3570 
  145.2500     2.5420    -8.7560   276.8090    61.0480    24.7770    13.5950    14.7630    15.7510 
  145.3750     2.5480    -8.6730   280.8900    63.5530    24.8280    12.9030    14.4130    15.4730 
  145.5000     2.5620    -8.6310   282.5690    67.6260    24.8890    12.4410    14.4040    15.5760 
  145.6250     2.5660    -8.6200   278.8560    71.3960    24.9350    13.2590    14.7790    16.0880 
  145.7500     2.5610    -8.6070   272.3130    69.7370    24.9500    14.1820    15.3980    16.8330 
  145.8750     2.5560    -8.5830   266.7760    63.0720    24.9300    15.4350    16.1360    17.6580 
  146.0000     2.5580    -8.5570   264.9220    57.5170    24.8690    16.4110    16.8520    18.4050 
  146.1250     2.5650    -8.5570   266.0650    57.5830    24.7260    16.6160    17.3860    18.8950 
  146.2500     2.5680    -8.5880   266.5060    59.2730    24.5570    15.8320    17.6610    19.0700 
  146.3750     2.5590    -8.6480   264.9790    59.1180    24.4680    15.5000    17.6190    18.8830 
  146.5000     2.5410    -8.7270   262.9880    57.1470    24.5300    15.9350    17.2400    18.3370 
  146.6250     2.5250    -8.8140   264.5850    57.1610    24.6830    15.2640    16.5540    17.5140 
  146.7500     2.5210    -8.8940   269.5430    61.0100    24.7900    13.5350    15.7600    16.6620 
  146.8750     2.5290    -8.9650   273.9760    64.5800    24.7760    12.6950    15.0190    15.9520 
  147.0000     2.5430    -9.0350   274.2900    64.2000    24.5830    12.7850    14.4570    15.4860 
  147.1250     2.5570    -9.1060   271.3240    62.0450    24.2490    13.7970    14.1770    15.3300 
  147.2500     2.5690    -9.1790   270.4860    59.9410    23.9710    14.1330    14.1210    15.3800 
  147.3750     2.5740    -9.2460   273.5820    57.6640    23.8260    14.1060    14.2160    15.5320 
  147.5000     2.5720    -9.2980   278.5940    57.3810    23.7540    14.0500    14.3620    15.6690 
  147.6250     2.5630    -9.3460   282.9420    61.4730    23.7200    14.2960    14.4520    15.6890 
  147.7500     2.5540    -9.4060   286.6850    64.8150    23.8330    13.9680    14.4620    15.6130 
  147.8750     2.5440    -9.4740   290.1660    64.2770    24.1360    13.6040    14.4360    15.5280 
  148.0000     2.5260    -9.5350   292.7520    62.4250    24.5160    13.7020    14.4450    15.5360 
  148.1250     2.5040    -9.5690   293.1360    61.2910    24.7680    13.4930    14.5750    15.7270 
  148.2500     2.4930    -9.5870   291.1960    60.7160    24.8600    13.9460    14.8090    16.0350 
  148.3750     2.5000    -9.6080   286.8560    60.6650    24.8690    14.9100    15.0610    16.3300 
  148.5000     2.5130    -9.6450   281.1260    60.4640    24.8590    15.8760    15.1980    16.4560 
  148.6250     2.5170    -9.6930   278.5960    59.3250    24.8380    15.2150    15.0700    16.2550 
  148.7500     2.5200    -9.7220   281.6250    57.5180    24.8150    14.2700    14.7230    15.8150 
  148.8750     2.5300    -9.7220   287.8660    55.5150    24.8110    12.6670    14.2580    15.2680 
  149.0000     2.5440    -9.6980   292.6310    53.0170    24.8290    11.8310    13.7920    14.7470 
  149.1250     2.5440    -9.6710   293.5290    51.4280    24.8640    12.5870    13.4220    14.3450 
  149.2500     2.5320    -9.6690   294.4760    53.0870    24.9000    13.3470    13.1510    14.0470 
  149.3750     2.5200    -9.7020   297.6660    57.2440    24.9260    13.1150    12.9800    13.8510 
  149.5000     2.5130    -9.7600   303.4870    61.7010    24.9370    12.3530    12.9170    13.7680 
  149.6250     2.4980    -9.8360   310.3280    63.3080    24.9360    12.0890    12.9620    13.7880 
  149.7500     2.4750    -9.9150   316.0370    65.1410    24.9340    12.1610    13.0250    13.8030 
  149.8750     2.4550   -10.0030   319.7990    68.1250    24.9420    12.7100    13.0040    13.6830 
  150.0000     2.4490   -10.1050   322.0550    69.9520    24.9570    13.4610    12.7790    13.3060 
  150.1250     2.4510   -10.2250   324.6650    69.8500    24.9610    12.5710    12.2180    12.5930 
  150.2500     2.4490   -10.3400   328.7770    69.2050    24.9510    10.6960    11.4270    11.7240 
  150.3750     2.4410   -10.4280   335.4520    69.4860    24.9430     9.3550    10.5770    10.8970 
  150.5000     2.4360   -10.4870   345.8740    69.8160    24.9230     8.5860     9.8490    10.2720 
  150.6250     2.4360   -10.5280   359.8710    71.6260    24.8170     8.0420     9.4260     9.9870 
  150.7500     2.4280   -10.5760   373.6250    77.9030    24.6370     8.0540     9.3130    10.0120 
  150.8750     2.4040   -10.6510   383.8300    87.4570    24.4490     8.8290     9.4890    10.3260 
  151.0000     2.3670   -10.7670   389.3310    95.2800    24.3270     9.9050     9.8990    10.8950 
  151.1250     2.3350   -10.9240   391.1670    95.8060    24.3350    10.7080    10.5080    11.6940 
  151.2500     2.3180   -11.0850   391.7400    93.1240    24.4580    11.3690    11.2330    12.6130 
  151.3750     2.3120   -11.2150   392.0230    91.8270    24.6490    12.1740    12.0270    13.5830 
  151.5000     2.3080   -11.2840   392.6500    91.6560    24.8240    13.3080    12.8400    14.5370 
  151.6250     2.3000   -11.2840   393.6820    88.6390    24.9120    14.2070    13.6100    15.3860 
  151.7500     2.2900   -11.2630   394.5760    84.4040    24.9360    14.8330    14.2900    16.0750 
  151.8750     2.2800   -11.2510   395.0580    82.8710    24.9420    15.1940    14.8400    16.5780 
  152.0000     2.2750   -11.2630   395.3170    84.2210    24.9660    15.4850    15.2420    16.9100 
  152.1250     2.2770   -11.2980   395.6990    85.2260    25.0120    15.8980    15.4880    17.1150 
  152.2500     2.2790   -11.3420   396.1830    85.2890    25.0540    16.2890    15.6450    17.2740 
  152.3750     2.2760   -11.3830   396.9490    85.5770    25.0790    16.5430    15.7490    17.3990 
  152.5000     2.2720   -11.4210   397.8460    84.6230    25.0870    16.5640    15.8270    17.4730 
  152.6250     2.2750   -11.4660   398.1390    83.8520    25.0850    16.4610    15.8980    17.4830 
  152.7500     2.2820   -11.5330   397.6240    85.6880    25.0730    16.2710    15.9840    17.4730 
  152.8750     2.2880   -11.6210   396.7700    88.9920    25.0470    16.2330    16.0980    17.4750 
