~V
VERS. 2.00: Ver 2.00
~W
STRT.M 61.0000:
STOP.M 276.0000:
STEP.M 0.1250:
NULL. -999.2500:
UWI. DF3051:
~C
DEPT.M :
SP.MV :
GR.API :
CALI.CM :
RXO.OHMM :
RI. :
RML.OHMM :
DEN.GM/CC :
~A
# ...
  263.5000   -14.4170    60.4850    26.9750     6.3780     6.6880     6.9700     2.4350 
  263.6250   -14.4390    60.6090    26.9580     5.4860     6.4950     6.7040     2.4210 
  263.7500   -14.4230    59.8080    26.8950     5.0170     6.3340     6.5350     2.3990 
  263.8750   -14.3760    57.8560    26.8280     4.9210     6.2020     6.4530     2.3810 
  264.0000   -14.3730    57.4510    26.7970     5.0610     6.0880     6.4010     2.3730 
  264.1250   -14.4660    57.4510    26.8050     5.1490     5.9850     6.3140     2.3700 
  264.2500   -14.6070    57.4510    26.8180     5.0510     5.8860     6.2000     2.3590 
  264.3750   -14.7410    57.4510    26.8340     4.8990     5.7840     6.1050     2.3400 
  264.5000   -14.7580    57.4510    26.8650     4.8450     5.6760     6.0660     2.3250 
  264.6250   -14.5960    57.4510    26.8970     4.8950     5.5790     6.0770     2.3210 
  264.7500   -14.3490    57.4510    26.8960     5.0590     5.5100     6.0950     2.3270 
  264.8750   -14.1500    57.4510    26.8570     5.5080     5.4870     6.1080     2.3390 
  265.0000   -14.0730    57.4510    26.8120     6.3990     5.5210     6.1340     2.3530 
  265.1250   -14.1110    57.4510    26.7950     7.6520     5.6100     6.2110     2.3610 
  265.2500   -14.1590    57.4510    26.8000     8.8020     5.7210     6.3310     2.3510 
  265.3750   -14.1580    57.4510    26.8070     9.5430     5.8280     6.4650     2.3370 
  265.5000   -14.1170    57.4510    26.8090     9.7500     5.9210     6.6070     2.3380 
  265.6250   -14.1710    57.4510    26.8090     9.4250     6.0070     6.7800     2.3570 
  265.7500   -14.4370    57.4510    26.8140     9.0040     6.1050     6.9950     2.3820 
  265.8750   -14.8460    57.4510    26.8250     8.8580     6.2260     7.2340     2.4030 
  266.0000   -15.2260    57.4510    26.8330     8.9520     6.3610     7.4510     2.4240 
  266.1250   -15.3920    57.4510    26.8280     8.8230     6.4660     7.5600     2.4440 
  266.2500   -15.3610    57.4510    26.8160     8.2730     6.4940     7.5260     2.4520 
  266.3750   -15.2460    57.4510    26.8090     7.3960     6.4210     7.3520     2.4430 
  266.5000   -15.2190    57.4510    26.8110     6.3950     6.2580     7.0900     2.4260 
  266.6250   -15.2740    57.4510    26.8150     5.6140     6.0390     6.8160     2.4150 
  266.7500   -15.1840    57.4510    26.8120     5.2500     5.8220     6.6040     2.4160 
  266.8750   -14.8800    57.4510    26.7990     5.1800     5.6370     6.4750     2.4170 
  267.0000   -14.4210    57.4510    26.7900     5.1400     5.4920     6.4070     2.4100 
  267.1250   -13.9890    57.4510    26.7960     4.9740     5.3820     6.3500     2.3950 
  267.2500   -13.7400    57.4510    26.8220     4.7700     5.2870     6.2770     2.3830 
  267.3750   -13.7030    57.4510    26.8740     4.6150     5.2030     6.1870     2.3690 
  267.5000   -13.7290    57.4510    26.9480     4.5660     5.1330     6.0860     2.3470 
  267.6250   -13.6960    57.4510    27.0190     4.6190     5.0930     6.0080     2.3270 
  267.7500   -13.6360    57.4510    27.0670     4.6840     5.0830     5.9840     2.3280 
  267.8750   -13.5890    57.4510    27.0800     4.7280     5.0960     6.0190     2.3420 
  268.0000   -13.6520    57.4510    27.0540     4.8080     5.1180     6.0770     2.3490 
  268.1250   -13.8740    57.4510    27.0000     5.0550     5.1330     6.0950     2.3440 
  268.2500   -14.1240    57.4510    26.9490     5.4000     5.1330     6.0630     2.3440 
  268.3750   -14.3010    57.4510    26.9090     5.6540     5.1190     5.9990     2.3530 
  268.5000   -14.3990    57.4510    26.8720     5.6770     5.0950     5.9460     2.3630 
  268.6250   -14.4450    57.4510    26.8390     5.5630     5.0690     5.9460     2.3700 
  268.7500   -14.5110    57.4510    26.8190     5.5420     5.0490     5.9830     2.3750 
  268.8750   -14.6310    57.4510    26.8090     5.5810     5.0400     6.0290     2.3820 
  269.0000   -14.7690    57.4510    26.8030     5.4750     5.0410     6.0580     2.3910 
  269.1250   -14.8560    57.4510    26.7920     5.1210     5.0500     6.0640     2.3990 
  269.2500   -14.8440    57.4510    26.7770     4.7510     5.0610     6.0640     2.4010 
  269.3750   -14.6660    57.4510    26.7620     4.5270     5.0700     6.0680     2.3950 
  269.5000   -14.3590    57.4510    26.7520     4.4960     5.0770     6.0830     2.3790 
  269.6250   -14.0800    57.4510    26.7530     4.7180     5.0800     6.1040     2.3620 
  269.7500   -13.9210    57.4510    26.7640     5.2220     5.0820     6.1130     2.3520 
  269.8750   -13.8660    57.4510    26.7840     6.0600     5.0870     6.1000     2.3480 
  270.0000   -13.8100    57.4510    26.8010     7.1530     5.0880     6.0960     2.3500 
  270.1250   -13.6390    57.4510    26.8060     7.9350     5.0880     6.0960     2.3580 
  270.2500   -13.4340    57.4510    26.8010     7.8660     5.0880     6.0960     2.3640 
  270.3750   -13.3240    57.4510    26.7890     7.0120     5.0880     6.0960     2.3560 
  270.5000   -13.3740    57.4510    26.7770     5.9190     5.0880     6.0960     2.3360 
  270.6250   -13.5460    57.4510    26.7730     5.1190     5.0880     6.0960     2.3150 
  270.7500   -13.6980    57.4510    26.7750     4.6970     5.0880     6.0960     2.3110 
  270.8750   -13.7350    57.4510    26.7820     4.5960     5.0880     6.0960     2.3200 
  271.0000   -13.6780    57.4510    26.7910     4.7020     5.0880     6.0960     2.3370 
  271.1250   -13.6340    57.4510    26.7900     4.9460     5.0880     6.0960     2.3570 
  271.2500   -13.6800    57.4510    26.7720     5.3070     5.0880     6.0960     2.3700 
  271.3750   -13.8490    57.4510    26.7390     5.7820     5.0880     6.0960     2.3740 
  271.5000   -14.0840    57.4510    26.6930     6.2770     5.0880     6.0960     2.3750 
  271.6250   -14.3020    57.4510    26.6310     6.5430     5.0880     6.0960     2.3840 
  271.7500   -14.4150    57.4510    26.5560     6.5090     5.0880     6.0960     2.4000 
  271.8750   -14.4460    57.4510    26.4680     6.3370     5.0880     6.0960     2.4050 
  272.0000   -14.5090    57.4510    26.3400     6.2440     5.0880     6.0960     2.3710 
  272.1250   -14.6520    57.4510    25.9590     6.1890     5.0880     6.0960     2.2720 
  272.2500   -14.7700    57.4510    24.9670     5.9620     5.0880     6.0960     2.1150 
  272.3750   -14.7620    57.4510    23.2100     5.5900     5.0880     6.0960     1.9800 
  272.5000   -14.5970    57.4510    21.1160     5.2660     5.0880     6.0960     1.9210 
  272.6250   -14.2840    57.4510    19.6300     5.1330     5.0880     6.0960     1.9300 
  272.7500   -13.9830    57.4510    18.9930     5.1050     5.0880     6.0960     1.9540 
  272.8750   -13.8210    57.4510    18.8730     5.1080     5.0880     6.0960     1.9610 
  273.0000   -13.7690    57.4510    18.8850     5.1100     5.0880     6.0960     1.9550 
  273.1250   -13.7520    57.4510    18.8890     5.1100     5.0880     6.0960     1.9470 
  273.2500   -13.6870    57.4510    18.8880     5.1100     5.0880     6.0960     1.9440 
  273.3750   -13.5290    57.4510    18.8880     5.1090     5.0880     6.0960     1.9530 
  273.5000   -13.3450    57.4510    18.8870     5.1080     5.0880     6.0960     1.9720 
  273.6250   -13.2570    57.4510    18.8860     5.1070     5.0880     6.0960     1.9900 
  273.7500   -13.3340    57.4510    18.8860     5.1070     5.0880     6.0960     1.9900 
  273.8750   -13.5260    57.4510    18.8860     5.1090     5.0880     6.0960     1.9700 
  274.0000   -13.6890    57.4510    18.8870     5.1100     5.0880     6.0960     1.9910 
  274.1250   -13.7110    57.4510    18.8880     5.1100     5.0880     6.0960     2.1270 
  274.2500   -13.6610    57.4510    18.8880     5.1110     5.0880     6.0960     2.3350 
  274.3750   -13.6700    57.4510    18.8880     5.1120     5.0880     6.0960     2.4500 
  274.5000   -13.7840    57.4510    18.8880     5.1110     5.0880     6.0960     2.4190 
  274.6250   -13.9670    57.4510    19.0630     5.1090     5.0880     6.0960     2.3120 
