~V
VERS. 2.00: Ver 2.00
~W
STRT.M 57.0000:
STOP.M 272.0000:
STEP.M 0.1250:
NULL. -999.2500:
UWI. DF3055:
~C
DEPT.M :
SP.MV :
GR.API :
RML.OHMM :
RI. :
RXO.OHMM :
CALI.CM :
DEN.GM/CC :
~A
# ...
  169.5000   -27.8630    69.6060    88.5390    86.7080    49.5900    24.3210     2.2370 
  169.6250   -27.8750    67.8660    92.7320    90.3450    47.5940    24.0690     2.2290 
  169.7500   -27.9060    64.7800    97.7610    94.9100    46.3880    23.7730     2.2230 
  169.8750   -27.9550    59.6520   102.9960    99.6460    46.7390    23.4740     2.2200 
  170.0000   -28.0130    58.4230   108.3610   104.3950    49.4440    23.3430     2.2210 
  170.1250   -28.0590    62.0190   114.2760   109.3550    55.2950    23.4510     2.2240 
  170.2500   -28.1000    65.4710   120.7130   115.0500    63.8660    23.7500     2.2300 
  170.3750   -28.1210    66.2760   127.8760   121.6690    72.7210    23.9890     2.2350 
  170.5000   -28.1360    67.0940   135.2490   129.1990    79.6420    24.0890     2.2370 
  170.6250   -28.1330    69.6100   142.3120   137.4310    83.5290    24.1160     2.2350 
  170.7500   -28.0830    71.9980   150.5790   146.1090    86.2350    24.1750     2.2280 
  170.8750   -27.9900    72.8610   158.6640   154.9070    89.6620    24.2640     2.2200 
  171.0000   -27.8930    71.5380   167.5160   163.6610    93.2560    24.2850     2.2130 
  171.1250   -27.7990    67.7380   175.4010   172.2100    95.6110    24.2060     2.2110 
  171.2500   -27.6860    63.6630   182.2260   180.1540    98.4770    24.1330     2.2110 
  171.3750   -27.5520    60.4980   189.0120   187.0850   104.9250    24.2500     2.2140 
  171.5000   -27.4270    58.5760   193.9750   192.5330   112.4910    24.4960     2.2170 
  171.6250   -27.2810    58.1610   197.2860   196.2310   118.2330    24.7330     2.2190 
  171.7500   -27.1650    60.7890   199.2270   198.0560   121.7680    24.9260     2.2190 
  171.8750   -27.0610    64.2090   199.9640   198.7880   124.4440    25.0980     2.2200 
  172.0000   -26.9670    64.2220   200.3600   198.9400   126.5410    25.2260     2.2230 
  172.1250   -26.8730    60.0510   201.2280   198.7600   128.2900    25.2840     2.2300 
  172.2500   -26.7840    58.2230   202.0190   197.6010   131.8360    25.2980     2.2380 
  172.3750   -26.7080    60.0770   199.7590   193.9800   137.4500    25.3020     2.2430 
  172.5000   -26.6000    62.6010   191.5890   185.7600   141.4970    25.3070     2.2420 
  172.6250   -26.5140    63.1200   174.7130   171.1280   139.7620    25.3170     2.2380 
  172.7500   -26.3980    62.8110   147.2710   149.2680   129.3700    25.3370     2.2350 
  172.8750   -26.3000    63.9820   120.0400   124.7470   114.0090    25.3600     2.2380 
  173.0000   -26.2030    67.6170    97.6450   102.2490    93.4950    25.3700     2.2460 
  173.1250   -26.1180    70.9940    82.4340    85.5210    69.8590    25.3690     2.2530 
  173.2500   -26.0310    71.9650    76.0420    77.6540    54.8600    25.3660     2.2540 
  173.3750   -25.9570    71.3250    77.0950    77.6340    51.2510    25.3650     2.2470 
  173.5000   -25.9280    69.5360    86.0630    85.4350    54.9260    25.3680     2.2350 
  173.6250   -25.8990    66.7290   103.8270   101.1260    63.3370    25.3730     2.2210 
  173.7500   -25.9090    62.8610   132.0940   125.4220    73.3930    25.3790     2.2110 
  173.8750   -25.8870    59.1550   167.1040   154.8820    86.6930    25.3870     2.2040 
  174.0000   -25.8710    55.9400   203.8510   185.5690   100.4940    25.3860     2.2010 
  174.1250   -25.8450    54.2520   235.3140   212.2960   111.6420    25.3720     2.2000 
  174.2500   -25.8070    55.5110   252.1150   228.0780   121.6840    25.3650     2.2000 
  174.3750   -25.7510    57.1530   253.4060   231.7660   127.2440    25.3570     2.2010 
  174.5000   -25.6770    58.5750   240.9270   223.9350   129.5360    25.3380     2.2050 
  174.6250   -25.6020    60.9300   218.2870   206.8520   129.2840    25.3010     2.2120 
  174.7500   -25.5050    63.2290   189.2330   182.9210   121.6620    25.2420     2.2200 
  174.8750   -25.4380    62.1440   159.4660   156.8380   107.6620    25.1700     2.2290 
  175.0000   -25.3250    58.3690   132.6670   131.9160    89.5190    25.0960     2.2370 
  175.1250   -25.2060    56.6300   111.3660   110.9790    71.8330    25.0340     2.2430 
  175.2500   -25.0840    60.2050    98.2130    97.0350    65.3040    24.9850     2.2440 
  175.3750   -24.9500    65.3260    92.2070    89.9270    65.7850    24.9680     2.2400 
  175.5000   -24.7930    68.7930    93.4550    89.7670    69.4180    24.9490     2.2290 
  175.6250   -24.6580    69.8630   101.2130    96.3670    76.2420    24.8690     2.2130 
  175.7500   -24.5710    68.1210   116.3030   109.9150    79.1220    24.6920     2.1980 
  175.8750   -24.4810    63.5490   134.6840   127.4560    85.5140    24.5110     2.1880 
  176.0000   -24.3960    57.2520   153.3780   145.9760    91.9470    24.3540     2.1860 
  176.1250   -24.3170    52.8420   170.6510   161.7520    95.6630    24.2850     2.1900 
  176.2500   -24.2470    54.1100   179.9380   170.2890    94.5990    24.3010     2.1970 
  176.3750   -24.1860    57.1840   181.7230   171.8940    87.8850    24.3590     2.2030 
  176.5000   -24.1390    57.4920   179.3430   168.8360    78.8060    24.4310     2.2060 
  176.6250   -24.0740    55.2810   176.6860   164.5200    72.7500    24.4720     2.2060 
  176.7500   -23.9410    54.4660   176.4900   161.9450    70.5950    24.4430     2.2060 
  176.8750   -23.7940    54.5330   177.9460   161.4840    69.4500    24.3780     2.2050 
  177.0000   -23.6410    55.2310   179.7350   162.3730    67.2700    24.3120     2.2050 
  177.1250   -23.5010    58.6010   180.5320   163.5670    62.8720    24.1960     2.2060 
  177.2500   -23.3670    64.1820   179.5830   164.2290    57.3680    23.9710     2.2050 
  177.3750   -23.2240    66.2550   179.3520   164.4270    52.1160    23.6570     2.2040 
  177.5000   -23.0940    63.3940   179.5880   164.6440    49.2690    23.3530     2.2020 
  177.6250   -22.9590    60.7910   180.9030   165.3750    49.5120    23.1120     2.1990 
  177.7500   -22.8190    62.0150   183.0940   166.7580    52.9510    23.0610     2.1970 
  177.8750   -22.6940    64.1290   185.9760   168.0950    58.2300    23.1420     2.1970 
  178.0000   -22.5830    64.7630   187.7460   168.5890    65.9920    23.3500     2.2000 
  178.1250   -22.4530    64.2600   185.5520   167.5900    75.7790    23.7000     2.2050 
  178.2500   -22.3190    63.0140   180.7020   164.4900    84.4980    24.1320     2.2100 
  178.3750   -22.2100    61.4580   174.2790   159.6440    88.4370    24.4490     2.2110 
  178.5000   -22.0860    61.0590   166.2430   153.1630    87.3400    24.5530     2.2100 
  178.6250   -21.9600    63.5680   156.0820   144.9550    83.3060    24.5360     2.2070 
  178.7500   -21.8760    66.9090   142.3460   134.2000    76.1390    24.4740     2.2070 
  178.8750   -21.7930    66.3050   125.1170   120.7950    72.1100    24.4040     2.2130 
  179.0000   -21.7410    62.0680   105.3630   104.9190    72.0710    24.3790     2.2260 
  179.1250   -21.6920    59.1710    85.5020    87.8080    70.5250    24.4110     2.2450 
  179.2500   -21.6670    61.0350    69.3990    72.3140    63.3320    24.4650     2.2610 
  179.3750   -21.6530    64.1350    58.5810    60.7110    51.4150    24.4520     2.2680 
  179.5000   -21.6490    66.2370    53.2200    53.9570    40.5310    24.3810     2.2640 
  179.6250   -21.6690    67.3440    52.5080    51.8030    35.8260    24.3200     2.2520 
  179.7500   -21.6900    68.3330    55.4190    53.5770    39.9390    24.3330     2.2410 
  179.8750   -21.7210    69.1350    59.5920    57.0760    46.8420    24.3780     2.2350 
  180.0000   -21.7340    68.4990    63.4690    60.8500    52.1110    24.3940     2.2360 
  180.1250   -21.7610    68.2440    65.9920    63.7630    50.0770    24.3590     2.2390 
  180.2500   -21.7830    71.9970    66.8840    65.1440    42.0650    24.2890     2.2410 
  180.3750   -21.8020    77.2170    67.3010    65.6950    41.0160    24.2480     2.2400 
  180.5000   -21.8340    78.6180    68.0430    66.1470    49.1550    24.2910     2.2380 
  180.6250   -21.8600    75.1900    69.2610    66.8730    60.6650    24.4180     2.2360 
