~V
VERS. 2.00: Ver 2.00
~W
STRT.M 130.0000:
STOP.M 279.0000:
STEP.M 0.1250:
NULL. -999.2500:
UWI. DF307:
~C
DEPT.M :
DEN.GM/CC :
AC.US/MT :
GR.API :
CALI.CM :
RXO.OHMM :
RI. :
RML.OHMM :
SP.MV :
~A
# ...
  240.0000     2.2090   390.1190    62.8730    25.3430    64.0490    98.8220   110.7290   -25.9900 
  240.1250     2.2150   388.9960    62.6640    25.3440    58.8220    91.7830   101.8300   -26.1380 
  240.2500     2.2160   386.7790    65.4580    25.3440    53.4620    85.3080    94.0040   -26.2660 
  240.3750     2.2080   384.8870    69.5530    25.3450    50.0150    80.4590    88.3350   -26.3590 
  240.5000     2.2000   384.3420    72.3160    25.3380    48.6950    77.8620    85.3670   -26.4130 
  240.6250     2.2040   384.3370    70.9600    25.3090    48.9830    78.1490    85.6140   -26.3850 
  240.7500     2.2220   383.8760    66.8600    25.2720    50.0890    80.6330    88.1340   -26.2620 
  240.8750     2.2350   382.9240    64.8710    25.2470    52.0010    84.4750    91.8600   -26.0770 
  241.0000     2.2340   383.1110    67.1400    25.2110    54.6290    88.0910    94.9090   -25.8370 
  241.1250     2.2230   385.6680    70.3440    25.1200    56.5530    88.5250    93.9030   -25.4830 
  241.2500     2.2090   390.3630    71.1950    25.0120    55.4190    84.3420    87.6880   -25.0700 
  241.3750     2.1970   395.6880    70.7140    24.9540    49.7730    75.7400    77.1330   -24.6220 
  241.5000     2.1900   399.5400    71.1130    24.9610    41.0220    64.6980    64.8660   -24.1460 
  241.6250     2.1920   401.4630    72.2420    24.9790    33.0420    54.2650    54.2030   -23.7230 
  241.7500     2.2010   402.1670    73.1240    24.9700    27.5890    46.4160    46.6870   -23.3790 
  241.8750     2.2110   402.7490    74.0460    24.9380    24.1830    41.7870    42.7560   -23.0840 
  242.0000     2.2150   403.7860    73.3170    24.8700    22.7460    40.4100    42.3950   -22.8480 
  242.1250     2.2150   404.5670    68.3110    24.7660    25.1460    42.7280    46.0790   -22.7140 
  242.2500     2.2150   403.9940    63.0830    24.7650    31.7310    48.0940    53.0210   -22.6450 
  242.3750     2.2120   401.2520    62.1870    25.0160    39.8150    55.9740    62.5880   -22.6330 
  242.5000     2.2060   396.0470    65.2850    25.4790    45.1990    65.1130    73.4080   -22.6730 
  242.6250     2.1980   389.6890    68.1150    25.8890    47.3970    73.3600    83.0900   -22.7400 
  242.7500     2.1870   383.2490    68.8800    26.0960    50.6210    79.3830    90.1950   -22.7920 
  242.8750     2.1760   377.6680    69.8560    26.1530    54.9670    83.2210    94.8960   -22.8320 
  243.0000     2.1800   374.2710    71.4490    26.1590    57.6850    85.9220    98.5350   -22.8560 
  243.1250     2.2100   373.6290    72.0410    26.1340    57.5430    88.9580   102.8500   -22.8450 
  243.2500     2.2460   375.9070    69.8680    26.0920    57.9510    93.0440   108.4910   -22.7920 
  243.3750     2.2500   380.3360    66.0380    26.0630    61.5510    98.1140   115.2330   -22.7080 
  243.5000     2.2170   385.3430    63.8260    26.0660    68.0710   103.6200   122.2600   -22.5920 
  243.6250     2.1720   389.3600    64.1760    26.0940    73.8170   108.3800   127.8170   -22.4090 
  243.7500     2.1430   391.6730    65.2660    26.1180    75.6230   111.1100   130.1550   -22.1940 
  243.8750     2.1370   391.9220    66.1160    26.1310    73.5770   110.3290   127.3580   -21.9540 
  244.0000     2.1490   389.4700    65.2060    26.1380    70.0620   104.4650   117.7700   -21.6780 
  244.1250     2.1670   384.7630    62.9700    26.1470    67.3630    91.7900   100.4480   -21.3760 
  244.2500     2.1820   378.4710    64.9300    26.1660    62.3270    75.1250    79.9660   -21.0890 
  244.3750     2.1990   372.0080    72.1400    26.1700    51.1630    58.0270    60.6400   -20.8010 
  244.5000     2.2260   367.9370    79.2720    26.1340    36.3910    43.6810    45.3550   -20.5080 
  244.6250     2.2610   367.6710    79.3800    26.0550    25.9410    34.1680    35.5860   -20.2700 
  244.7500     2.2850   371.2700    76.5720    25.9450    21.0960    28.2960    29.6870   -20.0720 
  244.8750     2.2880   377.1350    75.2970    25.8220    19.7580    25.0360    26.5580   -19.9160 
  245.0000     2.2770   381.9980    75.2980    25.7210    20.0300    23.4760    25.2310   -19.8160 
  245.1250     2.2700   383.3240    74.1940    25.6910    20.6200    23.0910    25.0770   -19.7730 
  245.2500     2.2690   380.6560    72.1530    25.7150    20.6630    23.3270    25.4890   -19.7650 
  245.3750     2.2650   375.5280    71.3210    25.7300    20.1290    24.0550    26.3790   -19.7980 
  245.5000     2.2550   370.7560    74.7700    25.6920    19.8720    25.2910    27.8460   -19.8630 
  245.6250     2.2420   368.1750    79.1250    25.6300    21.3950    27.2020    30.1200   -19.9310 
  245.7500     2.2280   367.9890    78.8670    25.6020    24.4700    29.6140    32.9630   -19.9890 
  245.8750     2.2140   369.4840    73.0340    25.6030    27.5400    32.2340    35.9940   -20.0150 
  246.0000     2.2070   371.8220    66.3810    25.5940    28.9250    34.6090    38.6960   -20.0000 
  246.1250     2.2130   374.3120    63.7770    25.5730    28.2670    36.1670    40.4760   -19.9510 
  246.2500     2.2280   376.3580    63.8850    25.5560    27.1830    36.8860    41.3930   -19.8630 
  246.3750     2.2350   376.7520    64.3210    25.5410    26.5380    36.9600    41.7020   -19.7530 
  246.5000     2.2370   373.6240    64.5200    25.5280    26.5680    36.6690    41.7040   -19.6500 
  246.6250     2.2460   367.8900    65.9330    25.5190    26.9010    36.1360    41.4470   -19.5500 
  246.7500     2.2690   361.7930    70.1040    25.4990    26.8450    35.3340    40.8060   -19.4830 
  246.8750     2.2870   357.7810    75.4520    25.4650    26.3290    34.1820    39.6620   -19.4960 
  247.0000     2.2860   357.1860    79.1080    25.4400    25.6370    32.7430    38.1090   -19.5810 
  247.1250     2.2710   358.1460    78.4490    25.4210    24.5120    31.2780    36.4940   -19.7390 
  247.2500     2.2590   359.1370    75.1740    25.3750    22.8770    30.0610    35.1830   -19.9740 
  247.3750     2.2580   360.0110    71.3990    25.3090    21.6440    29.2080    34.3280   -20.2410 
  247.5000     2.2630   362.5440    69.2100    25.2640    21.9510    28.7280    33.9320   -20.4910 
  247.6250     2.2710   367.6560    70.2990    25.2430    23.3070    28.5980    33.9410   -20.7110 
  247.7500     2.2780   374.4710    72.5390    25.1960    23.4680    28.6680    34.1550   -20.8580 
  247.8750     2.2790   380.7710    74.1110    25.1190    22.1510    28.8800    34.5010   -20.9160 
  248.0000     2.2740   383.7850    73.5980    25.0570    20.9790    29.2100    34.9490   -20.9050 
  248.1250     2.2630   383.3160    72.1580    25.0410    21.3600    29.6050    35.4070   -20.8010 
  248.2500     2.2470   380.3260    72.1120    25.0330    22.2830    29.9360    35.6940   -20.6300 
  248.3750     2.2320   376.4890    73.5240    25.0010    22.7370    30.0890    35.6590   -20.4160 
  248.5000     2.2250   373.5180    74.7960    24.9580    22.4520    30.0220    35.3040   -20.1920 
  248.6250     2.2320   371.4890    75.3000    24.9180    21.6070    29.9150    35.0120   -19.9760 
  248.7500     2.2420   368.9810    74.2990    24.8590    20.7170    30.2290    35.4650   -19.7880 
  248.8750     2.2440   363.6840    71.2920    24.7760    20.2150    31.4440    37.2500   -19.6320 
  249.0000     2.2380   353.1160    67.2210    24.6830    20.3800    33.8250    40.6050   -19.4870 
  249.1250     2.2330   339.2800    65.2500    24.6050    21.4530    37.0590    45.0080   -19.3400 
  249.2500     2.2550   325.9580    65.5010    24.5490    23.6480    39.6300    48.3270   -19.1730 
  249.3750     2.3120   317.2970    66.7740    24.5160    26.5340    39.9660    48.3450   -18.9940 
  249.5000     2.3880   315.8950    68.9460    24.5040    27.6660    37.3930    44.3710   -18.8040 
  249.6250     2.4460   317.4650    71.8100    24.5130    24.5310    32.8580    38.3070   -18.6250 
  249.7500     2.4500   316.5630    73.1710    24.5750    20.1770    28.7060    33.3340   -18.4880 
  249.8750     2.4240   308.6210    73.9550    24.7130    17.8960    26.1930    30.8420   -18.3770 
