~V
VERS. 2.00: Ver 2.00
~W
STRT.M 61.0000:
STOP.M 318.0000:
STEP.M 0.1250:
NULL. -999.2500:
UWI. DF302:
~C
DEPT.M :
DEN.GM/CC :
SP.MV :
AC.US/MT :
GR.API :
CALI.CM :
RXO.OHMM :
RI. :
RML.OHMM :
~A
# ...
  261.0000     2.3420   -23.2360   364.9610    72.4800    24.9240    19.1880    15.4570    16.9950 
  261.1250     2.3210   -23.2880   362.9210    72.0960    24.9230    19.4640    15.2570    16.8680 
  261.2500     2.2930   -23.3260   360.1110    67.1830    24.9700    19.3130    15.2000    16.9520 
  261.3750     2.2730   -23.3550   358.1330    61.7360    25.0420    19.5220    15.3030    17.2480 
  261.5000     2.2770   -23.3770   359.6980    59.2500    25.0580    20.5940    15.5780    17.7590 
  261.6250     2.2970   -23.4210   363.5990    58.8860    25.0260    21.7610    16.1340    18.6330 
  261.7500     2.3150   -23.4990   366.6870    60.0600    25.0410    23.0200    17.0650    20.0060 
  261.8750     2.3130   -23.6020   366.4370    62.7320    25.0960    25.8880    18.4810    22.0260 
  262.0000     2.2960   -23.7360   363.4490    64.5060    25.1320    31.1660    20.4010    24.6940 
  262.1250     2.2710   -23.9140   362.1600    63.9810    25.1270    36.7150    22.7000    27.7860 
  262.2500     2.2500   -24.1290   365.0020    62.3460    25.1350    39.9430    24.9690    30.7360 
  262.3750     2.2410   -24.3690   371.2420    60.6510    25.1620    41.2910    26.9040    33.1550 
  262.5000     2.2370   -24.6370   377.5390    59.4640    25.1780    42.3030    28.3800    34.9600 
  262.6250     2.2280   -24.9050   380.9090    59.0090    25.1740    43.4750    29.5450    36.4620 
  262.7500     2.2160   -25.1710   381.0000    60.1160    25.1650    45.1490    30.8540    38.2800 
  262.8750     2.2100   -25.4200   379.5360    62.1680    25.1600    48.3240    32.6520    40.8040 
  263.0000     2.2120   -25.6660   379.3100    63.7280    25.1590    53.3540    35.1300    44.1760 
  263.1250     2.2160   -25.8730   381.3610    61.7870    25.1530    59.2150    38.4020    48.3940 
  263.2500     2.2210   -26.0400   383.7410    58.2000    25.1350    64.3830    42.1840    53.0350 
  263.3750     2.2420   -26.1520   381.7650    56.9120    25.0780    68.4850    46.2900    57.8820 
  263.5000     2.2900   -26.1950   369.0350    57.2970    24.8670    72.5210    50.6890    63.0330 
  263.6250     2.3610   -26.1370   346.5920    56.3000    24.5430    79.6710    55.8200    69.2470 
  263.7500     2.4470   -25.9880   318.7100    55.6880    24.4550    89.7870    61.6020    76.4000 
  263.8750     2.5290   -25.7600   291.8990    57.4180    24.6930    98.1470    66.2780    81.5710 
  264.0000     2.5840   -25.4310   274.1690    59.7110    24.9660   100.2390    65.8270    78.1570 
  264.1250     2.5960   -24.9810   268.5440    59.6890    24.9490    93.0050    55.4710    61.2180 
  264.2500     2.5700   -24.4640   276.4830    60.0850    24.7620    72.7550    40.1920    41.2770 
  264.3750     2.5290   -23.9120   296.8670    61.5490    24.5870    43.7330    26.1510    25.7130 
  264.5000     2.4870   -23.3690   325.4180    61.2360    24.5940    19.6380    16.4070    15.8840 
  264.6250     2.4460   -22.8860   352.3910    59.1300    24.8590    10.0300    11.2040    10.8210 
  264.7500     2.4180   -22.4590   371.4670    56.6690    25.1020     7.0430     8.3820     8.1590 
  264.8750     2.4170   -22.0930   381.5200    53.9690    25.1550     6.4890     6.9430     6.9630 
  265.0000     2.4310   -21.7970   386.2380    52.1620    25.1360     6.5250     6.3260     6.6470 
  265.1250     2.4420   -21.5970   391.0590    54.1800    25.2150     6.5760     6.2570     6.8390 
  265.2500     2.4430   -21.4470   396.2270    57.6250    25.3140     6.5980     6.4020     7.1410 
  265.3750     2.4390   -21.3550   399.3480    58.2860    25.3800     6.5650     6.5980     7.3880 
  265.5000     2.4380   -21.2940   397.6430    54.5520    25.4050     6.5460     6.7680     7.5380 
  265.6250     2.4440   -21.2770   392.3280    49.3340    25.3480     6.7370     6.8950     7.6180 
  265.7500     2.4510   -21.2960   385.5310    45.1650    25.2270     7.0770     6.9910     7.6670 
  265.8750     2.4390   -21.3550   379.8970    44.4270    25.1240     7.3620     7.0560     7.6960 
  266.0000     2.4070   -21.4560   377.5790    47.4330    25.0900     7.4820     7.0860     7.7060 
  266.1250     2.3750   -21.6180   378.7080    50.6110    25.1050     7.4570     7.0650     7.6890 
  266.2500     2.3670   -21.8140   383.1820    51.5090    25.1310     7.3030     6.9940     7.6410 
  266.3750     2.3840   -22.0140   389.8580    51.2340    25.1620     6.9840     6.8720     7.5570 
  266.5000     2.4100   -22.1820   396.2040    52.0250    25.1760     6.5720     6.6980     7.4220 
  266.6250     2.4270   -22.2640   399.4360    53.7530    25.0660     6.1760     6.4590     7.1920 
  266.7500     2.4170   -22.2590   398.4560    54.2740    24.7440     5.8080     6.1670     6.8710 
  266.8750     2.3670   -22.1670   394.4880    53.5940    24.2060     5.4820     5.8490     6.4910 
  267.0000     2.3150   -21.9940   389.5720    51.5810    23.6300     5.2460     5.5500     6.1120 
  267.1250     2.2900   -21.7490   385.1440    48.7160    23.4700     5.1620     5.3250     5.8240 
  267.2500     2.2950   -21.5130   381.4310    47.6510    23.9610     5.2880     5.2000     5.6850 
  267.3750     2.3160   -21.3030   378.7570    48.8230    24.8850     5.6650     5.1930     5.7340 
  267.5000     2.3280   -21.1650   377.1580    50.7460    25.6940     6.1360     5.3050     5.9770 
  267.6250     2.3160   -21.1310   376.0600    50.2270    25.9620     6.4120     5.5430     6.4120 
  267.7500     2.2790   -21.2170   376.4750    49.0420    25.9160     6.5420     5.8530     6.9410 
  267.8750     2.2520   -21.4210   379.1320    50.7140    25.8090     6.6960     6.1710     7.4450 
  268.0000     2.2600   -21.7460   384.3650    56.7380    25.7640     6.8600     6.4060     7.7660 
  268.1250     2.2940   -22.1620   391.7630    66.0950    25.7340     6.8160     6.4300     7.7100 
  268.2500     2.3370   -22.5740   400.5840    75.0080    25.4800     6.5040     6.2360     7.3070 
  268.3750     2.3740   -22.9610   408.6330    79.6180    24.8680     5.9710     5.8590     6.6440 
  268.5000     2.3990   -23.2960   412.4100    78.5220    24.1600     5.3600     5.3830     5.8810 
  268.6250     2.4030   -23.5850   411.5290    73.8330    23.8280     4.9290     4.9420     5.2570 
  268.7500     2.3870   -23.8150   406.2020    73.0670    23.8250     4.6960     4.6430     4.9270 
  268.8750     2.3710   -23.9770   397.0350    81.8410    23.8920     4.6820     4.5510     4.9720 
  269.0000     2.3750   -24.0600   385.6680    95.6930    23.9070     5.1700     4.6990     5.4160 
  269.1250     2.3960   -24.0600   374.7300   103.0730    23.9210     6.7020     5.1250     6.2570 
  269.2500     2.4140   -24.0070   365.8380   102.0940    24.0080     8.7350     5.7240     7.2550 
  269.3750     2.4200   -23.9310   359.4980    98.7070    24.1550    10.1250     6.3650     8.1490 
  269.5000     2.4230   -23.8470   355.3470    97.3810    24.2870    10.0960     6.8740     8.6710 
  269.6250     2.4300   -23.7540   352.0940    97.1450    24.3390     9.0860     7.0690     8.6300 
  269.7500     2.4330   -23.6480   350.0350    99.1580    24.3680     8.2590     7.0170     8.2680 
  269.8750     2.4280   -23.5330   350.0180   103.3600    24.3990     7.8430     6.8540     7.8570 
  270.0000     2.4180   -23.4110   352.3380   105.3160    24.4030     7.6620     6.7190     7.6150 
  270.1250     2.4050   -23.3100   355.7680   103.2170    24.3720     7.6910     6.7110     7.6590 
  270.2500     2.3910   -23.2280   359.5310   102.5990    24.3510     8.0360     6.8020     7.8880 
  270.3750     2.3800   -23.1420   363.9430   105.7180    24.3370     8.5700     6.9380     8.1890 
  270.5000     2.3730   -23.0480   370.2120   108.1250    24.2880     8.8700     7.0450     8.4330 
  270.6250     2.3690   -22.9330   377.6090   107.3810    24.2210     8.5710     7.0410     8.4760 
  270.7500     2.3690   -22.8260   384.3800   110.1570    24.2100     8.0300     6.9320     8.3290 
  270.8750     2.3740   -22.7290   388.2300   116.5030    24.2620     7.6050     6.7570     8.0660 
