~V
VERS. 2.00: Ver 2.00
~W
STRT.M 65.0000:
STOP.M 273.0000:
STEP.M 0.1250:
NULL. -999.2500:
UWI. DF3011:
~C
DEPT.M :
DEN.GM/CC :
GR.API :
RML.OHMM :
RI. :
RXO.OHMM :
CALI.CM :
AC.US/MT :
SP.MV :
~A
# ...
  265.0000     2.4840    68.2380    23.0610    21.7570    24.4990    25.1310   190.9660    -6.9400 
  265.1250     2.4890    68.2380    22.8740    21.6180    25.4760    25.1730   191.7850    -6.9720 
  265.2500     2.4870    68.2380    22.8060    21.5650    26.3530    25.2410   202.7840    -7.0010 
  265.3750     2.4830    68.2380    22.8590    21.6680    26.9320    25.2590   213.6670    -6.9930 
  265.5000     2.4840    68.2380    23.1510    21.9640    27.0000    25.1750   216.7130    -7.0010 
  265.6250     2.4930    68.2380    23.6450    22.4650    26.5990    25.0390   219.1660    -7.0790 
  265.7500     2.5060    68.2380    24.1950    23.0670    25.6630    24.9570   226.4810    -7.1660 
  265.8750     2.5180    68.2380    24.7050    23.6700    24.9470    24.9570   238.2800    -7.2620 
  266.0000     2.5230    68.2380    25.0970    24.1900    25.2610    24.9860   247.3460    -7.3180 
  266.1250     2.5240    68.2380    25.3310    24.5590    26.4210    24.9780   245.5110    -7.4070 
  266.2500     2.5240    68.2380    25.4690    24.8120    26.9280    24.9960   234.3920    -7.5100 
  266.3750     2.5230    68.2380    25.5560    24.9840    27.1670    25.0090   224.2970    -7.6190 
  266.5000     2.5190    68.2380    25.6230    25.1090    26.9660    24.9880   223.0640    -7.7330 
  266.6250     2.5120    68.2380    25.6700    25.1950    25.8290    24.9970   225.2470    -7.7960 
  266.7500     2.5050    68.2380    25.6930    25.2500    23.7760    25.0860   227.1420    -7.9040 
  266.8750     2.5030    68.2380    25.6940    25.2760    20.9520    25.1870   229.1490    -8.0120 
  267.0000     2.5060    68.2380    25.6880    25.2840    17.3880    25.2670   231.2870    -8.0870 
  267.1250     2.5130    68.2380    25.6840    25.2850    14.9120    25.3540   233.2960    -8.0630 
  267.2500     2.5180    68.2380    25.6840    25.2840    14.1770    25.3920   235.8220    -8.0470 
  267.3750     2.5190    68.2380    25.6840    25.2840    14.4770    25.4010   238.6090    -8.0370 
  267.5000     2.5160    68.2380    25.6790    25.2850    15.1980    25.4010   240.0380    -7.9770 
  267.6250     2.5110    68.2380    25.6690    25.2880    15.9760    25.4010   239.3060    -7.9570 
  267.7500     2.5060    68.2380    25.6610    25.2920    16.5470    25.4010   236.2290    -7.9010 
  267.8750     2.5030    68.2380    25.6580    25.2960    16.9230    25.3960   230.9620    -7.8260 
  268.0000     2.5040    68.2380    25.6610    25.2990    17.3170    25.3800   223.8160    -7.7760 
  268.1250     2.5120    68.2380    25.6670    25.3000    18.1210    25.3250   216.7930    -7.7380 
  268.2500     2.5270    68.2380    25.6730    25.3000    20.1480    25.2200   212.5420    -7.6900 
  268.3750     2.5410    68.2380    25.6780    25.3000    23.0110    25.0820   213.7030    -7.6430 
  268.5000     2.5460    68.2380    25.6800    25.3000    25.8310    25.0270   221.9310    -7.6480 
  268.6250     2.5340    68.2380    25.6800    25.3000    27.9900    25.1420   233.2520    -7.6680 
  268.7500     2.5020    68.2380    25.6800    25.3000    28.9450    25.2190   242.8310    -7.6110 
  268.8750     2.4600    68.2380    25.6800    25.3000    28.6680    25.2110   246.4220    -7.5040 
  269.0000     2.4190    68.2380    25.6800    25.3000    27.9430    25.1720   241.7620    -7.4710 
  269.1250     2.3880    68.2380    25.6800    25.3000    27.3490    25.1960   233.3120    -7.5470 
  269.2500     2.3750    68.2380    25.6800    25.3000    26.8450    25.2370   224.7590    -7.6200 
  269.3750     2.3800    68.2380    25.6800    25.3000    26.3900    25.2420   218.4160    -7.7070 
  269.5000     2.4030    68.2380    25.6800    25.3000    25.6710    25.1820   215.5550    -7.7760 
  269.6250     2.4390    68.2380    25.6800    25.3000    24.2250    25.0550   213.9090    -7.7740 
  269.7500     2.4770    68.2380    25.6800    25.3000    22.2120    25.0190   213.1610    -7.8190 
  269.8750     2.5050    68.2380    25.6800    25.3000    19.0090    24.9760   215.1920    -7.8860 
  270.0000     2.5150    68.2380    25.6800    25.3000    15.3640    24.8820   217.7740    -7.9220 
  270.1250     2.5040    68.2380    25.6800    25.3000    13.9400    24.7320   216.4130    -7.9440 
  270.2500     2.4730    68.2380    25.6800    25.3000    13.7960    24.3710   211.6580    -7.9590 
  270.3750     2.4300    68.2380    25.6800    25.3000    13.4170    23.7380   208.4350    -7.9560 
  270.5000     2.3810    68.2380    25.6800    25.3000    12.1840    22.9960   208.7010    -7.9350 
  270.6250     2.3320    68.2380    25.6800    25.3000    10.5240    21.9770   208.9460    -7.9310 
  270.7500     2.2880    68.2380    25.6800    25.3000     9.4830    20.5420   208.6800    -7.9930 
  270.8750     2.2510    68.2380    25.6800    25.3000     8.7740    18.8360   208.4950    -8.0630 
  271.0000     2.2230    68.2380    25.6800    25.3000     8.3050    17.3590   208.5260    -8.1120 
  271.1250     2.2010    68.2380    25.6800    25.3000     8.1130    16.4740   208.6690    -8.1130 
  271.2500     2.1890    68.2380    25.6800    25.3000     8.2730    15.7630   208.8290    -8.1660 
  271.3750     2.1820    68.2380    25.6800    25.3000     8.6380    15.2130   208.9040    -8.2290 
  271.5000     2.1800    68.2380    25.6800    25.3000     8.8920    14.9720   208.7290    -8.2950 
  271.6250     2.1820    68.2380    25.6800    25.3000     8.9740    14.9530   208.4210    -8.3680 
  271.7500     2.1850    68.2380    25.6800    25.3000     8.9720    14.9530   208.2460    -8.4260 
  271.8750     2.1890    68.2380    25.6800    25.3000     8.9720    14.9530   208.3470    -8.4840 
  272.0000     2.1910    68.2380    25.6800    25.3000     8.9730    14.9530   208.5270    -8.5510 
  272.1250     2.1910    68.2380    25.6800    25.3000     8.9740    14.9530   208.5340    -8.6070 
  272.2500     2.1880    68.2380    25.6800    25.3000     8.9760    14.9530   208.3600    -8.6550 
  272.3750     2.1830    68.2380    25.6800    25.3000     8.9770    14.9530   208.1640    -8.7520 
  272.5000     2.1800    68.2380    25.6800    25.3000     8.9770    14.9530  -999.2500    -8.8680 
  272.6250     2.1780    68.2380    25.6800    25.3000     8.9790    14.9510  -999.2500    -8.9650 
  272.7500     2.1770    68.2380    25.6800    25.3000     8.9810    14.9370  -999.2500    -9.0120 
  272.8750     2.1760    68.2380    25.6800    25.3000     8.9840    14.9060  -999.2500    -9.0590 
  273.0000     2.1740    68.2380    25.6800    25.3000     8.9860    14.8820  -999.2500    -9.0760 
