~V
VERS. 2.00: Ver 2.00
~W
STRT.M 60.0000:
STOP.M 258.0000:
STEP.M 0.1250:
NULL. -999.2500:
UWI. DF3032:
~C
DEPT.M :
GR.API :
RML.OHMM :
RI. :
RXO.OHMM :
CALI.CM :
DEN.GM/CC :
SP.MV :
~A
# ...
  228.7500   111.1810    10.8500     8.8530     8.8100    24.8750     2.4470   -15.2100 
  228.8750   108.3780    11.6020     9.5660     9.2010    24.9030     2.4270   -15.4570 
  229.0000   105.8400    12.1930    10.3430     9.3270    24.8670     2.4300   -15.7040 
  229.1250   105.6330    12.4030    10.8810     9.4470    24.8450     2.4420   -16.1390 
  229.2500   107.6710    12.3660    11.1600     9.4310    24.8190     2.4500   -16.5040 
  229.3750   112.4220    12.2480    11.2760     9.2300    24.7620     2.4480   -16.8230 
  229.5000   118.6270    12.1770    11.3370     9.0710    24.6830     2.4400   -17.1510 
  229.6250   124.1870    12.2220    11.3930     9.1400    24.6110     2.4290   -17.3960 
  229.7500   127.2800    12.3520    11.4330     9.4050    24.5640     2.4210   -17.6390 
  229.8750   128.3990    12.5290    11.4240     9.6170    24.5320     2.4190   -17.9090 
  230.0000   129.0740    12.7120    11.3440     9.6180    24.5200     2.4210   -18.1090 
  230.1250   124.6130    12.8670    11.1980     9.6360    24.5290     2.4260   -18.3170 
  230.2500   117.7760    12.9890    11.0400     9.6550    24.5590     2.4310   -18.5730 
  230.3750   114.4310    13.0790    10.9100     9.8030    24.6170     2.4320   -18.7700 
  230.5000   115.7720    13.1380    10.8290    10.1330    24.7030     2.4270   -19.0120 
  230.6250   119.2020    13.1890    10.8190    10.5280    24.7270     2.4180   -19.2900 
  230.7500   121.8540    13.3040    10.8990    10.8090    24.6980     2.4060   -19.5280 
  230.8750   123.5460    13.6000    11.1320    11.0090    24.6390     2.3970   -19.8170 
  231.0000   120.7350    14.2230    11.6070    11.2920    24.6040     2.3920   -20.0560 
  231.1250   115.0800    15.4010    12.4840    11.7210    24.5710     2.3930   -20.1520 
  231.2500   108.9100    17.0740    13.7350    12.7120    24.5130     2.3960   -20.3400 
  231.3750   101.9440    19.0540    15.2460    14.6340    24.4620     2.3970   -20.5050 
  231.5000    96.0150    20.9340    16.7360    16.7190    24.4740     2.3930   -20.4650 
  231.6250    93.3680    21.9760    17.6590    18.2840    24.5790     2.3850   -20.4680 
  231.7500    92.9090    21.8120    17.6850    19.6080    24.7200     2.3740   -20.4410 
  231.8750    93.5370    20.4200    16.7450    20.9380    24.8610     2.3620   -20.2390 
  232.0000    97.7010    18.2770    15.1600    21.3710    24.9610     2.3540   -20.1170 
  232.1250   106.3120    16.3960    13.6430    19.5320    25.0060     2.3520   -20.0590 
  232.2500   109.9530    15.7280    12.8970    16.6590    25.0070     2.3590   -19.8330 
  232.3750   104.3380    16.8890    13.4190    14.6000    24.9700     2.3740   -19.7040 
  232.5000    95.8690    20.1910    15.6040    16.3100    24.9390     2.3910   -19.7880 
  232.6250    92.9550    25.8000    19.9380    22.1750    24.9280     2.4040   -19.8590 
  232.7500    91.2770    32.4990    25.6970    31.7830    24.9310     2.4130   -20.0440 
  232.8750    86.4850    38.8770    31.7880    42.7770    24.9460     2.4150   -20.3570 
  233.0000    81.7240    43.3120    36.6590    45.1840    24.9840     2.4130   -20.6180 
  233.1250    81.7900    44.0090    38.3350    44.2310    25.0160     2.4040   -20.9270 
  233.2500    82.8100    41.5510    36.9460    43.9960    25.0070     2.3890   -21.3100 
  233.3750    84.0660    37.1220    33.4180    42.2890    24.9400     2.3710   -21.6520 
  233.5000    88.0150    32.3460    29.2060    33.8910    24.8230     2.3560   -21.9730 
  233.6250    93.5350    29.1160    25.9670    26.3070    24.5930     2.3470   -22.2440 
  233.7500    95.3830    28.4820    24.6800    23.6140    24.2910     2.3450   -22.4880 
  233.8750    91.9620    31.2920    26.1470    22.7190    24.1010     2.3460   -22.8060 
  234.0000    84.4790    38.1010    31.0760    27.0410    24.1420     2.3480   -23.1990 
  234.1250    77.0480    49.4020    40.3660    36.8850    24.2600     2.3490   -23.6560 
  234.2500    72.6790    63.2130    52.5630    54.8160    24.3070     2.3500   -24.1760 
  234.3750    70.7970    77.2910    65.7310    75.3680    24.2920     2.3470   -24.6550 
  234.5000    69.1080    88.9800    77.2970    84.6440    24.2300     2.3370   -25.1220 
  234.6250    67.8400    95.4170    84.3000    82.5270    24.1570     2.3200   -25.7170 
  234.7500    67.8640    97.4270    87.0580    80.3570    24.1000     2.2970   -26.1630 
  234.8750    67.1020    96.7800    86.9510    80.3520    24.0720     2.2760   -26.5850 
  235.0000    65.6380    95.4760    85.7450    82.7310    24.1000     2.2620   -27.0810 
  235.1250    67.4210    95.1490    84.9770    83.3310    24.1950     2.2590   -27.3910 
  235.2500    70.9630    96.4370    85.4450    83.3410    24.2850     2.2680   -27.7040 
  235.3750    73.1090    99.6660    87.5750    81.5100    24.3450     2.2860   -28.0720 
  235.5000    73.3550   104.8650    91.5340    80.8670    24.4340     2.3020   -28.3570 
  235.6250    72.5720   111.7980    97.3150    87.2200    24.5950     2.3110   -28.6150 
  235.7500    70.5650   119.2680   103.9290   100.3290    24.7110     2.3090   -28.8420 
  235.8750    68.3050   126.3070   110.5210   117.7990    24.7510     2.2970   -29.0100 
  236.0000    67.4650   132.1650   116.3280   131.2280    24.7530     2.2840   -29.1500 
  236.1250    68.3630   136.2820   120.6650   134.3420    24.7430     2.2770   -29.2360 
  236.2500    69.1860   139.0760   123.7270   129.8230    24.7270     2.2770   -29.2850 
  236.3750    70.1480   140.8060   125.7170   126.4780    24.7260     2.2840   -29.2780 
  236.5000    70.5310   141.5060   126.7440   129.0280    24.7240     2.2900   -29.2050 
  236.6250    68.4920   140.6750   126.4550   139.4850    24.7250     2.2930   -29.1110 
  236.7500    66.6900   138.3000   124.8280   140.2740    24.7210     2.2910   -29.0340 
  236.8750    66.5990   134.6260   121.9950   132.5200    24.7110     2.2850   -28.9440 
  237.0000    66.3780   130.3930   118.5230   125.8700    24.6890     2.2790   -28.8210 
  237.1250    63.0780   126.8490   115.4450   120.9540    24.6780     2.2770   -28.6990 
  237.2500    60.6620   124.7510   113.4970   111.5180    24.6740     2.2780   -28.6190 
  237.3750    62.7020   124.1850   112.8200   105.6680    24.6740     2.2820   -28.5860 
  237.5000    66.5010   124.5690   112.9740   106.6070    24.6230     2.2850   -28.5280 
  237.6250    67.4270   124.6340   112.9260   112.7950    24.5070     2.2870   -28.4010 
  237.7500    66.1560   123.1590   111.6390   118.2840    24.4220     2.2860   -28.3600 
  237.8750    65.3790   119.5180   108.5470   118.5590    24.5190     2.2870   -28.2230 
  238.0000    67.5160   113.8480   103.6860   113.7910    24.6160     2.2930   -27.9720 
  238.1250    73.1350   107.0730    97.7260   104.8600    24.5870     2.3070   -27.8640 
  238.2500    78.7200   100.8460    92.0710    94.6270    24.4450     2.3280   -27.5910 
  238.3750    83.3850    96.2710    87.7200    84.3080    24.2000     2.3490   -27.1850 
  238.5000    86.2550    93.8610    85.2150    79.2920    23.8970     2.3630   -26.8980 
  238.6250    86.0320    93.5290    84.6150    73.9530    23.7640     2.3670   -26.4860 
  238.7500    83.6300    93.7360    84.6590    74.4760    23.8670     2.3620   -26.0010 
  238.8750    82.0830    93.0760    84.1460    79.5610    23.9780     2.3530   -25.5110 
  239.0000    80.7570    90.4960    82.1020    91.6880    23.9980     2.3460   -24.9270 
  239.1250    75.9330    85.6370    78.0590    91.6900    23.9390     2.3420   -24.2600 
  239.2500    70.6510    79.9770    73.1410    83.3410    23.9100     2.3410   -23.5290 
  239.3750    69.0560    74.7690    68.3970    70.8630    23.9030     2.3410   -22.7570 
  239.5000    72.5220    70.5640    64.3990    61.3980    23.9110     2.3430   -21.9300 
  239.6250    76.1210    66.8440    60.8720    56.4660    24.0200     2.3480   -21.0600 
  239.7500    76.6810    62.4110    56.8630    56.3190    24.2680     2.3570   -20.1960 
  239.8750    75.5010    56.6670    51.8330    59.9170    24.5320     2.3700   -19.4020 
