~V
VERS. 2.00: Ver 2.00
~W
STRT.M 60.0000:
STOP.M 277.0000:
STEP.M 0.1250:
NULL. -999.2500:
UWI. DF3048:
~C
DEPT.M :
SP.MV :
GR.API :
RML.OHMM :
RI. :
RXO.OHMM :
CALI.CM :
DEN.GM/CC :
~A
# ...
   82.5000   -13.6470    89.2300    11.7510     9.3370    12.6980    24.2100  -999.2500 
   82.6250   -14.0120    83.2920    14.9050    12.1100    19.9970    24.2370  -999.2500 
   82.7500   -14.4530    81.4670    17.4400    14.6250    31.9840    24.2880  -999.2500 
   82.8750   -14.9760    80.1340    18.3080    15.9550    48.8110    24.3350  -999.2500 
   83.0000   -15.5640    75.7210    17.0390    15.5150    55.1730    24.4010  -999.2500 
   83.1250   -16.1320    70.3120    14.2550    13.4660    33.4730    24.0960  -999.2500 
   83.2500   -16.5950    69.2090    11.6270    11.1360    17.6150    23.7700  -999.2500 
   83.3750   -16.9270    73.6520     9.8250     9.2300    12.1040    23.4840  -999.2500 
   83.5000   -17.0780    81.4140     8.8780     7.9630    10.7080    23.3680  -999.2500 
   83.6250   -17.0180    88.0000     8.6200     7.3400    10.1030    23.3700  -999.2500 
   83.7500   -16.7540    91.1960     8.6730     7.1010     9.0630    23.4430  -999.2500 
   83.8750   -16.3800    91.8470     8.8520     7.1000     8.1950    23.6560  -999.2500 
   84.0000   -15.9060    92.0170     9.0290     7.2110     8.0150    23.9870  -999.2500 
   84.1250   -15.4240    94.5060     9.0910     7.3150     8.2380    23.9530  -999.2500 
   84.2500   -14.9050    97.6450     8.9960     7.3280     8.3480    23.8390  -999.2500 
   84.3750   -14.3310   100.1360     8.7330     7.2110     8.2530    23.7920  -999.2500 
   84.5000   -13.7570   102.5330     8.3480     6.9760     7.7550    23.8380  -999.2500 
   84.6250   -13.1620   104.3670     7.9450     6.6790     7.3510    23.9350  -999.2500 
   84.7500   -12.6310   106.2100     7.6210     6.4010     7.0300    24.0810  -999.2500 
   84.8750   -12.0680   109.1540     7.3970     6.1770     6.6350    24.2330  -999.2500 
   85.0000   -11.5300   112.1300     7.2440     6.0020     6.4880    24.3410  -999.2500 
   85.1250   -10.9560   113.5240     7.1070     5.8520     6.6940    24.3700  -999.2500 
   85.2500   -10.4490   113.5530     6.9600     5.7090     6.8010    24.3750  -999.2500 
   85.3750   -10.0570   114.0930     6.8580     5.6070     6.4250    24.3520  -999.2500 
   85.5000    -9.7660   115.1560     6.9180     5.6250     6.1860    24.2660  -999.2500 
   85.6250    -9.5890   115.5650     7.3070     5.8900     6.3900    24.1870  -999.2500 
   85.7500    -9.4270   114.2830     7.9680     6.3770     6.9810    24.1160  -999.2500 
   85.8750    -9.2970   108.8910     8.7220     6.9770     7.8580    24.0610  -999.2500 
   86.0000    -9.1920   101.2640     9.2980     7.4970     9.2260    24.0080  -999.2500 
   86.1250    -9.1370    97.6230     9.3610     7.6690    11.6030    23.7770  -999.2500 
   86.2500    -9.1090    98.2960     8.9520     7.4670    13.3880    23.5830  -999.2500 
   86.3750    -9.1230   100.5350     8.2980     7.0110    11.9460    23.4220  -999.2500 
   86.5000    -9.1310   101.5340     7.7100     6.5180     8.7040    23.4200  -999.2500 
   86.6250    -9.1810   104.1360     7.4530     6.2110     7.1240    23.5960  -999.2500 
   86.7500    -9.2620   106.8070     7.4840     6.1210     6.9120    23.6060  -999.2500 
   86.8750    -9.3890   105.2000     7.6760     6.1940     7.1040    23.5130  -999.2500 
   87.0000    -9.4970   100.7430     7.8750     6.3330     7.2160    23.4630  -999.2500 
   87.1250    -9.5780    99.3270     7.9350     6.4220     7.1710    23.5040  -999.2500 
   87.2500    -9.6890   102.3630     7.8600     6.4220     6.9950    23.5750  -999.2500 
   87.3750    -9.7320   106.6760     7.7220     6.3610     6.6750    23.5940  -999.2500 
   87.5000    -9.8450   111.4030     7.6170     6.3000     6.4040    23.4640  -999.2500 
   87.6250    -9.8970   115.1920     7.6320     6.3020     6.3070    23.3550  -999.2500 
   87.7500   -10.0310   114.2150     7.7650     6.3760     6.3810    23.2660  -999.2500 
   87.8750   -10.1380   109.5540     7.9910     6.5080     6.5280    23.1260  -999.2500 
   88.0000   -10.3390   105.3490     8.2590     6.6650     6.7190    22.8820  -999.2500 
   88.1250   -10.5870   102.0600     8.4930     6.7980     6.9470    22.7800  -999.2500 
   88.2500   -10.8730    98.5640     8.6350     6.8690     7.1250    22.7550  -999.2500 
   88.3750   -11.2290    96.6360     8.6510     6.8600     7.2540    22.7520  -999.2500 
   88.5000   -11.6210    99.0680     8.5410     6.7670     7.3180    22.6800  -999.2500 
   88.6250   -12.1180   102.7020     8.3460     6.6090     7.3260    22.6360  -999.2500 
   88.7500   -12.6770   104.3980     8.1830     6.4600     7.4430    22.6730  -999.2500 
   88.8750   -13.3640   102.8060     8.1710     6.4010     7.5870    22.7180  -999.2500 
   89.0000   -14.1600    97.9060     8.4240     6.5200     7.7630    22.5800  -999.2500 
   89.1250   -15.1000    91.3280     9.0560     6.9200     8.0330    22.2310  -999.2500 
   89.2500   -16.1530    84.1730     9.9600     7.5520     8.5190    22.1350  -999.2500 
   89.3750   -17.3340    76.5490    10.9780     8.3260     9.4270    22.2010  -999.2500 
   89.5000   -18.5850    69.9740    11.8830     9.0890    10.6590    22.5470  -999.2500 
   89.6250   -19.8900    66.3920    12.3720     9.6150    12.4650    22.8580  -999.2500 
   89.7500   -21.1180    65.3400    12.4030     9.8200    14.3240    23.0750  -999.2500 
   89.8750   -22.2590    66.9430    12.0650     9.7200    14.2750    23.1660  -999.2500 
   90.0000   -23.2060    69.7610    11.5610     9.4290    13.1110    23.1080  -999.2500 
   90.1250   -23.9560    70.3980    11.1300     9.1040    12.3010    22.9990  -999.2500 
   90.2500   -24.5150    69.6060    10.8850     8.8660    12.0200    22.8840  -999.2500 
   90.3750   -24.8530    70.4050    10.8330     8.7500    11.7670    22.7860  -999.2500 
   90.5000   -25.0490    70.9030    10.9210     8.7440    11.4340    22.7260  -999.2500 
   90.6250   -25.0210    68.6160    11.0610     8.8020    11.3060    22.7230  -999.2500 
   90.7500   -24.9480    67.4110    11.1570     8.8490    11.4720    22.7390  -999.2500 
   90.8750   -24.7420    70.4330    11.1530     8.8340    11.7410    22.7450  -999.2500 
   91.0000   -24.5180    73.7680    11.0250     8.7330    11.8790    22.6840  -999.2500 
   91.1250   -24.1760    71.9150    10.7690     8.5380    11.7250    22.6580  -999.2500 
   91.2500   -23.8010    70.4830    10.4590     8.3050    11.3970    22.6410  -999.2500 
   91.3750   -23.4250    73.2460    10.1780     8.0930    10.9210    22.7400  -999.2500 
   91.5000   -23.0100    76.7320    10.0380     7.9820    10.6580    22.8870  -999.2500 
   91.6250   -22.5810    78.2510    10.2520     8.1200    10.7970    23.2310  -999.2500 
   91.7500   -22.0860    78.3440    10.8890     8.5660    10.9370    23.6580  -999.2500 
   91.8750   -21.5350    77.4080    11.9190     9.3160    11.0560    24.0870  -999.2500 
   92.0000   -20.9110    75.1120    13.1190    10.2360    11.1620    24.4450  -999.2500 
   92.1250   -20.2150    71.2040    13.9660    10.9730    11.0590    24.4740  -999.2500 
   92.2500   -19.4370    67.5510    14.0180    11.1760    11.0950    24.0880  -999.2500 
   92.3750   -18.5580    65.8240    13.0960    10.6590    10.9460    23.8770  -999.2500 
   92.5000   -17.5900    70.5110    11.4390     9.5180    10.4290    23.8420  -999.2500 
   92.6250   -16.5570    82.3250     9.6680     8.1230     9.5830    23.9230  -999.2500 
   92.7500   -15.5210    94.0930     8.3420     6.9310     8.3290    24.1220  -999.2500 
   92.8750   -14.5540   101.8070     7.6210     6.1250     6.9550    24.2520  -999.2500 
   93.0000   -13.7080   105.4060     7.4310     5.7260     6.2970    24.2240  -999.2500 
   93.1250   -13.0370   109.1970     7.5980     5.6900     6.3860    24.1180  -999.2500 
   93.2500   -12.5000   112.7240     7.8320     5.8270     6.7340    24.1610  -999.2500 
   93.3750   -12.0960   111.6020     7.9840     6.0200     7.2130    24.2770  -999.2500 
   93.5000   -11.8530   107.1320     8.0070     6.1940     7.4100    24.3420  -999.2500 
   93.6250   -11.6680   106.7810     7.9540     6.3190     7.1730    24.4490  -999.2500 
