~V
VERS. 2.00: Ver 2.00
~W
STRT.M 60.0000:
STOP.M 251.0000:
STEP.M 0.1250:
NULL. -999.2500:
UWI. DF3020:
~C
DEPT.M :
GR.API :
RML.OHMM :
RI. :
RXO.OHMM :
CALI.CM :
DEN.GM/CC :
SP.MV :
~A
# ...
  206.2500    65.2790   148.7640   127.0010   119.3710    24.4240     2.1880   -25.2290 
  206.3750    64.2660   154.8910   132.6130   124.9180    24.3350     2.1790   -25.2900 
  206.5000    62.6730   157.2320   135.2370   127.0060    24.1970     2.1800   -25.4800 
  206.6250    64.2850   155.0020   134.1360   127.9210    24.0700     2.1900   -25.7390 
  206.7500    67.5310   149.9080   130.4880   126.0000    24.0190     2.2020   -25.9740 
  206.8750    67.8710   143.7950   125.6210   121.7740    24.0090     2.2080   -26.1950 
  207.0000    65.8880   138.9290   121.3790   115.0270    24.0090     2.2050   -26.3890 
  207.1250    66.3620   138.4240   120.5390   103.7800    24.0090     2.1970   -26.5680 
  207.2500    69.2410   143.5450   124.5030    95.0170    24.0090     2.1920   -26.7130 
  207.3750    69.2460   155.0570   134.0560    95.9160    24.0090     2.1900   -26.8030 
  207.5000    65.1880   172.5440   148.8240   108.6670    24.0090     2.1860   -26.7800 
  207.6250    61.9450   194.1430   167.1750   128.3500    24.0090     2.1770   -26.6360 
  207.7500    61.3230   214.9440   185.0550   145.7860    24.0090     2.1640   -26.4200 
  207.8750    62.3990   230.5130   199.0100   153.4420    24.0090     2.1540   -26.1570 
  208.0000    63.3570   237.4470   206.3850   156.0120    24.0090     2.1530   -25.8150 
  208.1250    64.0780   233.3240   205.0020   157.0030    24.0090     2.1590   -25.4220 
  208.2500    63.2960   221.8960   197.3450   158.2970    24.0020     2.1650   -24.9550 
  208.3750    62.0940   206.3210   185.6120   157.0580    23.9620     2.1670   -24.3920 
  208.5000    64.1890   189.6250   172.1720   151.2180    23.8850     2.1650   -23.7220 
  208.6250    69.2030   174.4310   159.2940   139.2230    23.8540     2.1670   -23.0320 
  208.7500    71.7650   161.4210   148.0570   128.6280    23.9030     2.1780   -22.4100 
  208.8750    70.3680   150.1640   138.4220   120.3040    23.9350     2.1940   -21.8970 
  209.0000    69.9360   139.7530   129.7390   114.5440    23.8250     2.2100   -21.5060 
  209.1250    72.6470   129.4630   121.2830   110.8340    23.8270     2.2180   -21.1280 
  209.2500    73.6590   119.3400   112.8470   109.4440    23.8600     2.2200   -20.8470 
  209.3750    73.3530   110.1670   104.9530   103.0270    23.8660     2.2190   -20.6170 
  209.5000    73.4780   103.0720    98.5520    89.2150    23.8670     2.2200   -20.4500 
  209.6250    75.4800    99.6130    95.1180    78.9510    23.8670     2.2240   -20.3440 
  209.7500    76.4990    99.3970    94.5480    76.9580    23.8670     2.2290   -20.2730 
  209.8750    74.9620   101.4650    96.1340    80.2880    23.8640     2.2320   -20.2490 
  210.0000    72.0530   104.0660    98.3770    82.5480    23.8530     2.2340   -20.3100 
  210.1250    70.3540   104.6820    99.0240    89.4970    23.7810     2.2370   -20.4580 
  210.2500    69.9860   102.3070    97.0100    99.3780    23.7000     2.2410   -20.6370 
  210.3750    68.3950    97.4940    92.6280   104.8770    23.6140     2.2460   -20.9070 
  210.5000    67.1330    92.1890    87.4490    97.9700    23.5230     2.2520   -21.2800 
  210.6250    68.4700    89.3780    84.1220    83.2530    23.3980     2.2550   -21.6680 
  210.7500    69.1530    90.4360    84.1670    70.9980    23.3420     2.2520   -22.0430 
  210.8750    67.2030    95.6400    88.0410    68.2020    23.3250     2.2470   -22.3640 
  211.0000    64.7590   104.1490    95.1030    73.9930    23.2770     2.2420   -22.6230 
  211.1250    64.2260   113.9480   103.6180    88.9600    23.2690     2.2420   -22.8760 
  211.2500    64.8200   121.9620   110.7910    96.6390    23.2670     2.2480   -23.1330 
  211.3750    66.2810   125.9230   114.5880    95.8190    23.2670     2.2550   -23.3890 
  211.5000    67.8880   124.6750   113.9190    96.4970    23.2670     2.2530   -23.5940 
  211.6250    68.0920   118.0330   108.4660    95.7380    23.2670     2.2290   -23.7710 
  211.7500    66.1540   108.6280   100.4090    92.0330    23.2750     2.1910   -23.9540 
  211.8750    63.0810    98.2110    91.2490    81.2520    23.3200     2.1490   -24.1050 
  212.0000    61.9850    88.0620    82.1370    65.1710    23.3890     2.1190   -24.2280 
  212.1250    63.7540    79.1650    73.9770    56.4140    23.4190     2.1150   -24.3790 
  212.2500    67.5140    71.7420    67.0510    54.5990    23.4630     2.1310   -24.5180 
  212.3750    70.7120    65.9810    61.5780    52.9390    23.4860     2.1580   -24.6250 
  212.5000    71.2100    61.9610    57.6750    48.6670    23.5960     2.1830   -24.7410 
  212.6250    69.6290    59.8570    55.5460    45.9250    23.6970     2.1990   -24.8710 
  212.7500    68.3220    59.1140    54.7090    44.8940    23.7840     2.2070   -24.9490 
  212.8750    67.5840    59.4140    54.8840    45.1120    23.8010     2.2100   -24.9810 
  213.0000    66.6380    60.4710    55.8070    47.8980    23.8110     2.2110   -24.9060 
  213.1250    66.2800    62.1670    57.3460    51.2330    23.8590     2.2110   -24.7080 
  213.2500    65.6550    64.2370    59.2270    53.8810    23.8720     2.2070   -24.3990 
  213.3750    63.7870    66.3940    61.1900    53.6870    23.9140     2.2000   -24.0130 
  213.5000    62.7970    68.1590    62.8340    54.7770    23.9410     2.1940   -23.5390 
  213.6250    66.0960    68.7040    63.4740    58.4910    24.0080     2.1960   -22.9650 
  213.7500    70.4750    67.7560    62.8630    65.2430    23.9960     2.2120   -22.2810 
  213.8750    73.4040    65.3420    60.9710    68.7930    23.9630     2.2400   -21.5340 
  214.0000    74.3800    61.8990    58.0960    62.2840    23.9240     2.2720   -20.8040 
  214.1250    71.8550    58.1470    54.7880    52.5330    23.8830     2.2930   -20.0660 
  214.2500    69.1460    54.7690    51.6910    48.5190    23.8980     2.2940   -19.3580 
  214.3750    68.9550    52.0090    49.0940    47.9610    23.9960     2.2760   -18.6730 
  214.5000    72.9070    49.8590    47.0540    48.3210    24.1700     2.2490   -18.0640 
  214.6250    77.5380    48.2650    45.5520    42.9950    24.0990     2.2270   -17.5790 
  214.7500    77.7970    47.0570    44.4050    40.4260    23.8910     2.2170   -17.2280 
  214.8750    75.4100    46.2450    43.5790    37.8760    23.6850     2.2210   -16.9820 
  215.0000    74.1420    45.8510    43.0640    34.6260    23.5870     2.2360   -16.8190 
  215.1250    74.3780    45.8760    42.8490    33.6010    23.6990     2.2570   -16.7560 
  215.2500    72.4790    46.1590    42.8120    36.0510    23.8740     2.2770   -16.7910 
  215.3750    68.9860    46.7060    42.9660    38.9540    23.9340     2.2900   -16.9360 
  215.5000    69.6830    47.7250    43.5020    43.1610    23.9060     2.2900   -17.1480 
  215.6250    74.3540    49.9250    45.0310    47.3460    24.1340     2.2780   -17.3990 
  215.7500    76.1040    53.8610    48.0300    48.5260    24.2710     2.2590   -17.6700 
  215.8750    73.8420    60.0850    52.9540    51.3860    24.3200     2.2410   -17.9330 
  216.0000    71.2190    68.7600    59.9080    60.0900    24.3220     2.2270   -18.1550 
  216.1250    71.9020    79.4910    68.5020    74.2920    24.3220     2.2210   -18.3080 
  216.2500    73.1710    90.2910    77.0760    90.3610    24.3220     2.2190   -18.3780 
  216.3750    71.7010    99.1130    83.9960   101.6750    24.3170     2.2200   -18.3340 
  216.5000    67.5820   104.1380    87.8870   107.5240    24.3020     2.2200   -18.1980 
  216.6250    65.5460   104.0170    87.7850   112.6770    24.2810     2.2200   -17.9430 
  216.7500    67.8730   100.7570    85.2600   117.3500    24.2910     2.2200   -17.6430 
  216.8750    71.1590    96.4250    81.8980   116.4790    24.3120     2.2230   -17.3150 
  217.0000    71.7100    92.9510    79.2200    93.7360    24.3220     2.2290   -17.0390 
  217.1250    69.7010    91.9610    78.5970    80.2950    24.3220     2.2380   -16.8550 
  217.2500    68.1970    93.1190    79.8570    77.4270    24.3220     2.2470   -16.8000 
  217.3750    67.8120    95.2090    82.1110    83.7180    24.3220     2.2520   -16.9330 
