~V
VERS. 2.00: Ver 2.00
~W
STRT.M 63.0000:
STOP.M 272.0000:
STEP.M 0.1250:
NULL. -999.2500:
UWI. DF3013:
~C
DEPT.M :
DEN.GM/CC :
SP.MV :
AC.US/MT :
GR.API :
CALI.CM :
RXO.OHMM :
RI. :
RML.OHMM :
~A
# ...
   73.0000     2.3020   -25.0020   400.6720    76.6840    23.6630    10.5700     7.6760     9.5450 
   73.1250     2.2760   -24.6030   420.3140    74.7660    23.6200     9.9870     7.5160     9.1810 
   73.2500     2.2330   -24.1850   445.0280    74.1930    23.5480     8.5780     7.2340     8.7460 
   73.3750     2.2050   -23.7440   454.2670    74.8760    23.4980     7.9010     6.9420     8.3870 
   73.5000     2.2100   -23.2620   445.9000    76.1290    23.5250     8.0530     6.6930     8.1240 
   73.6250     2.2350   -22.7090   435.0510    76.2030    23.6260     8.4860     6.4590     7.8630 
   73.7500     2.2590   -22.0920   435.8420    74.6330    23.7290     8.2280     6.1660     7.4980 
   73.8750     2.2740   -21.4290   443.0900    73.7500    23.8080     7.2370     5.7870     7.0180 
   74.0000     2.2790   -20.7560   449.5230    77.9390    23.8710     6.0200     5.3610     6.5140 
   74.1250     2.2700   -20.1210   453.9600    89.8200    23.9340     5.0580     5.0070     6.1690 
   74.2500     2.2540   -19.5690   455.5290   101.5320    23.9940     4.7630     4.8150     6.0620 
   74.3750     2.2390   -19.1390   450.6760   104.5650    24.0060     5.1230     4.8170     6.1880 
   74.5000     2.2320   -18.8530   440.4580    98.4150    23.8950     6.1490     4.9940     6.4760 
   74.6250     2.2270   -18.7380   435.6850    91.9390    23.6620     6.8840     5.2780     6.8050 
   74.7500     2.2190   -18.7360   437.0730    89.3340    23.4410     6.9800     5.5590     7.0730 
   74.8750     2.2120   -18.7990   437.7910    85.7920    23.2950     6.8390     5.8040     7.2900 
   75.0000     2.2070   -18.8690   437.3910    80.1850    23.2230     6.9460     6.0460     7.5340 
   75.1250     2.2060   -18.8770   439.4060    78.8890    23.2430     7.1010     6.3460     7.8590 
   75.2500     2.2120   -18.7940   437.7380    81.1410    23.3470     7.4860     6.6670     8.1600 
   75.3750     2.2350   -18.6080   425.4360    81.7800    23.5440     8.6540     6.8850     8.2620 
   75.5000     2.2790   -18.3270   407.6340    79.4890    23.8870    12.1360     6.8380     7.9960 
   75.6250     2.3320   -17.9660   406.1580    80.4500    24.3990    13.6480     6.3910     7.2780 
   75.7500     2.3670   -17.5680   426.8590    89.4470    24.8630    10.1790     5.7230     6.3930 
   75.8750     2.3720   -17.1720   455.1580   103.8260    25.1190     5.4660     5.0290     5.6070 
   76.0000     2.3540   -16.8180   472.8780   116.9310    25.1790     4.2080     4.4620     5.0900 
   76.1250     2.3420   -16.5620   473.1820   121.8070    25.1730     4.1480     4.1230     4.9190 
   76.2500     2.3510   -16.4220   469.5090   120.9030    25.1640     4.0790     3.9670     4.9580 
   76.3750     2.3710   -16.4080   468.7170   119.0870    25.1040     3.9570     3.9350     5.0670 
   76.5000     2.3870   -16.5180   469.6160   117.7140    24.9740     3.9670     3.9340     5.1000 
   76.6250     2.3890   -16.7380   470.4950   115.3540    24.8610     4.0660     3.8720     4.9620 
   76.7500     2.3800   -17.0230   472.0740   112.1660    24.8380     4.0570     3.7690     4.7840 
   76.8750     2.3630   -17.3530   476.6140   109.7680    24.8750     4.0110     3.7290     4.7490 
   77.0000     2.3490   -17.7160   477.0610   109.0000    24.9010     3.9760     3.8770     5.0160 
   77.1250     2.3670   -18.1080   448.8380   108.7070    24.8970     4.4510     4.3760     5.7570 
   77.2500     2.4110   -18.5240   391.6930   106.0870    24.8800     8.3190     5.2370     6.9150 
   77.3750     2.4540   -18.9640   336.3840    99.8440    24.8550    16.7330     6.3980     8.3510 
   77.5000     2.4600   -19.4400   324.1050    90.5120    24.7970    21.0580     7.6150     9.7150 
   77.6250     2.4090   -19.9620   365.5920    81.8480    24.5890    14.9960     8.3730    10.3690 
   77.7500     2.3310   -20.5110   413.5220    75.7530    24.2530     9.3570     8.5000    10.2160 
   77.8750     2.2600   -21.0470   441.8210    71.5210    24.0020     7.9730     8.1650     9.5800 
   78.0000     2.2150   -21.5220   452.4620    69.0590    24.1010     8.0240     7.6970     8.9290 
   78.1250     2.1990   -21.8730   458.2150    68.1080    24.6280     8.7070     7.3890     8.6100 
   78.2500     2.1900   -22.1060   461.9740    68.1810    25.2090     8.5760     7.2900     8.5880 
   78.3750     2.1800   -22.2380   461.5750    68.1140    25.5190     7.8870     7.3350     8.7390 
   78.5000     2.1740   -22.2940   457.9550    66.9990    25.3290     7.5800     7.4300     8.9360 
   78.6250     2.1770   -22.2960   452.8150    67.1080    24.6310     7.6520     7.5030     9.0880 
   78.7500     2.1820   -22.2710   449.1520    69.9860    23.9310     7.7370     7.5280     9.1660 
   78.8750     2.1800   -22.2300   448.9810    73.2060    23.5990     7.7680     7.5010     9.1810 
   79.0000     2.1720   -22.1710   452.4680    73.0210    23.7140     7.7620     7.4410     9.1700 
   79.1250     2.1700   -22.0790   457.9320    70.1630    24.1470     7.5520     7.3850     9.1880 
   79.2500     2.1750   -21.9510   461.2610    68.2370    24.6460     7.5220     7.3690     9.2600 
   79.3750     2.1830   -21.7880   459.6350    67.4470    24.8880     7.6450     7.4120     9.3850 
   79.5000     2.1870   -21.6140   453.0690    66.4030    24.5780     7.9760     7.5140     9.5460 
   79.6250     2.1860   -21.4660   445.4450    66.1080    23.8530     8.3940     7.6470     9.7120 
   79.7500     2.1850   -21.3640   441.0960    66.9450    23.3140     8.5990     7.7600     9.8450 
   79.8750     2.1870   -21.3030   440.9470    68.0900    23.1540     8.5900     7.8230     9.9140 
   80.0000     2.1920   -21.2700   444.1190    68.3480    23.1960     8.5070     7.8250     9.9030 
   80.1250     2.1980   -21.2480   448.1620    67.2310    23.2510     8.3350     7.7850     9.8300 
   80.2500     2.2010   -21.2250   450.6800    66.6990    23.3030     8.1700     7.7460     9.7720 
   80.3750     2.2000   -21.1980   451.5220    67.8680    23.3520     8.0160     7.7400     9.7830 
   80.5000     2.1990   -21.1690   451.5320    68.9450    23.3800     7.8010     7.7810     9.8820 
   80.6250     2.1970   -21.1270   450.5940    68.1100    23.3880     7.7370     7.8660    10.0440 
   80.7500     2.1920   -21.0630   448.1500    66.4240    23.4190     7.8790     7.9630    10.2030 
   80.8750     2.1830   -20.9740   445.0860    64.5660    23.4760     8.2520     8.0430    10.3170 
   81.0000     2.1770   -20.8700   443.0390    62.1160    23.5200     8.6690     8.0800    10.3770 
   81.1250     2.1750   -20.7810   442.8230    61.9600    23.5170     8.7580     8.0570    10.3840 
   81.2500     2.1780   -20.7250   443.5590    65.2270    23.4900     8.6150     7.9990    10.3590 
   81.3750     2.1880   -20.7010   444.6780    67.4110    23.4740     8.6370     7.9280    10.3150 
   81.5000     2.1980   -20.6930   446.2620    65.9360    23.4780     8.8120     7.8650    10.2660 
   81.6250     2.2000   -20.6680   447.7850    63.5390    23.4960     8.8510     7.8130    10.2160 
   81.7500     2.1990   -20.6100   447.7770    64.2770    23.5360     8.7630     7.7470    10.1290 
   81.8750     2.2020   -20.5170   445.3360    67.0530    23.6140     8.5530     7.6330     9.9520 
   82.0000     2.2120   -20.3880   441.1410    68.4480    23.7290     8.3360     7.4640     9.6810 
   82.1250     2.2240   -20.2200   438.8500    66.5580    23.8570     8.3220     7.3460     9.5120 
   82.2500     2.2240   -20.0260   440.5780    63.6110    23.9660     8.4640     7.4810     9.7630 
   82.3750     2.2180   -19.8150   436.7290    62.5660    24.0370     8.5500     8.0750    10.7130 
   82.5000     2.2270   -19.6030   410.0150    63.8190    24.1060     9.2720     9.2770    12.5160 
   82.6250     2.2770   -19.4180   348.1130    65.1960    24.2690    17.4150    11.1250    15.1200 
   82.7500     2.3490   -19.2690   281.4510    65.2240    24.4820    33.8930    12.9820    17.5000 
   82.8750     2.4060   -19.1530   249.3080    64.1010    24.5470    36.4370    13.9150    18.2290 
