~V
VERS. 2.00: Ver 2.00
~W
STRT.M 60.0000:
STOP.M 251.0000:
STEP.M 0.1250:
NULL. -999.2500:
UWI. DF3020:
~C
DEPT.M :
GR.API :
RML.OHMM :
RI. :
RXO.OHMM :
CALI.CM :
DEN.GM/CC :
SP.MV :
~A
# ...
   71.2500   104.7720     6.5320     6.3930     7.7900    24.4440  -999.2500   -36.3990 
   71.3750   104.3630     6.3230     6.1120     6.9140    24.1880  -999.2500   -36.4450 
   71.5000   101.1460     6.3310     6.0680     6.7300    23.8310  -999.2500   -36.7280 
   71.6250    96.9910     6.5810     6.2970     6.7410    23.5140  -999.2500   -37.2140 
   71.7500    93.5050     6.9700     6.6920     6.8790    23.3880  -999.2500   -37.8390 
   71.8750    91.6470     7.3980     7.1480     7.1900    23.3490  -999.2500   -38.5660 
   72.0000    90.6360     7.7520     7.5550     7.8070    23.3510  -999.2500   -39.3100 
   72.1250    88.2210     7.9080     7.7880     8.7940    23.3090  -999.2500   -40.0590 
   72.2500    85.6020     7.8700     7.8370     9.9400    23.2360  -999.2500   -40.6960 
   72.3750    85.7800     7.6960     7.7310    10.3230    23.1950  -999.2500   -41.2080 
   72.5000    87.7440     7.4890     7.5450     9.2100    23.2280  -999.2500   -41.5440 
   72.6250    87.2250     7.3700     7.3790     8.5090    23.2760  -999.2500   -41.7290 
   72.7500    82.3020     7.3740     7.2990     8.3010    23.3450  -999.2500   -41.7640 
   72.8750    76.7610     7.4830     7.3160     8.2770    23.4830  -999.2500   -41.6800 
   73.0000    75.9110     7.6370     7.3910     8.2840    23.7050  -999.2500   -41.3980 
   73.1250    81.4120     7.7440     7.4340     8.4400    23.9650  -999.2500   -40.9840 
   73.2500    86.9600     7.7460     7.3710     8.7320    24.0650  -999.2500   -40.4910 
   73.3750    90.1180     7.6280     7.1660     9.0430    24.0500  -999.2500   -40.0260 
   73.5000    91.8460     7.4190     6.8410     9.3930    23.9600  -999.2500   -39.6150 
   73.6250    95.4420     7.1880     6.4650     7.6650    23.9360  -999.2500   -39.3420 
   73.7500   101.2420     7.0010     6.1370     6.9710    24.1350  -999.2500   -39.1480 
   73.8750   104.1810     6.8800     5.9080     6.6090    24.5410  -999.2500   -39.1100 
   74.0000   101.2470     6.8190     5.7900     6.6200    24.6490  -999.2500   -39.2370 
   74.1250    95.2770     6.8080     5.7700     6.8230    24.2830  -999.2500   -39.4840 
   74.2500    91.6780     6.8520     5.8100     7.1920    23.9930  -999.2500   -39.7770 
   74.3750    89.3330     7.0390     5.9460     7.6420    23.8880  -999.2500   -39.9330 
   74.5000    85.6730     7.5380     6.2930     8.1050    23.8730  -999.2500   -39.9390 
   74.6250    81.3490     8.6200     7.0790     8.9390    23.8730  -999.2500   -39.6460 
   74.7500    76.7250    10.2070     8.2820    10.5410    23.8760  -999.2500   -39.1730 
   74.8750    71.4860    11.9960     9.7090    13.7020    23.8980  -999.2500   -38.4250 
   75.0000    67.1010    13.4240    10.9550    19.0440    24.0080  -999.2500   -37.4610 
   75.1250    67.7720    13.6370    11.3470    28.4720    24.3900  -999.2500   -36.2540 
   75.2500    76.0270    12.5030    10.7190    36.1540    24.9920  -999.2500   -34.9490 
   75.3750    90.5100    10.4490     9.3030    26.8850    25.4470  -999.2500   -33.6670 
   75.5000   104.0960     8.2880     7.6560    12.7050    25.6090  -999.2500   -32.4620 
   75.6250   109.7890     6.7750     6.3660     7.2330    25.5810  -999.2500   -31.4490 
   75.7500   112.8630     6.1270     5.5650     5.6020    25.5250  -999.2500   -30.5910 
   75.8750   117.3350     5.9520     5.1920     5.2820    25.4750  -999.2500   -29.9350 
   76.0000   119.3530     6.0370     5.1030     5.2420    25.4550  -999.2500   -29.4650 
   76.1250   114.7360     6.1530     5.1330     5.2330    25.4550  -999.2500   -29.2880 
   76.2500   110.2740     6.1470     5.1290     5.1570    25.4550  -999.2500   -29.2940 
   76.3750   111.3870     6.0110     5.0540     5.0830    25.4550  -999.2500   -29.4740 
   76.5000   115.1810     5.8450     4.9600     5.0370    25.4550  -999.2500   -29.7770 
   76.6250   114.6990     5.8740     5.0020     5.1080    25.4550  -999.2500   -30.2970 
   76.7500   108.8620     6.2530     5.3090     5.2630    25.4540  -999.2500   -30.9760 
   76.8750   101.7840     7.0530     5.9550     5.6270    25.4150  -999.2500   -31.9020 
   77.0000    96.6580     8.2160     6.9200     6.5760    25.2390  -999.2500   -32.9750 
   77.1250    92.1100     9.5210     8.0560     8.2750    24.7890  -999.2500   -34.2290 
   77.2500    86.5220    10.5990     9.0600    10.3880    24.2510  -999.2500   -35.5660 
   77.3750    79.9080    11.1850     9.6950    11.7740    23.7660  -999.2500   -36.9660 
   77.5000    74.6160    11.1970     9.8550    11.5490    23.5250  -999.2500   -38.3700 
   77.6250    71.2540    10.7550     9.5870    11.1040    23.4930  -999.2500   -39.6090 
   77.7500    68.8080    10.2370     9.1870    10.1860    23.4810  -999.2500   -40.7320 
   77.8750    66.4620     9.8520     8.8320     9.4580    23.3620  -999.2500   -41.5760 
   78.0000    64.5890     9.6860     8.6040     9.0300    23.1400  -999.2500   -42.2830 
   78.1250    64.9440     9.7550     8.5270     8.7600    22.9210  -999.2500   -42.7360 
   78.2500    66.3900     9.9550     8.5370     8.5440    22.8050  -999.2500   -43.0460 
   78.3750    68.6760    10.2040     8.5880     8.4720    22.7720  -999.2500   -43.2360 
   78.5000    71.0810    10.4200     8.6370     8.7300    22.7820  -999.2500   -43.3570 
   78.6250    67.9400    10.5090     8.6350     9.1630    22.9330  -999.2500   -43.4830 
   78.7500    61.0960    10.4630     8.5700     9.3970    23.3280  -999.2500   -43.5800 
   78.8750    57.9920    10.3330     8.4710     9.3800    23.8790  -999.2500   -43.7260 
   79.0000    61.5530    10.2490     8.4170     9.4650    24.3380  -999.2500   -43.8630 
   79.1250    66.2820    10.4620     8.5820     9.8400    24.5220  -999.2500   -44.0140 
   79.2500    67.8600    11.0630     9.0380    10.4070    24.6260  -999.2500   -44.1320 
   79.3750    67.9450    11.9870     9.7610    11.1380    24.7540  -999.2500   -44.2080 
   79.5000    67.8820    12.9840    10.5840    12.1200    24.8710  -999.2500   -44.2170 
   79.6250    67.6660    13.5820    11.1600    13.5180    24.5940  -999.2500   -44.2110 
   79.7500    65.7820    13.5120    11.2410    15.7000    24.1880  -999.2500   -44.1380 
   79.8750    62.0880    12.7640    10.7650    16.9240    23.6410  -999.2500   -44.0510 
   80.0000    59.8080    11.6250     9.8980    13.2320    23.1090  -999.2500   -43.9370 
   80.1250    61.9260    10.5620     8.9710    10.3550    22.8620  -999.2500   -43.8560 
   80.2500    65.9110     9.8480     8.2530     9.1800    22.7480  -999.2500   -43.7690 
   80.3750    68.9240     9.5140     7.8200     8.8230    22.6720  -999.2500   -43.6860 
   80.5000    70.2550     9.4630     7.6430     8.6540    22.6260  -999.2500   -43.5890 
   80.6250    71.8890     9.5610     7.6510     8.6630    22.6110  -999.2500   -43.5380 
   80.7500    74.2470     9.6740     7.7190     8.6750    22.6090  -999.2500   -43.5310 
   80.8750    76.6830     9.7740     7.8050     8.6360    22.6100  -999.2500   -43.5690 
   81.0000    77.1720     9.8760     7.9000     8.6430    22.6110  -999.2500   -43.6250 
   81.1250    75.8770    10.0070     8.0220     8.8140    22.6120  -999.2500   -43.7310 
   81.2500    74.6960    10.1660     8.1710     9.0440    22.5540  -999.2500   -43.8910 
   81.3750    74.0550    10.3410     8.3350     9.3140    22.4950  -999.2500   -44.0920 
   81.5000    72.9550    10.5070     8.4900     9.4470    22.5790  -999.2500   -44.3520 
   81.6250    70.5360    10.6240     8.5930     9.4400    22.5950  -999.2500   -44.5680 
   81.7500    67.8550    10.6690     8.6290     9.4050    22.6000  -999.2500   -44.8060 
   81.8750    66.3570    10.6270     8.5920     9.3390    22.6000  -999.2500   -45.0030 
   82.0000    65.9340    10.5050     8.4880     9.2260    22.6000  -999.2500   -45.2120 
   82.1250    66.2060    10.3260     8.3300     9.0320    22.6000  -999.2500   -45.3250 
   82.2500    67.3240    10.1470     8.1560     8.8610    22.6000  -999.2500   -45.3770 
   82.3750    68.1570    10.0130     7.9980     8.7460    22.6000  -999.2500   -45.3330 
