~V
VERS. 2.00: Ver 2.00
~W
STRT.M 115.0000:
STOP.M 288.0000:
STEP.M 0.1250:
NULL. -999.2500:
UWI. DF3049:
~C
DEPT.M :
GR.API :
CALI.CM :
RXO.OHMM :
RI. :
RML.OHMM :
SP.MV :
DEN.GM/CC :
AC.US/MT :
~A
# ...
  245.0000    71.8860    23.9720    28.5320    26.0920    26.4000   -13.5970     2.4790   345.2630 
  245.1250    64.0820    24.0930    12.1300    15.2830    15.8500   -13.3540     2.4250   361.8480 
  245.2500    59.4060    24.2840     7.4520    10.4660    10.9080   -13.1550     2.4030   366.0780 
  245.3750    62.2910    24.3990     6.3990     8.0460     8.5020   -12.9500     2.3970   367.4370 
  245.5000    67.9350    24.4340     6.2610     6.8980     7.5560   -12.7490     2.3940   369.1130 
  245.6250    70.0840    24.4370     6.2080     6.4730     7.3860   -12.5680     2.3920   371.1350 
  245.7500    65.3590    24.4380     5.9570     6.4360     7.4960   -12.4040     2.3900   373.6440 
  245.8750    60.1780    24.4420     5.7090     6.4620     7.5280   -12.2640     2.3920   377.1480 
  246.0000    60.0670    24.4500     5.5270     6.4390     7.4110   -12.1390     2.3970   381.0680 
  246.1250    65.7580    24.4570     5.4060     6.3550     7.2030   -12.0630     2.4030   383.7480 
  246.2500    70.4820    24.4590     5.2900     6.2340     6.9870   -11.9930     2.4040   383.5690 
  246.3750    67.7290    24.4590     5.1610     6.1080     6.8070   -11.9500     2.4000   381.6210 
  246.5000    60.3960    24.4600     5.1000     5.9870     6.6750   -11.9130     2.3940   379.3650 
  246.6250    58.1870    24.4620     5.1490     5.8680     6.5840   -11.8780     2.3900   377.6020 
  246.7500    66.1860    24.4690     5.2940     5.7470     6.5330   -11.8650     2.3920   376.1390 
  246.8750    71.9740    24.4850     5.3600     5.6250     6.5060   -11.8740     2.3980   374.8990 
  247.0000    67.1620    24.5160     5.3320     5.5110     6.5010   -11.8890     2.4060   374.7510 
  247.1250    60.4020    24.5380     5.3190     5.4130     6.5120   -11.8970     2.4150   376.2860 
  247.2500    62.5640    24.5460     5.3310     5.3370     6.5380   -11.9040     2.4250   378.3740 
  247.3750    66.8790    24.5430     5.3100     5.2790     6.5740   -11.9210     2.4340   378.5180 
  247.5000    65.4930    24.5300     5.2070     5.2420     6.6190   -11.9560     2.4370   375.7310 
  247.6250    60.2980    24.5030     5.1310     5.2210     6.6760   -12.0030     2.4300   371.3700 
  247.7500    56.4310    24.4910     5.5580     5.2110     6.7370   -12.0440     2.4120   368.9700 
  247.8750    53.7560    24.5030     6.9640     5.1990     6.7860   -12.0670     2.3990   370.4370 
  248.0000    55.0700    24.4980     9.0910     5.1760     6.8080   -12.0960     2.4020   375.2930 
  248.1250    59.9180    24.4650    10.2730     5.1350     6.7940   -12.1050     2.4190   381.4700 
  248.2500    62.8240    24.3840     8.9790     5.0770     6.7420   -12.1180     2.4310   385.7320 
  248.3750    61.8220    24.3440     6.8980     5.0140     6.6740   -12.1070     2.4310   388.8940 
  248.5000    59.4760    24.3180     5.4520     4.9550     6.6080   -12.0900     2.4250   389.7410 
  248.6250    58.6360    24.2600     4.8340     4.9050     6.5610   -12.0730     2.4190   388.7690 
  248.7500    58.7230    24.1850     4.6910     4.8760     6.5490   -12.0540     2.4180   386.9330 
  248.8750    58.3020    24.1050     4.6690     4.8690     6.5660   -12.0340     2.4170   385.3180 
  249.0000    58.5420    24.0730     4.6750     4.8810     6.6040   -12.0230     2.4120   384.2400 
  249.1250    60.0720    24.0580     4.7140     4.9060     6.6540   -12.0290     2.4040   383.5330 
  249.2500    61.4950    24.0280     4.7820     4.9340     6.6990   -12.0320     2.3980   383.1920 
  249.3750    61.4130    23.9830     4.8270     4.9550     6.7290   -12.0440     2.3930   383.4820 
  249.5000    60.3320    23.9520     4.8430     4.9640     6.7390   -12.0720     2.3900   384.1840 
  249.6250    58.6830    23.9370     4.8930     4.9620     6.7300   -12.1250     2.3900   384.9000 
  249.7500    56.5600    23.9230     5.0370     4.9510     6.7120   -12.1850     2.4080   385.1030 
  249.8750    57.7630    23.8990     5.1860     4.9400     6.6990   -12.2670     2.4190   384.1760 
  250.0000    62.0350    23.8570     5.2090     4.9310     6.6940   -12.3520     2.4260   382.3740 
  250.1250    64.7700    23.8410     5.0940     4.9310     6.6990   -12.4520     2.4280   380.1060 
  250.2500    63.8250    23.8790     4.9690     4.9460     6.7220   -12.5480     2.4270   377.4090 
  250.3750    63.2090    23.9510     4.8880     4.9770     6.7620   -12.6530     2.4250   373.6070 
  250.5000    62.7010    23.9880     4.8340     5.0200     6.8180   -12.7550     2.4210   368.8430 
  250.6250    60.0030    23.9570     4.8510     5.0720     6.8830   -12.8400     2.4120   364.2410 
  250.7500    57.0180    23.8560     5.1020     5.1220     6.9440   -12.9260     2.4050   361.2640 
  250.8750    56.4070    23.7530     5.4850     5.1660     6.9950   -13.0020     2.4070   360.6450 
  251.0000    56.5480    23.6920     5.7240     5.2070     7.0420   -13.0720     2.4160   360.5940 
  251.1250    57.3760    23.6530     5.7200     5.2540     7.1010   -13.1120     2.4270   359.0390 
  251.2500    59.4750    23.6350     5.5890     5.3160     7.1860   -13.1610     2.4380   354.6060 
  251.3750    60.5650    23.6110     5.5680     5.3910     7.2920   -13.2140     2.4430   347.3310 
  251.5000    60.5860    23.5490     5.6640     5.4730     7.4010   -13.2670     2.4380   339.8070 
  251.6250    61.9550    23.4440     5.9080     5.5510     7.4940   -13.3130     2.4270   334.1500 
  251.7500    63.0390    23.3350     6.2540     5.6190     7.5590   -13.3590     2.4210   331.1710 
  251.8750    60.5600    23.2670     6.6070     5.6830     7.6130   -13.4000     2.4290   330.0120 
  252.0000    58.0950    23.2450     6.9880     5.7540     7.6840   -13.4500     2.4430   328.4580 
  252.1250    59.2070    23.2420     7.4650     5.8510     7.8030   -13.5210     2.4560   325.6120 
  252.2500    62.0120    23.2420     7.8740     5.9950     8.0080   -13.6030     2.4640   321.9260 
  252.3750    63.2360    23.2420     8.1850     6.1850     8.2800   -13.6900     2.4670   319.2130 
  252.5000    62.4260    23.2500     8.4250     6.4040     8.5900   -13.7800     2.4670   318.5520 
  252.6250    62.1390    23.2720     8.5740     6.6260     8.8900   -13.8610     2.4630   319.6400 
  252.7500    63.9690    23.3210     8.4970     6.8170     9.1220   -13.9350     2.4580   321.2790 
  252.8750    66.7420    23.3720     8.4180     6.9640     9.2770   -14.0100     2.4550   322.3550 
  253.0000    68.9490    23.4590     8.4740     7.0720     9.3720   -14.0540     2.4600   322.5570 
  253.1250    69.2950    23.5870     8.6400     7.1640     9.4450   -14.1150     2.4730   321.5830 
  253.2500    69.1730    23.7500     8.8680     7.2720     9.5500   -14.1640     2.4880   319.0430 
  253.3750    68.4540    24.0020     9.1550     7.4190     9.7160   -14.1990     2.4920   314.7660 
  253.5000    68.8520    24.2940     9.4790     7.6190     9.9540   -14.2310     2.4890   309.7390 
  253.6250    72.6110    24.4580     9.9700     7.8710    10.2570   -14.2720     2.4880   304.8520 
  253.7500    76.2840    24.4920    10.9100     8.1750    10.6090   -14.3140     2.4930   300.8210 
  253.8750    74.4080    24.4920    12.4050     8.5050    10.9770   -14.3410     2.5010   298.0980 
  254.0000    68.5320    24.4990    14.0180     8.8420    11.3350   -14.3840     2.5050   296.1340 
  254.1250    64.8950    24.5310    14.7400     9.1610    11.6550   -14.3990     2.5050   294.6680 
  254.2500    68.0410    24.6020    14.2740     9.4270    11.8910   -14.4140     2.5090   293.9320 
  254.3750    73.2730    24.6570    13.5860     9.6340    12.0410   -14.4200     2.5230   294.3810 
  254.5000    75.7860    24.6760    13.4840     9.7860    12.1190   -14.4270     2.5390   295.2940 
  254.6250    73.5250    24.6790    13.7430     9.9060    12.1560   -14.4330     2.5510   295.7150 
  254.7500    68.6460    24.6800    14.2890    10.0100    12.1920   -14.4450     2.5520   295.2540 
  254.8750    64.8290    24.6780    15.0410    10.1110    12.2450   -14.4890     2.5380   294.6850 
