~V
VERS. 2.00: Ver 2.00
~W
STRT.M 64.0000:
STOP.M 268.0000:
STEP.M 0.1250:
NULL. -999.2500:
UWI. DF3002:
~C
DEPT.M :
GR.API :
RML.OHMM :
RI. :
RXO.OHMM :
DEN.GM/CC :
SP.MV :
~A
# ...
  128.3750    69.3110    10.8050    10.1000    10.0110     2.1690   -29.1550 
  128.5000    68.4560    10.6800    10.0030     9.9740     2.1870   -28.9920 
  128.6250    67.8500    10.2770     9.6680     9.9940     2.2020   -28.9410 
  128.7500    69.7110     9.7440     9.2080     9.9940     2.2090   -28.8570 
  128.8750    73.4490     9.3030     8.7950    10.0250     2.2120   -28.6040 
  129.0000    77.3430     9.2880     8.6820    10.2310     2.2200   -28.4360 
  129.1250    80.8940    10.3190     9.3910    11.1040     2.2510   -28.3050 
  129.2500    82.9660    12.6840    11.2750    13.4020     2.3130   -28.0210 
  129.3750    80.5050    16.5110    14.6280    18.1450     2.4020   -27.7880 
  129.5000    74.2620    21.4560    19.3630    26.2240     2.5050   -27.6850 
  129.6250    69.9970    26.3850    24.6640    38.8060     2.5970   -27.4780 
  129.7500    68.0040    29.6930    28.8410    49.5100     2.6610   -27.3190 
  129.8750    65.4370    30.2140    30.4490    52.6310     2.6910   -27.3530 
  130.0000    63.9930    27.7310    28.8850    44.7120     2.6870   -27.3440 
  130.1250    70.6470    23.1700    24.7420    37.0960     2.6380   -27.3790 
  130.2500    78.7200    18.5910    20.1860    27.7270     2.5540   -27.5630 
  130.3750    79.6320    14.9710    16.3400    18.4710     2.4470   -27.6890 
  130.5000    73.4100    12.5540    13.5760    12.4000     2.3410   -27.7340 
  130.6250    70.1190    11.2310    11.8850    10.7630     2.2630   -27.7680 
  130.7500    71.5130    10.4160    10.7570    10.3670     2.2200   -27.6700 
  130.8750    72.3760     9.7730     9.8960    10.2240     2.2120   -27.4760 
  131.0000    73.4440     9.0880     9.0910     9.9410     2.2300   -27.2280 
  131.1250    78.4430     8.2860     8.2460     9.0710     2.2610   -26.8690 
  131.2500    85.2610     7.4710     7.4130     7.7380     2.2890   -26.5560 
  131.3750    90.7480     6.7700     6.6860     6.6200     2.3090   -26.3260 
  131.5000    94.2360     6.2740     6.1440     6.2070     2.3220   -26.0680 
  131.6250    97.5330     6.0540     5.8600     6.2310     2.3330   -26.0130 
  131.7500    99.3320     6.0430     5.7820     6.1090     2.3420   -26.1380 
  131.8750    98.7230     6.1830     5.8660     5.9600     2.3470   -26.2910 
  132.0000    96.6880     6.4070     6.0540     6.1100     2.3430   -26.6480 
  132.1250    94.6960     6.6410     6.2800     6.4970     2.3300   -27.2000 
  132.2500    92.2140     6.8350     6.4870     6.8480     2.3150   -27.6760 
  132.3750    88.0390     6.9900     6.6650     6.9910     2.3030   -28.1940 
  132.5000    83.6360     7.1530     6.8420     7.1390     2.2980   -28.8450 
  132.6250    82.5440     7.4250     7.0990     7.4010     2.2950   -29.3090 
  132.7500    82.4770     7.8520     7.4850     7.8920     2.2880   -29.7240 
  132.8750    80.2310     8.4230     8.0020     8.7200     2.2710   -30.1990 
  133.0000    76.4630     9.0670     8.5990    10.1480     2.2440   -30.5110 
  133.1250    74.0600     9.6470     9.1600    12.0630     2.2130   -30.7420 
  133.2500    74.5630    10.0640     9.5810    12.5540     2.1860   -30.9910 
  133.3750    75.2760    10.2840     9.8140    11.2870     2.1680   -31.1060 
  133.5000    73.1160    10.3280     9.8710    10.6210     2.1630   -31.0970 
  133.6250    68.7710    10.2490     9.7950    10.6350     2.1720   -31.1510 
  133.7500    64.7440    10.1630     9.6890    10.5160     2.1860   -31.0670 
  133.8750    64.4190    10.1800     9.6330    10.3860     2.1960   -30.8730 
  134.0000    67.8720    10.4320     9.7200    10.5110     2.1990   -30.6820 
  134.1250    74.3210    11.0760    10.0760    10.8090     2.1980   -30.2700 
  134.2500    78.5000    11.9670    10.6390    10.9770     2.2070   -29.8060 
  134.3750    77.6900    12.7890    11.2200    11.1950     2.2420   -29.4110 
  134.5000    75.5590    13.0990    11.5070    11.8890     2.3060   -28.9120 
  134.6250    76.0110    12.4030    11.0890    13.2160     2.3810   -28.4240 
  134.7500    79.3030    10.9390    10.0490    15.1320     2.4300   -28.0670 
  134.8750    85.2330     9.1900     8.6910    15.2650     2.4320   -27.7240 
  135.0000    91.6300     7.7430     7.4480    10.7960     2.3900   -27.5330 
  135.1250    91.3130     7.1150     6.7500     7.1120     2.3280   -27.5770 
  135.2500    85.7640     7.1890     6.6110     6.5180     2.2730   -27.5600 
  135.3750    82.2210     7.7210     6.9280     7.0690     2.2340   -27.4840 
  135.5000    82.6410     8.3760     7.4850     7.7320     2.2140   -27.5390 
  135.6250    82.8630     8.7600     7.9660     8.2370     2.2120   -27.5100 
  135.7500    83.9580     8.7280     8.1340     8.3790     2.2240   -27.3380 
  135.8750    89.0310     8.3370     7.9440     7.9010     2.2440   -27.1970 
  136.0000    95.1850     7.7870     7.5190     7.0300     2.2650   -26.9710 
  136.1250    97.9540     7.2970     7.0430     6.3360     2.2790   -26.5690 
  136.2500   101.2710     6.9430     6.6360     6.2530     2.2860   -26.2820 
  136.3750   106.5590     6.7010     6.3100     6.3870     2.2890   -26.1280 
  136.5000   109.1720     6.5150     6.0390     6.3440     2.2910   -25.9400 
  136.6250   105.7920     6.3390     5.7930     6.1640     2.2970   -25.9260 
  136.7500   102.1340     6.1790     5.5690     6.0970     2.3070   -26.0830 
  136.8750   102.9280     6.1000     5.4130     5.9560     2.3210   -26.2820 
  137.0000   105.9910     6.1980     5.3940     5.8390     2.3420   -26.5930 
  137.1250   104.8030     6.5950     5.6110     5.9540     2.3680   -27.0230 
  137.2500    99.8940     7.2430     6.0420     6.1950     2.3920   -27.5240 
  137.3750    94.8610     8.0480     6.6300     6.6230     2.4000   -28.1430 
  137.5000    90.8230     8.8570     7.2730     7.3800     2.3800   -28.8150 
  137.6250    87.3270     9.4660     7.8120     8.2930     2.3290   -29.3700 
  137.7500    84.9420     9.8020     8.1590     8.7600     2.2720   -29.9500 
  137.8750    83.8330     9.8750     8.2960     8.7210     2.2250   -30.4060 
  138.0000    82.6340     9.7570     8.2700     8.3990     2.1960   -30.7010 
  138.1250    80.6610     9.5470     8.1540     8.1340     2.1860   -30.9950 
  138.2500    80.5550     9.3550     8.0350     7.9370     2.1810   -31.0760 
  138.3750    82.9670     9.2280     7.9420     7.7950     2.1760   -30.9230 
  138.5000    86.1680     9.1660     7.8770     7.7040     2.1710   -30.7560 
  138.6250    87.1490     9.1280     7.8150     7.6850     2.1740   -30.4580 
  138.7500    85.8440     9.0390     7.7160     7.7310     2.1860   -29.9770 
  138.8750    86.6730     8.8510     7.5540     7.7920     2.2090   -29.5700 
  139.0000    91.7770     8.5600     7.3220     7.7320     2.2400   -29.1320 
  139.1250    97.1650     8.2140     7.0490     7.4370     2.2680   -28.5750 
  139.2500    99.9600     7.9190     6.8050     7.0000     2.2880   -28.1920 
  139.3750   100.6950     7.7420     6.6440     6.7460     2.2950   -27.9280 
  139.5000   100.0760     7.7110     6.5900     6.6710     2.2900   -27.5940 
  139.6250    96.4850     7.8010     6.6410     6.7810     2.2780   -27.4060 
  139.7500    92.2210     7.9120     6.7240     7.0220     2.2670   -27.3220 
  139.8750    91.0160     7.9730     6.7820     7.2420     2.2630   -27.1560 
  140.0000    94.6060     7.9370     6.7640     7.2030     2.2670   -27.0750 
  140.1250   102.2770     7.7810     6.6350     6.8870     2.2770   -27.0420 
  140.2500   107.5010     7.5530     6.4270     6.6510     2.2860   -26.8830 
  140.3750   106.0740     7.2860     6.1690     6.3790     2.2890   -26.7380 
  140.5000    99.9290     7.0160     5.8960     6.1860     2.2890   -26.6170 
  140.6250    96.3030     6.7810     5.6450     6.0140     2.2920   -26.4460 
  140.7500    99.9570     6.6010     5.4340     5.8450     2.3020   -26.3610 
  140.8750   108.1150     6.4860     5.2720     5.6980     2.3200   -26.3120 
  141.0000   115.2470     6.4390     5.1630     5.5310     2.3410   -26.2570 
  141.1250   113.0980     6.4630     5.1150     5.5550     2.3560   -26.3400 
