~V
VERS. 2.00: Ver 2.00
~W
STRT.M 70.0000:
STOP.M 278.0000:
STEP.M 0.1250:
NULL. -999.2500:
UWI. DF3060:
~C
DEPT.M :
SP.MV :
GR.API :
RML.OHMM :
RI. :
RXO.OHMM :
CALI.CM :
DEN.GM/CC :
~A
# ...
  261.2500   -12.4770    62.9920    11.6740    10.5610     5.6540    23.2370     2.4400 
  261.3750   -12.5180    62.6310     8.5210     7.5860     4.4190    23.3030     2.4040 
  261.5000   -12.7180    63.9450     7.1500     6.2930     4.3330    23.3430     2.3750 
  261.6250   -13.0780    65.3630     7.0560     6.2040     4.7050    23.3540     2.3590 
  261.7500   -13.5700    66.7460     7.5680     6.6870     5.3350    23.3540     2.3570 
  261.8750   -14.1690    70.1640     8.3240     7.4000     6.0060    23.3540     2.3670 
  262.0000   -14.8240    75.2130     9.0270     8.0630     6.5340    23.3550     2.3780 
  262.1250   -15.4740    77.9130     9.4450     8.4560     6.7310    23.3560     2.3830 
  262.2500   -16.0840    77.4680     9.5870     8.5920     6.8170    23.3560     2.3800 
  262.3750   -16.6150    76.7180     9.5160     8.5300     6.8920    23.3560     2.3710 
  262.5000   -17.0850    78.3260     9.3290     8.3600     7.0430    23.3550     2.3620 
  262.6250   -17.4960    81.7150     9.1390     8.1730     7.3780    23.3540     2.3560 
  262.7500   -17.8360    84.4910     9.0380     8.0370     7.8630    23.3540     2.3530 
  262.8750   -18.0650    85.7790     9.0450     7.9730     8.1540    23.3540     2.3510 
  263.0000   -18.2240    85.9700     9.1320     7.9760     8.4720    23.3530     2.3480 
  263.1250   -18.3780    86.7400     9.2110     8.0190     9.0980    23.3500     2.3410 
  263.2500   -18.5500    88.9700     9.1400     8.0520     9.6730    23.3420     2.3330 
  263.3750   -18.7170    90.9210     8.9720     8.0490     9.8530    23.3250     2.3270 
  263.5000   -18.8430    89.9680     8.8100     8.0050     9.5630    23.2940     2.3250 
  263.6250   -18.9930    87.2680     8.7620     7.9460     9.1970    23.2500     2.3250 
  263.7500   -19.1790    86.6540     8.7850     7.9170     9.1150    23.2300     2.3250 
  263.8750   -19.4290    88.2230     8.8840     7.9480     9.1440    23.2260     2.3240 
  264.0000   -19.7280    89.2170     8.9980     8.0460     9.4210    23.2240     2.3230 
  264.1250   -19.9810    88.9970     9.1470     8.1880     9.9570    23.2230     2.3230 
  264.2500   -20.2040    89.2240     9.3030     8.3230    10.5410    23.2220     2.3250 
  264.3750   -20.4410    89.9060     9.4130     8.4270    11.0280    23.2200     2.3270 
  264.5000   -20.6530    90.3190     9.4870     8.4980    11.3110    23.2150     2.3280 
  264.6250   -20.7830    90.5600     9.5550     8.5610    11.8590    23.2010     2.3260 
  264.7500   -20.8570    90.8170     9.6470     8.6480    12.5310    23.1800     2.3240 
  264.8750   -20.8120    90.1120     9.7680     8.7620    12.9430    23.1590     2.3200 
  265.0000   -20.6680    87.9040     9.8910     8.8790    12.4550    23.1460     2.3160 
  265.1250   -20.4930    86.0120     9.9460     8.9300    11.4170    23.1360     2.3090 
  265.2500   -20.2230    85.2580     9.8770     8.8650    11.3680    23.1140     2.3010 
  265.3750   -19.8780    85.4570     9.6540     8.6550    11.3420    23.0770     2.2940 
  265.5000   -19.4900    86.7290     9.2910     8.3120    10.5910    23.0380     2.2920 
  265.6250   -19.1120    88.6800     8.8440     7.8910     9.2860    22.9840     2.2970 
  265.7500   -18.7520    89.7770     8.4200     7.4900     8.0120    22.9220     2.3050 
  265.8750   -18.5360    90.0080     8.0910     7.1800     7.5050    22.8800     2.3130 
  266.0000   -18.4100    89.9200     7.8990     6.9990     7.6850    22.8740     2.3180 
  266.1250   -18.3290    89.9580     7.8720     6.9740     8.0000    22.9030     2.3200 
  266.2500   -18.3300    90.0170     7.9550     7.0520     7.8140    22.9610     2.3200 
  266.3750   -18.3780    90.0760     8.1020     7.1900     7.3980    23.0440     2.3160 
  266.5000   -18.4710    90.3720     8.2630     7.3430     7.4150    23.1390     2.3080 
  266.6250   -18.5270    90.6980     8.3830     7.4560     7.5470    23.2320     2.2980 
  266.7500   -18.5070    90.3310     8.4300     7.5000     7.8630    23.3060     2.2920 
  266.8750   -18.3610    88.7520     8.3870     7.4580     7.8840    23.3380     2.2950 
  267.0000   -18.1440    87.4670     8.2570     7.3330     7.8270    23.3280     2.3050 
  267.1250   -17.9140    88.4790     8.0670     7.1640     7.9340    23.2870     2.3200 
  267.2500   -17.6900    89.9810     7.9290     7.0430     8.2660    23.2430     2.3330 
  267.3750   -17.4850    90.4400     7.9460     7.0640     8.6070    23.2250     2.3420 
  267.5000   -17.3390    89.9790     8.2580     7.3110     8.7810    23.2230     2.3470 
  267.6250   -17.2560    89.3510     8.9340     7.8620     9.2130    23.2290     2.3490 
  267.7500   -17.2320    88.8360     9.9020     8.6130    10.2010    23.2450     2.3480 
  267.8750   -17.2550    88.6210    10.9740     9.4260    11.6450    23.2840     2.3440 
  268.0000   -17.2990    88.6210    11.7920    10.1290    13.2700    23.3560     2.3400 
  268.1250   -17.4120    88.6210    12.2360    10.5320    13.6920    23.4570     2.3380 
  268.2500   -17.5370    88.6210    12.4140    10.6740    12.7800    23.5060     2.3410 
  268.3750   -17.6850    88.6210    12.4630    10.6830    11.8090    23.5320     2.3440 
  268.5000   -17.8270    88.6210    12.5280    10.7310    11.9300    23.5570     2.3420 
  268.6250   -17.9320    88.6210    12.6970    10.9560    12.4280    23.5470     2.3320 
  268.7500   -18.0310    88.6210    12.9050    11.2990    12.9230    23.4820     2.3170 
  268.8750   -18.1410    88.6210    13.0370    11.6270    13.0900    23.4090     2.3030 
  269.0000   -18.2270    88.6210    12.9780    11.7920    12.5620    23.3650     2.2940 
  269.1250   -18.1890    88.6210    12.6280    11.6540    11.8670    23.3560     2.2920 
  269.2500   -18.0740    88.6210    12.0640    11.2730    11.5970    23.3540     2.2940 
  269.3750   -17.8440    88.6210    11.3600    10.7190    12.1610    23.3540     2.2980 
  269.5000   -17.4790    88.6210    10.5800    10.0520    12.3930    23.3540     2.3020 
  269.6250   -16.9820    88.6210     9.7870     9.3050    11.4820    23.3550     2.3040 
  269.7500   -16.3220    88.6210     9.0560     8.5460     9.5260    23.3600     2.3040 
  269.8750   -15.5110    88.6210     8.4540     7.8480     7.1930    23.3770     2.3020 
  270.0000   -14.6500    88.6210     8.0260     7.2880     5.2940    23.4160     2.2970 
  270.1250   -13.7850    88.6210     7.8020     6.9400     4.1920    23.5080     2.2900 
  270.2500   -12.8980    88.6210     7.7040     6.7550     3.8970    23.6540     2.2830 
  270.3750   -12.0070    88.6210     7.6680     6.6800     3.7130    23.8100     2.2820 
  270.5000   -11.1860    88.6210     7.6450     6.6600     3.6150    23.9110     2.2900 
  270.6250   -10.5120    88.6210     7.6120     6.6600     3.5960    23.9390     2.3040 
  270.7500   -10.0050    88.6210     7.5760     6.6620     3.5720    23.9440     2.3180 
  270.8750    -9.6040    88.6210     7.5570     6.6680     3.5660    23.9440     2.3240 
  271.0000    -9.2210    88.6210     7.5590     6.6760     3.5740    23.9440     2.3180 
  271.1250    -8.8750    88.6210     7.5890     6.6870     3.4930    23.9440     2.3030 
  271.2500    -8.6440    88.6210     7.6290     6.6960     3.3020    23.9440     2.2810 
  271.3750    -8.5330    88.6210     7.6540     6.6980     3.0750    23.9430     2.2540 
  271.5000    -8.4250    88.6210     7.6590     6.6910     2.8940    23.9430     2.2250 
  271.6250    -8.3070    88.6210     7.6590     6.6800     2.9200    23.9420     2.1970 
  271.7500    -8.2290    88.6210     7.6580     6.6760     3.2990    23.9420     2.1710 
  271.8750    -8.2060    88.6210     7.6550     6.6850     3.9250    23.9390     2.1490 
  272.0000    -8.2200    88.6210     7.6520     6.7040     4.6720    23.9230     2.1320 
  272.1250    -8.2480    88.6210     7.6560     6.7230     5.3060    23.8540     2.1210 
  272.2500    -8.2350    88.6210     7.6810     6.7270     5.6890    23.6700     2.1140 
  272.3750    -8.2020    88.6210     7.7310     6.7150     5.9390    23.2400     2.1090 
