~V
VERS. 2.00: Ver 2.00
~W
STRT.M 60.0000:
STOP.M 258.0000:
STEP.M 0.1250:
NULL. -999.2500:
UWI. DF3032:
~C
DEPT.M :
GR.API :
RML.OHMM :
RI. :
RXO.OHMM :
CALI.CM :
DEN.GM/CC :
SP.MV :
~A
   60.0000  -999.2500  -999.2500  -999.2500  -999.2500  -999.2500  -999.2500    21.1430 
   60.1250  -999.2500  -999.2500  -999.2500  -999.2500  -999.2500  -999.2500    21.2110 
   60.2500  -999.2500  -999.2500  -999.2500  -999.2500  -999.2500  -999.2500    21.4080 
   60.3750  -999.2500  -999.2500  -999.2500  -999.2500  -999.2500  -999.2500    21.6230 
   60.5000  -999.2500  -999.2500  -999.2500  -999.2500  -999.2500  -999.2500    21.9180 
   60.6250  -999.2500  -999.2500  -999.2500  -999.2500  -999.2500  -999.2500    22.3040 
   60.7500  -999.2500  -999.2500  -999.2500  -999.2500  -999.2500  -999.2500    22.8610 
   60.8750  -999.2500  -999.2500  -999.2500  -999.2500  -999.2500  -999.2500    23.5370 
   61.0000  -999.2500  -999.2500  -999.2500  -999.2500  -999.2500  -999.2500    24.3410 
   61.1250  -999.2500  -999.2500  -999.2500  -999.2500  -999.2500  -999.2500    25.2820 
   61.2500  -999.2500  -999.2500  -999.2500  -999.2500  -999.2500  -999.2500    26.3370 
   61.3750  -999.2500  -999.2500  -999.2500  -999.2500  -999.2500  -999.2500    27.4870 
   61.5000  -999.2500  -999.2500  -999.2500  -999.2500  -999.2500  -999.2500    28.6680 
   61.6250  -999.2500  -999.2500  -999.2500  -999.2500  -999.2500  -999.2500    29.8080 
   61.7500  -999.2500  -999.2500  -999.2500  -999.2500  -999.2500  -999.2500    30.8200 
   61.8750  -999.2500  -999.2500  -999.2500  -999.2500  -999.2500  -999.2500    31.7030 
   62.0000  -999.2500  -999.2500  -999.2500  -999.2500  -999.2500  -999.2500    32.4580 
   62.1250  -999.2500  -999.2500  -999.2500  -999.2500  -999.2500  -999.2500    33.0470 
   62.2500  -999.2500  -999.2500  -999.2500  -999.2500  -999.2500  -999.2500    33.4840 
   62.3750  -999.2500  -999.2500  -999.2500  -999.2500  -999.2500  -999.2500    33.8150 
   62.5000     0.0000     0.0000     0.0000     0.0000     0.0000  -999.2500    34.0580 
   62.6250     0.0000     0.0000     0.0000     0.0000     0.0000  -999.2500    34.3090 
   62.7500     0.0000     0.0000     0.0000     0.0000     0.0000  -999.2500    34.5550 
   62.8750    42.8540    10.3470     1.9400 512404.5940    19.0000  -999.2500    34.8140 
   63.0000    60.6270    13.4600     2.5960    26.3820    25.3330  -999.2500    35.0280 
   63.1250    62.4650    13.0270     2.6080 50016.3910    25.3330  -999.2500    35.1930 
   63.2500    62.2580    12.5460     2.6280 79223.3280    25.3330  -999.2500    35.2810 
   63.3750    63.3860    12.0010     2.6640 108442.4300    25.3330  -999.2500    35.3420 
   63.5000    66.5670    11.4140     2.7170 683230.6250    25.3330  -999.2500    35.3880 
   63.6250    68.5990    10.8500     2.7840 12616.4670    25.3330  -999.2500    35.3700 
   63.7500    70.6170    10.3530     2.8510 50067.2970    25.3330  -999.2500    35.3940 
   63.8750    73.4280     9.9270     2.9080 93882.3910    25.3330  -999.2500    35.4510 
   64.0000    73.1730     9.5480     2.9530 108551.7030    25.3330  -999.2500    35.6380 
   64.1250    66.6660     9.1980     2.9880 512450.1250    25.3320  -999.2500    36.0590 
   64.2500    61.4620     8.9070     3.0250    90.8190    25.3190  -999.2500    36.7030 
   64.3750    61.5010     8.7350     3.0710    51.8530    25.2440  -999.2500    37.5170 
   64.5000    61.9440     8.7080     3.1180    73.2750    25.2070  -999.2500    38.4460 
   64.6250    58.8530     8.7220     3.1140    84.6870    25.2000  -999.2500    39.5030 
   64.7500    55.8780     8.5120     2.9970    83.2150    25.2000  -999.2500    40.4510 
   64.8750    53.7190     7.8050     2.7070    97.9140    25.2000  -999.2500    41.2840 
   65.0000    51.1310     6.4420     2.2210   118.2340    25.2000  -999.2500    41.7600 
   65.1250    49.3150     4.5230     1.5850   120.0620    25.2000  -999.2500    41.5690 
   65.2500    50.3670     2.6980     0.9850    41.8910    25.2000  -999.2500    40.5670 
   65.3750    53.7170     1.4120     0.5490     7.5510    25.2000  -999.2500    38.6310 
   65.5000    57.7980     0.7190     0.3010     1.9230    25.2000  -999.2500    35.7240 
   65.6250    62.8810     0.5180     0.2240     1.6310    25.1970  -999.2500    31.6620 
   65.7500    69.7500     0.6380     0.2940     2.1670    25.1690  -999.2500    26.7640 
   65.8750    75.9670     1.0780     0.5700     3.4660    24.9990  -999.2500    21.1970 
   66.0000    80.4840     1.8460     1.1300     5.5860    24.7870  -999.2500    15.3930 
   66.1250    84.7610     2.9100     2.0720     7.7850    24.5120  -999.2500     9.6300 
   66.2500    90.5470     4.0310     3.2590     9.0730    24.1680  -999.2500     4.2940 
   66.3750    95.0780     4.9820     4.4960     9.4970    23.9930  -999.2500    -0.4790 
   66.5000    93.4730     5.6130     5.5480     9.6560    23.6290  -999.2500    -4.5780 
   66.6250    88.1540     5.9180     6.2370     9.5290    23.3420  -999.2500    -7.8570 
   66.7500    85.0330     6.1270     6.6930     8.9610    22.9230  -999.2500   -10.4400 
   66.8750    85.5920     6.3790     7.0570     8.2370    22.4770  -999.2500   -12.4880 
   67.0000    87.8830     6.7280     7.4390     8.0070    21.9160  -999.2500   -14.2390 
   67.1250    86.9650     7.1760     7.9040     8.4980    21.5720  -999.2500   -15.6830 
   67.2500    84.6540     7.6630     8.4260     8.8800    21.5660  -999.2500   -16.9860 
   67.3750    83.7740     8.1330     8.9460     9.1970    21.7000  -999.2500   -18.1010 
   67.5000    85.7940     8.5310     9.3860     9.3320    21.6780  -999.2500   -19.0610 
   67.6250    87.4740     8.8070     9.6650     9.2030    21.6590  -999.2500   -19.8180 
   67.7500    85.2840     8.9770     9.7990     9.0440    21.6140  -999.2500   -20.3580 
   67.8750    79.9630     9.0570     9.8050     8.9420    21.5410  -999.2500   -20.6830 
   68.0000    74.8620     9.0450     9.6900     8.6000    21.4710  -999.2500   -20.7760 
   68.1250    75.8120     8.8770     9.4050     8.2680    21.4570  -999.2500   -20.7150 
   68.2500    81.3860     8.5260     8.9480     8.1200    21.6280  -999.2500   -20.5690 
   68.3750    86.4640     7.9960     8.3370     8.0880    22.0490  -999.2500   -20.3990 
   68.5000    90.9580     7.3780     7.6630     7.9210    22.4680  -999.2500   -20.2270 
   68.6250   100.3070     6.9150     7.1420     7.7230    22.7260  -999.2500   -20.1060 
   68.7500   109.1530     6.8750     7.0070     7.2820    22.6750  -999.2500   -20.1720 
   68.8750   109.5730     7.4860     7.4790     7.0250    22.4670  -999.2500   -20.4020 
   69.0000   101.7390     8.8520     8.6820     7.4670    22.3990  -999.2500   -20.8310 
   69.1250    91.6700    10.8460    10.5850     8.8990    22.7060  -999.2500   -21.4130 
   69.2500    82.4170    12.8320    12.6130    10.9110    22.7890  -999.2500   -22.1340 
   69.3750    75.0540    14.1370    14.1360    13.5010    22.5670  -999.2500   -22.9520 
   69.5000    71.8460    14.2900    14.5850    16.9160    22.2860  -999.2500   -23.8890 
   69.6250    73.9750    13.0180    13.6690    18.4870    22.1010  -999.2500   -24.8080 
   69.7500    78.4150    11.2420    12.1570    14.0520    22.0910  -999.2500   -25.6590 
   69.8750    82.2510     9.7730    10.7020    10.4650    22.1920  -999.2500   -26.3690 
   70.0000    83.0320     8.9330     9.6800     9.2960    22.3200  -999.2500   -26.9530 
   70.1250    80.8890     8.7080     9.2320     9.3430    22.4570  -999.2500   -27.3470 
   70.2500    78.9450     8.8370     9.1460     9.4480    22.6020  -999.2500   -27.5820 
   70.3750    78.3420     9.1230     9.2530     9.4460    22.7240  -999.2500   -27.6610 
   70.5000    77.6750     9.4000     9.4020     9.2990    22.7850  -999.2500   -27.5700 
   70.6250    76.8370     9.5450     9.4830     9.0450    22.8090  -999.2500   -27.4430 
   70.7500    77.3140     9.5650     9.4870     8.8710    22.8080  -999.2500   -27.2950 
   70.8750    79.0040     9.5070     9.4410     8.8850    22.7610  -999.2500   -27.2020 
   71.0000    79.6850     9.4330     9.3810     8.9540    22.7070  -999.2500   -27.1060 
   71.1250    78.4410     9.4070     9.3460     9.1120    22.7290  -999.2500   -27.1120 
