~V
VERS. 2.00: Ver 2.00
~W
STRT.M 60.0000:
STOP.M 232.0000:
STEP.M 0.1250:
NULL. -999.2500:
UWI. DF3065:
~C
DEPT.M :
GR.API :
CALI.CM :
RXO.OHMM :
RI. :
RML.OHMM :
DEN.GM/CC :
SP.MV :
~A
# ...
  217.5000    68.9060    23.9720    21.6950    23.1130    25.9940     2.3820   -10.3140 
  217.6250    74.1480    24.3360    19.9110    21.9980    24.9870     2.4090   -10.2790 
  217.7500    76.2270    24.4080    19.4130    21.2450    24.4500     2.4130   -10.2360 
  217.8750    75.7420    24.4500    19.8250    21.0240    24.5950     2.3930   -10.1960 
  218.0000    75.0190    24.4620    22.5010    21.4020    25.4720     2.3660   -10.1520 
  218.1250    74.1530    24.4310    25.5680    22.4560    27.1090     2.3440   -10.1570 
  218.2500    71.9130    24.4360    29.1500    23.9350    29.1330     2.3340   -10.1960 
  218.3750    68.3250    24.4490    32.5890    25.5830    31.1960     2.3300   -10.2450 
  218.5000    66.2510    24.4240    32.9980    27.1140    32.9620     2.3220   -10.3030 
  218.6250    68.0890    24.4750    33.0550    28.2050    34.1210     2.3140   -10.3820 
  218.7500    70.1980    24.5820    33.8100    28.8060    34.7170     2.3120   -10.4540 
  218.8750    69.6640    24.5800    32.9440    28.9860    34.8920     2.3120   -10.5040 
  219.0000    67.4580    24.4450    31.9840    28.9250    34.8600     2.3090   -10.5270 
  219.1250    65.6250    24.4990    31.8000    28.8690    34.9280     2.3000   -10.4920 
  219.2500    66.4670    24.5950    31.9940    28.9770    35.2710     2.2880   -10.4160 
  219.3750    67.8590    24.6420    30.3600    29.3530    35.9630     2.2830   -10.3430 
  219.5000    67.8090    24.6300    31.5830    29.9480    36.9300     2.2870   -10.2690 
  219.6250    67.7850    24.6030    33.3490    30.7320    38.0510     2.2930   -10.1750 
  219.7500    68.9380    24.5120    35.1900    31.5830    39.1360     2.2930   -10.0850 
  219.8750    69.3870    24.4630    36.7830    32.3510    39.9810     2.2880   -10.0100 
  220.0000    69.3870    24.6180    38.8320    32.8760    40.4600     2.2850    -9.9770 
  220.1250    69.3870    24.5960    39.8870    33.0920    40.5190     2.2840    -9.9740 
  220.2500    69.3870    24.4710    40.5180    33.1060    40.3180     2.2810    -9.9960 
  220.3750    69.3870    24.5390    40.1810    33.0340    40.0210     2.2770   -10.0190 
  220.5000    69.3870    24.5810    36.6140    33.0360    39.8830     2.2750   -10.0560 
  220.6250    69.3870    24.5240    34.7050    33.2870    40.1540     2.2730   -10.1080 
  220.7500    69.3870    24.6240    36.3260    33.7050    40.6900     2.2670   -10.1440 
  220.8750    69.3870    24.6070    39.3040    34.2830    41.4030     2.2590   -10.1260 
  221.0000    69.3870    24.5080    40.7640    34.9410    42.1210     2.2590   -10.0570 
  221.1250    69.3870    24.6480    41.1000    35.1770    42.2150     2.2650    -9.9610 
  221.2500    69.3870    24.6470    38.7840    34.5550    41.2890     2.2730    -9.8420 
  221.3750    69.3870    24.6580    33.1540    32.9620    39.2730     2.2730    -9.7360 
  221.5000    69.3870    24.6810    32.8840    30.5440    36.3020     2.2650    -9.6150 
  221.6250    69.3870    24.6820    32.7980    27.5410    32.6290     2.2580    -9.5100 
  221.7500    69.3870    24.6680    26.8660    24.5110    28.9530     2.2590    -9.4120 
  221.8750    69.3870    24.6150    18.7310    21.8720    25.7870     2.2720    -9.3640 
  222.0000    69.3870    24.5470    16.2620    19.9240    23.4810     2.2910    -9.3700 
  222.1250    69.3870    24.5000    17.5550    19.0000    22.5260     2.3080    -9.4060 
  222.2500    69.3870    24.4330    18.3490    19.0380    22.8510     2.3130    -9.4430 
  222.3750    69.3870    24.5020    19.1210    20.0350    24.4090     2.3020    -9.4610 
  222.5000    69.3870    24.5470    22.6510    22.0060    27.1490     2.2840    -9.4700 
  222.6250    69.3870    24.6420    30.2540    25.0760    31.0030     2.2700    -9.4860 
  222.7500    69.3870    24.6160    38.3310    28.6730    35.0850     2.2600    -9.5270 
  222.8750    69.3870    24.5440    42.4460    32.0380    38.5340     2.2510    -9.5920 
  223.0000    69.3870    24.4230    40.2880    34.3750    40.6400     2.2390    -9.6530 
  223.1250    69.3870    24.4040    36.6850    34.8040    40.6680     2.2290    -9.7480 
  223.2500    69.3870    24.3720    34.1900    33.5230    38.9340     2.2270    -9.8960 
  223.3750    69.3870    24.3340    28.7520    30.9390    35.8590     2.2340   -10.0710 
  223.5000    69.3870    24.1320    25.2570    27.8770    32.3310     2.2450   -10.2740 
  223.6250    69.3870    24.1210    23.4060    25.1590    29.3450     2.2590   -10.4310 
  223.7500    69.3870    24.2270    22.7200    23.2390    27.4480     2.2800   -10.5390 
  223.8750    69.3870    24.1870    23.0740    22.2840    26.8110     2.2990   -10.6110 
  224.0000    69.3870    24.2610    24.4500    22.1800    27.2640     2.3030   -10.6730 
  224.1250    69.3870    24.2790    25.9610    23.0440    28.8900     2.2910   -10.7180 
  224.2500    69.3870    24.2410    30.3720    24.6140    31.2380     2.2730   -10.7880 
  224.3750    69.3870    24.2240    35.0530    26.6260    33.9280     2.2630   -10.8090 
  224.5000    69.3870    24.2510    33.7720    28.7640    36.5640     2.2620   -10.8530 
  224.6250    69.3870    24.3620    31.9210    30.7920    38.8490     2.2640   -10.9190 
  224.7500    69.3870    24.3490    33.4800    32.6080    40.7180     2.2700   -11.0270 
  224.8750    69.3870    24.3370    38.5930    34.0620    42.0680     2.2910   -11.1600 
  225.0000    69.3870    24.1390    40.6100    35.2740    43.0660     2.3320   -11.2740 
  225.1250    69.3870    24.1560    46.2920    36.2810    43.7830     2.3840   -11.3830 
  225.2500    69.3870    24.2690    50.8920    37.1320    44.3630     2.4320   -11.4040 
  225.3750    69.3870    24.4070    51.5590    37.8770    44.8860     2.4570   -11.4770 
  225.5000    69.3870    24.5880    49.3060    38.4420    45.2760     2.4600   -11.5180 
  225.6250    69.3870    24.3500    48.8890    38.7000    45.4570     2.4530   -11.5720 
  225.7500    69.3870    24.3310    48.6160    38.7340    45.4850     2.4500   -11.5950 
  225.8750    69.3870    24.3730    47.1600    38.7340    45.4850     2.4470   -11.5960 
  226.0000    69.3870    24.4560    45.0290    38.7340    45.4850     2.4310   -11.6020 
  226.1250    69.3870    24.6290    43.0300    38.7340    45.4850     2.4030   -11.6510 
  226.2500    69.3870    24.5580    40.8980    38.7340    45.4850     2.3770   -11.6630 
  226.3750    69.3870    24.4410    40.2410    38.7340    45.4850     2.3620   -11.6110 
  226.5000    69.3870    24.4060    42.8740    38.7340    45.4850     2.3490   -11.6190 
  226.6250    69.3870    24.4580    46.5470    38.7340    45.4850     2.3380   -11.6020 
  226.7500    69.3870    24.4320    44.5040    38.7340    45.4850     2.3340   -11.5980 
  226.8750    69.3870    24.3340    39.4710    38.7340    45.4850     2.3520   -11.6140 
  227.0000    69.3870    24.1030    40.8610    38.7340    45.4850     2.3840   -11.6080 
  227.1250    69.3870    24.0120    43.2560    38.7340    45.4850     2.4140   -11.5840 
  227.2500    69.3870    24.2140    42.6470    38.7340    45.4850     2.4160   -11.5640 
  227.3750    69.3870    24.3310    37.5250    38.7340    45.4850     2.3680   -11.5960 
  227.5000    69.3870    24.3500    28.0160    38.7340    45.4850     2.3000   -11.5960 
  227.6250    69.3870    24.2180    17.7920    38.7340    45.4850     2.2500   -11.5960 
  227.7500    69.3870    24.0820    12.2080    38.7340    45.4850     2.2450  -999.2500 
  227.8750    69.3870    23.6770    11.5660    38.7340    45.4850     2.2910  -999.2500 
  228.0000    69.3870    23.6070    11.0650    38.7340    45.4850     2.3540  -999.2500 
  228.1250    69.3870    23.6710    11.2560    38.7340    45.4850     2.3970  -999.2500 
  228.2500    69.3870    23.6460    10.8420    38.7340    45.4850     2.3980  -999.2500 
  228.3750    69.3870    23.6300     9.7270    38.7340    45.4850     2.3750  -999.2500 
  228.5000    69.3870    23.7040     9.5600    38.7340    45.4850     2.3680  -999.2500 
  228.6250    69.3870    23.6440     9.9640    38.7340    45.4850     2.3800  -999.2500 
