~V
VERS. 2.00: Ver 2.00
~W
STRT.M 55.0000:
STOP.M 272.0000:
STEP.M 0.1250:
NULL. -999.2500:
UWI. DF3078:
~C
DEPT.M :
GR.API :
CALI.CM :
RXO.OHMM :
RI. :
RML.OHMM :
DEN.GM/CC :
SP.MV :
~A
# ...
  167.5000    68.4830    24.9640    16.7830    15.0310    16.7180     2.5780    -4.7700 
  167.6250    68.6900    24.9830    17.0840    15.2290    17.0650     2.5650    -4.8160 
  167.7500    67.4730    24.9610    17.3320    15.4240    17.3510     2.5470    -4.8590 
  167.8750    66.7430    24.9330    17.1730    15.4650    17.4030     2.5320    -4.8830 
  168.0000    64.8830    24.9310    16.8380    15.2790    17.1650     2.5270    -4.9170 
  168.1250    60.7740    24.9170    16.1260    14.8930    16.7120     2.5260    -4.9430 
  168.2500    60.3750    24.9220    15.3600    14.4790    16.2680     2.5260    -4.9590 
  168.3750    64.2120    24.9470    14.9470    14.1580    15.9620     2.5340    -4.9810 
  168.5000    66.2260    24.9640    14.9740    13.9960    15.8470     2.5560    -4.9780 
  168.6250    62.6050    24.9590    15.2550    14.0300    15.9310     2.5740    -4.9810 
  168.7500    60.8550    24.9370    15.6410    14.1910    16.1200     2.5690    -4.9560 
  168.8750    64.8460    24.9130    15.9910    14.4020    16.3270     2.5450    -4.9270 
  169.0000    68.5460    24.8920    16.1260    14.5730    16.4650     2.5230    -4.8980 
  169.1250    67.2430    24.8880    16.2720    14.6340    16.4760     2.5290    -4.8540 
  169.2500    65.9250    24.9030    16.7750    14.6110    16.4000     2.5560    -4.8130 
  169.3750    66.4870    24.9460    16.9950    14.5330    16.2610     2.5830    -4.7670 
  169.5000    67.4840    24.9920    16.5800    14.3990    16.0480     2.5980    -4.7460 
  169.6250    66.2750    25.0280    16.2080    14.1480    15.6840     2.5990    -4.7210 
  169.7500    64.8690    25.0320    16.3190    13.7380    15.1320     2.5950    -4.7030 
  169.8750    64.1270    25.0110    15.9920    13.1420    14.3900     2.5860    -4.6940 
  170.0000    63.2980    24.9930    14.5920    12.4010    13.5360     2.5670    -4.6730 
  170.1250    62.1850    24.9870    12.9880    11.6400    12.7450     2.5430    -4.6860 
  170.2500    61.8010    24.9850    11.8780    11.0080    12.1610     2.5250    -4.6970 
  170.3750    62.6110    24.9730    11.2320    10.5990    11.8620     2.5210    -4.7310 
  170.5000    62.5260    24.9570    10.7360    10.4570    11.8660     2.5290    -4.7580 
  170.6250    59.9710    24.8930    10.5100    10.6110    12.1530     2.5400    -4.7920 
  170.7500    56.9510    24.7780    10.7650    10.9400    12.5620     2.5530    -4.8310 
  170.8750    55.9650    24.6440    11.3880    11.3390    12.9650     2.5700    -4.8750 
  171.0000    58.3340    24.6150    12.0690    11.6980    13.2530     2.5860    -4.9290 
  171.1250    60.8600    24.7240    12.5410    11.9000    13.3210     2.5900    -4.9640 
  171.2500    61.5340    24.8920    12.6000    11.9310    13.2100     2.5820    -5.0170 
  171.3750    60.7880    24.9980    12.3980    11.8400    13.0120     2.5690    -5.0570 
  171.5000    58.8090    25.0290    12.3500    11.7370    12.8690     2.5590    -5.1000 
  171.6250    57.8870    25.0340    12.5550    11.7770    12.9480     2.5540    -5.1560 
  171.7500    58.9880    25.0430    12.8460    12.0220    13.2830     2.5550    -5.2400 
  171.8750    59.9770    25.0420    13.0860    12.4800    13.8470     2.5660    -5.3650 
  172.0000    58.1750    25.0280    13.5450    13.0910    14.5340     2.5870    -5.5270 
  172.1250    56.9080    25.0030    14.1430    13.6950    15.1300     2.5950    -5.7570 
  172.2500    60.2180    24.9800    14.2720    14.0960    15.4390     2.5770    -6.0360 
  172.3750    64.3550    24.9600    13.7480    14.1670    15.3560     2.5390    -6.3740 
  172.5000    65.8570    24.9250    13.1300    13.8740    14.8940     2.5050    -6.7890 
  172.6250    66.9480    24.9630    12.7020    13.2480    14.1450     2.4860    -7.3030 
  172.7500    69.5110    25.0340    12.3460    12.4940    13.3520     2.4750    -7.9120 
  172.8750    72.7510    25.1190    11.9330    11.7990    12.7400     2.4660    -8.5930 
  173.0000    76.5380    25.0890    11.4720    11.3730    12.5490     2.4570    -9.3700 
  173.1250    81.0940    24.9510    11.1310    11.5230    13.1540     2.4400   -10.2080 
  173.2500    83.2720    24.8240    11.4340    12.3660    14.6380     2.4120   -11.0900 
  173.3750    80.9240    24.7740    13.4970    14.0440    17.0690     2.3780   -11.9800 
  173.5000    77.0050    24.8550    18.3740    16.6270    20.3660     2.3510   -12.8710 
  173.6250    75.2850    24.9870    24.4070    20.0810    24.2640     2.3320   -13.7280 
  173.7500    76.1870    25.0650    28.8330    23.8040    28.0660     2.3140   -14.5270 
  173.8750    78.8420    25.1060    31.4330    27.2040    31.1730     2.2950   -15.2710 
  174.0000    81.6810    25.1730    34.2690    29.7710    33.1800     2.2780   -15.9150 
  174.1250    81.9880    25.2710    37.1660    31.0970    33.8540     2.2630   -16.4730 
  174.2500    80.8990    25.2830    38.9880    31.4430    33.6150     2.2490   -16.9520 
  174.3750    80.1360    25.1930    38.7200    30.9880    32.7050     2.2460   -17.3760 
  174.5000    79.1650    25.0460    35.7860    29.9550    31.4000     2.2590   -17.7450 
  174.6250    77.5610    24.8540    30.3220    28.7430    30.1830     2.2810   -18.0360 
  174.7500    77.4550    24.6240    24.8140    27.9140    29.5810     2.2960   -18.2880 
  174.8750    79.0970    24.4860    21.0310    27.8850    29.9720     2.3000   -18.4940 
  175.0000    79.6440    24.5060    20.3440    28.9520    31.5760     2.3000   -18.6840 
  175.1250    75.9980    24.6490    24.6090    31.4780    34.6220     2.3040   -18.8470 
  175.2500    72.3470    24.7990    32.7820    35.1200    38.6230     2.3060   -18.9980 
  175.3750    70.9220    24.8800    42.0260    39.3820    42.9810     2.3000   -19.1490 
  175.5000    71.7540    24.8910    48.5310    43.4410    46.8240     2.2870   -19.2820 
  175.6250    71.9330    24.8580    50.6850    46.1730    49.0900     2.2770   -19.4240 
  175.7500    71.0180    24.8290    50.3030    47.5040    50.0210     2.2780   -19.5540 
  175.8750    71.3100    24.8800    48.5340    48.0630    50.5240     2.2890   -19.6880 
  176.0000    72.1810    24.9910    44.9070    48.9440    51.8080     2.3080   -19.8010 
  176.1250    71.5750    25.1120    40.7500    51.6600    55.3380     2.3190   -19.9230 
  176.2500    70.5590    25.1170    41.6600    56.8610    61.4780     2.3160   -20.0260 
  176.3750    71.0110    24.9590    53.4340    64.8360    70.3590     2.3040   -20.1030 
  176.5000    72.2340    24.7730    74.8700    75.1980    81.5150     2.2930   -20.1730 
  176.6250    71.1910    24.6750    91.1010    86.6300    93.5050     2.2890   -20.2030 
  176.7500    68.1390    24.6420    98.2670    96.8330   103.8640     2.2830   -20.2280 
  176.8750    67.1580    24.6090   101.3060   104.1820   110.8110     2.2750   -20.2200 
  177.0000    69.5570    24.5640   107.0640   108.0380   113.8000     2.2710   -20.1970 
  177.1250    72.2060    24.5200   112.6340   108.4830   113.2420     2.2780   -20.1450 
  177.2500    71.4340    24.4850   109.9000   107.1780   111.1000     2.2890   -20.0750 
  177.3750    68.3280    24.4640   100.3670   105.1070   108.4330     2.2920   -20.0000 
  177.5000    67.9810    24.4280    91.4070   103.0190   105.9160     2.2850   -19.8980 
  177.6250    69.3690    24.3430    88.1440   102.0570   102.8540     2.2750   -19.8080 
  177.7500    70.1990    24.2360    87.2740   102.0300    98.1550     2.2690   -19.6850 
  177.8750    70.7160    24.1340    84.2460    97.6740    95.2230     2.2650   -19.5520 
  178.0000    69.9950    24.0170    77.1580    91.2910    90.5430     2.2630   -19.4040 
  178.1250    68.0680    23.9060    65.5010    83.2680    83.9620     2.2700   -19.2530 
  178.2500    66.8470    23.8120    51.7400    75.3830    76.9020     2.2820   -19.0990 
  178.3750    69.2890    23.7300    40.9660    68.9310    70.6900     2.2880   -18.9360 
  178.5000    72.1860    23.6730    38.0970    64.6160    66.2890     2.2790   -18.7820 
  178.6250    70.2460    23.7360    44.9910    62.8260    64.4100     2.2620   -18.6450 
