~V
VERS. 2.00: Ver 2.00
~W
STRT.M 55.0000:
STOP.M 272.0000:
STEP.M 0.1250:
NULL. -999.2500:
UWI. DF3078:
~C
DEPT.M :
GR.API :
CALI.CM :
RXO.OHMM :
RI. :
RML.OHMM :
DEN.GM/CC :
SP.MV :
~A
# ...
  257.5000    94.2120    21.2540     9.6780     8.5470     9.3080     2.3060   -15.7810 
  257.6250    93.6900    20.9710     8.4960     8.2160     8.7520     2.3200   -15.6470 
  257.7500    92.1630    20.8030     7.4040     7.7220     8.1270     2.3460   -15.4420 
  257.8750    88.3330    20.6720     7.0990     7.2410     7.6300     2.3740   -15.2100 
  258.0000    84.7000    20.5750     7.3180     6.9030     7.3690     2.3920   -15.0060 
  258.1250    84.4360    20.5400     7.7370     6.8070     7.3960     2.3850   -14.9020 
  258.2500    85.4700    20.5350     8.2760     6.9110     7.6180     2.3660   -14.9140 
  258.3750    87.2130    20.5350     8.7760     7.1600     7.9590     2.3510   -15.0640 
  258.5000    89.3960    20.5490     8.8760     7.4810     8.3400     2.3470   -15.3600 
  258.6250    88.4700    20.6790     8.8020     7.8090     8.7110     2.3410   -15.8160 
  258.7500    87.0920    21.0740     9.1090     8.1260     9.0780     2.3210   -16.3970 
  258.8750    88.4210    21.7080     9.7950     8.4660     9.4900     2.2960   -17.0830 
  259.0000    89.7870    22.2170    10.6990     8.8870    10.0130     2.2830   -17.8550 
  259.1250    88.3980    22.4100    11.9550     9.4700    10.7270     2.2880   -18.6450 
  259.2500    87.9140    22.4530    13.4990    10.2070    11.5900     2.2920   -19.4160 
  259.3750    90.6350    22.4640    15.2980    11.0590    12.5270     2.2800   -20.1470 
  259.5000    94.0820    22.4520    16.7590    11.9600    13.4440     2.2600   -20.8010 
  259.6250    93.2700    22.4420    17.2160    12.8290    14.2590     2.2440   -21.3650 
  259.7500    91.1510    22.4570    17.5780    13.6390    14.9890     2.2310   -21.8230 
  259.8750    89.5280    22.5660    18.9910    14.4130    15.6850     2.2140   -22.1250 
  260.0000    87.8510    22.9160    21.3980    15.2060    16.4110     2.2070   -22.2590 
  260.1250    87.2970    23.5150    23.6780    16.0980    17.2310     2.2320   -22.2670 
  260.2500    87.4450    24.1060    25.4960    17.1010    18.1450     2.2750   -22.1700 
  260.3750    87.7060    24.4120    26.9800    18.1900    19.1240     2.3150   -21.9690 
  260.5000    88.7680    24.4850    28.5040    19.2690    20.0700     2.3450   -21.7040 
  260.6250    90.8640    24.5080    29.0610    20.0450    20.6410     2.3630   -21.3180 
  260.7500    91.6910    24.5380    28.2480    20.1510    20.4170     2.3680   -20.8350 
  260.8750    90.2330    24.5040    25.8400    19.2360    19.0550     2.3560   -20.3050 
  261.0000    90.4420    24.4120    21.7280    17.2400    16.6170     2.3370   -19.7210 
  261.1250    92.0750    24.2910    16.7580    14.5070    13.6560     2.3280   -19.0810 
  261.2500    92.0750    24.2190    11.8610    11.8250    10.9790     2.3320   -18.4740 
  261.3750    92.0750    24.2170     8.7300     9.6280     8.9580     2.3430   -17.9860 
  261.5000    92.0750    24.2860     7.6840     8.0900     7.6870     2.3600   -17.6230 
  261.6250    92.0750    24.3510     7.6710     7.3030     7.1930     2.3710   -17.4580 
  261.7500    92.0750    24.3580     7.9270     7.0550     7.2130     2.3630   -17.4860 
  261.8750    92.0750    24.3280     8.2990     7.2280     7.5870     2.3350   -17.6730 
  262.0000    92.0750    24.2900     8.7190     7.6590     8.1240     2.3000   -17.9830 
  262.1250    92.0750    24.2770     9.1090     8.1180     8.5610     2.2730   -18.3580 
  262.2500    92.0750    24.2770     9.0660     8.3730     8.7090     2.2600   -18.7090 
  262.3750    92.0750    24.2610     8.4340     8.3150     8.5020     2.2590   -18.9500 
  262.5000    92.0750    24.2380     7.5820     7.9700     8.0170     2.2700   -19.1170 
  262.6250    92.0750    24.2690     7.3460     7.4860     7.4580     2.2880   -19.2380 
  262.7500    92.0750    24.3230     7.6170     7.0890     7.0650     2.3060   -19.3060 
  262.8750    92.0750    24.3520     8.2200     6.9180     6.9790     2.3190   -19.3520 
  263.0000    92.0750    24.3270     9.0240     7.0600     7.2740     2.3230   -19.4220 
  263.1250    92.0750    24.2880    10.4480     7.6240     8.0290     2.3160   -19.5200 
  263.2500    92.0750    24.2950    12.6670     8.5270     9.1110     2.3020   -19.6150 
  263.3750    92.0750    24.3670    15.0400     9.6440    10.3430     2.2920   -19.7140 
  263.5000    92.0750    24.4710    16.4240    10.7110    11.4010     2.2990   -19.7520 
  263.6250    92.0750    24.5260    15.4990    11.2640    11.7860     2.3280   -19.6470 
  263.7500    92.0750    24.4830    12.7700    11.1960    11.4970     2.3530   -19.4130 
  263.8750    92.0750    24.3690     9.6360    10.6820    10.8000     2.3600   -19.0520 
  264.0000    92.0750    24.2370     7.5360    10.0480    10.0650     2.3480   -18.5990 
  264.1250    92.0750    24.1960     6.9060     9.5890     9.5930     2.3280   -18.1430 
  264.2500    92.0750    24.1670     6.8960     9.3520     9.3770     2.3070   -17.7480 
  264.3750    92.0750    24.1440     7.3690     9.2750     9.3270     2.2870   -17.4170 
  264.5000    92.0750    24.1320     8.4690     9.2710     9.3430     2.2800   -17.1530 
  264.6250    92.0750    24.1320     9.7440     9.2810     9.3660     2.2950   -16.9610 
  264.7500    92.0750    24.1320    10.0500     9.2880     9.3830     2.3150   -16.8020 
  264.8750    92.0750    24.1320     9.5170     9.2910     9.3900     2.3220   -16.6760 
  265.0000    92.0750    24.1270     8.8900     9.2940     9.3940     2.3190   -16.5800 
  265.1250    92.0750    24.1110     7.8780     9.2970     9.4020     2.3190   -16.4970 
  265.2500    92.0750    24.1030     6.7330     9.2980     9.4150     2.3280   -16.4150 
  265.3750    92.0750    24.1390     6.1080     9.2950     9.4300     2.3380   -16.3140 
  265.5000    92.0750    24.2140     6.1780     9.2910     9.4400     2.3460   -16.2140 
  265.6250    92.0750    24.2440     6.5310     9.2910     9.4480     2.3540   -16.1380 
  265.7500    92.0750    24.2260     6.7740     9.2970     9.4580     2.3620   -16.1100 
  265.8750    92.0750    24.1680     6.9610     9.3050     9.4700     2.3610   -16.1240 
  266.0000    92.0750    24.1030     7.2580     9.3090     9.4810     2.3470   -16.1410 
  266.1250    92.0750    24.0600     7.7210     9.3070     9.4880     2.3260   -16.1360 
  266.2500    92.0750    24.0290     7.9900     9.3020     9.4940     2.3100   -16.1130 
  266.3750    92.0750    24.0160     7.8500     9.3000     9.5020     2.3060   -16.0990 
  266.5000    92.0750    24.0160     7.4580     9.3050     9.5130     2.3150   -16.0860 
  266.6250    92.0750    24.0180     7.1380     9.3160     9.5260     2.3270   -16.0800 
  266.7500    92.0750    24.0170     7.0740     9.3300     9.5380     2.3320   -16.0770 
  266.8750    92.0750    24.0100     7.2420     9.3410     9.5500     2.3280   -16.0600 
  267.0000    92.0750    23.9910     7.3530     9.3470     9.5640     2.3260   -16.0550 
  267.1250    92.0750    23.9530     7.2030     9.3480     9.5760     2.3350   -16.0870 
  267.2500    92.0750    23.9140     6.9990     9.3480     9.5760     2.3450   -16.1190 
  267.3750    92.0750    23.8770     7.0340     9.3480     9.5760     2.3450   -16.1330 
  267.5000    92.0750    23.8710     7.0580     9.3480     9.5760     2.3300   -16.1470 
  267.6250    92.0750    23.8290     7.6740     9.3480     9.5760     2.3100   -16.1800 
  267.7500    92.0750    23.8240     8.7800     9.3480     9.5760     2.2990   -16.2260 
  267.8750    92.0750    23.8290    10.9920     9.3480     9.5760     2.2970   -16.2670 
  268.0000    92.0750    23.8450    13.9340     9.3480     9.5760     2.2890   -16.2750 
  268.1250    92.0750    23.8760    15.9960     9.3480     9.5760     2.2670   -16.2750 
  268.2500    92.0750    23.8590    15.3190     9.3480     9.5760     2.2450  -999.2500 
  268.3750    92.0750    23.7360    13.5310     9.3480     9.5760     2.2170  -999.2500 
  268.5000    92.0750    23.4390    11.8880     9.3480     9.5760     2.1480  -999.2500 
  268.6250    92.0750    22.9820    10.4550     9.3480     9.5760     1.9960  -999.2500 
