~V
VERS. 2.00: Ver 2.00
~W
STRT.M 130.0000:
STOP.M 271.0000:
STEP.M 0.1250:
NULL. -999.2500:
UWI. DF3076:
~C
DEPT.M :
DEN.GM/CC :
GR.API :
CALI.CM :
RXO.OHMM :
RI. :
RML.OHMM :
SP.MV :
~A
# ...
  253.7500     2.2970    71.0070    26.1060     4.3900     3.8620     5.4150    -6.5700 
  253.8750     2.3100    67.3390    26.1510     4.4430     3.9180     5.4830    -6.5830 
  254.0000     2.3230    64.3780    25.9560     4.5700     3.9850     5.5550    -6.5940 
  254.1250     2.3290    64.4650    25.2110     4.6220     4.0480     5.6120    -6.6020 
  254.2500     2.3320    64.4450    24.5160     4.5980     4.0940     5.6420    -6.6400 
  254.3750     2.3420    63.1900    24.1580     4.6200     4.1210     5.6440    -6.6640 
  254.5000     2.3600    61.8920    24.0460     4.7310     4.1310     5.6260    -6.6860 
  254.6250     2.3720    62.4420    24.0460     4.8400     4.1260     5.5970    -6.7150 
  254.7500     2.3730    63.4430    24.0660     4.8920     4.1130     5.5690    -6.7280 
  254.8750     2.3720    66.5290    24.0640     4.9280     4.0970     5.5460    -6.7190 
  255.0000     2.3750    70.6540    24.0260     4.9300     4.0780     5.5280    -6.7160 
  255.1250     2.3760    71.2870    23.9890     4.8930     4.0600     5.5140    -6.7190 
  255.2500     2.3710    67.8310    23.9410     4.8890     4.0440     5.5040    -6.7070 
  255.3750     2.3640    63.3420    23.8840     4.9190     4.0330     5.4990    -6.7180 
  255.5000     2.3560    60.4320    23.8310     4.9370     4.0290     5.5010    -6.7280 
  255.6250     2.3510    59.5650    23.7850     4.9230     4.0370     5.5120    -6.7330 
  255.7500     2.3500    62.0910    23.7540     4.9000     4.0520     5.5280    -6.7620 
  255.8750     2.3510    67.6990    23.7220     4.8640     4.0710     5.5400    -6.8050 
  256.0000     2.3550    72.8900    23.6790     4.8260     4.0880     5.5450    -6.8500 
  256.1250     2.3630    73.5740    23.5970     4.8310     4.1000     5.5390    -6.8990 
  256.2500     2.3690    71.0680    23.4260     4.8490     4.1120     5.5320    -6.9600 
  256.3750     2.3710    68.6860    23.1400     4.8560     4.1270     5.5330    -7.0030 
  256.5000     2.3700    68.1510    22.8680     4.8590     4.1490     5.5470    -7.0390 
  256.6250     2.3670    68.1930    22.8290     4.8730     4.1790     5.5770    -7.0550 
  256.7500     2.3610    66.0350    22.9890     4.9070     4.2110     5.6170    -7.0460 
  256.8750     2.3570    62.1260    23.2650     4.9460     4.2460     5.6610    -7.0460 
  257.0000     2.3620    60.3950    23.6110     5.0340     4.2800     5.7040    -7.0270 
  257.1250     2.3750    64.0420    23.8220     5.2640     4.3100     5.7420    -7.0200 
  257.2500     2.3820    67.8470    23.9000     5.5390     4.3390     5.7780    -7.0000 
  257.3750     2.3820    67.1920    23.9410     5.6310     4.3710     5.8230    -6.9710 
  257.5000     2.3780    63.9820    24.0200     5.5290     4.4160     5.8940    -6.9600 
  257.6250     2.3790    64.0240    24.0920     5.5280     4.4870     6.0040    -6.9710 
  257.7500     2.3820    66.4400    24.1390     5.7010     4.5820     6.1420    -6.9880 
  257.8750     2.3840    68.9520    24.1630     5.9600     4.6900     6.2860    -7.0040 
  258.0000     2.3870    70.5800    24.1400     6.2050     4.8040     6.4210    -7.0450 
  258.1250     2.3950    70.8900    24.0800     6.3460     4.9290     6.5540    -7.0870 
  258.2500     2.4100    69.6250    24.0280     6.5400     5.0760     6.7110    -7.1520 
  258.3750     2.4180    69.0760    23.9960     7.2510     5.2560     6.9180    -7.2360 
  258.5000     2.4130    70.0720    23.9610     8.5690     5.4730     7.1820    -7.3140 
  258.6250     2.4030    69.9780    23.9170     9.5270     5.7160     7.4800    -7.3750 
  258.7500     2.4040    68.1420    23.8800     9.4550     5.9480     7.7480    -7.4420 
  258.8750     2.4160    67.3820    23.8300     8.9670     6.1300     7.9340    -7.5000 
  259.0000     2.4270    68.4330    23.7840     8.7090     6.2350     8.0060    -7.5210 
  259.1250     2.4260    68.5000    23.7070     8.6380     6.2430     7.9560    -7.5210 
  259.2500     2.4180    67.0710    23.5980     8.5760     6.1890     7.8440    -7.4730 
  259.3750     2.4140    65.6110    23.5010     8.6060     6.1010     7.7110    -7.3920 
  259.5000     2.4170    65.3310    23.4760     8.6310     6.0070     7.5880    -7.2960 
  259.6250     2.4240    66.2770    23.6240     8.3550     5.9320     7.5030    -7.1750 
  259.7500     2.4300    66.8370    23.8230     7.7620     5.8890     7.4620    -7.0610 
  259.8750     2.4350    65.8790    23.9660     7.2390     5.8800     7.4560    -6.9460 
  260.0000     2.4390    64.0930    24.0040     7.0380     5.8920     7.4600    -6.8440 
  260.1250     2.4410    63.2430    23.9870     7.0800     5.8960     7.4360    -6.7660 
  260.2500     2.4380    63.2430    23.9790     6.9650     5.8760     7.3720    -6.7220 
  260.3750     2.4300    63.2430    23.9980     6.6910     5.8360     7.2830    -6.6870 
  260.5000     2.4240    63.2430    24.0060     6.5980     5.7990     7.2100    -6.6610 
  260.6250     2.4230    63.2430    23.9830     7.0060     5.8010     7.2070    -6.6660 
  260.7500     2.4280    63.2430    23.9300     7.5470     5.8510     7.2750    -6.6550 
  260.8750     2.4380    63.2430    23.8560     7.9740     5.9380     7.3880    -6.6440 
  261.0000     2.4490    63.2430    23.7920     8.2020     6.0310     7.4970    -6.6310 
  261.1250     2.4550    63.2430    23.7740     8.1890     6.0780     7.5270    -6.6140 
  261.2500     2.4480    63.2430    23.7690     8.0810     6.0540     7.4540    -6.5910 
  261.3750     2.4340    63.2430    23.7680     7.7270     5.9580     7.2940    -6.5770 
  261.5000     2.4260    63.2430    23.7690     7.1550     5.8130     7.0900    -6.5760 
  261.6250     2.4240    63.2430    23.7690     7.0190     5.6530     6.9020    -6.5620 
  261.7500     2.4240    63.2430    23.7670     7.6220     5.5110     6.7580    -6.5540 
  261.8750     2.4210    63.2430    23.7660     8.3560     5.3980     6.6570    -6.5380 
  262.0000     2.4210    63.2430    23.7660     8.5370     5.3080     6.5780    -6.5330 
  262.1250     2.4250    63.2430    23.7520     7.9020     5.2310     6.5000    -6.5380 
  262.2500     2.4290    63.2430    23.7250     7.1540     5.1580     6.4200    -6.5330 
  262.3750     2.4240    63.2430    23.7190     6.3790     5.0900     6.3480    -6.5380 
  262.5000     2.4130    63.2430    23.7780     5.6800     5.0350     6.2950    -6.5390 
  262.6250     2.4020    63.2430    23.8250     5.4150     5.0000     6.2650    -6.5670 
  262.7500     2.3990    63.2430    23.8480     5.4180     4.9790     6.2420    -6.6120 
  262.8750     2.3950    63.2430    23.8640     5.5770     4.9590     6.2130    -6.6670 
  263.0000     2.3850    63.2430    23.9020     5.7520     4.9310     6.1650    -6.7340 
  263.1250     2.3680    63.2430    23.9300     5.8760     4.8850     6.0930    -6.8170 
  263.2500     2.3530    63.2430    23.9510     5.9180     4.8300     6.0160    -6.9270 
  263.3750     2.3420    63.2430    23.9760     5.8900     4.7800     5.9540    -7.0450 
  263.5000     2.3350    63.2430    23.9920     5.7140     4.7490     5.9090    -7.1670 
  263.6250     2.3340    63.2430    23.9910     5.3400     4.7370     5.8790    -7.2650 
  263.7500     2.3380    63.2430    23.9870     5.1060     4.7260     5.8700    -7.3690 
  263.8750     2.3450    63.2430    23.9850     5.1450     4.7070     5.9000    -7.4950 
  264.0000     2.3530    63.2430    23.9490     5.4380     4.6790     5.9850    -7.5940 
  264.1250     2.3590    63.2430    23.8510     5.7760     4.6500     6.1320    -7.6490 
  264.2500     2.3620    63.2430    23.7230     5.9410     4.6340     6.2760    -7.6710 
  264.3750     2.3670    63.2430    23.6370     5.9060     4.6350     6.3490    -7.6510 
  264.5000     2.3740    63.2430    23.5770     5.8020     4.6480     6.3410    -7.5700 
  264.6250     2.3790    63.2430    23.5310     5.8360     4.6640     6.3000    -7.4440 
  264.7500     2.3770    63.2430    23.5040     6.0890     4.6780     6.2610    -7.2830 
  264.8750     2.3710    63.2430    23.5150     6.3440     4.6870     6.2280    -7.0870 
