~V
VERS. 2.00: Ver 2.00
~W
STRT.M 57.0000:
STOP.M 272.0000:
STEP.M 0.1250:
NULL. -999.2500:
UWI. DF3055:
~C
DEPT.M :
SP.MV :
GR.API :
RML.OHMM :
RI. :
RXO.OHMM :
CALI.CM :
DEN.GM/CC :
~A
# ...
  124.5000   -21.4610    83.5860     7.1530     6.2680     8.7010    24.5810     2.4090 
  124.6250   -21.6070    81.6000     7.3840     6.5050     9.1820    24.5670     2.4070 
  124.7500   -21.7450    80.4190     7.4440     6.5970     9.0110    24.5430     2.3700 
  124.8750   -21.8760    80.5220     7.3810     6.5930     8.1430    24.5180     2.3250 
  125.0000   -22.0080    81.2270     7.2840     6.5470     7.6910    24.5060     2.2870 
  125.1250   -22.1330    81.7040     7.2850     6.5150     7.6820    24.5010     2.2660 
  125.2500   -22.2270    79.9690     7.3600     6.5400     7.8510    24.4990     2.2590 
  125.3750   -22.3140    76.4090     7.4880     6.6190     7.9940    24.4980     2.2550 
  125.5000   -22.3550    73.1010     7.6230     6.7340     8.1080    24.4970     2.2480 
  125.6250   -22.3480    71.0220     7.7710     6.8590     8.2110    24.4970     2.2350 
  125.7500   -22.3080    70.5650     7.8900     6.9630     8.3770    24.4990     2.2200 
  125.8750   -22.2510    70.0360     7.9510     7.0270     8.6320    24.4950     2.2090 
  126.0000   -22.1750    70.7730     7.9370     7.0410     8.8240    24.4800     2.2050 
  126.1250   -22.0920    72.6900     7.8480     7.0070     8.7820    24.4550     2.2060 
  126.2500   -21.9900    75.3230     7.7330     6.9460     8.5470    24.4390     2.2140 
  126.3750   -21.8670    76.9330     7.6730     6.9050     8.3090    24.4240     2.2280 
  126.5000   -21.7480    76.3150     7.7360     6.9220     8.1430    24.3970     2.2480 
  126.6250   -21.6300    73.1000     7.8930     7.0200     8.1500    24.3560     2.2690 
  126.7500   -21.5030    70.4940     8.1190     7.2100     8.4350    24.3110     2.2810 
  126.8750   -21.4290    69.3440     8.3890     7.4480     8.8220    24.2710     2.2770 
  127.0000   -21.3770    68.0040     8.6650     7.6950     9.1940    24.2380     2.2590 
  127.1250   -21.3190    65.7780     8.9040     7.9140     9.5550    24.2240     2.2350 
  127.2500   -21.3090    65.8670     9.0680     8.0690     9.8750    24.2280     2.2160 
  127.3750   -21.3530    67.7000     9.1730     8.1750    10.1460    24.2280     2.2070 
  127.5000   -21.4210    68.5690     9.2460     8.2530    10.2910    24.2280     2.2030 
  127.6250   -21.5030    68.1380     9.3220     8.3310    10.2130    24.2270     2.2020 
  127.7500   -21.6060    67.7000     9.4330     8.4370    10.0990    24.2270     2.2010 
  127.8750   -21.6750    68.4490     9.5760     8.5630    10.2580    24.2270     2.2010 
  128.0000   -21.7440    71.9200     9.7180     8.6580    10.6980    24.2310     2.2010 
  128.1250   -21.8400    77.3030     9.8100     8.7280    11.1160    24.2480     2.2020 
  128.2500   -21.9330    79.3590     9.7770     8.7320    11.1620    24.2810     2.2040 
  128.3750   -21.9710    76.9930     9.6400     8.6630    10.8000    24.3280     2.2050 
  128.5000   -21.9950    73.6200     9.4480     8.5510    10.2630    24.3810     2.2050 
  128.6250   -22.0410    70.3580     9.2770     8.4500     9.9600    24.4320     2.2030 
  128.7500   -22.0670    67.2220     9.3110     8.4340    10.0930    24.4620     2.2000 
  128.8750   -22.1060    66.1700     9.4920     8.5310    10.3810    24.4840     2.1960 
  129.0000   -22.1490    66.6940     9.7410     8.7520    10.7900    24.4920     2.1890 
  129.1250   -22.1580    66.5490    10.0370     9.0610    11.2170    24.4830     2.1810 
  129.2500   -22.1230    63.5980    10.3460     9.4020    11.6370    24.4410     2.1710 
  129.3750   -22.0700    61.5300    10.6060     9.6850    11.9330    24.3810     2.1630 
  129.5000   -22.0400    62.7930    10.7810     9.7990    12.1370    24.3510     2.1610 
  129.6250   -22.0060    65.0750    10.8470     9.7790    12.2130    24.3870     2.1650 
  129.7500   -21.9910    63.7510    10.7680     9.6020    12.1910    24.4820     2.1720 
  129.8750   -21.9580    59.3450    10.5630     9.4220    12.1660    24.6100     2.1760 
  130.0000   -21.8970    58.5170    10.2510     9.1500    12.1220    24.7190     2.1760 
  130.1250   -21.8490    64.5300     9.8740     8.8210    12.0520    24.7710     2.1740 
  130.2500   -21.8290    71.9280     9.5040     8.4950    11.8030    24.7790     2.1750 
  130.3750   -21.8060    75.0200     9.2100     8.2340    11.3970    24.7800     2.1840 
  130.5000   -21.7560    74.2980     9.0310     8.0760    10.8810    24.7810     2.1980 
  130.6250   -21.7030    73.5350     8.9860     8.0490    10.4200    24.7850     2.2120 
  130.7500   -21.6240    73.0550     9.0940     8.1490    10.4140    24.7950     2.2190 
  130.8750   -21.5200    72.5090     9.3100     8.3590    10.6680    24.8180     2.2180 
  131.0000   -21.4030    72.3970     9.6030     8.6430    10.8360    24.8570     2.2100 
  131.1250   -21.2770    72.8760     9.9210     8.8760    10.8930    24.9030     2.2000 
  131.2500   -21.1310    72.2880    10.1640     9.0790    10.8810    24.9190     2.1920 
  131.3750   -20.9720    69.3920    10.2110     9.0700    10.7850    24.9150     2.1880 
  131.5000   -20.8050    66.8260     9.9650     8.8030    10.6000    24.8960     2.1910 
  131.6250   -20.6000    68.1130     9.3670     8.3100    10.2060    24.8590     2.2010 
  131.7500   -20.4050    73.8340     8.4890     7.5850     9.3550    24.8330     2.2170 
  131.8750   -20.2190    79.9620     7.5330     6.8000     8.1960    24.8100     2.2350 
  132.0000   -20.0330    83.2400     6.6970     6.0900     6.9430    24.7750     2.2500 
  132.1250   -19.8630    84.8050     6.1940     5.5470     6.0110    24.7140     2.2600 
  132.2500   -19.7520    88.9860     6.0260     5.2390     5.7070    24.6630     2.2680 
  132.3750   -19.6890    94.2490     6.0590     5.1240     5.5980    24.6400     2.2750 
  132.5000   -19.6680    96.1200     6.2160     5.1530     5.5070    24.6320     2.2840 
  132.6250   -19.6990    94.0600     6.4200     5.2680     5.6200    24.6260     2.2920 
  132.7500   -19.7460    91.8660     6.5890     5.4020     5.5740    24.6240     2.2950 
  132.8750   -19.8310    91.1030     6.6560     5.4030     5.5210    24.6250     2.2950 
  133.0000   -19.9510    90.0870     6.5570     5.3080     5.4990    24.6260     2.2940 
  133.1250   -20.1030    89.1130     6.2570     5.0630     5.4830    24.6280     2.2950 
  133.2500   -20.2330    90.8890     5.7870     4.8440     5.2460    24.6250     2.3020 
  133.3750   -20.3600    95.9080     5.3130     4.5980     4.9390    24.6150     2.3100 
  133.5000   -20.4960   101.3240     4.9840     4.3940     4.6310    24.5890     2.3170 
  133.6250   -20.6530   103.6220     4.9090     4.3070     4.5880    24.5390     2.3170 
  133.7500   -20.8550   101.1420     5.1950     4.4340     4.9960    24.4380     2.3060 
  133.8750   -21.0690    94.2330     5.7740     4.7800     5.9140    24.2910     2.2870 
  134.0000   -21.2820    84.4530     6.6020     5.3530     7.3990    24.0930     2.2630 
  134.1250   -21.4780    75.3770     7.6260     6.1490     9.2590    23.8480     2.2370 
  134.2500   -21.6480    72.0900     8.8530     7.2150    10.8050    23.6690     2.2160 
  134.3750   -21.7710    71.6500    10.2980     8.5400    12.0330    23.4930     2.2120 
  134.5000   -21.8540    71.0000    12.0260    10.1530    13.4880    23.3130     2.2380 
  134.6250   -21.8940    69.4330    14.0230    12.0230    15.9250    23.1950     2.3000 
  134.7500   -21.9160    66.0570    16.0060    13.9380    19.8270    23.1480     2.3890 
  134.8750   -21.9220    64.2780    17.4230    15.4640    24.3700    23.1330     2.4650 
  135.0000   -21.9240    67.1420    17.7450    16.1630    27.1520    23.1420     2.4920 
  135.1250   -21.9560    70.5910    16.7600    15.7610    26.0540    23.2110     2.4570 
  135.2500   -22.0160    69.5350    14.8200    14.2930    21.3770    23.3960     2.3770 
  135.3750   -22.0970    65.8500    12.8990    12.5180    15.9230    23.6340     2.2960 
  135.5000   -22.1830    64.9520    11.4350    10.9390    12.0230    23.8160     2.2350 
  135.6250   -22.2680    66.1140    10.5000     9.7980    10.3940    23.9790     2.1990 
