~V
VERS. 2.00: Ver 2.00
~W
STRT.M 63.0000:
STOP.M 272.0000:
STEP.M 0.1250:
NULL. -999.2500:
UWI. DF3013:
~C
DEPT.M :
DEN.GM/CC :
SP.MV :
AC.US/MT :
GR.API :
CALI.CM :
RXO.OHMM :
RI. :
RML.OHMM :
~A
# ...
  103.0000     2.2290   -18.8670   467.9590    75.0980    22.9450     6.8850     5.7580     7.4350 
  103.1250     2.2560   -18.8240   469.1960    77.1520    22.8880     6.4550     5.4400     7.1230 
  103.2500     2.2630   -18.8040   464.6570    82.0150    22.8870     6.0190     5.3420     7.1500 
  103.3750     2.2450   -18.8060   456.3820    84.7820    22.9690     5.9960     5.4970     7.5180 
  103.5000     2.2140   -18.8220   449.5450    83.6790    23.1130     6.5150     5.8810     8.1450 
  103.6250     2.1900   -18.8450   447.5450    79.9330    23.2450     7.2110     6.3730     8.7910 
  103.7500     2.1820   -18.8610   446.8720    75.1630    23.3140     7.7490     6.7040     9.0890 
  103.8750     2.1880   -18.8670   446.7210    71.2820    23.3700     8.2220     6.6630     8.8120 
  104.0000     2.2030   -18.8560   449.8630    71.4690    23.4990     8.0960     6.2330     8.0540 
  104.1250     2.2290   -18.8060   457.1540    76.0900    23.7780     6.9960     5.6220     7.2220 
  104.2500     2.2670   -18.7140   455.3080    80.6670    24.0950     5.3900     5.1270     6.6890 
  104.3750     2.3130   -18.5870   432.4960    83.9590    24.2500     4.4480     4.8840     6.5850 
  104.5000     2.3510   -18.4470   394.3070    86.0550    24.1020     5.1730     4.9370     6.9020 
  104.6250     2.3570   -18.3350   369.6050    85.0370    23.7040     6.7120     5.2870     7.5630 
  104.7500     2.3320   -18.2720   374.7780    81.1630    23.3140     7.8820     5.7740     8.2950 
  104.8750     2.2910   -18.2600   399.1750    76.4280    23.0470     8.1420     6.2420     8.8630 
  105.0000     2.2540   -18.2740   422.4640    72.7200    22.9180     8.1880     6.5490     9.1060 
  105.1250     2.2310   -18.2680   432.1150    71.7790    22.9270     8.3700     6.6230     9.0190 
  105.2500     2.2120   -18.2220   434.4570    73.4490    23.0190     8.6090     6.5870     8.8470 
  105.3750     2.1900   -18.1390   435.4420    74.7430    23.1630     8.6420     6.5450     8.7440 
  105.5000     2.1710   -18.0360   436.0090    73.1640    23.3170     8.5990     6.5560     8.7650 
  105.6250     2.1650   -17.9330   435.8900    71.1650    23.4290     8.8500     6.6400     8.9060 
  105.7500     2.1710   -17.8250   434.7840    73.2190    23.4880     9.2950     6.7750     9.1170 
  105.8750     2.1850   -17.7010   432.2350    78.4080    23.4820     9.5480     6.9480     9.3780 
  106.0000     2.2010   -17.5440   428.1930    81.6940    23.4200     9.5850     7.1400     9.6590 
  106.1250     2.2140   -17.3490   424.0620    80.5500    23.3510     9.3230     7.3190     9.8930 
  106.2500     2.2210   -17.1380   421.7960    79.2920    23.3180     9.0360     7.4590    10.0280 
  106.3750     2.2220   -16.9220   421.5110    79.2560    23.3160     8.8100     7.5480    10.0510 
  106.5000     2.2190   -16.7030   422.2810    78.9630    23.3030     8.9640     7.5920     9.9980 
  106.6250     2.2150   -16.4680   423.6720    76.2350    23.2330     8.9170     7.6020     9.9220 
  106.7500     2.2100   -16.1990   425.4390    72.7870    23.1290     8.6910     7.5770     9.8170 
  106.8750     2.2040   -15.8920   426.8680    71.1230    23.0430     8.4220     7.4690     9.5950 
  107.0000     2.2020   -15.5570   427.9330    71.8710    23.0250     8.2750     7.2110     9.1470 
  107.1250     2.2130   -15.2220   430.9570    74.1510    23.1020     7.8590     6.7290     8.4090 
  107.2500     2.2380   -14.9050   437.2750    75.5640    23.2870     6.8430     6.0930     7.5400 
  107.3750     2.2710   -14.6120   445.5570    78.3500    23.6340     5.5930     5.4080     6.7090 
  107.5000     2.3040   -14.3400   452.4470    87.1520    24.0960     4.9240     4.7950     6.0570 
  107.6250     2.3220   -14.0860   454.3860   101.3920    24.4490     4.6850     4.3810     5.6880 
  107.7500     2.3250   -13.8460   452.1860   112.6510    24.5360     4.3740     4.1730     5.5490 
  107.8750     2.3160   -13.6370   447.4870   116.7560    24.3680     4.3660     4.1510     5.5830 
  108.0000     2.3050   -13.4790   442.6310   113.3750    24.1080     4.7980     4.2590     5.7040 
  108.1250     2.2950   -13.4020   439.7800   106.3140    24.0000     4.9110     4.4090     5.7990 
  108.2500     2.2890   -13.3970   438.8360   101.5760    24.1380     4.8080     4.5130     5.8080 
  108.3750     2.2900   -13.4500   438.8150   100.6490    24.4320     4.7570     4.5500     5.7440 
  108.5000     2.3000   -13.5300   439.0390   102.0950    24.6680     4.6740     4.5400     5.6640 
  108.6250     2.3120   -13.6050   439.1360   102.5680    24.6920     4.6240     4.5340     5.6350 
  108.7500     2.3150   -13.6540   438.5520   101.9640    24.6320     4.9050     4.5630     5.6580 
  108.8750     2.3080   -13.6800   437.7490    99.8730    24.6440     5.0740     4.6220     5.6980 
  109.0000     2.3000   -13.6980   438.0760    96.0190    24.7590     5.0010     4.6750     5.7100 
  109.1250     2.3020   -13.7340   440.0030    91.8960    24.8690     4.7550     4.6590     5.6480 
  109.2500     2.3080   -13.8050   442.3700    90.5050    24.9140     4.6320     4.5500     5.5080 
  109.3750     2.3100   -13.9090   445.6130    93.8110    24.9190     4.4530     4.3600     5.3100 
  109.5000     2.3090   -14.0400   450.7840   101.4370    24.9190     4.2800     4.1400     5.1080 
  109.6250     2.3100   -14.1980   454.5220   108.8630    24.9660     4.0550     3.9800     5.0090 
  109.7500     2.3120   -14.3820   451.6820   111.3210    25.0480     3.9530     3.9490     5.0850 
  109.8750     2.3100   -14.6030   441.7390   107.9680    25.0140     4.0970     4.0850     5.3620 
  110.0000     2.3010   -14.8650   430.2930   100.9290    24.7110     4.4760     4.3690     5.7890 
  110.1250     2.2910   -15.1580   424.9070    94.8380    24.2120     5.5820     4.6990     6.2010 
  110.2500     2.2870   -15.4610   424.9830    91.7910    23.8370     7.1120     4.9160     6.4120 
  110.3750     2.2900   -15.7550   428.6850    89.8200    23.7480     7.4720     4.9630     6.3990 
  110.5000     2.3000   -16.0330   434.0460    86.8380    23.9480     6.0640     4.9370     6.3490 
  110.6250     2.3220   -16.2890   428.4960    85.8210    24.3310     5.2390     5.0790     6.6310 
  110.7500     2.3550   -16.5270   398.6710    88.0280    24.6590     5.5560     5.5510     7.4100 
  110.8750     2.3930   -16.7540   348.8700    89.6960    24.8140     9.1170     6.4120     8.6950 
  111.0000     2.4180   -16.9810   308.3700    86.2410    24.8210    15.6320     7.5510    10.2520 
  111.1250     2.4010   -17.2170   316.0750    78.7910    24.6650    18.4510     8.5260    11.3420 
  111.2500     2.3500   -17.4670   358.7880    73.5730    24.2950    14.7500     8.8590    11.3770 
  111.3750     2.2940   -17.7260   404.8320    72.4500    23.7960     9.8570     8.4790    10.4740 
  111.5000     2.2560   -17.9830   431.0210    74.1170    23.4050     7.4730     7.7210     9.2840 
  111.6250     2.2370   -18.2170   437.4670    75.3220    23.2880     6.8190     7.0390     8.4660 
  111.7500     2.2210   -18.4080   440.7120    75.3830    23.2820     6.7370     6.6490     8.1420 
  111.8750     2.2070   -18.5430   444.8000    75.9130    23.2710     6.8010     6.5670     8.2200 
  112.0000     2.1990   -18.6250   447.7640    76.5060    23.2540     6.8320     6.7130     8.5300 
  112.1250     2.1980   -18.6600   448.2990    76.7160    23.2580     7.4580     6.9660     8.8740 
  112.2500     2.1970   -18.6830   447.9440    77.6110    23.2980     8.2030     7.1910     9.1130 
  112.3750     2.1930   -18.7090   446.9150    79.4640    23.3860     8.5630     7.3210     9.2110 
  112.5000     2.1870   -18.7410   444.5320    80.5390    23.5000     8.4370     7.3460     9.1970 
  112.6250     2.1820   -18.7680   441.6500    78.2300    23.5390     8.2100     7.2970     9.1480 
  112.7500     2.1800   -18.7770   440.3960    74.3210    23.4550     8.1070     7.2470     9.1490 
  112.8750     2.1810   -18.7520   440.7340    72.4080    23.3470     8.3400     7.2330     9.2350 
