~V
VERS. 2.00: Ver 2.00
~W
STRT.M 130.0000:
STOP.M 280.0000:
STEP.M 0.1250:
NULL. -999.2500:
UWI. DF3042:
~C
DEPT.M :
DEN.GM/CC :
GR.API :
RML.OHMM :
RI. :
RXO.OHMM :
CALI.CM :
SP.MV :
~A
# ...
  253.7500     2.3100    65.8710     9.7360     8.3890     6.8230    24.5310   -14.9200 
  253.8750     2.3430    62.4110     9.6860     8.2840     6.9720    24.5230   -14.7540 
  254.0000     2.3890    57.2270     9.8610     8.3710     6.9310    24.5140   -14.5810 
  254.1250     2.4390    57.2060    10.1920     8.6140     6.7050    24.4760   -14.4490 
  254.2500     2.4800    58.8570    10.5090     8.8820     6.5280    24.4740   -14.3190 
  254.3750     2.4940    58.6410    10.6810     9.0640     6.4850    24.4920   -14.2210 
  254.5000     2.4830    58.8860    10.6330     9.0730     6.5100    24.5070   -14.0990 
  254.6250     2.4520    63.3440    10.3500     8.8580     6.5860    24.5170   -13.9920 
  254.7500     2.4110    67.2560     9.9650     8.5090     6.7050    24.5500   -13.9010 
  254.8750     2.3710    66.6470     9.5800     8.1150     6.8460    24.5460   -13.8000 
  255.0000     2.3430    62.8160     9.2620     7.7520     7.0040    24.5290   -13.7630 
  255.1250     2.3310    59.1920     9.0470     7.4790     7.1680    24.5220   -13.7100 
  255.2500     2.3330    58.3730     8.9050     7.2910     7.3140    24.5220   -13.6780 
  255.3750     2.3420    62.3470     8.8140     7.1740     7.4530    24.5220   -13.6230 
  255.5000     2.3490    68.0160     8.7540     7.1120     7.5830    24.5220   -13.6110 
  255.6250     2.3500    68.7780     8.7220     7.1000     7.7410    24.5230   -13.6180 
  255.7500     2.3450    66.2910     8.7180     7.1280     7.9730    24.5300   -13.6440 
  255.8750     2.3390    65.0260     8.7570     7.2060     8.3960    24.5470   -13.6930 
  256.0000     2.3410    66.2660     8.8620     7.3460     9.3900    24.5770   -13.7020 
  256.1250     2.3550    67.0910     9.0550     7.5630    11.4780    24.5820   -13.7150 
  256.2500     2.3800    66.9150     9.3080     7.8280    14.8630    24.4480   -13.7050 
  256.3750     2.4040    68.5550     9.5800     8.1030    19.4400    24.0680   -13.7240 
  256.5000     2.4190    71.3160     9.8200     8.3400    23.1730    23.5380   -13.7210 
  256.6250     2.4190    70.9300     9.9670     8.4810    23.7530    23.4070   -13.6810 
  256.7500     2.4090    66.8040    10.0220     8.5240    24.1670    23.7940   -13.5920 
  256.8750     2.3940    63.0130    10.0120     8.4880    24.1820    24.3960   -13.4900 
  257.0000     2.3810    64.0760     9.9810     8.4110    21.9560    24.7520   -13.3910 
  257.1250     2.3730    67.4660     9.9730     8.3400    17.0700    24.8380   -13.2960 
  257.2500     2.3710    68.3160     9.9990     8.3010    13.0920    24.8410   -13.1740 
  257.3750     2.3740    68.0090    10.0440     8.3000    10.9020    24.8410   -13.0610 
  257.5000     2.3790    69.3630    10.0810     8.3240     9.7990    24.8360   -12.9580 
  257.6250     2.3820    70.9890    10.0800     8.3490     9.3310    24.8170   -12.9290 
  257.7500     2.3800    70.4770    10.0430     8.3510     9.1100    24.7940   -12.8970 
  257.8750     2.3730    68.7730     9.9780     8.3250     8.8900    24.7870   -12.8920 
  258.0000     2.3620    67.4690     9.9030     8.2740     8.5890    24.8020   -12.8720 
  258.1250     2.3510    66.7340     9.8320     8.2080     8.3280    24.8000   -12.8590 
  258.2500     2.3450    66.4160     9.7640     8.1400     8.0990    24.7910   -12.8600 
  258.3750     2.3500    66.5940     9.6910     8.0740     7.8640    24.7900   -12.8520 
  258.5000     2.3650    66.7180     9.6050     8.0090     7.7210    24.7610   -12.8540 
  258.6250     2.3860    66.8490     9.5030     7.9470     7.6470    24.6200   -12.7930 
  258.7500     2.4060    69.4990     9.4060     7.9020     7.5700    24.4850   -12.7410 
  258.8750     2.4150    74.1920     9.3470     7.8980     7.4960    24.4020   -12.6710 
  259.0000     2.4160    77.9040     9.3620     7.9600     7.4760    24.3600   -12.6220 
  259.1250     2.4100    76.9730     9.4890     8.1150     7.5610    24.3260   -12.5760 
  259.2500     2.4040    73.4040     9.6940     8.3330     7.7420    24.2990   -12.5180 
  259.3750     2.4030    70.8760     9.9250     8.5690     8.1460    24.2790   -12.4600 
  259.5000     2.4060    70.2780    10.1060     8.7610     9.0700    24.2430   -12.4150 
  259.6250     2.4110    70.8880    10.1460     8.8300    10.6300    24.1580   -12.4040 
  259.7500     2.4170    71.4270    10.0430     8.7680    11.9530    24.0840   -12.4180 
  259.8750     2.4240    69.4170     9.8340     8.6000    10.9970    24.0330   -12.4270 
  260.0000     2.4290    65.1700     9.5830     8.3790     9.1470    23.9880   -12.4570 
  260.1250     2.4350    62.0670     9.3710     8.1680     8.3190    23.9070   -12.4590 
  260.2500     2.4390    61.7020     9.2380     8.0070     8.0290    23.8020   -12.4850 
  260.3750     2.4410    63.6630     9.1870     7.9080     7.7990    23.8110   -12.4880 
  260.5000     2.4410    66.0800     9.1980     7.8650     7.4750    23.9620   -12.5060 
  260.6250     2.4390    69.5670     9.2440     7.8710     7.2060    24.1420   -12.4820 
  260.7500     2.4370    73.9500     9.2940     7.9030     7.0630    24.2700   -12.4910 
  260.8750     2.4340    75.4340     9.3390     7.9490     7.1390    24.3630   -12.4770 
  261.0000     2.4300    71.6030     9.3690     7.9930     7.4050    24.3190   -12.4940 
  261.1250     2.4280    65.5720     9.3700     8.0150     7.7260    23.9910   -12.4760 
  261.2500     2.4260    63.9240     9.3380     8.0100     7.8740    23.5000   -12.4790 
  261.3750     2.4270    67.7020     9.2780     7.9790     7.9250    23.2690   -12.4860 
  261.5000     2.4280    73.0310     9.2040     7.9320     7.9990    23.3780   -12.4690 
  261.6250     2.4310    75.4380     9.1380     7.8870     8.2690    23.7810   -12.4440 
  261.7500     2.4350    74.1810     9.1020     7.8590     8.6880    24.2310   -12.3990 
  261.8750     2.4410    70.3490     9.1070     7.8570     9.2770    24.4190   -12.3730 
  262.0000     2.4440    68.3750     9.1540     7.8810    10.0570    24.4710   -12.3230 
  262.1250     2.4440    69.5750     9.2270     7.9270    11.0220    24.4860   -12.3280 
  262.2500     2.4370    69.8380     9.2880     7.9780    11.9560    24.4320   -12.3170 
  262.3750     2.4270    68.2130     9.3100     8.0170    12.8870    24.3100   -12.3200 
  262.5000     2.4170    67.1260     9.2800     8.0300    13.4520    24.2350   -12.3290 
  262.6250     2.4130    69.5930     9.2050     8.0100    13.4440    24.2420   -12.3630 
  262.7500     2.4140    71.2150     9.1200     7.9680    11.0950    24.2450   -12.3630 
  262.8750     2.4210    70.4210     9.0480     7.9160     9.0940    24.2390   -12.3580 
  263.0000     2.4290    69.3560     8.9910     7.8640     8.2250    24.2210   -12.3600 
  263.1250     2.4370    70.1390     8.9400     7.8160     7.9950    24.2210   -12.3410 
  263.2500     2.4420    72.0880     8.8800     7.7710     7.8520    24.2450   -12.3350 
  263.3750     2.4440    72.1280     8.8160     7.7310     7.7510    24.2740   -12.3110 
  263.5000     2.4440    69.4460     8.7680     7.7070     7.6220    24.2440   -12.2990 
  263.6250     2.4410    66.1400     8.7810     7.7280     7.4430    24.1910   -12.2680 
  263.7500     2.4340    64.8920     8.8800     7.8140     7.3520    24.1670   -12.2830 
  263.8750     2.4220    66.0600     9.0700     7.9720     7.5220    24.1660   -12.2990 
  264.0000     2.4100    68.1630     9.3180     8.1840     8.0690    24.1730   -12.3050 
  264.1250     2.4000    68.9250     9.5360     8.3920     9.1470    24.1670   -12.2880 
  264.2500     2.3980    67.4280     9.6390     8.5250    10.8160    24.1670   -12.2960 
  264.3750     2.4050    65.0100     9.5880     8.5390    12.5740    24.1730   -12.3170 
  264.5000     2.4180    63.9620     9.4100     8.4380    13.4260    24.1750   -12.3170 
  264.6250     2.4330    64.3230     9.1990     8.2650    13.5030    24.1840   -12.3380 
  264.7500     2.4450    65.0630     9.0660     8.1060    13.2610    24.1850   -12.3290 
  264.8750     2.4550    66.0040     9.0480     8.0070    12.1540    24.1780   -12.3290 
