~V
VERS. 2.00: Ver 2.00
~W
STRT.M 125.0000:
STOP.M 276.0000:
STEP.M 0.1250:
NULL. -999.2500:
UWI. DF3039:
~C
DEPT.M :
SP.MV :
GR.API :
CALI.CM :
RXO.OHMM :
RI. :
RML.OHMM :
DEN.GM/CC :
~A
# ...
  215.0000   -20.1420    55.5600    25.0130   152.5650   124.9550   130.3440     2.1890 
  215.1250   -20.1890    54.4000    25.0140   160.3300   130.0150   136.5290     2.1860 
  215.2500   -20.1940    56.3760    25.0140   154.4660   135.2840   142.7990     2.1910 
  215.3750   -20.1620    59.6100    25.0140   145.1640   140.4220   148.7670     2.2020 
  215.5000   -20.1360    60.5700    25.0140   142.8010   145.3840   154.4210     2.2130 
  215.6250   -20.1210    58.5390    25.0140   155.6900   150.0250   159.4990     2.2150 
  215.7500   -20.1060    56.8160    25.0140   168.8100   153.4000   162.9990     2.2090 
  215.8750   -20.0950    55.7210    25.0160   169.5880   153.9920   163.1890     2.2040 
  216.0000   -20.0990    55.0940    25.0210   158.2340   150.5920   158.7880     2.2060 
  216.1250   -20.1240    56.5490    25.0530   159.0180   142.4110   149.0420     2.2100 
  216.2500   -20.1480    58.5380    25.0620   179.5110   131.0690   135.9560     2.2060 
  216.3750   -20.1410    57.9380    25.0650   193.3620   118.2090   121.4760     2.1980 
  216.5000   -20.0810    56.3780    25.0490   172.1980   105.7440   108.0040     2.1960 
  216.6250   -20.0140    58.2930    24.9360   121.2240    95.8590    97.9290     2.2020 
  216.7500   -19.9650    61.8590    24.7910    86.1100    88.9810    91.1680     2.2030 
  216.8750   -19.9760    63.2310    24.7700    78.8510    85.0980    87.4890     2.1950 
  217.0000   -20.0510    60.6090    24.7670    86.9380    83.6150    86.1590     2.1830 
  217.1250   -20.1360    57.4260    24.7820    96.1000    83.9930    86.5760     2.1810 
  217.2500   -20.1850    57.8080    24.8140    98.7340    85.4610    87.9480     2.1900 
  217.3750   -20.2110    61.5610    24.8010    95.1630    87.4310    89.7490     2.2060 
  217.5000   -20.2580    63.7070    24.7250    90.7000    89.4510    91.4910     2.2200 
  217.6250   -20.2980    60.7470    24.5060    84.3820    90.9600    92.5230     2.2230 
  217.7500   -20.3500    57.9570    24.4760    85.2830    91.2260    92.4060     2.2160 
  217.8750   -20.3920    59.0530    24.4480    95.7320    89.3800    90.3320     2.2090 
  218.0000   -20.4290    62.1470    24.4660   111.5740    85.2340    86.1420     2.2120 
  218.1250   -20.4900    61.4580    24.4520   112.0190    79.3440    80.3560     2.2210 
  218.2500   -20.5510    58.8110    24.4030   100.7070    73.2020    74.4510     2.2270 
  218.3750   -20.6070    59.7410    24.2020    85.3850    68.0170    69.7070     2.2260 
  218.5000   -20.6060    64.8150    24.0400    71.1070    64.8770    67.3420     2.2220 
  218.6250   -20.5570    68.8780    23.8920    54.0690    64.8880    68.3690     2.2250 
  218.7500   -20.4930    68.0680    24.0070    48.9720    67.4690    71.8570     2.2380 
  218.8750   -20.4470    64.3700    24.1710    67.9610    71.9220    76.9230     2.2560 
  219.0000   -20.4230    59.4370    24.2090   106.5640    76.9180    82.1360     2.2660 
  219.1250   -20.3690    56.5320    24.4420   122.4470    80.7460    85.7670     2.2540 
  219.2500   -20.3190    57.2920    24.3520   109.9710    82.7140    87.3360     2.2300 
  219.3750   -20.2830    58.5480    24.2650    87.4880    82.7820    86.8880     2.2050 
  219.5000   -20.2640    58.7620    24.2280    74.6420    81.3280    84.9460     2.1840 
  219.6250   -20.2140    58.6210    24.4600    72.2360    79.0670    82.4870     2.1740 
  219.7500   -20.1390    59.9180    24.5730    76.5810    76.9410    80.5980     2.1730 
  219.8750   -20.0370    61.6960    24.6270    82.3240    75.2950    79.3730     2.2060 
  220.0000   -19.9290    63.0220    24.6230    85.4700    73.9430    78.3890     2.2350 
  220.1250   -19.9320    64.0870    24.5790    84.8080    72.4900    77.2840     2.2540 
  220.2500   -20.0290    63.7080    24.4980    82.9550    71.1990    76.2990     2.2590 
  220.3750   -20.1450    62.0070    24.4420    76.1290    70.4400    76.0020     2.2550 
  220.5000   -20.2090    59.9660    24.4720    67.7970    70.5090    76.6670     2.2420 
  220.6250   -20.2440    58.7040    24.5100    68.5360    71.7740    78.5530     2.2230 
  220.7500   -20.2550    58.4020    24.5970    80.8150    73.9520    81.2540     2.2070 
  220.8750   -20.2520    59.5090    24.5880    89.6480    76.5700    84.1850     2.2050 
  221.0000   -20.2580    61.5940    24.4790    90.7500    78.9690    86.6420     2.2220 
  221.1250   -20.2430    62.6570    24.4800    95.9880    80.3730    87.8430     2.2460 
  221.2500   -20.2280    62.9590    24.5470   101.1650    80.4410    87.5310     2.2610 
  221.3750   -20.2220    62.8990    24.6460    99.7700    79.1480    85.7790     2.2620 
  221.5000   -20.2520    63.4680    24.6790    92.5380    77.2100    83.5790     2.2560 
  221.6250   -20.2900    63.6520    24.6520    83.5050    75.6590    82.3110     2.2610 
  221.7500   -20.3250    61.9900    24.5630    77.6290    75.2480    82.5360     2.2800 
  221.8750   -20.3190    60.1790    24.4960    78.0430    76.5310    84.7590     2.2960 
  222.0000   -20.2640    59.7750    24.5330    80.4950    79.7870    89.1490     2.2890 
  222.1250   -20.1910    60.3520    24.7440    80.2680    85.0510    95.5460     2.2620 
  222.2500   -20.1450    59.5230    24.8260    85.9840    91.0790   102.5260     2.2270 
  222.3750   -20.1360    58.6310    24.8830   102.6330    96.5380   108.6380     2.2010 
  222.5000   -20.1300    60.3680    24.9430   128.6860    99.9080   112.1400     2.1940 
  222.6250   -20.1160    62.5890    24.8660   143.0360    99.4820   111.1300     2.2000 
  222.7500   -20.0690    63.2510    24.8870   136.3530    96.0330   106.8100     2.2070 
  222.8750   -20.0130    62.5000    24.7620   115.1130    90.5240   100.5510     2.2090 
  223.0000   -19.9350    60.8060    24.6960    95.2690    84.3280    93.8950     2.2030 
  223.1250   -19.8160    59.1550    24.6690    82.2350    79.1010    88.7160     2.1950 
  223.2500   -19.6760    59.1130    24.5630    79.3680    75.6130    85.6350     2.1880 
  223.3750   -19.5490    59.5940    24.4700    78.5520    73.9930    84.5820     2.1880 
  223.5000   -19.4770    58.9470    24.4820    79.1000    73.9330    85.0910     2.1990 
  223.6250   -19.4450    59.4160    24.5510    84.7660    75.0380    86.6990     2.2090 
  223.7500   -19.4290    62.0110    24.6510    89.1210    76.3800    88.2730     2.2090 
  223.8750   -19.3710    64.5010    24.6330    91.8250    77.3410    88.9990     2.2000 
  224.0000   -19.2820    65.4700    24.6020    93.4840    77.4420    88.4670     2.1920 
  224.1250   -19.1770    66.1920    24.4780    93.0270    76.2280    86.3640     2.1940 
  224.2500   -19.0440    66.7790    24.4710    89.9410    74.0460    83.1770     2.2100 
  224.3750   -18.9070    65.6030    24.5340    84.1210    71.1880    79.4080     2.2340 
  224.5000   -18.7760    62.4880    24.5200    79.7860    68.0070    75.4960     2.2530 
  224.6250   -18.6770    60.2940    24.4630    73.2970    64.9330    71.8980     2.2590 
  224.7500   -18.5930    60.3300    24.4560    66.7730    62.1920    68.7980     2.2540 
  224.8750   -18.5680    63.1050    24.4570    61.5940    59.5090    65.8990     2.2410 
  225.0000   -18.6050    66.8440    24.4630    58.1240    56.5150    62.7580     2.2270 
  225.1250   -18.6420    68.9840    24.5100    55.9510    52.8730    58.8640     2.2160 
  225.2500   -18.6140    69.3140    24.6000    50.9590    48.6070    54.3470     2.2130 
  225.3750   -18.4950    68.5200    24.6020    49.2420    43.9560    49.4320     2.2180 
  225.5000   -18.2760    68.0690    24.5840    48.5630    39.4970    44.7650     2.2290 
  225.6250   -17.9930    67.9830    24.4750    41.9740    36.0860    41.3870     2.2420 
  225.7500   -17.7300    68.0360    24.4670    32.2660    34.1080    39.8120     2.2580 
  225.8750   -17.5250    70.2990    24.5120    27.1350    33.9790    40.5600     2.2760 
  226.0000   -17.3550    73.7530    24.6290    27.6650    35.9360    43.8750     2.2860 
  226.1250   -17.2190    73.7420    24.6570    32.6040    40.4640    50.0380     2.2770 
