~V
VERS. 2.00: Ver 2.00
~W
STRT.M 85.0000:
STOP.M 235.0000:
STEP.M 0.1250:
NULL. -999.2500:
UWI. DF305:
~C
DEPT.M :
DEN.GM/CC :
SP.MV :
AC.US/MT :
GR.API :
CALI.CM :
RXO.OHMM :
RI. :
RML.OHMM :
~A
# ...
   95.0000     2.2220   -35.8920   448.3910    88.4140    23.8170     8.4960     8.3280    11.1410 
   95.1250     2.2200   -36.0690   448.6210    78.6730    23.8240     8.8240     8.4500    11.3970 
   95.2500     2.2180   -36.2130   452.0330    75.5400    23.8340     9.1490     8.5150    11.5380 
   95.3750     2.2130   -36.3380   460.1440    76.9340    23.8340     9.2960     8.4970    11.5250 
   95.5000     2.2010   -36.4410   473.0590    75.7420    23.8370     9.2320     8.3970    11.3620 
   95.6250     2.1900   -36.5160   486.6370    73.2010    23.8520     9.1280     8.2300    11.1100 
   95.7500     2.1880   -36.5820   493.8610    72.8130    23.8700     9.0640     8.0430    10.8700 
   95.8750     2.1900   -36.6430   490.8700    73.6770    23.8690     9.0450     7.8610    10.6900 
   96.0000     2.1900   -36.7100   478.6160    73.8540    23.8600     9.0980     7.6990    10.5760 
   96.1250     2.1880   -36.7720   462.7290    73.8240    23.8570     9.1930     7.5610    10.4880 
   96.2500     2.1910   -36.8380   450.6020    73.0110    23.8540     9.1310     7.4420    10.3870 
   96.3750     2.1990   -36.8850   445.2910    70.9680    23.8460     8.9200     7.3430    10.2790 
   96.5000     2.2060   -36.9110   445.8850    70.0920    23.8550     8.7440     7.2700    10.1940 
   96.6250     2.2020   -36.9130   448.3730    71.3140    23.9050     8.7330     7.2330    10.1680 
   96.7500     2.1960   -36.8780   448.5190    72.1170    23.9530     8.9060     7.2250    10.1870 
   96.8750     2.1970   -36.8010   445.4280    71.6820    23.9880     9.1290     7.2330    10.2210 
   97.0000     2.2070   -36.6850   440.6790    70.3350    24.0000     9.3040     7.2460    10.2360 
   97.1250     2.2090   -36.5250   437.1530    73.3990    24.0070     9.4630     7.2480    10.2070 
   97.2500     2.1990   -36.3220   436.1360    80.5560    24.0410     9.4800     7.2370    10.1480 
   97.3750     2.1880   -36.0740   437.5010    85.7370    24.1180     9.3480     7.2180    10.0850 
   97.5000     2.1900   -35.7770   440.1150    84.0060    24.2000     9.0240     7.1990    10.0470 
   97.6250     2.2040   -35.4360   441.7760    77.4970    24.2050     8.4970     7.1700    10.0360 
   97.7500     2.2190   -35.0720   440.9170    72.6970    24.1530     8.0240     7.0910     9.9660 
   97.8750     2.2310   -34.6980   437.6160    70.3610    24.0980     7.9470     6.9040     9.7170 
   98.0000     2.2430   -34.3190   433.5820    74.2020    24.0740     8.1950     6.5810     9.2170 
   98.1250     2.2590   -33.9690   431.3100    83.3770    24.0740     8.0070     6.1510     8.5230 
   98.2500     2.2740   -33.6870   431.2590    88.5930    24.0890     7.2180     5.7430     7.8740 
   98.3750     2.2800   -33.5200   432.5110    84.4620    24.1210     6.1190     5.4670     7.4580 
   98.5000     2.2690   -33.4580   433.8920    73.8200    24.1500     5.4520     5.3950     7.3870 
   98.6250     2.2440   -33.4600   434.7330    65.3200    24.1540     5.9280     5.5850     7.7230 
   98.7500     2.2190   -33.4550   435.0630    61.1480    24.1310     6.9720     5.9570     8.3050 
   98.8750     2.2040   -33.4010   435.0570    60.8710    24.0950     7.9290     6.4150     8.9510 
   99.0000     2.2010   -33.2750   435.1640    64.1300    24.0730     8.3960     6.8110     9.4120 
   99.1250     2.2110   -32.9950   436.1600    69.4350    24.0690     8.4530     6.9450     9.3810 
   99.2500     2.2340   -32.5280   438.0140    75.8380    24.0670     8.3360     6.7990     8.9160 
   99.3750     2.2660   -31.8470   439.8120    83.3810    24.0740     7.9570     6.4360     8.1920 
   99.5000     2.2990   -31.0000   440.0980    92.1370    24.1460     7.1330     5.9620     7.4050 
   99.6250     2.3140   -30.0590   437.9690    98.0970    24.3400     6.0570     5.4720     6.6990 
   99.7500     2.3190   -29.1240   435.4440    99.8760    24.5560     5.2700     5.0230     6.1010 
   99.8750     2.3260   -28.2630   434.8100   101.1080    24.6590     4.8910     4.6290     5.5950 
  100.0000     2.3390   -27.5110   436.7640   102.1100    24.7090     4.6580     4.3040     5.1760 
  100.1250     2.3470   -26.9590   439.2800   104.8800    24.7640     4.4240     4.0930     4.9040 
  100.2500     2.3450   -26.6230   439.4450   110.8650    24.7860     4.3980     4.0120     4.8170 
  100.3750     2.3360   -26.5030   436.1490   115.1550    24.7590     4.5510     4.0780     4.9540 
  100.5000     2.3300   -26.5410   429.8290   110.9170    24.6450     4.7940     4.2810     5.3020 
  100.6250     2.3380   -26.6890   421.7740    98.1230    24.3930     5.1700     4.5710     5.7760 
  100.7500     2.3560   -26.8830   414.2290    88.3240    24.2060     5.5040     4.8310     6.1680 
  100.8750     2.3720   -27.0950   408.9950    84.7400    24.1380     5.5060     4.9680     6.3220 
  101.0000     2.3760   -27.3460   407.1640    83.5610    24.1390     5.2750     4.9540     6.2050 
  101.1250     2.3670   -27.6330   408.6480    81.1300    24.1650     5.0700     4.8330     5.9300 
  101.2500     2.3560   -27.9440   410.9180    77.9830    24.1980     5.1050     4.7120     5.7080 
  101.3750     2.3450   -28.2780   412.4800    76.9810    24.2090     5.2710     4.6520     5.6420 
  101.5000     2.3310   -28.6460   413.3810    76.8410    24.2080     5.5160     4.6910     5.7680 
  101.6250     2.3250   -29.0540   414.6910    74.4590    24.2040     5.7670     4.8590     6.1000 
  101.7500     2.3370   -29.5000   414.6830    71.9680    24.2020     6.0350     5.1200     6.5500 
  101.8750     2.3710   -29.9770   408.7600    72.8620    24.2250     6.5460     5.4330     7.0400 
  102.0000     2.4100   -30.4570   394.9720    77.4060    24.2970     7.7610     5.7490     7.4820 
  102.1250     2.4220   -30.9640   381.0420    80.9610    24.4150    10.0620     6.0020     7.7610 
  102.2500     2.3950   -31.4790   379.3060    80.1340    24.4600    11.2770     6.1720     7.8570 
  102.3750     2.3400   -31.9670   392.5940    76.4890    24.3610    10.3110     6.2760     7.8280 
  102.5000     2.2810   -32.3910   412.5950    73.8110    24.1010     8.4550     6.3660     7.8010 
  102.6250     2.2450   -32.7170   425.2010    72.1490    23.9280     7.9430     6.5140     7.9330 
  102.7500     2.2360   -32.9370   426.0570    71.0200    23.8660     7.9110     6.7430     8.2510 
  102.8750     2.2480   -33.0420   418.4520    71.9330    23.8590     7.9690     7.0310     8.7080 
  103.0000     2.2640   -32.9890   408.6980    72.8900    23.8620     7.9570     7.2830     9.1560 
  103.1250     2.2700   -32.6810   403.9150    70.5920    23.8850     7.9840     7.2820     9.2700 
  103.2500     2.2710   -32.1350   406.3050    69.8030    23.9290     7.9570     6.9190     8.8500 
  103.3750     2.2800   -31.4010   414.8700    73.9840    23.9750     7.6880     6.1970     7.8670 
  103.5000     2.3070   -30.5610   427.3740    80.6780    24.0500     6.8920     5.2630     6.5220 
  103.6250     2.3430   -29.7280   440.7730    84.0780    24.2600     5.5010     4.3820     5.2300 
  103.7500     2.3750   -28.9930   448.8130    84.7050    24.5560     4.3370     3.7640     4.3590 
  103.8750     2.4040   -28.3910   443.5590    81.7610    24.7560     3.9500     3.5270     4.1090 
  104.0000     2.4510   -27.9560   419.4340    74.5270    24.7920     4.7320     3.7770     4.6140 
  104.1250     2.5350   -27.7280   376.2230    67.1180    24.7300     7.8050     4.8020     6.2130 
  104.2500     2.6370   -27.6820   327.3360    62.0760    24.7090    14.3230     6.7740     9.0460 
  104.3750     2.7200   -27.8140   283.8820    58.4040    24.8220    23.7440     9.9870    13.4580 
  104.5000     2.7540   -28.1030   253.2980    56.5220    24.9950    33.3560    14.5900    19.6530 
  104.6250     2.7380   -28.4920   238.8890    56.3200    25.1390    41.4660    20.0980    27.0160 
  104.7500     2.7110   -28.9200   233.9120    56.0860    25.1700    46.3640    24.5050    32.6910 
  104.8750     2.6910   -29.3760   234.1270    55.3200    25.1980    46.8470    25.8470    33.7060 
