~V
VERS. 2.00: Ver 2.00
~W
STRT.M 55.0000:
STOP.M 252.0000:
STEP.M 0.1250:
NULL. -999.2500:
UWI. DF3024:
~C
DEPT.M :
GR.API :
RML.OHMM :
RI. :
RXO.OHMM :
CALI.CM :
DEN.GM/CC :
SP.MV :
~A
# ...
  111.2500    93.5880     6.8340     6.0540     6.3500    23.8250     2.3120   -22.4490 
  111.3750    95.1500     6.5980     5.8390     6.2440    23.8910     2.3220   -22.3610 
  111.5000    98.4090     6.3020     5.5710     5.9200    23.9560     2.3330   -22.5470 
  111.6250   104.0060     6.0570     5.3370     5.6040    23.9840     2.3410   -22.8770 
  111.7500   109.5230     5.9690     5.2340     5.3700    24.0400     2.3420   -23.2890 
  111.8750   111.6980     6.0930     5.3230     5.2890    24.1350     2.3330   -23.8430 
  112.0000   108.2340     6.4200     5.6110     5.3800    24.0560     2.3170   -24.5000 
  112.1250   100.6730     6.8800     6.0560     5.7960    23.8320     2.3000   -25.1720 
  112.2500    93.5580     7.3180     6.5090     6.4870    23.5990     2.2870   -25.7910 
  112.3750    88.4550     7.6260     6.8450     7.2910    23.4550     2.2820   -26.3370 
  112.5000    85.0400     7.7530     6.9770     7.6360    23.3870     2.2820   -26.7830 
  112.6250    83.1090     7.7040     6.8650     7.4500    23.3240     2.2890   -27.0590 
  112.7500    82.5000     7.5930     6.6250     7.2080    23.3070     2.2980   -27.2190 
  112.8750    83.4870     7.4990     6.3540     6.9820    23.3210     2.3060   -27.4340 
  113.0000    85.1200     7.4700     6.1320     6.7510    23.3600     2.3100   -27.6430 
  113.1250    86.1750     7.5330     6.0230     6.5660    23.3960     2.3060   -27.7320 
  113.2500    87.4560     7.6560     6.0190     6.7530    23.4310     2.2960   -28.0160 
  113.3750    89.2180     7.8150     6.1120     6.8690    23.4390     2.2810   -28.5280 
  113.5000    90.0310     7.9980     6.2850     6.9930    23.4120     2.2620   -28.9920 
  113.6250    85.8890     8.2290     6.5470     7.3040    23.3470     2.2380   -29.5110 
  113.7500    78.9340     8.5620     6.9060     7.7470    23.3290     2.2090   -30.1060 
  113.8750    73.5080     9.0570     7.3970     8.2360    23.3640     2.1780   -30.4540 
  114.0000    71.4470     9.7270     8.0260     8.7660    23.4290     2.1580   -30.5790 
  114.1250    69.4030    10.4480     8.7100     9.2050    23.4850     2.1780   -30.5780 
  114.2500    68.7410    10.9510     9.2380     9.5640    23.5700     2.2460   -30.2010 
  114.3750    70.7850    10.9900     9.3910     9.9830    23.6740     2.3510   -29.5080 
  114.5000    74.9990    10.4320     9.0220    10.1250    23.7280     2.4570   -28.7970 
  114.6250    82.3520     9.2930     8.0900     9.0500    23.7420     2.5110   -27.9210 
  114.7500    90.7280     7.9620     6.9220     7.5470    23.7570     2.5070   -26.9390 
  114.8750    96.9880     6.7330     5.7870     6.5380    23.8070     2.4700   -26.1760 
  115.0000    98.3500     5.7990     4.8730     5.6360    23.8790     2.4310   -25.6840 
  115.1250    97.7760     5.3260     4.3320     5.2610    23.8390     2.4120   -25.4250 
  115.2500    97.3500     5.3320     4.1750     5.2370    23.7650     2.4060   -25.4100 
  115.3750    93.7640     5.9400     4.4990     5.6770    23.6740     2.4080   -25.6640 
  115.5000    88.3150     7.2740     5.4320     6.9070    23.6120     2.4120   -26.1050 
  115.6250    84.5360     9.4170     7.1440     9.4660    23.5920     2.4230   -26.6680 
  115.7500    79.8700    11.8800     9.3280    13.7390    23.6270     2.4360   -27.4210 
  115.8750    73.1140    14.0460    11.5170    20.5300    23.6830     2.4440   -28.3010 
  116.0000    67.0270    15.2310    13.0700    28.6020    23.7230     2.4310   -29.0720 
  116.1250    67.0200    14.8050    13.2250    32.9270    23.6650     2.3860   -29.7640 
  116.2500    68.0740    13.3200    12.2510    26.0740    23.5400     2.3220   -30.5490 
  116.3750    68.5930    11.5300    10.7670    16.2100    23.4620     2.2580   -31.2090 
  116.5000    70.2680    10.1210     9.4280    10.8140    23.4470     2.2140   -31.6660 
  116.6250    73.1610     9.5170     8.6680     9.4020    23.4620     2.2030   -32.1920 
  116.7500    75.9200     9.5050     8.4110     9.0770    23.4870     2.2140   -32.6150 
  116.8750    77.4690     9.8450     8.5140     9.0060    23.4950     2.2370   -32.7670 
  117.0000    76.8230    10.2900     8.8020     8.9480    23.4450     2.2630   -32.9170 
  117.1250    73.4380    10.6270     9.1030     8.9830    23.3860     2.2830   -33.0850 
  117.2500    71.4180    10.7850     9.3060     9.1530    23.3380     2.2950   -33.0660 
  117.3750    71.7080    10.7700     9.3780     9.3340    23.3130     2.2940   -33.0980 
  117.5000    71.7950    10.6260     9.3280     9.4000    23.3050     2.2780   -33.2590 
  117.6250    70.9050    10.4030     9.1750     9.3690    23.3070     2.2470   -33.2390 
  117.7500    70.8910    10.1650     8.9790     9.3480    23.3270     2.2130   -33.2010 
  117.8750    73.1600     9.9500     8.7750     9.2610    23.3560     2.1860   -33.3460 
  118.0000    75.1530     9.7880     8.5980     9.0940    23.3810     2.1720   -33.4780 
  118.1250    75.0820     9.7120     8.4820     8.8610    23.4330     2.1730   -33.4940 
  118.2500    74.5340     9.7140     8.4290     8.7260    23.5230     2.1780   -33.6160 
  118.3750    73.9010     9.7820     8.4250     8.7360    23.5940     2.1830   -33.7970 
  118.5000    73.3700     9.8880     8.4480     8.9210    23.6210     2.1810   -33.9240 
  118.6250    72.8220    10.0010     8.4720     9.0260    23.6210     2.1740   -34.0430 
  118.7500    73.4090    10.0960     8.4830     9.1240    23.6210     2.1680   -34.1860 
  118.8750    73.0880    10.1650     8.4830     9.2150    23.6200     2.1690   -34.3120 
  119.0000    70.1990    10.2050     8.4800     9.3320    23.6030     2.1770   -34.3630 
  119.1250    67.1660    10.2120     8.4820     9.3990    23.5420     2.1950   -34.3950 
  119.2500    65.8690    10.1900     8.4870     9.3560    23.4700     2.2150   -34.4520 
  119.3750    65.8030    10.1420     8.4840     9.2170    23.4860     2.2310   -34.3850 
  119.5000    66.1180    10.0740     8.4600     9.0590    23.5960     2.2370   -34.1800 
  119.6250    66.9850     9.9910     8.4000     8.9090    23.7230     2.2300   -34.0920 
  119.7500    66.5140     9.9010     8.3110     8.8200    23.7750     2.2140   -33.9300 
  119.8750    64.3080     9.8150     8.2090     8.8250    23.7870     2.1920   -33.5940 
  120.0000    62.5130     9.7400     8.1120     8.8870    23.7890     2.1730   -33.3260 
  120.1250    64.9350     9.6800     8.0340     8.8260    23.7950     2.1640   -33.0770 
  120.2500    70.2820     9.6250     7.9670     8.6520    23.8030     2.1690   -32.6480 
  120.3750    73.9030     9.5570     7.9020     8.4980    23.8050     2.1850   -32.2470 
  120.5000    74.7040     9.4650     7.8300     8.4210    23.8030     2.2090   -31.9650 
  120.6250    73.8000     9.3430     7.7510     8.3880    23.7970     2.2330   -31.5410 
  120.7500    73.8580     9.2040     7.6720     8.2190    23.7930     2.2500   -31.1800 
  120.8750    74.3630     9.0620     7.6010     7.8970    23.7860     2.2560   -30.9850 
  121.0000    75.3050     8.9320     7.5470     7.6280    23.7760     2.2530   -30.7200 
  121.1250    75.8180     8.8300     7.5190     7.5470    23.7530     2.2430   -30.4530 
  121.2500    74.2460     8.7560     7.5100     7.6220    23.7260     2.2330   -30.3960 
  121.3750    73.6120     8.7130     7.5140     7.8060    23.7180     2.2280   -30.3900 
  121.5000    75.4840     8.6960     7.5200     7.9700    23.7110     2.2290   -30.2980 
  121.6250    76.8750     8.7040     7.5230     8.0700    23.7090     2.2350   -30.3260 
  121.7500    76.4720     8.7330     7.5230     8.0780    23.7070     2.2410   -30.4570 
  121.8750    76.4190     8.7830     7.5300     8.0580    23.7040     2.2440   -30.5290 
  122.0000    77.0370     8.8640     7.5580     8.0960    23.6950     2.2440   -30.5670 
  122.1250    76.0190     8.9980     7.6330     8.1420    23.6720     2.2410   -30.7010 
  122.2500    74.1230     9.1890     7.7610     8.1730    23.6560     2.2370   -30.8080 
  122.3750    72.2770     9.4280     7.9390     8.2140    23.6700     2.2370   -30.8010 
