~V
VERS. 2.00: Ver 2.00
~W
STRT.M 60.0000:
STOP.M 277.0000:
STEP.M 0.1250:
NULL. -999.2500:
UWI. DF3044:
~C
DEPT.M :
GR.API :
CALI.CM :
RXO.OHMM :
RI. :
RML.OHMM :
DEN.GM/CC :
SP.MV :
~A
# ...
  183.7500    66.4730    24.1970   106.4910   112.9590   116.4850     2.2390   -28.0390 
  183.8750    65.7130    24.2020    99.1350   109.0030   113.2910     2.2520   -28.0660 
  184.0000    63.5240    24.2020    98.3820   105.9230   110.8770     2.2680   -28.1210 
  184.1250    65.3720    24.1960   100.0770   103.1360   108.6460     2.2750   -28.2090 
  184.2500    68.0320    24.1880   101.9560    99.4720   105.4330     2.2680   -28.3280 
  184.3750    68.5200    24.1850   103.1910    94.2520   100.5460     2.2550   -28.4750 
  184.5000    67.1650    24.1850   101.6550    87.8650    94.3540     2.2470   -28.6460 
  184.6250    67.5020    24.1850    91.9430    82.1180    88.6500     2.2480   -28.8620 
  184.7500    67.4180    24.1850    77.1170    78.9060    85.4300     2.2490   -29.0880 
  184.8750    64.4650    24.1850    62.9950    79.5580    86.1550     2.2450   -29.3180 
  185.0000    59.9270    24.1850    64.6680    84.9450    91.8310     2.2370   -29.5420 
  185.1250    57.0390    24.1850    90.2420    96.3360   103.7410     2.2300   -29.7420 
  185.2500    56.0860    24.1850   121.0460   112.5260   120.3680     2.2300   -29.9360 
  185.3750    54.9130    24.1850   136.8890   132.3450   140.2250     2.2340   -30.0930 
  185.5000    55.3090    24.1860   140.0700   153.7900   161.2040     2.2370   -30.1950 
  185.6250    58.3280    24.1920   150.7560   174.0160   180.6130     2.2320   -30.2190 
  185.7500    59.4420    24.2000   172.1150   191.2890   196.9110     2.2260   -30.1980 
  185.8750    57.5870    24.2050   201.1510   204.7420   209.1710     2.2260   -30.1170 
  186.0000    54.4520    24.2110   222.5270   213.5940   216.6840     2.2340   -29.9880 
  186.1250    52.7080    24.2170   214.5800   216.7410   218.8040     2.2430   -29.8200 
  186.2500    52.8820    24.2250   188.6100   217.0170   218.5110     2.2430   -29.6250 
  186.3750    54.3560    24.2450   170.7660   217.8030   219.0590     2.2330   -29.4390 
  186.5000    56.2470    24.2840   175.0950   222.1800   223.4430     2.2210   -29.2680 
  186.6250    56.8970    24.3590   198.4650   232.9670   234.4330     2.2160   -29.1180 
  186.7500    55.8260    24.4250   214.9070   248.9050   250.5000     2.2180   -29.0090 
  186.8750    52.6950    24.4820   218.5810   267.0520   268.4670     2.2200   -28.9630 
  187.0000    48.7560    24.5050   220.9100   281.7910   282.8610     2.2180   -28.9690 
  187.1250    47.4640    24.4780   246.1210   283.1650   284.7050     2.2180   -29.0160 
  187.2500    48.0210    24.4350   266.2530   268.8890   272.0680     2.2210   -29.0600 
  187.3750    48.6840    24.3960   250.4650   242.8290   247.8710     2.2290   -29.0860 
  187.5000    50.1860    24.3640   203.3590   213.5150   219.3510     2.2360   -29.1090 
  187.6250    53.4910    24.3370   162.4800   190.1210   195.3110     2.2420   -29.1260 
  187.7500    56.3420    24.3100   140.4950   175.5640   179.7100     2.2460   -29.1280 
  187.8750    57.1140    24.2810   137.7190   170.2070   173.5360     2.2460   -29.0700 
  188.0000    55.4020    24.2580   153.3070   173.0700   175.9620     2.2390   -28.9930 
  188.1250    53.5730    24.2440   171.0820   182.8330   185.5080     2.2230   -28.8820 
  188.2500    54.2170    24.2310   177.3690   195.3230   197.8650     2.2080   -28.7520 
  188.3750    57.1580    24.2240   176.6590   207.5380   210.2270     2.2030   -28.6140 
  188.5000    62.5630    24.2300   182.3860   217.1600   220.5580     2.2090   -28.4440 
  188.6250    65.7160    24.2640   198.2890   222.5130   227.4130     2.2130   -28.2480 
  188.7500    63.7120    24.3200   209.8350   224.0900   231.0990     2.2110   -28.0600 
  188.8750    58.5040    24.3560   219.6780   221.3220   230.9690     2.2050   -27.8860 
  189.0000    54.9040    24.3660   226.6260   212.9930   225.6570     2.2050   -27.6940 
  189.1250    55.4050    24.3650   224.4890   197.4470   212.9780     2.2170   -27.4990 
  189.2500    55.3180    24.3650   209.6200   177.0790   194.6050     2.2340   -27.3550 
  189.3750    57.8220    24.3630   181.4930   154.3650   172.5930     2.2510   -27.2400 
  189.5000    64.6160    24.3520   145.4660   131.9300   149.6010     2.2620   -27.1630 
  189.6250    67.9460    24.3190   115.6810   112.4340   128.6220     2.2630   -27.1310 
  189.7500    65.7470    24.2740    96.6260    96.4400   110.9000     2.2610   -27.1390 
  189.8750    62.0300    24.2360    83.7120    83.9600    96.7650     2.2640   -27.1880 
  190.0000    61.0520    24.2130    74.0110    74.7010    86.0980     2.2750   -27.2850 
  190.1250    62.6070    24.2150    68.0480    68.7940    79.1860     2.2810   -27.4330 
  190.2500    63.8630    24.2450    64.7260    65.6730    75.4910     2.2740   -27.6020 
  190.3750    64.2390    24.3030    63.6050    65.5890    75.4080     2.2610   -27.8040 
  190.5000    63.9700    24.3440    65.2480    69.0240    79.6650     2.2550   -28.0230 
  190.6250    62.7310    24.3560    72.3200    77.5530    90.5170     2.2530   -28.2610 
  190.7500    60.5290    24.3560    88.9270    91.6970   108.5670     2.2430   -28.4630 
  190.8750    57.4940    24.3560   125.4540   112.7650   134.2930     2.2260   -28.6360 
  191.0000    54.7630    24.3560   182.8820   141.2390   165.5550     2.2100   -28.7800 
  191.1250    52.7050    24.3560   234.0400   173.3040   194.1090     2.2030   -28.8910 
  191.2500    52.7880    24.3560   252.0530   196.4700   209.6250     2.2010   -28.9380 
  191.3750    56.9670    24.3550   238.4670   200.7830   207.6370     2.2000   -28.9220 
  191.5000    62.5240    24.3520   204.6770   188.0980   192.3650     2.2020   -28.8590 
  191.6250    63.9930    24.3450   158.8200   169.5600   173.0560     2.2100   -28.7450 
  191.7500    63.0760    24.3390   121.9800   154.0170   156.8830     2.2200   -28.5820 
  191.8750    62.0540    24.3370   108.3130   142.6740   145.1250     2.2270   -28.3680 
  192.0000    60.6440    24.3370   116.1620   134.4180   136.8430     2.2270   -28.1090 
  192.1250    58.9930    24.3360   130.0310   127.6410   130.5770     2.2240   -27.8070 
  192.2500    58.4710    24.3270   127.4700   121.0290   124.8760     2.2250   -27.4840 
  192.3750    59.5440    24.3040   115.4830   114.5710   119.5400     2.2300   -27.1470 
  192.5000    59.9340    24.2670   104.7300   108.7540   114.8300     2.2380   -26.7910 
  192.6250    62.1150    24.2290    97.1850   104.2870   111.2400     2.2470   -26.4330 
  192.7500    68.7490    24.1870    95.0530   100.9330   108.4960     2.2570   -26.0870 
  192.8750    72.7490    24.1530    95.9920    98.0670   105.9520     2.2650   -25.7630 
  193.0000    67.2610    24.1080    95.9620    94.8340   102.7340     2.2660   -25.4490 
  193.1250    56.8490    24.0870    91.2110    90.5470    98.0720     2.2560   -25.1580 
  193.2500    56.9870    24.0800    82.9630    85.6970    92.4880     2.2460   -24.8940 
  193.3750    67.4620    24.0800    74.4390    81.1150    86.8860     2.2410   -24.6490 
  193.5000    74.8940    24.0800    68.3300    77.7410    82.3860     2.2450   -24.4310 
  193.6250    70.4270    24.0800    66.3170    76.9990    80.7030     2.2530   -24.2050 
  193.7500    63.2040    24.0700    67.1990    79.6200    82.9030     2.2540   -23.9970 
  193.8750    61.0700    24.0200    69.9900    86.8970    90.7880     2.2470   -23.8080 
  194.0000    60.9340    23.8720    74.1880   100.8450   107.2850     2.2360   -23.6310 
  194.1250    57.1720    23.6590    91.1410   127.5550   140.6210     2.2270   -23.4650 
  194.2500    53.1100    23.4860   159.0480   173.1740   196.9070     2.2220   -23.3020 
  194.3750    50.4850    23.4290   367.6540   249.8500   284.3570     2.2240   -23.1340 
  194.5000    51.1690    23.4440   722.2670   399.7770   378.4170     2.2400   -22.9600 
  194.6250    52.2060    23.5250  1014.4340   526.1560   546.4380     2.2690   -22.8080 
  194.7500    50.2870    23.6490  1099.9250   590.0800   647.4820     2.3060   -22.6460 
  194.8750    45.6840    23.7690  1074.5300   550.7610   592.0080     2.3540   -22.4660 
