~V
VERS. 2.00: Ver 2.00
~W
STRT.M 57.0000:
STOP.M 290.0000:
STEP.M 0.1250:
NULL. -999.2500:
UWI. DF3043:
~C
DEPT.M :
SP.MV :
DEN.GM/CC :
AC.US/MT :
GR.API :
CALI.CM :
RXO.OHMM :
RI. :
RML.OHMM :
~A
# ...
  217.0000   -21.7420     2.2060   396.5500    64.2320    23.4640    55.4250   124.4480   133.0580 
  217.1250   -21.7830     2.2080   395.8790    60.9710    23.3350    53.3990   128.2490   137.6950 
  217.2500   -21.8050     2.2100   392.7270    57.1590    23.2220    53.4760   138.7110   149.1370 
  217.3750   -21.8240     2.2140   387.8510    56.7030    23.2210    66.3120   155.7140   167.3040 
  217.5000   -21.8640     2.2210   384.6800    58.7220    23.3860   108.0640   178.3470   191.2210 
  217.6250   -21.9220     2.2270   386.8000    60.0460    23.7460   163.5950   203.2860   216.8030 
  217.7500   -21.9850     2.2230   391.7300    59.7230    24.0990   202.9510   222.9810   235.0690 
  217.8750   -22.0400     2.2080   395.7860    59.9510    24.2820   215.8040   230.1760   237.9090 
  218.0000   -22.1010     2.1920   397.5020    61.5450    24.3260   206.7650   221.7060   223.6650 
  218.1250   -22.1830     2.1880   398.4530    62.8170    24.3150   183.6990   200.8430   199.1810 
  218.2500   -22.2650     2.1950   400.8880    63.3510    24.2140   150.3690   178.6390   176.2900 
  218.3750   -22.3370     2.2050   404.0250    64.1430    24.0270   116.4770   161.3260   160.0910 
  218.5000   -22.3770     2.2100   404.7650    65.4990    23.8440    91.2850   151.7600   152.1510 
  218.6250   -22.3890     2.2090   400.3210    64.8560    23.5890    72.9210   151.6190   153.2900 
  218.7500   -22.3950     2.2030   393.3610    61.9770    23.0480    59.6050   158.1180   160.4470 
  218.8750   -22.4000     2.1940   388.0440    59.7160    22.3720    55.6070   168.2840   170.5290 
  219.0000   -22.4120     2.1860   387.1910    59.4850    22.0650    61.2230   177.4040   178.6940 
  219.1250   -22.4070     2.1810   390.2500    59.7590    22.4880    69.9920   178.7740   178.1680 
  219.2500   -22.3930     2.1820   393.6070    59.8890    23.0870    76.1030   171.5100   169.0570 
  219.3750   -22.3770     2.1900   395.4370    61.4090    23.3560    76.4330   158.6110   155.4280 
  219.5000   -22.3610     2.1990   395.5600    63.6470    23.2690    69.9560   145.1360   142.6880 
  219.6250   -22.3480     2.2020   394.6680    64.2590    23.0910    63.3200   136.3470   135.6830 
  219.7500   -22.3080     2.2020   393.4440    63.9090    22.9560    63.8040   133.7000   135.0650 
  219.8750   -22.2510     2.2040   392.5750    63.1530    22.8230    66.0500   137.4870   140.8510 
  220.0000   -22.1890     2.2070   392.4510    61.7300    22.6500    67.2810   147.2300   152.4820 
  220.1250   -22.1180     2.2080   393.5960    61.8630    22.4650    67.3520   162.2010   169.1950 
  220.2500   -22.0490     2.2030   395.4010    63.7120    22.2600    72.2540   179.2620   187.7380 
  220.3750   -21.9750     2.1960   396.9210    64.7650    22.1530    81.7860   195.8690   205.2810 
  220.5000   -21.9160     2.1880   398.2800    63.8880    22.3890   100.9660   209.4450   218.9210 
  220.6250   -21.8870     2.1790   400.8910    62.4260    23.0870   144.2770   216.4280   224.7140 
  220.7500   -21.8880     2.1690   404.7100    60.7870    23.8590   182.6720   215.9170   222.0510 
  220.8750   -21.9080     2.1590   407.5540    59.1540    24.3360   191.9550   207.6150   211.1030 
  221.0000   -21.9270     2.1540   407.3970    58.9040    24.4580   176.7210   193.0270   194.1560 
  221.1250   -21.9560     2.1590   404.1730    61.8640    24.4180   153.0230   175.6270   175.6170 
  221.2500   -21.9910     2.1690   400.0660    65.1440    24.3060   133.1640   159.8950   159.8150 
  221.3750   -22.0240     2.1800   396.0220    65.8390    24.0570   118.6810   147.7430   148.2310 
  221.5000   -22.0440     2.1890   393.0260    62.3320    23.7220   106.8760   139.5030   140.8010 
  221.6250   -22.0390     2.1880   393.5340    58.0070    23.5010   106.9990   135.1960   137.2930 
  221.7500   -22.0250     2.1790   398.2200    58.0220    23.4560   111.7290   133.5280   136.3200 
  221.8750   -22.0210     2.1680   405.4560    61.5200    23.5790   106.6730   133.9600   137.3930 
  222.0000   -22.0580     2.1580   411.1940    65.2650    23.8900    93.6720   136.2090   140.3390 
  222.1250   -22.1380     2.1470   412.5570    66.6430    24.2840    96.7410   140.4510   145.4250 
  222.2500   -22.2200     2.1380   412.8750    66.1480    24.5100   118.1540   146.1140   152.0240 
  222.3750   -22.2770     2.1400   414.7480    63.9360    24.4790   136.3760   152.6410   159.4980 
  222.5000   -22.2970     2.1510   416.9570    62.4030    24.2750   133.7420   159.3110   167.0440 
  222.6250   -22.3040     2.1640   415.9950    64.0220    24.0520   121.3140   165.2990   173.8450 
  222.7500   -22.3240     2.1780   412.2160    65.8740    23.9300   120.3580   170.7400   180.1410 
  222.8750   -22.3650     2.1940   407.9090    65.6650    23.9000   131.9710   176.5020   186.8310 
  223.0000   -22.4040     2.2040   405.2390    63.5430    23.7860   142.2660   183.1700   194.3620 
  223.1250   -22.4240     2.2030   402.7670    61.7150    23.4870   149.3220   189.3680   200.8530 
  223.2500   -22.4480     2.1990   401.1030    61.2280    23.3110   165.4930   192.0160   202.7150 
  223.3750   -22.4810     2.2020   406.6370    62.1640    23.4190   208.3430   188.4210   196.9440 
  223.5000   -22.5140     2.2130   418.3720    64.0060    23.6170   222.2680   177.7790   183.0760 
  223.6250   -22.5110     2.2210   417.0910    65.2890    23.5170   175.4140   161.3800   163.4640 
  223.7500   -22.4630     2.2210   401.5810    64.9570    23.1450   129.9420   143.5720   143.2670 
  223.8750   -22.3760     2.2170   389.6790    62.3650    22.7640   115.1730   126.8890   125.1390 
  224.0000   -22.2760     2.2140   391.2650    59.0050    22.5850   101.7210   112.7700   110.3120 
  224.1250   -22.1970     2.2190   392.9080    58.9920    22.7120    80.1540   102.2640    99.5890 
  224.2500   -22.1340     2.2230   385.7780    62.4640    23.0120    70.0620    94.6950    92.0140 
  224.3750   -22.0800     2.2160   378.3890    65.3330    23.3980    64.5420    89.6370    87.1040 
  224.5000   -22.0250     2.1990   377.8060    64.6960    23.8170    66.8140    86.6600    84.4140 
  224.6250   -21.9820     2.1870   384.6110    61.1770    24.1930    70.6590    85.5700    83.7720 
  224.7500   -21.9570     2.1850   393.8950    58.8840    24.4800    72.0260    85.5740    84.3760 
  224.8750   -21.9580     2.1900   402.0590    59.1160    24.6420    72.4790    86.1660    85.7350 
  225.0000   -21.9790     2.1950   406.7150    61.5660    24.6430    73.2490    86.8960    87.3660 
  225.1250   -21.9770     2.1940   407.5960    63.5340    24.5310    74.0870    87.4010    88.8340 
  225.2500   -21.9450     2.1890   407.3590    64.0000    24.4710    74.4800    87.5940    89.9890 
  225.3750   -21.8780     2.1840   406.8990    63.1310    24.5210    75.4950    87.5340    90.9130 
  225.5000   -21.7810     2.1850   406.2640    61.8510    24.6330    77.4620    87.4230    91.8730 
  225.6250   -21.6590     2.1930   406.0760    61.8460    24.7210    78.9990    87.6040    93.3130 
  225.7500   -21.5130     2.2020   406.6690    63.6260    24.7590    79.2280    88.2310    95.3910 
  225.8750   -21.3680     2.2100   407.4020    65.5420    24.7500    78.4820    89.3700    98.1450 
  226.0000   -21.2480     2.2160   407.6010    66.2190    24.7350    79.8690    91.1380   101.6430 
  226.1250   -21.1730     2.2210   406.8620    67.1060    24.7330    82.7510    93.9440   106.3040 
  226.2500   -21.1340     2.2220   405.5910    67.4660    24.6710    84.3330    97.8950   112.2970 
  226.3750   -21.1120     2.2190   405.1690    65.7370    24.4810    81.1800   103.0500   119.7570 
  226.5000   -21.1020     2.2110   406.7240    63.2000    24.2420    85.6160   109.1430   128.3900 
  226.6250   -21.0910     2.1950   409.8010    63.9930    24.1420   101.4570   115.2330   136.9570 
  226.7500   -21.0920     2.1740   411.9460    66.4670    24.2030   118.9740   120.0070   143.6450 
  226.8750   -21.1180     2.1530   412.0260    66.7350    24.3240   124.3270   122.6660   147.3480 
