~V
VERS. 2.00: Ver 2.00
~W
STRT.M 140.0000:
STOP.M 286.0000:
STEP.M 0.1250:
NULL. -999.2500:
UWI. DF3059:
~C
DEPT.M :
SP.MV :
GR.API :
RML.OHMM :
RI. :
RXO.OHMM :
CALI.CM :
DEN.GM/CC :
~A
# ...
  230.0000   -26.4460    62.4290   195.6060   174.1420   167.5420    26.3740     2.1990 
  230.1250   -26.4310    59.9880   180.3920   161.9740   166.7040    26.3100     2.2470 
  230.2500   -26.3520    60.8240   164.3840   148.4540   161.1470    26.1560     2.3020 
  230.3750   -26.3730    63.3770   150.3860   136.0670   147.8430    25.9520     2.3350 
  230.5000   -26.3240    64.5790   139.5280   126.1110   130.9330    25.8090     2.3370 
  230.6250   -26.4390    65.2580   131.3050   118.4940   109.6720    25.7650     2.3190 
  230.7500   -26.5070    65.6230   123.5870   111.4700   101.0250    25.7540     2.3010 
  230.8750   -26.6360    65.7820   115.3370   104.0620   107.0020    25.7310     2.3010 
  231.0000   -26.7090    67.2910   106.5240    96.1470   106.9200    25.6690     2.3140 
  231.1250   -26.8050    69.8190    98.4570    88.6420    88.8810    25.6030     2.3290 
  231.2500   -26.8890    71.0850    92.7260    82.7580    69.5030    25.5490     2.3330 
  231.3750   -26.8900    71.1780    90.0800    79.4620    63.0620    25.5300     2.3190 
  231.5000   -26.8680    71.9580    91.0870    79.2860    67.2240    25.4960     2.2910 
  231.6250   -26.7290    72.8190    94.4740    82.5220    70.2650    25.4010     2.2600 
  231.7500   -26.5530    71.8160    99.0490    87.6060    73.0820    25.2920     2.2320 
  231.8750   -26.3230    69.0360   102.4580    92.9440    81.0630    25.2310     2.2110 
  232.0000   -26.1110    66.1590   103.0350    96.7380    94.8970    25.2340     2.1980 
  232.1250   -25.8800    65.6680   104.1340    97.0630   104.8480    25.2350     2.1900 
  232.2500   -25.7050    68.0050   102.0770    94.4340   101.5190    25.1840     2.1880 
  232.3750   -25.5340    70.8020    98.4560    90.2060    92.8930    25.1040     2.1930 
  232.5000   -25.4090    71.2970    95.4350    86.2790    81.6210    25.0300     2.2020 
  232.6250   -25.2610    69.0920    95.4140    84.8180    70.2420    25.0580     2.2100 
  232.7500   -25.1740    66.5610    98.8520    86.3540    67.1880    25.2050     2.2130 
  232.8750   -25.0870    65.6510   105.6180    90.8100    74.9050    25.3160     2.2100 
  233.0000   -25.0120    65.7870   114.9970    97.5400    91.6800    25.3390     2.2030 
  233.1250   -24.8570    66.7730   125.8330   105.5320   102.7980    25.3070     2.1960 
  233.2500   -24.6890    66.8500   136.1280   113.1330   108.7740    25.2550     2.1910 
  233.3750   -24.4380    64.9770   144.1470   118.9860   115.4930    25.1590     2.1860 
  233.5000   -24.2130    62.4860   148.4120   121.9520   123.3210    25.1180     2.1820 
  233.6250   -23.9910    61.4680   147.5280   120.9230   127.4830    25.1720     2.1800 
  233.7500   -23.6540    63.1260   143.0370   116.9930   130.2270    25.2300     2.1840 
  233.8750   -23.3580    66.5180   136.7860   111.4870   126.5460    25.1260     2.1940 
  234.0000   -23.0100    69.7920   130.9700   106.0820   110.9020    25.0500     2.2050 
  234.1250   -22.7400    70.4320   127.7230   102.5900   100.9350    25.1530     2.2040 
  234.2500   -22.3820    69.6740   127.0300   101.2910    99.4100    25.1880     2.1860 
  234.3750   -22.0920    70.1400   128.1470   101.8220   104.1120    25.0860     2.1500 
  234.5000   -21.7220    70.4930   130.0970   103.5330   107.3520    25.0540     2.1070 
  234.6250   -21.3580    68.0510   132.8670   106.3670   113.0510    24.9430     2.0710 
  234.7500   -20.9660    64.8150   137.8710   111.0020   123.4450    24.6750     2.0540 
  234.8750   -20.4910    62.0850   146.7870   118.5050   131.0620    24.3880     2.0810 
  235.0000   -19.9650    60.2120   159.4190   128.7760   131.6280    24.2450     2.1600 
  235.1250   -19.3630    59.9640   170.8280   138.3880   130.5270    24.2050     2.2890 
  235.2500   -18.7440    62.4480   172.5930   141.0760   141.1320    24.1690     2.4460 
  235.3750   -18.1150    66.1390   157.4880   131.2940   161.5900    24.1360     2.5800 
  235.5000   -17.4800    68.4780   124.6030   107.4850   166.7460    24.0900     2.6540 
  235.6250   -16.8720    69.8800    83.5940    75.2400   135.2910    24.0660     2.6630 
  235.7500   -16.2780    69.6280    50.1700    46.8210    87.8620    24.0330     2.6270 
  235.8750   -15.7530    66.7330    28.3080    27.4440    44.7580    23.9560     2.5710 
  236.0000   -15.3080    62.6500    15.8520    16.4970    19.2520    23.8480     2.5180 
  236.1250   -14.9930    60.6860    11.3730    11.6170     9.3280    23.8180     2.4760 
  236.2500   -14.7580    61.2420     9.4390     9.3790     6.9870    23.8400     2.4480 
  236.3750   -14.5970    61.7990     8.8980     8.5790     6.5170    23.8720     2.4340 
  236.5000   -14.5140    62.2110     9.0490     8.5760     6.5930    23.8850     2.4300 
  236.6250   -14.4210    61.2820     9.4000     8.9550     6.7460    23.8850     2.4330 
  236.7500   -14.4680    58.5380     9.5630     9.2750     6.9490    23.8850     2.4390 
  236.8750   -14.5020    57.0230     9.3750     9.2970     7.0600    23.8780     2.4390 
  237.0000   -14.6360    61.0170     8.8340     8.9430     7.0080    23.8560     2.4260 
  237.1250   -14.7110    70.0430     8.0890     8.2980     6.9220    23.8150     2.4010 
  237.2500   -14.8560    77.5110     7.4230     7.6460     6.6870    23.8110     2.3710 
  237.3750   -14.9460    83.1740     7.0240     7.1840     6.0990    23.8610     2.3510 
  237.5000   -15.0700    87.6430     6.9840     7.0250     5.6550    23.9740     2.3450 
  237.6250   -15.1980    91.8510     7.3320     7.2260     5.6300    24.1100     2.3530 
  237.7500   -15.2860    97.0060     7.8830     7.6460     6.0530    24.2670     2.3680 
  237.8750   -15.3750   100.8880     8.4920     8.1630     6.7890    24.3850     2.3830 
  238.0000   -15.4050   100.8040     9.0240     8.6490     7.7720    24.4310     2.3930 
  238.1250   -15.4280    97.2320     9.3720     8.9860     8.1880    24.4210     2.4010 
  238.2500   -15.3960    97.6340     9.5660     9.1760     8.3130    24.4090     2.4070 
  238.3750   -15.3590   102.3950     9.6570     9.2550     8.3580    24.4080     2.4070 
  238.5000   -15.2950   107.4250     9.6980     9.2730     8.4650    24.4190     2.4030 
  238.6250   -15.2510   112.4300     9.7160     9.2630     8.5020    24.4330     2.3970 
  238.7500   -15.1890   116.8240     9.7090     9.2370     8.5510    24.4550     2.3920 
  238.8750   -15.1440   115.3690     9.6650     9.1850     8.6280    24.4890     2.3870 
  239.0000   -15.0940   106.5490     9.5900     9.1020     8.7740    24.5440     2.3750 
  239.1250   -15.0450   100.8290     9.5310     9.0120     8.8450    24.5700     2.3510 
  239.2500   -14.9960   105.7810     9.5730     8.9750     8.8770    24.5830     2.3210 
  239.3750   -14.9840   113.8290     9.7990     9.0590     8.9230    24.5970     2.3010 
  239.5000   -14.9600   117.0630    10.2560     9.3140     9.0280    24.6210     2.3040 
  239.6250   -15.0040   114.9530    10.9100     9.7380     9.3950    24.6000     2.3270 
  239.7500   -15.0180   111.3530    11.5350    10.1680    10.0370    24.6090     2.3560 
  239.8750   -15.0630   108.1370    11.8940    10.4250    10.9570    24.6580     2.3710 
  240.0000   -15.1180   105.3740    11.7970    10.3460    12.1850    24.7080     2.3670 
  240.1250   -15.2280   104.0230    11.1760     9.8340    12.8520    24.6280     2.3530 
  240.2500   -15.4080   104.4430    10.3250     9.1210    12.2430    24.3960     2.3420 
  240.3750   -15.5880   107.8700     9.6500     8.5080    10.7770    24.0840     2.3460 
  240.5000   -15.8320   112.5670     9.7570     8.3600    10.1080    23.9570     2.3630 
  240.6250   -16.0450   110.3440    11.5530     9.3190    11.1890    24.3120     2.3850 
  240.7500   -16.3880   100.3660    15.6570    11.7560    14.9880    24.7110     2.3990 
  240.8750   -16.7540    88.2640    22.3600    16.0630    22.7620    24.9540     2.3960 
  241.0000   -17.1810    79.6570    31.4470    22.3540    35.8950    25.0260     2.3780 
  241.1250   -17.6190    74.6620    42.2370    30.4430    55.2050    25.0270     2.3540 
