~V
VERS. 2.00: Ver 2.00
~W
STRT.M 58.0000:
STOP.M 259.0000:
STEP.M 0.1250:
NULL. -999.2500:
UWI. DF3010:
~C
DEPT.M :
GR.API :
RML.OHMM :
RI. :
RXO.OHMM :
CALI.CM :
DEN.GM/CC :
SP.MV :
~A
# ...
  238.0000    82.1400    44.1060    42.2910    40.2390    23.9420     2.3970   -26.4950 
  238.1250    82.2000    41.1970    39.3290    36.4830    23.9560     2.3760   -26.0150 
  238.2500    81.6900    39.1860    37.1890    32.7820    23.8700     2.3630   -25.5860 
  238.3750    79.5340    37.9950    35.8310    31.0770    23.7770     2.3510   -25.0200 
  238.5000    75.9970    37.5040    35.1680    31.2830    23.8310     2.3360   -24.5180 
  238.6250    73.2160    37.5570    35.0760    33.4310    24.0480     2.3190   -23.9720 
  238.7500    72.2330    37.7550    35.1790    35.9030    24.2440     2.3040   -23.4160 
  238.8750    72.6490    37.8480    35.2360    38.4150    24.3860     2.2950   -22.9430 
  239.0000    71.7620    37.7630    35.1550    41.7150    24.4700     2.2900   -22.4360 
  239.1250    69.7370    37.7660    35.1220    43.1830    24.5090     2.2860   -22.1280 
  239.2500    69.7230    38.2740    35.4740    42.9590    24.5260     2.2850   -21.7930 
  239.3750    71.4310    39.4850    36.3820    42.4190    24.5330     2.2880   -21.5210 
  239.5000    71.9990    41.1630    37.6800    43.5700    24.5070     2.3020   -21.2890 
  239.6250    70.7650    42.4110    38.6770    47.7700    24.4470     2.3240   -21.0220 
  239.7500    69.6610    42.2800    38.5830    54.1460    24.3900     2.3440   -20.8220 
  239.8750    67.6670    40.2770    36.9370    59.3840    24.3930     2.3490   -20.6360 
  240.0000    64.9080    36.6250    33.8600    51.3570    24.4550     2.3360   -20.4410 
  240.1250    67.8640    32.2430    30.0590    42.7610    24.4890     2.3100   -20.2420 
  240.2500    75.2860    28.3460    26.5750    34.4830    24.5030     2.2880   -20.0740 
  240.3750    78.5080    25.4420    23.8730    27.7670    24.5050     2.2780   -19.9020 
  240.5000    73.5190    23.5460    22.0200    24.6170    24.5020     2.2800   -19.7630 
  240.6250    70.3120    22.4560    20.9040    24.4420    24.5000     2.2880   -19.6320 
  240.7500    75.6760    21.7290    20.1630    24.1980    24.4990     2.2930   -19.4670 
  240.8750    82.6380    21.2190    19.6500    22.6720    24.4980     2.2930   -19.3210 
  241.0000    83.4200    20.8830    19.2890    20.7480    24.4910     2.2900   -19.2080 
  241.1250    79.2050    20.6950    19.0250    19.5320    24.4700     2.2860   -19.0980 
  241.2500    77.3810    20.4960    18.7280    19.5640    24.4460     2.2820   -18.9480 
  241.3750    78.0420    20.1040    18.2620    20.3530    24.4350     2.2830   -18.8350 
  241.5000    79.8360    19.3920    17.5330    20.5330    24.4330     2.2930   -18.7130 
  241.6250    82.0700    18.3940    16.5670    19.6580    24.4300     2.3200   -18.6050 
  241.7500    84.2840    17.4700    15.6450    17.7740    24.4280     2.3620   -18.5580 
  241.8750    85.8950    16.9870    15.0630    15.8850    24.4280     2.4110   -18.4650 
  242.0000    85.9500    17.2260    15.0550    15.0970    24.4280     2.4510   -18.4750 
  242.1250    83.9850    18.3800    15.8260    16.4100    24.4330     2.4630   -18.4460 
  242.2500    80.4570    20.1090    17.1460    18.8200    24.4370     2.4480   -18.4540 
  242.3750    76.8630    22.0670    18.7590    22.4750    24.4380     2.4140   -18.5260 
  242.5000    73.4350    23.8790    20.3400    25.1340    24.4340     2.3780   -18.4880 
  242.6250    70.3210    25.1480    21.5070    25.4710    24.4350     2.3500   -18.5530 
  242.7500    68.3380    25.8440    22.1410    25.0000    24.4420     2.3290   -18.5700 
  242.8750    66.9340    25.9490    22.2070    24.0920    24.4570     2.3140   -18.5680 
  243.0000    65.6590    25.3910    21.7100    23.3180    24.4870     2.3030   -18.5850 
  243.1250    67.4030    24.0370    20.5860    23.4320    24.5000     2.2970   -18.5850 
  243.2500    72.2420    21.9810    19.0530    23.3320    24.5030     2.2960   -18.5700 
  243.3750    77.0670    19.5820    17.3840    21.6910    24.5040     2.3000   -18.5640 
  243.5000    80.7130    17.3940    15.9430    18.7890    24.5050     2.3100   -18.6160 
  243.6250    86.0840    16.0420    15.1400    16.2530    24.5000     2.3310   -18.6430 
  243.7500    89.3880    16.2000    14.9810    14.9790    24.4870     2.3650   -18.7260 
  243.8750    86.8130    16.8410    15.3560    15.3720    24.4650     2.4080   -18.7800 
  244.0000    80.8470    17.6570    16.0380    17.9710    24.4620     2.4460   -18.8420 
  244.1250    76.2810    18.3190    16.7360    21.6020    24.4720     2.4580   -18.9270 
  244.2500    73.6370    18.7020    17.2440    21.9430    24.4780     2.4390   -19.0640 
  244.3750    72.7840    18.8410    17.5280    20.5380    24.4480     2.3990   -19.1560 
  244.5000    73.8700    18.8530    17.6620    19.4480    24.4120     2.3530   -19.2320 
  244.6250    73.9260    18.8610    17.7420    19.9570    24.4540     2.3150   -19.3390 
  244.7500    71.8960    18.9190    17.8160    20.7610    24.5400     2.2910   -19.3330 
  244.8750    69.7040    19.0260    17.8660    21.4220    24.5810     2.2800   -19.4050 
  245.0000    67.7640    19.2040    17.8900    21.6070    24.5870     2.2790   -19.4030 
  245.1250    67.7280    19.5600    17.9750    21.2390    24.5870     2.2880   -19.3790 
  245.2500    70.4940    20.1390    18.2300    20.5020    24.5870     2.3010   -19.3940 
  245.3750    73.5780    20.9120    18.6960    20.2190    24.5810     2.3150   -19.3270 
  245.5000    73.1350    21.7280    19.2990    20.8600    24.5690     2.3250   -19.3180 
  245.6250    67.2620    22.2620    19.8010    23.4470    24.5540     2.3260   -19.2380 
  245.7500    62.5150    22.3030    19.9710    27.0910    24.5650     2.3200   -19.1830 
  245.8750    63.4810    21.8170    19.7090    27.4210    24.5490     2.3090   -19.1380 
  246.0000    69.7490    21.0350    19.1330    25.0410    24.4570     2.2930   -19.0490 
  246.1250    73.3280    20.6140    18.7040    22.7020    24.3160     2.2720   -19.0030 
  246.2500    72.2510    21.2280    18.9930    21.4030    24.2360     2.2430   -18.8690 
  246.3750    69.8870    23.2500    20.3580    20.4530    24.2950     2.2150   -18.6800 
  246.5000    68.7980    26.4770    22.7250    20.3410    24.4950     2.2040   -18.4630 
  246.6250    68.2880    29.8290    25.3140    21.8220    24.5950     2.2430   -18.2130 
  246.7500    66.5680    31.5760    26.7600    24.6070    24.5320     2.3340   -17.9350 
  246.8750    63.6900    30.5410    26.0150    28.9470    24.4100     2.4570   -17.6670 
  247.0000    61.2670    26.4700    22.8560    35.7300    24.3520     2.5680   -17.3830 
  247.1250    62.3370    20.7270    18.2140    41.7680    24.3520     2.6070   -17.0580 
  247.2500    65.1790    15.3690    13.9120    32.2580    24.3520     2.5760   -16.8000 
  247.3750    65.9270    11.4250    10.7090    17.5240    24.3520     2.5100   -16.6110 
  247.5000    63.6160     9.4040     8.6780     9.2040    24.3670     2.4460   -16.4370 
  247.6250    60.8700     8.6340     7.7100     7.1970    24.4060     2.4070   -16.2980 
  247.7500    60.5450     8.4680     7.3990     6.8500    24.4580     2.3890   -16.2660 
  247.8750    63.4840     8.7410     7.6020     7.0010    24.4800     2.3830   -16.1650 
  248.0000    66.4750     9.3770     8.2240     7.4010    24.4650     2.3810   -16.1440 
  248.1250    65.1110    10.3290     9.1860     8.8410    24.4130     2.3820   -16.1330 
  248.2500    62.2300    11.3520    10.2300    12.0100    24.3680     2.3880   -16.0920 
  248.3750    61.2540    12.1630    11.0890    17.2540    24.3500     2.4050   -16.1010 
  248.5000    61.2540    12.4790    11.4920    25.6870    24.3480     2.4310   -16.0890 
  248.6250    61.2540    12.0600    11.1800    31.5020    24.3440     2.4560   -16.1210 
  248.7500    61.2540    11.1710    10.3740    26.4390    24.3170     2.4650   -16.0830 
  248.8750    61.2540    10.1420     9.3600    16.2090    24.2200     2.4530   -16.1270 
  249.0000    61.2540     9.2970     8.4310     9.8040    24.0650     2.4280   -16.1380 
  249.1250    61.2540     8.8900     7.8180     7.7710    23.9480     2.4040   -16.1940 
