~V
VERS. 2.00: Ver 2.00
~W
STRT.M 130.0000:
STOP.M 268.0000:
STEP.M 0.1250:
NULL. -999.2500:
UWI. DF3061:
~C
DEPT.M :
GR.API :
CALI.CM :
RXO.OHMM :
RI. :
RML.OHMM :
DEN.GM/CC :
SP.MV :
~A
# ...
  175.0000    68.5980    25.2420   111.5570   109.7450   138.2790     2.2490   -27.3220 
  175.1250    72.4390    25.2270   107.6130   106.6910   134.4310     2.2510   -27.3420 
  175.2500    74.6030    25.1700   102.6050   101.2910   127.6270     2.2650   -27.3160 
  175.3750    72.2850    25.0770    94.0840    94.8670   119.5320     2.2840   -27.3170 
  175.5000    69.7420    25.0200    77.5350    89.9010   113.2750     2.2980   -27.3710 
  175.6250    70.7620    24.8060    58.7780    88.9140   112.0310     2.3020   -27.4710 
  175.7500    71.2110    24.8720    56.2430    91.9210   115.8200     2.2970   -27.5810 
  175.8750    68.2890    24.9170    64.3790    98.4230   124.0130     2.2890   -27.6570 
  176.0000    63.3700    24.9120    76.4630   107.3210   135.2250     2.2800   -27.7060 
  176.1250    61.9190    24.9010    98.1950   116.6990   147.0410     2.2710   -27.7630 
  176.2500    64.3060    24.9320   121.7040   123.8590   156.0630     2.2580   -27.7950 
  176.3750    67.7640    24.8980   125.7910   126.4860   159.3720     2.2430   -27.8220 
  176.5000    69.2080    24.6170   106.0200   123.8680   156.0730     2.2280   -27.8530 
  176.6250    68.4080    23.9350    83.6560   116.9440   147.3490     2.2180   -27.8950 
  176.7500    68.8570    23.6860    70.6550   109.2070   137.6010     2.2180   -27.9620 
  176.8750    71.2430    23.6510    62.5850   102.2000   128.7720     2.2270   -28.0340 
  177.0000    73.1420    23.7640    62.5220    96.8310   122.0070     2.2420   -28.0970 
  177.1250    71.9810    24.0840    63.2350    93.9250   118.3460     2.2520   -28.1640 
  177.2500    68.0880    24.3190    62.5660    92.9300   117.0910     2.2510   -28.2280 
  177.3750    64.3500    24.4960    63.4220    93.5310   117.8490     2.2400   -28.3100 
  177.5000    62.8900    24.6900    59.0430    95.3540   120.1460     2.2260   -28.4080 
  177.6250    63.2750    24.8430    56.6630    99.1340   124.9090     2.2200   -28.5310 
  177.7500    64.2310    24.9660    57.8100   105.0440   132.3550     2.2220   -28.6550 
  177.8750    65.0510    25.1570    66.9480   113.4020   142.8860     2.2230   -28.7550 
  178.0000    65.4290    25.2600    79.0650   125.0310   157.5390     2.2160   -28.8290 
  178.1250    63.7410    25.3630    89.2660   140.4090   176.9160     2.1990   -28.8580 
  178.2500    61.5890    25.5350   103.8520   158.0660   199.1630     2.1820   -28.8870 
  178.3750    60.6100    25.4900   129.2280   176.7960   222.7630     2.1710   -28.9250 
  178.5000    59.6650    25.3460   145.7680   194.6560   245.2670     2.1700   -28.9750 
  178.6250    57.4970    25.0130   145.3770   209.0700   263.4280     2.1780   -29.0340 
  178.7500    55.2620    24.9620   145.7940   219.2900   276.3050     2.1870   -29.0790 
  178.8750    54.3720    24.9280   151.2090   225.3210   283.9040     2.1920   -29.0950 
  179.0000    54.2650    24.8420   149.9740   227.3570   286.4700     2.1890   -29.0660 
  179.1250    53.4250    24.3270   138.4630   226.6070   285.5250     2.1850   -28.9960 
  179.2500    53.1720    24.0700   135.8440   225.6300   284.2930     2.1880   -28.9140 
  179.3750    54.8030    23.8610   151.2220   224.5360   282.9150     2.1970   -28.8230 
  179.5000    57.2420    24.0050   172.0520   223.0410   281.0310     2.2010   -28.7430 
  179.6250    56.7780    24.1180   177.5120   221.7990   279.4670     2.1910   -28.6620 
  179.7500    55.4330    24.3150   170.2130   222.2210   279.9990     2.1780   -28.5600 
  179.8750    57.2670    24.2090   160.0600   225.4600   284.0800     2.1700   -28.4440 
  180.0000    59.9240    24.0140   157.3050   231.9930   292.3110     2.1700   -28.3160 
  180.1250    59.2680    24.1170   165.6270   242.6070   305.6850     2.1690   -28.1820 
  180.2500    58.5930    24.5050   181.7590   256.5650   323.2720     2.1670   -28.0690 
  180.3750    60.3790    24.8520   207.3690   271.6450   342.2720     2.1670   -27.9650 
  180.5000    61.4890    24.9920   237.0930   284.1430   358.0200     2.1720   -27.8590 
  180.6250    60.1940    25.0170   255.3290   288.2130   363.1480     2.1760   -27.7350 
  180.7500    59.8910    24.9300   246.3370   279.8190   352.5720     2.1730   -27.6150 
  180.8750    61.1580    24.8010   238.0800   256.1430   322.7400     2.1680   -27.5170 
  181.0000    61.2650    24.5280   253.4420   220.0660   277.2840     2.1730   -27.4130 
  181.1250    60.5260    24.4610   262.0460   178.9030   225.4180     2.1930   -27.2960 
  181.2500    62.2690    24.3130   236.0640   141.2740   178.0060     2.2200   -27.1690 
  181.3750    66.2760    24.0430   177.1290   111.4030   140.3680     2.2440   -27.0790 
  181.5000    68.9860    23.9060   115.0760    90.6840   114.2610     2.2630   -27.0350 
  181.6250    67.8570    23.8650    71.3180    80.7730   101.7740     2.2730   -27.0120 
  181.7500    66.9310    23.8360    48.9310    78.4040    98.7890     2.2700   -26.9800 
  181.8750    67.9300    23.7920    51.5130    81.8800   103.1690     2.2530   -26.9070 
  182.0000    66.2300    23.7680    71.1820    89.1220   112.2940     2.2360   -26.8030 
  182.1250    60.8400    23.7320    88.2570    97.8500   123.2910     2.2350   -26.7350 
  182.2500    59.4340    23.7150    97.0970   105.4030   132.8070     2.2430   -26.7150 
  182.3750    62.5650    23.7060   100.2110   110.4200   139.1290     2.2420   -26.7410 
  182.5000    65.2470    23.6550    95.4500   112.1490   141.3080     2.2290   -26.7730 
  182.6250    65.0410    23.6680    85.8000   110.5540   139.2980     2.2160   -26.7850 
  182.7500    67.0720    23.6370    79.6900   108.9680   137.3000     2.2130   -26.7730 
  182.8750    69.4320    23.5750    73.3940   109.2060   137.5990     2.2110   -26.7380 
  183.0000    69.0490    23.5610    80.0470   109.9910   138.5890     2.2030   -26.7060 
  183.1250    66.6010    23.7090   108.7860   109.8140   138.3660     2.2000   -26.6680 
  183.2500    65.9740    23.7630   116.7150   107.8160   135.8480     2.2160   -26.6360 
  183.3750    67.5020    23.7610    99.1710   103.6060   130.5440     2.2460   -26.6130 
  183.5000    70.1920    23.8320    79.2860    97.7800   123.2030     2.2730   -26.5900 
  183.6250    69.5500    24.3570    71.7970    91.8290   115.7040     2.2810   -26.5750 
  183.7500    64.1300    24.6270    68.7960    86.3550   108.8080     2.2670   -26.5590 
  183.8750    59.2260    24.8480    71.4040    82.2090   103.5830     2.2390   -26.5620 
  184.0000    61.9470    24.9420    74.2320    80.2540   101.1200     2.2120   -26.5900 
  184.1250    70.0110    24.9830    66.4920    80.4810   101.4060     2.1990   -26.6220 
  184.2500    72.4460    24.9640    64.3640    81.6640   102.8970     2.1970   -26.6510 
  184.3750    69.6340    24.9840    68.8970    83.3420   105.0110     2.2030   -26.6660 
  184.5000    68.4380    25.1910    69.2400    85.3260   107.5100     2.2230   -26.6940 
  184.6250    70.8470    25.0670    68.4810    87.1010   109.7480     2.2560   -26.7240 
  184.7500    72.5640    25.1110    77.6940    88.3980   111.3810     2.2810   -26.7420 
  184.8750    71.1330    25.0770    90.6840    89.3040   112.5240     2.2840   -26.7150 
  185.0000    68.1580    25.0040    84.3020    91.0040   114.6660     2.2650   -26.6750 
  185.1250    65.6270    25.0610    63.8780    94.8680   119.5340     2.2380   -26.6720 
  185.2500    63.9740    25.1320    60.8910   100.4860   126.6120     2.2180   -26.7090 
  185.3750    63.1850    25.1060    83.2300   107.1370   134.9930     2.2070   -26.7910 
  185.5000    61.0920    25.1120    98.9690   114.1630   143.8450     2.1920   -26.8580 
  185.6250    58.7930    25.1570    94.5870   120.3980   151.7020     2.1670   -26.8740 
  185.7500    58.3750    25.2410   112.5020   124.2090   156.5030     2.1510   -26.8580 
  185.8750    59.5380    25.3640   148.9920   123.9860   156.2230     2.1570   -26.8480 
  186.0000    62.1410    25.2740   161.4760   118.8660   149.7710     2.1810   -26.8460 
  186.1250    65.3440    24.9310   127.4000   109.5140   137.9880     2.2110   -26.8710 
