~V
VERS. 2.00: Ver 2.00
~W
STRT.M 67.0000:
STOP.M 264.0000:
STEP.M 0.1250:
NULL. -999.2500:
UWI. DF3014:
~C
DEPT.M :
GR.API :
CALI.CM :
RXO.OHMM :
RI. :
RML.OHMM :
DEN.GM/CC :
SP.MV :
~A
   67.0000    52.6020    25.0770     1.0760     0.1500    -0.7150  -999.2500    -6.4110 
   67.1250    53.8070    24.7940     1.3330     0.1900    -0.6540  -999.2500    -9.1560 
   67.2500    60.2870    23.9030     1.9720     0.3220    -0.4640  -999.2500   -12.1940 
   67.3750    67.6810    23.1200     3.7970     0.5960    -0.1120  -999.2500   -15.5150 
   67.5000    71.9640    22.9520     6.3400     1.0720     0.4470  -999.2500   -18.9830 
   67.6250    73.0290    22.9470     8.3440     1.8360     1.2750  -999.2500   -22.4600 
   67.7500    73.0330    22.9900     8.9440     2.7910     2.2460  -999.2500   -25.8150 
   67.8750    74.3300    23.0290     9.1560     3.8060     3.2310  -999.2500   -28.9550 
   68.0000    75.4200    23.0360     9.4190     4.7450     4.0950  -999.2500   -31.7810 
   68.1250    72.7430    23.0830     9.6090     5.4600     4.6800  -999.2500   -34.0320 
   68.2500    67.6750    23.0750     9.5220     5.9870     5.0600  -999.2500   -35.7150 
   68.3750    63.8950    22.9630     9.3540     6.3970     5.3890  -999.2500   -36.9320 
   68.5000    61.6600    22.9530     9.4640     6.7150     5.7080  -999.2500   -37.8320 
   68.6250    59.3150    22.8690     9.7200     6.9420     5.9840  -999.2500   -38.5250 
   68.7500    57.9950    22.8970     9.6680     7.1050     6.2130  -999.2500   -39.1380 
   68.8750    58.4830    22.9340     9.4580     7.2300     6.4050  -999.2500   -39.7370 
   69.0000    60.1970    22.9390     9.4830     7.3300     6.5870  -999.2500   -40.3520 
   69.1250    62.1130    22.9220     9.7500     7.4090     6.7920  -999.2500   -40.9830 
   69.2500    64.7400    22.8880    10.1100     7.4680     7.0000  -999.2500   -41.5930 
   69.3750    68.3030    22.9300    10.3410     7.5000     7.1920  -999.2500   -42.1300 
   69.5000    71.9870    22.9840    10.4670     7.5190     7.3830  -999.2500   -42.5350 
   69.6250    72.2410    23.1790    10.4470     7.5410     7.6100  -999.2500   -42.7670 
   69.7500    69.7000    23.1260    10.2940     7.5750     7.8800  -999.2500   -42.8860 
   69.8750    67.9050    22.9950    10.1110     7.6370     8.1590  -999.2500   -42.9000 
   70.0000    68.8640    23.0110    10.2240     7.7210     8.4460  -999.2500   -42.8400 
   70.1250    72.8910    23.0150    10.6290     7.8110     8.6770  -999.2500   -42.7440 
   70.2500    75.3850    22.9780    11.0420     7.8850     8.8710  -999.2500   -42.6300 
   70.3750    74.5360    23.1160    10.9580     7.9210     8.9910  -999.2500   -42.5290 
   70.5000    71.9220    23.0050    10.4190     7.8990     9.0190  -999.2500   -42.4500 
   70.6250    67.7770    22.9480     9.9370     7.7780     8.9260  -999.2500   -42.3570 
   70.7500    64.1050    22.7480     9.8910     7.5670     8.7230  -999.2500   -42.1970 
   70.8750    62.7810    22.5790    10.0610     7.2820     8.4480  -999.2500   -41.9410 
   71.0000    65.4850    22.3730    10.0200     6.9430     8.0980  -999.2500   -41.5780 
   71.1250    73.9780    22.7360     9.6670     6.5910     7.7390  -999.2500   -41.1020 
   71.2500    84.3310    23.3080     8.6180     6.2660     7.4270  -999.2500   -40.5710 
   71.3750    92.5960    23.9660     6.9670     6.0030     7.1890  -999.2500   -40.0450 
   71.5000    96.2420    24.4110     5.4730     5.8240     7.0620  -999.2500   -39.6130 
   71.6250    98.3590    24.3410     5.1840     5.7890     7.0910  -999.2500   -39.3860 
   71.7500   101.8920    24.3670     5.1940     5.8730     7.2510  -999.2500   -39.3940 
   71.8750   103.2400    24.2070     5.4460     6.0510     7.4920  -999.2500   -39.6210 
   72.0000    99.3730    23.9670     5.9840     6.2900     7.7750  -999.2500   -40.0340 
   72.1250    91.5190    23.6180     6.6800     6.5300     7.9970  -999.2500   -40.5790 
   72.2500    84.5140    23.5390     7.3530     6.7200     8.1130  -999.2500   -41.1780 
   72.3750    79.6090    23.7170     8.0560     6.8380     8.1420  -999.2500   -41.7680 
   72.5000    75.3500    23.7560     8.7960     6.8990     8.1180  -999.2500   -42.2730 
   72.6250    73.0060    23.8520     9.4650     6.9060     8.0590  -999.2500   -42.6450 
   72.7500    75.0390    23.9210     9.5800     6.8900     8.0330  -999.2500   -42.8800 
   72.8750    79.3970    23.9470     9.5350     6.8900     8.0710  -999.2500   -43.0000 
   73.0000    79.6320    24.1530     9.5920     6.9280     8.1960  -999.2500   -42.9810 
   73.1250    74.2420    24.0610     9.6100     6.9710     8.3390  -999.2500   -42.7990 
   73.2500    68.7470    24.1640     9.5250     6.9800     8.4390  -999.2500   -42.4800 
   73.3750    65.0850    24.1520     9.4410     6.9380     8.4590  -999.2500   -42.0150 
   73.5000    65.3550    23.7490     9.3220     6.8440     8.3890  -999.2500   -41.4010 
   73.6250    70.8950    23.8100     9.1380     6.6910     8.2300  -999.2500   -40.6110 
   73.7500    78.0390    24.2350     8.7090     6.5200     8.0030  -999.2500   -39.7140 
   73.8750    83.1380    24.7020     7.6900     6.3480     7.7630  -999.2500   -38.7620 
   74.0000    85.5210    24.8590     6.6000     6.2170     7.5650  -999.2500   -37.8750 
   74.1250    86.6100    24.5800     6.8070     6.1450     7.4270  -999.2500   -37.1410 
   74.2500    86.9210    24.3730     7.4640     6.1080     7.3260  -999.2500   -36.4870 
   74.3750    85.9250    24.0650     7.1610     6.1280     7.2940  -999.2500   -35.9110 
   74.5000    84.6020    23.8300     6.7250     6.2700     7.4370  -999.2500   -35.4290 
   74.6250    83.8760    23.6740     7.1250     6.5510     7.7630  -999.2500   -35.0410 
   74.7500    82.7560    23.4920     8.1490     6.9060     8.2080  -999.2500   -34.6880 
   74.8750    80.9500    23.3550     8.5710     7.2950     8.7020  -999.2500   -34.2930 
   75.0000    79.5310    23.3480     8.6300     7.6320     9.0950  -999.2500   -33.7940 
   75.1250    81.3780    23.3920    11.3520     7.7330     9.1650  -999.2500   -33.2190 
   75.2500    85.3670    23.5600    15.3170     7.5850     8.9430  -999.2500   -32.6930 
   75.3750    90.9310    23.6380    13.6700     7.2060     8.4620  -999.2500   -32.2720 
   75.5000    98.7790    23.6360     7.1500     6.6670     7.7810  -999.2500   -31.9640 
   75.6250   109.0000    23.6040     5.0690     6.1470     7.1370  -999.2500   -31.7860 
   75.7500   116.9080    23.5190     4.6700     5.7670     6.6750  -999.2500   -31.7320 
   75.8750   117.3320    23.5500     4.7000     5.5020     6.3690  -999.2500   -31.8210 
   76.0000   111.8190    23.5390     4.7570     5.3370     6.2170  -999.2500   -32.0250 
   76.1250   109.1250    23.4640     4.7810     5.2420     6.1390  -999.2500   -32.2690 
   76.2500   111.4920    23.6210     4.8190     5.1620     6.0300  -999.2500   -32.5070 
   76.3750   113.3410    23.6540     4.8830     5.0920     5.9110  -999.2500   -32.7220 
   76.5000   111.6530    23.4900     4.9500     5.1120     5.9480  -999.2500   -32.9340 
   76.6250   109.6790    23.3510     4.8680     5.3320     6.3290  -999.2500   -33.1860 
   76.7500   107.8040    23.3280     4.9100     5.8070     7.1060  -999.2500   -33.5010 
   76.8750   102.2080    23.3350     5.2640     6.5590     8.2480  -999.2500   -33.9130 
   77.0000    92.0050    23.1720     7.9540     7.5320     9.6010  -999.2500   -34.4220 
   77.1250    80.4350    23.5140    13.2290     8.5520    10.8750  -999.2500   -35.0950 
   77.2500    71.6020    23.7090    18.3450     9.3450    11.7970  -999.2500   -35.8380 
   77.3750    65.4240    23.7440    18.7190     9.7160    12.1630  -999.2500   -36.5760 
   77.5000    62.5580    24.0050    15.0010     9.6360    11.9500  -999.2500   -37.2890 
   77.6250    63.4180    24.5700    11.4000     9.1910    11.3060  -999.2500   -37.9010 
   77.7500    66.8020    24.8860    10.1110     8.6690    10.6050  -999.2500   -38.3720 
   77.8750    70.3170    24.8290     9.6500     8.2270    10.0580  -999.2500   -38.6880 
   78.0000    70.4240    24.6140     9.6190     7.9600     9.8120  -999.2500   -38.8630 
   78.1250    66.9620    24.5660     9.8030     7.9000     9.8720  -999.2500   -38.8890 
