~V
VERS. 2.00: Ver 2.00
~W
STRT.M 60.0000:
STOP.M 283.0000:
STEP.M 0.1250:
NULL. -999.2500:
UWI. DF3045:
~C
DEPT.M :
DEN.GM/CC :
SP.MV :
AC.US/MT :
GR.API :
CALI.CM :
RXO.OHMM :
RI. :
RML.OHMM :
~A
# ...
  270.0000     2.4480   -15.5860   346.8160    61.8150    23.9810     9.0460    10.9180    13.6160 
  270.1250     2.4410   -15.6040   346.8640    58.7410    24.0850     9.3500    11.1850    13.9390 
  270.2500     2.4550   -15.7070   338.3910    57.7350    24.1110     9.5040    11.3990    14.1940 
  270.3750     2.4910   -15.7790   327.4690    59.4620    24.0310     9.3950    11.5400    14.3390 
  270.5000     2.5260   -15.7870   319.6390    63.3140    24.0440     9.8250    11.6240    14.4050 
  270.6250     2.5410   -15.7560   312.6240    65.3210    23.9770    12.3540    11.6570    14.4130 
  270.7500     2.5360   -15.7080   303.6620    64.4080    23.8520    17.6660    11.6780    14.4270 
  270.8750     2.5230   -15.7090   297.7760    62.2140    23.7400    19.5660    11.7050    14.4630 
  271.0000     2.5190   -15.7930   301.0630    60.1710    23.7320    15.9890    11.7590    14.5440 
  271.1250     2.5280   -15.8980   311.2190    59.9140    23.9560    10.2810    11.8760    14.7020 
  271.2500     2.5350   -15.9480   319.5110    61.2740    24.0080    10.0750    12.0560    14.9230 
  271.3750     2.5230   -15.9440   316.0680    64.3980    23.9810    11.1360    12.2890    15.1940 
  271.5000     2.4940   -15.8660   303.0980    67.0420    23.9520    13.9710    12.5520    15.4790 
  271.6250     2.4810   -15.7930   286.8660    68.7070    23.8000    18.5530    12.8480    15.7710 
  271.7500     2.5000   -15.8170   273.2290    69.5370    23.8630    19.8910    13.1420    16.0540 
  271.8750     2.5340   -15.8740   266.7920    69.5370    23.7540    17.3590    13.3990    16.2950 
  272.0000     2.5530   -15.8600   265.1510    69.5370    23.7180    14.8310    13.6020    16.4790 
  272.1250     2.5550   -15.8010   264.3980    69.5370    23.7440    14.9410    13.6970    16.5380 
  272.2500     2.5520   -15.7350   261.5320    69.5370    23.5740    16.8110    13.6740    16.4510 
  272.3750     2.5540   -15.6920   257.5570    69.5370    23.6070    17.9970    13.5150    16.1960 
  272.5000     2.5530   -15.7140   257.1220    69.5370    23.6000    17.8050    13.2150    15.7700 
  272.6250     2.5390   -15.7410   261.6400    69.5370    23.6760    16.7360    12.7860    15.1800 
  272.7500     2.5180   -15.6980   269.0370    69.5370    23.6960    17.1130    12.2860    14.5150 
  272.8750     2.5080   -15.5960   274.5100    69.5370    23.7260    17.6840    11.7750    13.8690 
  273.0000     2.5230   -15.5120   276.0650    69.5370    23.6900    17.8810    11.3090    13.2980 
  273.1250     2.5420   -15.4250   275.0980    69.5370    23.6940    17.8500    10.9530    12.8700 
  273.2500     2.5400   -15.3050   272.7450    69.5370    23.6790    17.8450    10.7250    12.5910 
  273.3750     2.5140   -15.2030   270.0210    69.5370    23.6800    16.9060    10.6130    12.4490 
  273.5000     2.4790   -15.1160   267.4910    69.5370    23.7100    15.7960    10.6020    12.4120 
  273.6250     2.4560   -15.0170   266.1980    69.5370    23.7890    15.1560    10.6550    12.4280 
  273.7500     2.4530   -14.9210   266.6670    69.5370    23.8020    13.8680    10.7060    12.4220 
  273.8750     2.4530   -14.8660   269.3910    69.5370    23.7260    11.7830    10.7010    12.3390 
  274.0000     2.4210   -14.8170   274.2740    69.5370    23.6920     9.6260    10.6170    12.1650 
  274.1250     2.3710   -14.8060   281.6400    69.5370    23.7190     8.7800    10.4630    11.9160 
  274.2500     2.3410   -14.8170   292.8230    69.5370    23.6830     8.8010    10.2740    11.6440 
  274.3750     2.3480   -14.8320   307.8890    69.5370    23.6730     8.9270    10.0990    11.4030 
  274.5000     2.3600   -14.8230   321.2550    69.5370    23.7150     8.3690     9.9830    11.2450 
  274.6250     2.3530   -14.8460   326.5950    69.5370    23.6740     7.6800     9.9550    11.2080 
  274.7500     2.3350   -14.8410   320.0520    69.5370    23.6200     7.7340    10.0020    11.2560 
  274.8750     2.3070   -14.8320   303.4280    69.5370    23.5050     7.6010    10.0770    11.3640 
  275.0000     2.2520   -14.8530   289.0090    69.5370    23.4760     6.9540    10.1480    11.4880 
  275.1250     2.1800   -14.8430   286.8150    69.5370    23.8370     6.2810    10.1960    11.5660 
  275.2500     2.1110   -14.8110   300.4680    69.5370    23.6910     5.9120    10.2140    11.6060 
  275.3750     2.0550   -14.7650   324.2480    69.5370    23.2870     5.7600    10.2080    11.6120 
  275.5000     2.0020   -14.7380   346.2000    69.5370    23.1790     5.7400    10.1950    11.6000 
  275.6250     1.9570   -14.6350   360.9660    69.5370    23.5980     5.9130    10.2170    11.6190 
  275.7500     1.9510   -14.6130   364.1280    69.5370    24.1120     6.3430    10.3170    11.7190 
  275.8750     2.0190   -14.5670   352.3030    69.5370    24.0160     7.0300    10.5250    11.9620 
  276.0000     2.1550   -14.5000   334.3800    69.5370    23.7200     8.1710    10.8710    12.3830 
  276.1250     2.2880   -14.4650   319.0310    69.5370    23.4970    10.4940    11.3840    13.0350 
  276.2500     2.3820   -14.4300   309.0170    69.5370    23.4740    12.7580    12.0170    13.8210 
  276.3750     2.4440   -14.3810   297.7330    69.5370    23.2800    14.3890    12.7280    14.6730 
  276.5000     2.4990   -14.3840   283.8590    69.5370    23.1090    15.9220    13.4540    15.5360 
  276.6250     2.5400   -14.4360   272.4330    69.5370    23.2030    18.3670    14.1020    16.2870 
  276.7500     2.5520   -14.4360   266.5020    69.5370    23.5820    22.3840    14.6190    16.8680 
  276.8750     2.5400   -14.4540   264.5230    69.5370    23.7080    25.2290    14.9640    17.2320 
  277.0000     2.5260   -14.4690   264.2950    69.5370    23.6690    23.5100    15.1460    17.4030 
  277.1250     2.5190   -14.4680   267.5000    69.5370    23.6190    18.7180    15.1790    17.4310 
  277.2500     2.5140   -14.4390   273.9750    69.5370    23.5420    17.4850    15.1770    17.4200 
  277.3750     2.5080   -14.4600   279.2390    69.5370    23.5970    18.4140    15.1740    17.4130 
  277.5000     2.5050   -14.4750   280.2560    69.5370    23.6600    19.4750    15.1750    17.4030 
  277.6250     2.5060   -14.4250   272.2560    69.5370    23.6650    19.9240    15.1760    17.3990 
  277.7500     2.5080   -14.4140   267.8710    69.5370    23.6650    20.0440    15.1760    17.3990 
  277.8750     2.5080   -14.4130   267.3650    69.5370    23.6580    19.5860    15.1760    17.3990 
  278.0000     2.5080   -14.4200   267.0930    69.5370    23.5700    19.1420    15.1760    17.3990 
  278.1250     2.5120   -14.4230   266.2560    69.5370    23.5060    18.8180    15.1760    17.3990 
  278.2500     2.5110   -14.4020   265.7600    69.5370    23.3710    18.4010    15.1760    17.3990 
  278.3750     2.4990   -14.3490   266.8980    69.5370    23.2940    18.1440    15.1760    17.3990 
  278.5000     2.4840   -14.2920   268.7370    69.5370    23.3370    17.8500    15.1760    17.3990 
  278.6250     2.4900   -14.2980   270.0860    69.5370    23.3880    17.8700    15.1760    17.3990 
  278.7500     2.5190   -14.3320   270.4770    69.5370    23.6270    18.8430    15.1760    17.3990 
  278.8750     2.5520   -14.3200   270.4510    69.5370    23.8630    19.9360    15.1760    17.3990 
  279.0000     2.5660   -14.3290   271.1160    69.5370    23.7020    20.2160    15.1760    17.3990 
  279.1250     2.5720   -14.3170   272.6270    69.5370    23.6380    19.0170    15.1760    17.3990 
  279.2500     2.5820   -14.3410   274.1550    69.5370    23.5250    18.2820    15.1760    17.3990 
  279.3750     2.5930   -14.3980   273.9120    69.5370    23.5170    18.1950    15.1760    17.3990 
  279.5000     2.5960   -14.4080   271.4890    69.5370    23.5250    19.0300    15.1760    17.3990 
  279.6250     2.5960   -14.4080   268.1230    69.5370    23.4090    20.5840    15.1760    17.3990 
  279.7500     2.5980  -999.2500   265.4810    69.5370    23.4330    22.4260    15.1760    17.3990 
  279.8750     2.5940  -999.2500   263.7390    69.5370    23.4510    23.8920    15.1760    17.3990 
