~V
VERS. 2.00: Ver 2.00
~W
STRT.M 67.0000:
STOP.M 264.0000:
STEP.M 0.1250:
NULL. -999.2500:
UWI. DF3014:
~C
DEPT.M :
GR.API :
CALI.CM :
RXO.OHMM :
RI. :
RML.OHMM :
DEN.GM/CC :
SP.MV :
~A
# ...
  258.2500    62.8870    22.1000    34.3080    28.8040    30.2960     2.5820   -18.5230 
  258.3750    62.8870    22.0310    27.9010    28.8190    30.3090     2.6010   -18.5680 
  258.5000    62.8870    22.0020    23.3750    28.8200    30.2820     2.6110   -18.5870 
  258.6250    62.8870    21.9480    21.3360    28.8170    30.2590     2.6090   -18.5780 
  258.7500    62.8870    21.9390    20.8450    28.8180    30.2620     2.6020   -18.5710 
  258.8750    62.8870    21.9350    20.7910    28.8230    30.2880     2.5990   -18.6200 
  259.0000    62.8870    21.9300    20.6740    28.8310    30.3190     2.5950   -18.6420 
  259.1250    62.8870    21.8920    20.5920    28.8310    30.3190     2.5900   -18.5910 
  259.2500    62.8870    21.8630    20.7680    28.8310    30.3190     2.5910   -18.5650 
  259.3750    62.8870    21.8600    21.0870    28.8310    30.3190     2.6070   -18.4620 
  259.5000    62.8870    21.6750    21.3440    28.8310    30.3190     2.6270   -18.4340 
  259.6250    62.8870    21.6650    21.0080    28.8310    30.3190     2.6390   -18.4140 
  259.7500    62.8870    21.6750    20.8330    28.8310    30.3190     2.6420   -18.4070 
  259.8750    62.8870    21.6450    21.5640    28.8310    30.3190     2.6380   -18.4270 
  260.0000    62.8870    21.6030    22.3310    28.8310    30.3190     2.6290   -18.4220 
  260.1250    62.8870    21.4590    21.2600    28.8310    30.3190     2.6140   -18.5000 
  260.2500    62.8870    21.3080    19.8520    28.8310    30.3190     2.5990   -18.5710 
  260.3750    62.8870    21.2900    19.6830    28.8310    30.3190     2.5970   -18.6930 
  260.5000    62.8870    21.2280    20.3190    28.8310    30.3190     2.6080   -18.8310 
  260.6250    62.8870    21.2670    20.3560    28.8310    30.3190     2.6160   -18.9130 
  260.7500    62.8870    21.2340    19.7550    28.8310    30.3190     2.6120   -19.0140 
  260.8750    62.8870    21.1770    19.9670    28.8310    30.3190     2.5990   -19.0140 
  261.0000    62.8870    21.0130    20.7970    28.8310    30.3190     2.5860   -19.0140 
  261.1250    62.8870    20.9200    20.7540    28.8310    30.3190     2.5790  -999.2500 
  261.2500    62.8870    20.8900    19.8790    28.8310    30.3190     2.5810  -999.2500 
  261.3750    62.8870    20.7510    18.9760    28.8310    30.3190     2.6000  -999.2500 
  261.5000    62.8870    20.7590    18.9670    28.8310    30.3190     2.6240  -999.2500 
  261.6250    62.8870    20.7120    19.9180    28.8310    30.3190     2.6370  -999.2500 
  261.7500    62.8870    20.7010    19.9310    28.8310    30.3190     2.6290  -999.2500 
  261.8750    62.8870    20.5640    18.3730    28.8310    30.3190     2.6050  -999.2500 
  262.0000    62.8870    20.4060    16.8050    28.8310    30.3190     2.5840  -999.2500 
  262.1250    62.8870    20.3820    16.8520    28.8310    30.3190     2.5620  -999.2500 
  262.2500    62.8870    20.3370    16.7290    28.8310    30.3190     2.5100  -999.2500 
  262.3750    62.8870    20.2810    14.4450    28.8310    30.3190     2.4010  -999.2500 
  262.5000    62.8870    19.9720    10.8070    28.8310    30.3190     2.2730  -999.2500 
  262.6250    62.8870    18.4880     8.5120    28.8310    30.3190     2.1950  -999.2500 
  262.7500    62.8870    16.2490     7.2110    28.8310    30.3190     2.2860  -999.2500 
  262.8750    62.8870    14.1750     6.5190    28.8310    30.3190     2.2900  -999.2500 
  263.0000    62.8870    13.4970     6.3070    28.8310    30.3190     1.9550  -999.2500 
  263.1250    62.8870    13.3920     6.2820    28.8310    30.3190     1.6580  -999.2500 
  263.2500    62.8870    13.3620     6.2770    28.8310    30.3190     1.9590  -999.2500 
  263.3750    62.8870    13.3070     6.2770    28.8310    30.3190     2.9370  -999.2500 
  263.5000    62.8870    13.3510     6.2780    28.8310    30.3190     3.6990  -999.2500 
  263.6250    62.8870    13.2270     6.2770    28.8310    30.3190     3.6110  -999.2500 
  263.7500    62.8870    13.2520     6.2710    28.8310    30.3190     2.8430  -999.2500 
  263.8750    62.8870    13.1780     6.2760    28.8310    30.3190     2.2000  -999.2500 
  264.0000    62.8870    13.3380     6.2780    28.8310    30.3190     2.1170  -999.2500 
