~V
VERS. 2.00: Ver 2.00
~W
STRT.M 67.0000:
STOP.M 264.0000:
STEP.M 0.1250:
NULL. -999.2500:
UWI. DF3014:
~C
DEPT.M :
GR.API :
CALI.CM :
RXO.OHMM :
RI. :
RML.OHMM :
DEN.GM/CC :
SP.MV :
~A
# ...
  145.7500    55.6940    23.2400    13.5020    15.1250    17.2760     2.6180   -15.8080 
  145.8750    54.9690    23.3140    13.7580    15.3430    17.5300     2.6140   -15.8050 
  146.0000    55.9840    23.5960    14.7960    15.4680    17.6460     2.6070   -15.7810 
  146.1250    58.1100    23.8670    15.4720    15.4370    17.6050     2.5980   -15.7550 
  146.2500    59.0880    23.8760    16.0200    15.3630    17.5280     2.5910   -15.7620 
  146.3750    57.9810    23.8320    15.4590    15.3250    17.5160     2.5900   -15.8110 
  146.5000    56.5080    23.8170    14.3270    15.3610    17.6060     2.5900   -15.8540 
  146.6250    55.2260    23.8950    14.2330    15.4980    17.8270     2.5860   -15.8550 
  146.7500    54.3000    23.8930    14.6990    15.7290    18.1550     2.5840   -15.8050 
  146.8750    54.7540    23.8670    14.7940    16.0190    18.5630     2.5870   -15.7040 
  147.0000    56.6620    23.8860    15.5880    16.3230    18.9950     2.5910   -15.6340 
  147.1250    57.5440    23.8980    16.6260    16.5530    19.3090     2.5920   -15.6450 
  147.2500    56.3580    23.8910    17.1990    16.5750    19.3700     2.5910   -15.7110 
  147.3750    55.8410    23.8930    16.2830    16.3100    19.0990     2.5890   -15.8040 
  147.5000    56.6730    23.8480    14.8580    15.7640    18.4980     2.5830   -15.8780 
  147.6250    57.3700    23.8680    14.3670    15.0000    17.6280     2.5740   -15.9350 
  147.7500    58.4760    23.8770    14.1880    14.1930    16.7020     2.5670   -16.0030 
  147.8750    61.8810    23.9260    13.3250    13.4790    15.9000     2.5660   -16.0670 
  148.0000    66.6340    23.9690    11.6930    12.9760    15.3960     2.5720   -16.1410 
  148.1250    68.5630    24.0990    10.1690    12.8280    15.3650     2.5810   -16.2140 
  148.2500    67.4140    24.1920    10.2740    13.0150    15.7470     2.5850   -16.2720 
  148.3750    65.6400    24.1740    11.6360    13.4740    16.4410     2.5830   -16.3070 
  148.5000    65.6580    23.9710    14.1780    14.1400    17.3420     2.5800   -16.3240 
  148.6250    68.1100    23.8830    15.5630    14.9170    18.3420     2.5770   -16.3770 
  148.7500    69.7780    24.0390    15.8000    15.6700    19.2690     2.5660   -16.4850 
  148.8750    69.5320    24.1430    15.7760    16.3050    20.0290     2.5550   -16.6580 
  149.0000    70.0770    23.9990    16.3270    16.7700    20.5880     2.5520   -16.8360 
  149.1250    71.7120    24.0290    17.0510    17.0330    20.9280     2.5520   -16.9060 
  149.2500    71.7540    24.0910    17.3250    17.1530    21.1350     2.5400   -16.9060 
  149.3750    69.3730    24.1300    17.3790    17.1910    21.2620     2.5270   -16.8790 
  149.5000    67.4380    24.0200    17.4930    17.1510    21.2930     2.5280   -16.9030 
  149.6250    67.4490    24.1720    17.3760    16.9820    21.1460     2.5410   -16.9900 
  149.7500    66.9820    24.1720    16.6960    16.7170    20.8430     2.5450   -17.0950 
  149.8750    66.6920    24.0330    15.5990    16.3740    20.4180     2.5390   -17.2050 
  150.0000    67.1580    23.9950    14.9080    15.9770    19.8880     2.5270   -17.2870 
  150.1250    67.6070    24.1510    15.0660    15.5650    19.3200     2.5180   -17.3540 
  150.2500    68.9440    24.1430    14.4060    15.1990    18.8250     2.5170   -17.4340 
  150.3750    69.7160    24.0220    13.1980    14.9270    18.4740     2.5310   -17.5950 
  150.5000    69.2760    23.9620    12.3600    14.7870    18.3090     2.5550   -17.8300 
  150.6250    68.1110    23.9790    12.1080    14.7500    18.2550     2.5760   -18.1110 
  150.7500    67.6810    24.0570    12.1230    14.6910    18.1580     2.5840   -18.3460 
  150.8750    69.0330    24.0690    12.3460    14.5330    17.9200     2.5770   -18.4800 
  151.0000    71.2890    23.9700    12.6430    14.2310    17.4840     2.5600   -18.5990 
  151.1250    71.9060    23.9540    12.9190    13.7470    16.8010     2.5440   -18.8080 
  151.2500    70.1900    23.9660    13.0570    13.1450    15.9710     2.5280   -19.1140 
  151.3750    69.3040    24.0640    12.2040    12.5170    15.1170     2.5030   -19.4620 
  151.5000    75.4640    24.0600    10.8180    11.9510    14.3800     2.4690   -19.8010 
  151.6250    84.1690    23.9470     9.8870    11.5300    13.8400     2.4380   -20.0980 
  151.7500    87.2900    23.8240    10.0930    11.2530    13.4830     2.4210   -20.3680 
  151.8750    86.1970    23.8490    10.1620    11.0940    13.2580     2.4220   -20.6330 
  152.0000    86.9850    23.8550     9.9010    11.0330    13.1590     2.4400   -20.8800 
  152.1250    89.0870    23.8020     9.8010    11.0720    13.1710     2.4640   -21.1460 
  152.2500    87.7080    23.6360     9.7180    11.1740    13.2570     2.4760   -21.3770 
  152.3750    85.6760    23.4620     9.7230    11.3210    13.3900     2.4750   -21.5450 
  152.5000    87.2530    23.5350     9.7960    11.4850    13.5370     2.4690   -21.6850 
  152.6250    90.4900    23.7060    10.3270    11.6400    13.6510     2.4660   -21.7850 
  152.7500    90.5380    23.9720    11.0040    11.7230    13.6560     2.4660   -21.8810 
  152.8750    87.9760    23.9410    11.2490    11.6910    13.4880     2.4670   -21.9540 
  153.0000    86.8720    23.8710    10.7090    11.5270    13.1530     2.4680   -21.9970 
  153.1250    90.4230    23.6360     9.6320    11.2530    12.6850     2.4710   -22.0070 
  153.2500    93.9630    23.4880     8.9100    10.9420    12.2030     2.4760   -22.0150 
  153.3750    93.0750    23.4970     8.6240    10.6580    11.7820     2.4820   -22.0590 
  153.5000    88.6430    23.2920     8.3650    10.4460    11.4640     2.4860   -22.0880 
  153.6250    88.4410    23.1560     8.0260    10.3470    11.2930     2.4920   -22.0840 
  153.7500    93.5180    22.9490     7.9580    10.3740    11.2750     2.5000   -22.0640 
  153.8750    98.9970    22.9140     8.0070    10.5200    11.3830     2.5070   -22.0800 
  154.0000    99.1160    22.9360     8.2300    10.7450    11.5610     2.5120   -22.1610 
  154.1250    95.1620    22.9400     8.4990    10.9880    11.7780     2.5150   -22.2540 
  154.2500    94.3730    22.9410     8.4760    11.2050    11.9760     2.5140   -22.3500 
  154.3750    97.1960    22.9790     8.5120    11.3470    12.0980     2.5060   -22.4140 
  154.5000    97.9620    22.9590     8.9300    11.3550    12.1040     2.4980   -22.4420 
  154.6250    94.6870    22.9310     9.3280    11.2060    11.9660     2.4970   -22.4500 
  154.7500    94.9770    22.9510     9.0370    10.9830    11.7640     2.5020   -22.4850 
  154.8750   100.0000    22.9240     8.3600    10.7670    11.5920     2.5060   -22.6160 
  155.0000   101.3110    22.9210     8.1610    10.6540    11.5540     2.5070   -22.8020 
  155.1250    94.3190    22.9190     8.4040    10.7880    11.8260     2.5090   -22.9130 
  155.2500    89.2440    22.9290     8.7450    11.2330    12.5060     2.5150   -22.9360 
  155.3750    90.3720    22.9680     9.3170    12.1000    13.7600     2.5190   -22.9540 
  155.5000    93.4630    22.9940    10.6620    13.5640    15.8550     2.5080   -23.0520 
  155.6250    92.6920    23.0760    13.1190    16.0280    19.2930     2.4780   -23.3220 
  155.7500    87.5930    23.1600    16.0270    19.7060    24.2710     2.4440   -23.6440 
  155.8750    79.7720    23.0520    19.5450    25.0020    31.0730     2.4120   -23.8650 
  156.0000    74.7910    22.9540    24.6650    32.3000    39.8360     2.3850   -23.9850 
  156.1250    76.8410    22.9750    36.6380    41.8170    50.6180     2.3600   -24.1440 
  156.2500    78.2720    22.9910    51.9810    52.5970    62.3760     2.3360   -24.3630 
  156.3750    75.6870    23.1000    61.3140    63.4160    73.8510     2.3170   -24.5970 
  156.5000    72.6050    23.3830    62.8650    72.6170    83.4120     2.3050   -24.8330 
  156.6250    69.8210    23.6600    63.9680    78.4330    89.2630     2.3000   -25.0340 
  156.7500    66.8540    23.8380    67.6010    81.3650    91.9980     2.2980   -25.2200 
  156.8750    66.4330    23.8640    69.8600    82.2750    92.6710     2.3030   -25.4060 
