~V
VERS. 2.00: Ver 2.00
~W
STRT.M 57.0000:
STOP.M 290.0000:
STEP.M 0.1250:
NULL. -999.2500:
UWI. DF3043:
~C
DEPT.M :
SP.MV :
DEN.GM/CC :
AC.US/MT :
GR.API :
CALI.CM :
RXO.OHMM :
RI. :
RML.OHMM :
~A
# ...
  137.0000   -17.1810     2.2860   447.1010    97.4030    23.7340     4.6490     4.4210     4.3910 
  137.1250   -17.1900     2.2820   447.4120   100.7730    23.7440     4.4680     4.4910     4.5720 
  137.2500   -17.3130     2.2780   448.0090   100.4200    23.8720     4.3650     4.6810     4.8600 
  137.3750   -17.5290     2.2750   445.7250    98.4350    23.9570     4.8830     4.9470     5.2050 
  137.5000   -17.8040     2.2670   437.8590    95.7060    23.8970     5.5900     5.2340     5.5560 
  137.6250   -18.1290     2.2620   426.8420    91.1510    23.8920     5.9170     5.4630     5.8130 
  137.7500   -18.4800     2.2660   418.9130    86.6070    24.0690     5.8060     5.5740     5.8950 
  137.8750   -18.8460     2.2710   416.1030    84.2500    24.1880     5.8350     5.5370     5.7570 
  138.0000   -19.2050     2.2630   416.0930    83.2720    24.0280     6.1770     5.3820     5.4700 
  138.1250   -19.5310     2.2450   416.8110    82.8070    23.7400     6.4100     5.2620     5.3180 
  138.2500   -19.8320     2.2360   418.6930    82.1300    23.6400     6.2720     5.3950     5.6480 
  138.3750   -20.1100     2.2490   417.5310    81.7800    23.7080     6.6280     6.0030     6.7630 
  138.5000   -20.3700     2.2910   402.2410    81.1760    23.7950     9.5860     7.3200     8.9200 
  138.6250   -20.6280     2.3660   358.1270    77.8450    23.8690    18.4930     9.7100    12.4740 
  138.7500   -20.8870     2.4510   298.1980    72.4610    23.9630    30.4950    12.8470    16.8100 
  138.8750   -21.1640     2.5120   248.6650    67.6400    24.0500    37.7640    15.7810    20.4040 
  139.0000   -21.4850     2.5180   234.3940    64.9120    24.0420    34.0970    17.0580    21.1420 
  139.1250   -21.8650     2.4600   266.9430    63.7550    23.7920    21.4780    15.8650    18.4420 
  139.2500   -22.2790     2.3730   320.0010    64.7460    23.3810    13.9870    13.7510    15.0840 
  139.3750   -22.7040     2.2820   370.2220    67.7620    23.0090    11.3010    11.7920    12.5140 
  139.5000   -23.1230     2.2080   403.8670    70.1510    22.8370    10.4400    10.4410    11.0610 
  139.6250   -23.5130     2.1740   418.0410    69.0250    22.8600    10.2710     9.8120    10.6420 
  139.7500   -23.8230     2.1660   423.7950    67.4520    22.9190    10.2640     9.6280    10.7420 
  139.8750   -24.0250     2.1700   425.5940    67.8940    22.9660    10.3330     9.6860    11.0360 
  140.0000   -24.1260     2.1800   424.7890    69.0880    22.9890    10.8150     9.7870    11.2550 
  140.1250   -24.1290     2.1960   422.4190    69.6200    22.9890    11.8100     9.7710    11.2160 
  140.2500   -24.0740     2.2080   420.3940    69.4270    22.9850    11.8870     9.6180    10.9630 
  140.3750   -23.9840     2.2070   418.7230    69.3450    22.9780    10.8270     9.3610    10.5860 
  140.5000   -23.8830     2.1950   417.0850    69.2180    23.0240    10.0320     9.0580    10.1800 
  140.6250   -23.8070     2.1790   416.4020    68.4340    23.2110     9.9950     8.7520     9.8100 
  140.7500   -23.7400     2.1660   416.7160    67.8210    23.4430    10.1050     8.4730     9.5030 
  140.8750   -23.6620     2.1550   417.3550    68.1750    23.5860    10.0630     8.2840     9.3490 
  141.0000   -23.5590     2.1400   417.8600    67.9150    23.6080    10.1900     8.3130     9.5330 
  141.1250   -23.4440     2.1290   419.8200    66.2580    23.6150    10.6170     8.8060    10.4110 
  141.2500   -23.3590     2.1460   417.9250    66.4230    23.6750    11.3300     9.8370    12.0610 
  141.3750   -23.3000     2.2120   398.3380    67.6170    23.7480    14.6880    11.4090    14.4280 
  141.5000   -23.2380     2.3340   350.1930    66.4450    23.8040    25.1810    13.2850    17.0670 
  141.6250   -23.1380     2.4800   284.3320    61.6580    23.8500    35.2900    14.6610    18.6530 
  141.7500   -23.0060     2.5790   240.3240    59.0250    23.8320    32.2460    14.8090    18.2490 
  141.8750   -22.8970     2.5850   241.5300    61.1320    23.5940    20.1410    13.7120    16.1480 
  142.0000   -22.8440     2.4970   284.3460    64.2270    23.1000    11.6580    12.0130    13.5670 
  142.1250   -22.8670     2.3680   342.5950    64.2910    22.5860     9.9110    10.5000    11.6680 
  142.2500   -22.9520     2.2580   387.5570    63.1360    22.2780     9.9270     9.5020    10.6620 
  142.3750   -23.0740     2.1880   412.4560    63.9160    22.1880    10.2070     9.0540    10.4390 
  142.5000   -23.2010     2.1560   421.3030    67.4340    22.2830    10.7400     9.0740    10.7760 
  142.6250   -23.2570     2.1580   422.3550    69.9750    22.5490    11.1680     9.4520    11.4180 
  142.7500   -23.2020     2.1710   421.1810    70.4810    22.8080    11.4430     9.9330    12.0340 
  142.8750   -23.0400     2.1810   418.1650    69.9930    22.9370    11.7180    10.3310    12.4030 
  143.0000   -22.7790     2.1900   414.1250    69.8830    22.9530    11.8100    10.4670    12.3350 
  143.1250   -22.4360     2.2050   411.4210    70.9430    22.9050    12.4300    10.1450    11.6350 
  143.2500   -22.0620     2.2220   412.1450    71.4910    22.8210    12.4650     9.4500    10.5120 
  143.3750   -21.6900     2.2330   416.5900    72.2810    22.7650    10.7460     8.5450     9.2450 
  143.5000   -21.3490     2.2340   423.9720    75.7120    22.8090     8.2000     7.6520     8.1440 
  143.6250   -21.0730     2.2350   432.2530    81.3030    22.9200     6.9210     7.0050     7.4900 
  143.7500   -20.8620     2.2420   438.8620    84.4710    22.9960     6.5570     6.6520     7.2550 
  143.8750   -20.7200     2.2460   443.4590    83.1930    23.0110     6.4810     6.5670     7.3480 
  144.0000   -20.6380     2.2400   446.4860    80.1560    22.9760     7.2640     6.6680     7.6150 
  144.1250   -20.6130     2.2240   447.2340    78.1910    22.9330     8.1930     6.8440     7.8760 
  144.2500   -20.6340     2.2120   445.6440    76.2470    22.9740     8.3850     6.9900     8.0320 
  144.3750   -20.6670     2.2090   443.0320    76.2040    23.1530     7.6820     7.0990     8.1220 
  144.5000   -20.6780     2.2110   440.5260    77.8660    23.4120     6.8840     7.2240     8.2550 
  144.6250   -20.6270     2.2080   435.9780    76.4290    23.5760     6.9790     7.4580     8.5690 
  144.7500   -20.4980     2.1970   427.9790    72.1750    23.5790     8.0980     7.8180     9.0570 
  144.8750   -20.3080     2.1830   417.7130    69.7540    23.4600     9.3710     8.2630     9.6320 
  145.0000   -20.0870     2.1720   406.5950    72.3550    23.2810    10.0460     8.7120    10.1800 
  145.1250   -19.8520     2.1700   399.5190    75.8360    23.0970    10.0740     9.1350    10.7010 
  145.2500   -19.5840     2.1720   398.0380    77.2880    22.9820     9.8630     9.6100    11.3330 
  145.3750   -19.2320     2.1800   399.0760    76.9900    22.9650     9.7600    10.1670    12.1020 
  145.5000   -18.7810     2.1990   394.9480    73.5120    22.9930    10.1640    10.6740    12.7870 
  145.6250   -18.2480     2.2450   373.3140    68.2690    22.9890    13.7740    10.7460    12.7780 
  145.7500   -17.6650     2.3140   339.2560    66.0290    22.9670    18.8030    10.1710    11.7850 
  145.8750   -17.0570     2.3850   312.3020    69.3360    22.9500    17.1250     9.0130    10.0080 
  146.0000   -16.4430     2.4190   318.3430    76.1940    22.9160     9.3450     7.6250     8.0610 
  146.1250   -15.8670     2.3870   361.6700    81.7670    22.8290     6.0200     6.4390     6.5890 
  146.2500   -15.3850     2.3280   402.5100    84.8300    22.7540     6.5250     5.6070     5.6940 
  146.3750   -15.0190     2.2790   420.1190    87.4710    22.7740     6.9540     5.1410     5.3130 
  146.5000   -14.7630     2.2610   420.2340    91.3220    22.8900     6.7210     5.0030     5.3180 
  146.6250   -14.5820     2.2700   419.1930    93.7710    23.0010     5.9840     5.1220     5.5400 
  146.7500   -14.4130     2.2770   420.0220    92.9900    23.0730     5.4970     5.3070     5.7390 
  146.8750   -14.2470     2.2660   419.7260    90.7110    23.2030     5.4470     5.4320     5.7860 
