~V
VERS. 2.00: Ver 2.00
~W
STRT.M 125.0000:
STOP.M 269.0000:
STEP.M 0.1250:
NULL. -999.2500:
UWI. DF3004:
~C
DEPT.M :
GR.API :
RML.OHMM :
RI. :
RXO.OHMM :
CALI.CM :
DEN.GM/CC :
SP.MV :
~A
# ...
  215.0000    65.6430    91.5750    88.3290    89.7230    23.8890     2.2030   -23.5530 
  215.1250    66.4920    89.9460    86.6090    84.7850    23.8850     2.2090   -23.5120 
  215.2500    67.5400    88.5500    85.2170    82.5870    23.9450     2.2120   -23.3700 
  215.3750    69.1460    87.0120    83.7740    84.0870    24.0110     2.2110   -23.3060 
  215.5000    70.0560    85.2970    82.1840    87.2490    24.1090     2.2090   -23.2300 
  215.6250    69.0840    83.9720    80.8740    89.0090    24.1110     2.2070   -23.0740 
  215.7500    67.4770    83.8380    80.5440    86.3950    23.8700     2.2070   -22.9460 
  215.8750    66.8380    85.5660    81.8370    82.2290    23.6430     2.2090   -22.8590 
  216.0000    67.3640    89.4210    85.0810    82.0940    23.6570     2.2090   -22.7660 
  216.1250    67.5420    95.2880    90.3020    87.4430    23.9550     2.2040   -22.6820 
  216.2500    66.7170   101.8860    96.3640    97.9900    24.1320     2.1960   -22.6840 
  216.3750    65.0270   108.1580   102.2600   108.5580    24.0070     2.1880   -22.6350 
  216.5000    63.1310   113.2320   107.0950   117.2840    23.7770     2.1820   -22.6130 
  216.6250    62.6410   116.3390   110.0450   113.2880    23.6890     2.1800   -22.6390 
  216.7500    63.5480   117.7000   111.2880   106.5300    23.7230     2.1810   -22.6680 
  216.8750    64.8750   117.3650   110.9180   107.0020    23.8250     2.1830   -22.6560 
  217.0000    65.6550   115.3820   109.0380   109.5470    24.0000     2.1840   -22.7110 
  217.1250    65.2290   111.7990   105.7140   109.1380    23.9000     2.1860   -22.7460 
  217.2500    66.6610   107.5800   101.7790   105.0010    23.7880     2.1910   -22.7750 
  217.3750    71.4590   103.6790    98.0610    96.0970    23.8280     2.1970   -22.9140 
  217.5000    77.0300   100.9820    95.3710    81.9840    23.9080     2.2030   -22.9370 
  217.6250    75.4890   100.2490    94.4770    71.8600    23.8290     2.2070   -23.1110 
  217.7500    67.8620   101.0120    95.0370    74.7730    23.7370     2.2050   -23.2730 
  217.8750    62.8470   102.7460    96.5970    85.4010    23.7670     2.1990   -23.3890 
  218.0000    63.9380   104.9540    98.6650    95.3980    23.9150     2.1900   -23.5350 
  218.1250    68.2130   107.4950   101.0170    99.2770    24.1370     2.1840   -23.5460 
  218.2500    69.9690   110.6200   103.7820   100.6540    24.3110     2.1820   -23.6240 
  218.3750    69.8540   114.8690   107.4010   100.1210    24.4160     2.1850   -23.6140 
  218.5000    70.6950   120.7300   112.3220   101.3890    24.4530     2.1890   -23.6020 
  218.6250    71.1700   128.6030   118.9260   108.2590    24.3400     2.1910   -23.5610 
  218.7500    70.7400   137.7470   126.5930   116.7070    24.1650     2.1890   -23.4280 
  218.8750    69.9040   147.4000   134.6480   128.5880    24.0450     2.1840   -23.3550 
  219.0000    68.1280   156.6790   142.3070   138.6790    24.1830     2.1780   -23.3150 
  219.1250    64.5860   164.4280   148.5580   143.4670    24.1120     2.1760   -23.2530 
  219.2500    62.8640   170.1230   152.9970   142.7340    23.8810     2.1780   -23.1510 
  219.3750    63.9160   173.3180   155.2670   146.0780    23.7440     2.1860   -23.0530 
  219.5000    63.9620   173.7700   155.1580   148.0350    23.7240     2.1960   -22.9610 
  219.6250    62.2590   171.1730   152.3470   144.2880    23.7530     2.2060   -22.8970 
  219.7500    62.1610   166.6220   147.7460   137.5450    23.7860     2.2110   -22.8670 
  219.8750    62.8840   161.0750   142.1910   131.9710    23.7960     2.2120   -22.8450 
  220.0000    64.3060   155.5760   136.6570   125.2670    23.8800     2.2120   -22.7360 
  220.1250    67.2540   151.2610   132.2680   115.6370    23.9770     2.2140   -22.7020 
  220.2500    69.3420   148.4910   129.4170   112.5480    23.9780     2.2180   -22.6710 
  220.3750    68.9350   147.3150   128.1870   115.8850    23.9470     2.2210   -22.6090 
  220.5000    67.9010   147.4650   128.3370   121.3660    24.0930     2.2190   -22.6260 
  220.6250    66.8780   148.3920   129.3860   125.8660    24.1600     2.2110   -22.4670 
  220.7500    65.1930   149.0120   130.3290   129.7440    24.0350     2.1840   -22.3540 
  220.8750    64.0920   148.2920   130.2460   132.3580    23.8550     2.1720   -22.2140 
  221.0000    64.7580   145.1980   128.2130   130.5160    23.7720     2.1710   -22.0890 
  221.1250    65.8470   138.3430   122.9630   121.7940    23.7960     2.1800   -22.0340 
  221.2500    66.3400   128.2020   114.7620   109.3850    23.8790     2.1960   -21.8840 
  221.3750    66.0600   115.6540   104.2220    96.5640    23.9660     2.2090   -21.8220 
  221.5000    64.4840   102.2310    92.5640    85.6440    24.1420     2.2150   -21.6670 
  221.6250    62.5200    90.0600    81.5820    73.1490    23.9440     2.2170   -21.6550 
  221.7500    62.9530    80.5090    72.6310    61.1610    23.7200     2.2170   -21.6830 
  221.8750    65.8900    74.3090    66.4540    54.6820    23.5560     2.2200   -21.6410 
  222.0000    70.1990    71.6360    63.2850    57.3610    23.5120     2.2290   -21.6490 
  222.1250    72.1610    72.6600    63.3240    62.6850    23.5670     2.2390   -21.4810 
  222.2500    72.4810    76.0990    65.4940    70.3100    23.6960     2.2490   -21.2430 
  222.3750    72.8730    81.0650    69.0520    77.5140    23.8450     2.2560   -21.0050 
  222.5000    71.7780    86.6260    73.2090    79.2550    23.8150     2.2580   -20.7820 
  222.6250    67.1200    91.8330    77.1650    75.7820    23.8280     2.2540   -20.3870 
  222.7500    62.9080    96.1770    80.4480    71.9900    23.9830     2.2430   -19.9650 
  222.8750    62.2960    99.4990    82.8920    73.4910    24.0940     2.2240   -19.5330 
  223.0000    63.0690   101.8730    84.5300    81.3450    24.0800     2.2050   -19.0370 
  223.1250    61.9930   103.5080    85.4810    86.2500    24.1450     2.1920   -18.6480 
  223.2500    61.6410   104.9840    86.1830    86.7050    24.0250     2.1890   -18.3380 
  223.3750    64.2760   106.7180    86.9560    87.2390    23.8490     2.1910   -18.0010 
  223.5000    67.2990   108.8390    87.9740    86.3770    23.8700     2.1860   -17.6030 
  223.6250    68.4420   110.6630    88.9250    83.4480    24.0290     2.1720   -17.3320 
  223.7500    67.6850   110.7230    88.8790    88.4170    24.2550     2.1600   -17.0010 
  223.8750    66.2240   107.5290    86.7730   103.5400    24.3220     2.1770   -16.7480 
  224.0000    65.1030   100.5010    82.0250   118.1130    24.2400     2.2330   -16.4920 
  224.1250    65.1810    90.8270    75.1260   124.8930    24.2610     2.3160   -16.1610 
  224.2500    65.2780    82.3470    68.6550   125.5280    24.2380     2.3940   -15.8970 
  224.3750    64.5800    78.2770    65.0370   104.3560    24.2150     2.4220   -15.5410 
  224.5000    66.1610    80.3940    65.8650    72.9130    24.2260     2.4100   -15.2950 
  224.6250    71.8600    88.4160    71.2790    69.6950    24.2110     2.3970   -14.9780 
  224.7500    74.6610    96.9340    77.3260    83.2000    24.1940     2.4200   -14.6580 
  224.8750    71.7820    99.9730    79.4640   105.9930    24.1730     2.4980   -14.3370 
  225.0000    67.8020    92.2030    73.6250   115.3400    24.1830     2.5880   -13.9590 
  225.1250    68.3860    71.5480    57.9940   118.7390    24.1850     2.6370   -13.7440 
  225.2500    69.8270    47.5030    39.4510   100.4600    24.1560     2.6070   -13.5220 
  225.3750    70.4570    28.0830    24.1050    63.3340    24.1030     2.5040   -13.3790 
  225.5000    72.3970    15.9910    14.3790    25.8860    24.1150     2.3880   -13.3420 
  225.6250    76.3860    10.3760     9.8060    10.6430    24.1920     2.2990   -13.3650 
  225.7500    79.0050     8.4670     7.7230     6.6510    24.1760     2.2580   -13.4370 
  225.8750    79.8550     8.0240     7.0170     6.3140    24.0540     2.2740   -13.6050 
  226.0000    79.1080     8.3110     7.0770     7.2730    24.1430     2.3170   -13.8240 
  226.1250    78.3340     8.8730     7.5670     8.4700    24.2370     2.3620   -14.0010 
