~V
VERS. 2.00: Ver 2.00
~W
STRT.M 60.0000:
STOP.M 282.0000:
STEP.M 0.1250:
NULL. -999.2500:
UWI. DF3058:
~C
DEPT.M :
GR.API :
RML.OHMM :
RI. :
RXO.OHMM :
CALI.CM :
DEN.GM/CC :
SP.MV :
~A
# ...
  116.2500    92.8960     7.0320     5.5070     6.3380    24.6500     2.2470   -21.4260 
  116.3750    90.9810     7.7010     5.8650     7.4840    24.6020     2.2500   -21.2250 
  116.5000    85.9640     8.5150     6.4490     9.1480    24.2570     2.2570   -21.1850 
  116.6250    79.1210     9.1330     7.0460    10.7780    23.6690     2.2630   -21.2600 
  116.7500    73.4600     9.3970     7.4700    11.3960    23.1190     2.2700   -21.3590 
  116.8750    72.0230     9.3550     7.6710    10.5160    22.8420     2.2830   -21.4130 
  117.0000    75.2430     9.1890     7.7080     9.8060    22.9130     2.3070   -21.3990 
  117.1250    81.1970     9.0900     7.6790    10.0960    23.1070     2.3370   -21.3130 
  117.2500    83.9250     9.0770     7.6440    10.7360    23.4670     2.3560   -21.1850 
  117.3750    82.6070     9.0630     7.5790    11.4530    23.7640     2.3520   -21.0340 
  117.5000    80.1990     8.9460     7.4400    11.5820    23.7540     2.3250   -20.8860 
  117.6250    79.3400     8.6900     7.2020     9.3170    23.3030     2.2870   -20.7980 
  117.7500    79.7890     8.4040     6.9370     7.7520    23.0250     2.2570   -20.7610 
  117.8750    80.4990     8.1830     6.7140     7.2700    22.9080     2.2400   -20.7520 
  118.0000    80.6570     8.0700     6.5760     7.2370    22.8860     2.2340   -20.7580 
  118.1250    81.4830     8.0440     6.5290     7.1220    22.9180     2.2350   -20.7430 
  118.2500    84.2360     8.0260     6.5150     6.9220    22.9700     2.2390   -20.6760 
  118.3750    88.1960     7.9820     6.4990     6.7270    23.0100     2.2420   -20.5670 
  118.5000    90.7520     7.9300     6.4760     6.5650    23.0620     2.2440   -20.4350 
  118.6250    88.6430     7.9270     6.4730     6.5020    23.1700     2.2430   -20.2870 
  118.7500    85.7830     7.9850     6.4990     6.5290    23.2990     2.2400   -20.1750 
  118.8750    84.6710     8.0650     6.5360     6.6830    23.3650     2.2380   -20.1000 
  119.0000    85.9680     8.1030     6.5450     6.8360    23.3310     2.2390   -20.0320 
  119.1250    87.5980     8.0230     6.4740     6.8540    23.2200     2.2460   -19.9190 
  119.2500    88.9530     7.8330     6.3250     6.6570    23.1890     2.2550   -19.8090 
  119.3750    91.9830     7.5830     6.1260     6.3600    23.4410     2.2630   -19.6990 
  119.5000    97.3400     7.3480     5.9250     6.1520    23.8060     2.2670   -19.5980 
  119.6250   100.3110     7.2110     5.7820     6.1320    24.0100     2.2660   -19.4980 
  119.7500   100.0020     7.1770     5.7110     6.1900    23.9100     2.2640   -19.3850 
  119.8750    97.9090     7.2200     5.7050     6.2450    23.6040     2.2650   -19.2760 
  120.0000    95.4330     7.3070     5.7460     6.2140    23.3420     2.2700   -19.1890 
  120.1250    93.3400     7.4180     5.8210     6.2150    23.1160     2.2750   -19.1790 
  120.2500    90.3570     7.5450     5.9140     6.3180    22.9890     2.2750   -19.1890 
  120.3750    88.5490     7.6750     6.0110     6.5240    23.0470     2.2720   -19.2000 
  120.5000    88.8340     7.7660     6.0860     7.0130    23.1880     2.2680   -19.1830 
  120.6250    89.4730     7.7210     6.0810     7.5430    23.7130     2.2680   -19.1270 
  120.7500    89.6130     7.5100     5.9740     7.8520    24.1840     2.2740   -19.0550 
  120.8750    90.0100     7.1710     5.7800     7.5540    24.5710     2.2860   -18.9790 
  121.0000    91.6580     6.8270     5.5640     6.5540    24.7080     2.3010   -18.9090 
  121.1250    91.5780     6.6620     5.4400     5.9850    24.7140     2.3150   -18.8380 
  121.2500    90.0200     6.7310     5.4630     5.8940    24.7060     2.3240   -18.7710 
  121.3750    88.5210     6.9970     5.6350     6.1650    24.6980     2.3240   -18.7360 
  121.5000    86.1060     7.3460     5.9030     6.5860    24.6820     2.3090   -18.7500 
  121.6250    84.1040     7.6210     6.1650     6.9780    24.6300     2.2850   -18.8190 
  121.7500    82.7190     7.7410     6.3350     7.1700    24.5140     2.2630   -18.9180 
  121.8750    83.1320     7.7190     6.3890     7.2180    24.3170     2.2490   -19.0030 
  122.0000    85.2760     7.6220     6.3520     7.2210    24.2520     2.2480   -19.0610 
  122.1250    87.3990     7.5470     6.2780     7.0490    24.4840     2.2550   -19.1150 
  122.2500    88.3870     7.5450     6.2210     6.7390    24.6480     2.2600   -19.1560 
  122.3750    87.9960     7.5920     6.1850     6.5950    24.7220     2.2610   -19.1510 
  122.5000    86.6250     7.6110     6.1400     6.5290    24.7740     2.2590   -19.1280 
  122.6250    82.7140     7.4710     6.0230     6.4770    24.8320     2.2570   -19.0860 
  122.7500    79.7070     7.1490     5.8180     6.4600    24.7780     2.2580   -19.0370 
  122.8750    82.8970     6.7120     5.5560     6.3990    24.7120     2.2600   -19.0250 
  123.0000    89.0490     6.3370     5.3320     6.2270    24.6840     2.2620   -19.0430 
  123.1250    90.7920     6.3520     5.3530     6.0970    24.6890     2.2670   -19.0640 
  123.2500    87.4260     6.9040     5.7460     6.3890    24.6520     2.2850   -19.0800 
  123.3750    82.5270     7.9910     6.5560     7.5740    24.5030     2.3220   -19.1090 
  123.5000    77.4860     9.3880     7.6790     9.6580    24.2660     2.3740   -19.1410 
  123.6250    72.6110    10.5860     8.7980    12.1200    24.3100     2.4210   -19.2060 
  123.7500    72.5970    11.1050     9.4950    13.8560    24.4740     2.4360   -19.2840 
  123.8750    77.2390    10.7310     9.5110    13.9250    24.4550     2.4130   -19.3480 
  124.0000    82.4570     9.6310     8.8560    11.4610    24.0850     2.3630   -19.4030 
  124.1250    85.8370     8.3030     7.8220     8.4360    23.8150     2.3150   -19.4500 
  124.2500    89.8650     7.2360     6.8530     6.9700    24.0460     2.2860   -19.5010 
  124.3750    94.6420     6.5640     6.1240     6.3450    24.5520     2.2790   -19.5790 
  124.5000    96.4080     6.2480     5.6690     6.0600    24.8370     2.2860   -19.7020 
  124.6250    93.6390     6.2220     5.4840     5.8910    24.8410     2.2940   -19.8500 
  124.7500    91.0950     6.3550     5.4680     5.8200    24.7500     2.2930   -20.0190 
  124.8750    90.8640     6.6010     5.5750     5.8700    24.5650     2.2850   -20.2250 
  125.0000    89.0710     6.9150     5.7620     6.0990    24.1230     2.2720   -20.4410 
  125.1250    83.5870     7.2250     5.9750     6.5430    23.6760     2.2640   -20.6710 
  125.2500    78.5080     7.4350     6.1420     7.0330    23.3230     2.2610   -20.9200 
  125.3750    74.3440     7.4810     6.2160     7.2760    23.3410     2.2600   -21.1730 
  125.5000    70.8480     7.3600     6.1890     7.2810    23.5260     2.2560   -21.3990 
  125.6250    70.3840     7.1700     6.1150     7.5430    23.3880     2.2500   -21.5550 
  125.7500    72.3480     7.1280     6.1370     8.1210    23.1030     2.2490   -21.6340 
  125.8750    72.6930     7.4730     6.4280     9.0650    22.8470     2.2660   -21.6310 
  126.0000    70.9610     8.4850     7.2250    10.8760    22.8700     2.3080   -21.5820 
  126.1250    69.2970    10.6880     9.0340    14.8430    23.2860     2.3780   -21.5180 
  126.2500    66.6870    14.2150    12.0970    21.8020    23.8460     2.4600   -21.4810 
  126.3750    62.6450    19.0810    16.5690    31.8020    24.2320     2.5380   -21.4720 
  126.5000    58.9800    24.8470    22.1750    43.8950    24.3160     2.5990   -21.5090 
  126.6250    58.0970    30.2420    27.8510    56.1510    24.3740     2.6350   -21.6480 
  126.7500    59.3090    33.6940    31.9690    63.5940    24.4130     2.6490   -21.8990 
  126.8750    59.8530    34.1130    33.2870    66.2200    24.4610     2.6390   -22.2930 
  127.0000    58.2010    31.3990    31.4420    64.0570    24.4150     2.6020   -22.8330 
  127.1250    56.2340    26.4900    27.0420    54.4350    24.3660     2.5330   -23.5000 
  127.2500    57.4050    21.3910    22.0630    40.0960    24.1600     2.4460   -24.2160 
  127.3750    59.7420    17.1020    17.6000    26.6030    23.6050     2.3600   -24.9220 
