~V
VERS. 2.00: Ver 2.00
~W
STRT.M 61.0000:
STOP.M 276.0000:
STEP.M 0.1250:
NULL. -999.2500:
UWI. DF3051:
~C
DEPT.M :
SP.MV :
GR.API :
CALI.CM :
RXO.OHMM :
RI. :
RML.OHMM :
DEN.GM/CC :
~A
# ...
  151.0000   -19.4090    68.2140    25.3080    11.3750     8.2270    10.2360     2.5680 
  151.1250   -19.2160    60.4170    25.3670    15.5750    10.7940    14.0960     2.6130 
  151.2500   -19.1040    56.8280    25.5170    21.2870    14.1140    18.9390     2.6450 
  151.3750   -19.0490    55.7460    25.7770    27.4550    17.2240    23.0760     2.6610 
  151.5000   -19.0250    56.1070    26.1040    30.5820    18.3620    23.6060     2.6510 
  151.6250   -19.0640    59.5600    26.3720    26.1040    16.3150    19.4340     2.6020 
  151.7500   -19.1680    64.6810    26.5180    17.7600    13.1740    14.5920     2.5370 
  151.8750   -19.3460    68.1040    26.5650    10.8380    10.5160    11.2010     2.4880 
  152.0000   -19.6030    67.9000    26.5710     7.9970     8.9760     9.6900     2.4770 
  152.1250   -19.8790    64.6040    26.5710     9.8440     8.8390    10.1450     2.5110 
  152.2500   -20.1360    58.9410    26.5710    14.8950     9.8200    12.0370     2.5580 
  152.3750   -20.3880    52.3880    26.5680    20.5890    11.6450    14.8420     2.5890 
  152.5000   -20.6360    48.6050    26.5650    22.9200    13.4820    17.1150     2.5860 
  152.6250   -20.8400    53.2580    26.5640    19.5990    13.6510    16.3520     2.5500 
  152.7500   -20.9450    65.7920    26.5640    14.2520    12.0800    13.3360     2.4990 
  152.8750   -20.9310    79.9240    26.5650     9.6970     9.8620    10.0880     2.4450 
  153.0000   -20.8510    87.3880    26.5660     7.0790     7.9960     7.8170     2.3950 
  153.1250   -20.7930    86.5730    26.5660     6.5440     6.9560     6.8460     2.3620 
  153.2500   -20.7650    83.6350    26.5630     6.8670     6.5490     6.7190     2.3510 
  153.3750   -20.7570    80.3130    26.5580     7.5630     6.6180     7.1600     2.3600 
  153.5000   -20.7490    77.2200    26.5510     8.7190     6.9670     7.8680     2.3810 
  153.6250   -20.7330    78.0990    26.5490     9.9010     7.3120     8.4030     2.3990 
  153.7500   -20.7450    80.9080    26.5520     9.8390     7.4010     8.4620     2.3980 
  153.8750   -20.8300    80.8240    26.5540     8.4930     7.2010     8.0740     2.3740 
  154.0000   -20.9720    77.5060    26.5490     7.1450     6.8590     7.5140     2.3390 
  154.1250   -21.1780    74.6860    26.5380     6.9270     6.6000     7.1320     2.3300 
  154.2500   -21.4630    72.6340    26.5340     7.5640     6.5810     7.1380     2.3650 
  154.3750   -21.8050    70.2830    26.5410     8.9120     6.9120     7.6750     2.4310 
  154.5000   -22.1800    67.8020    26.5520    10.8010     7.6820     8.8310     2.4970 
  154.6250   -22.5700    65.1500    26.5570    13.0070     9.0240    10.7550     2.5420 
  154.7500   -22.9140    60.9670    26.5600    15.7870    10.8440    13.3030     2.5700 
  154.8750   -23.1590    55.6220    26.5620    19.2840    12.9980    16.2510     2.5810 
  155.0000   -23.3180    52.0020    26.5620    22.0820    15.1160    19.0190     2.5780 
  155.1250   -23.3630    52.7550    26.5390    21.8460    16.4790    20.5100     2.5670 
  155.2500   -23.2850    55.7820    26.4730    19.7670    16.8420    20.5250     2.5560 
  155.3750   -23.1860    57.4240    26.3670    17.6940    16.3730    19.5300     2.5490 
  155.5000   -23.1680    56.5380    26.2690    16.5110    15.5140    18.3030     2.5510 
  155.6250   -23.2570    56.2530    26.2410    16.4060    14.7740    17.5810     2.5650 
  155.7500   -23.3700    56.4720    26.2420    16.7820    14.4130    17.5210     2.5800 
  155.8750   -23.4770    56.4030    26.2040    17.1060    14.4680    18.0390     2.5850 
  156.0000   -23.5740    56.4280    26.1200    17.3210    14.8680    18.9410     2.5780 
  156.1250   -23.6280    56.9090    26.0750    17.7070    15.4810    19.9670     2.5600 
  156.2500   -23.6110    57.7540    26.1250    18.1890    16.0810    20.8140     2.5450 
  156.3750   -23.4870    58.7720    26.2390    18.4440    16.5190    21.3100     2.5390 
  156.5000   -23.2090    60.7230    26.3520    18.1660    16.7200    21.4270     2.5390 
  156.6250   -22.7020    62.0450    26.3990    17.2940    16.6680    21.2330     2.5340 
  156.7500   -22.1090    61.7820    26.3910    16.5400    16.5140    20.9700     2.5210 
  156.8750   -21.5600    60.5770    26.3600    16.5820    16.4050    20.8400     2.5080 
  157.0000   -21.1080    58.9180    26.3300    17.4340    16.4690    20.9950     2.5030 
  157.1250   -20.8190    57.0540    26.3130    18.4230    16.8170    21.5340     2.5120 
  157.2500   -20.6700    55.1810    26.3000    19.1180    17.3970    22.3460     2.5330 
  157.3750   -20.6040    55.0390    26.2770    19.7110    18.1310    23.2870     2.5600 
  157.5000   -20.6060    55.6360    26.2180    20.3790    18.8910    24.1640     2.5840 
  157.6250   -20.6780    55.4010    26.0950    20.8490    19.4760    24.7080     2.5940 
  157.7500   -20.7950    55.5880    25.9350    20.7790    19.7560    24.8420     2.5920 
  157.8750   -20.9280    58.3700    25.7910    20.2890    19.6640    24.5610     2.5860 
  158.0000   -21.0050    61.5490    25.7230    19.7120    19.2270    23.9270     2.5850 
  158.1250   -20.9670    60.7810    25.7740    18.8900    18.5410    23.0120     2.5880 
  158.2500   -20.8170    58.8380    25.8850    17.6640    17.7740    21.9320     2.5920 
  158.3750   -20.5980    59.2780    26.0250    16.5940    16.9810    20.7410     2.5990 
  158.5000   -20.3540    61.1760    26.2020    16.2770    16.1820    19.5330     2.6050 
  158.6250   -20.1610    61.7770    26.4310    16.2130    15.3960    18.4600     2.6060 
  158.7500   -20.0280    61.8380    26.6520    15.6790    14.6820    17.6180     2.6050 
  158.8750   -19.9090    61.9880    26.8130    15.1500    14.1260    17.0740     2.6090 
  159.0000   -19.8120    61.4240    26.9090    15.3980    13.8070    16.8530     2.6160 
  159.1250   -19.8360    60.9710    26.9630    16.3820    13.7820    16.9700     2.6120 
  159.2500   -20.0240    62.2990    27.0060    17.3120    13.9490    17.2820     2.5960 
  159.3750   -20.3250    63.6770    27.0400    17.8610    14.2260    17.6880     2.5760 
  159.5000   -20.6570    63.1650    27.0630    17.9020    14.5190    18.0800     2.5590 
  159.6250   -20.9760    62.3510    27.0670    17.3990    14.7140    18.3220     2.5520 
  159.7500   -21.2910    62.2750    27.0540    16.8850    14.7540    18.3640     2.5570 
  159.8750   -21.6270    62.4540    27.0300    16.6060    14.6160    18.1790     2.5770 
  160.0000   -21.9750    62.5420    27.0080    16.1470    14.3140    17.7740     2.5990 
  160.1250   -22.2400    63.0370    26.9980    15.1080    13.9030    17.2240     2.5990 
  160.2500   -22.4120    62.7130    26.9970    14.1570    13.5170    16.7330     2.5770 
  160.3750   -22.5520    61.2510    26.9990    13.9740    13.2390    16.4380     2.5550 
  160.5000   -22.6740    59.0180    27.0000    14.6900    13.1140    16.3930     2.5510 
  160.6250   -22.7290    55.1390    26.9980    15.7610    13.1760    16.5980     2.5650 
  160.7500   -22.7020    51.3180    26.9910    16.3360    13.3660    16.9060     2.5740 
  160.8750   -22.6000    51.6320    26.9800    16.2910    13.6210    17.2140     2.5720 
  161.0000   -22.4550    56.3420    26.9680    16.1950    13.8620    17.4480     2.5660 
  161.1250   -22.3040    60.7080    26.9620    16.6190    13.9990    17.5490     2.5680 
  161.2500   -22.1450    62.1440    26.9670    17.0860    14.0180    17.5340     2.5750 
  161.3750   -21.9650    62.1260    26.9810    17.0780    13.9510    17.4460     2.5790 
  161.5000   -21.7660    61.6620    26.9930    16.6610    13.8700    17.3620     2.5790 
  161.6250   -21.5420    60.4160    26.9980    16.5250    13.8630    17.4040     2.5840 
  161.7500   -21.3330    61.5380    26.9990    17.1370    13.9590    17.6430     2.5970 
  161.8750   -21.1810    64.1030    26.9990    18.2450    14.1580    18.0890     2.6130 
  162.0000   -21.1220    63.6380    27.0010    19.0040    14.4250    18.6320     2.6220 
  162.1250   -21.1780    61.9720    27.0020    18.8080    14.6680    19.0430     2.6140 
