~V
VERS. 2.00: Ver 2.00
~W
STRT.M 60.0000:
STOP.M 282.0000:
STEP.M 0.1250:
NULL. -999.2500:
UWI. DF3058:
~C
DEPT.M :
GR.API :
RML.OHMM :
RI. :
RXO.OHMM :
CALI.CM :
DEN.GM/CC :
SP.MV :
~A
# ...
  228.7500    58.9970    96.2050    85.8090    91.6550    24.7120     2.2530   -11.8500 
  228.8750    61.1050    95.3590    84.6120    90.6330    24.8580     2.2370   -12.3280 
  229.0000    60.2450    95.3480    84.2420    92.2460    24.9440     2.2200   -12.8050 
  229.1250    58.1630    95.9920    84.6190    94.2630    24.9450     2.2090   -13.2860 
  229.2500    59.3240    97.2400    85.6450    93.7400    24.8850     2.2070   -13.7420 
  229.3750    62.3150    99.4250    87.5280    94.4030    24.7900     2.2090   -14.1520 
  229.5000    64.9380   102.9650    90.5330    98.4320    24.7150     2.2130   -14.5020 
  229.6250    65.6740   108.2880    94.9600   103.6400    24.6630     2.2150   -14.7260 
  229.7500    66.3630   114.5740   100.1880   110.1190    24.6320     2.2140   -14.8830 
  229.8750    67.1740   120.5110   105.2610   117.4480    24.6100     2.2110   -14.9760 
  230.0000    65.7290   124.3090   108.8410   122.9190    24.6150     2.2070   -15.0390 
  230.1250    60.6530   123.5190   109.0270   121.6910    24.6650     2.2100   -15.0310 
  230.2500    55.7610   118.3390   105.7870   119.1490    24.6570     2.2230   -14.9930 
  230.3750    56.0160   110.1240    99.9620   114.9480    24.5630     2.2460   -14.9140 
  230.5000    60.2530   101.4330    93.4490   106.4310    24.3090     2.2770   -14.8320 
  230.6250    64.2030    95.6690    89.1490    91.3640    24.1090     2.3060   -14.7230 
  230.7500    65.5220    94.3440    88.7250    80.0920    24.0430     2.3280   -14.5660 
  230.8750    65.3320    97.8670    92.7890    85.2230    24.0740     2.3460   -14.3630 
  231.0000    65.1010   105.2170   100.5340   105.0940    24.0950     2.3680   -14.1300 
  231.1250    64.8760   113.1020   108.9380   132.5030    24.0360     2.4070   -13.8560 
  231.2500    63.7700   116.3770   113.0920   153.1920    23.9450     2.4600   -13.5530 
  231.3750    62.6980   110.7680   108.8770   146.1150    23.9300     2.5220   -13.2310 
  231.5000    62.7210    94.5050    94.3760   117.6770    23.9720     2.5830   -12.8720 
  231.6250    61.5820    70.1600    71.2420    94.6690    23.9880     2.6270   -12.5150 
  231.7500    57.8950    46.5480    47.7460    72.9380    23.9470     2.6390   -12.1640 
  231.8750    55.7550    28.5130    29.2480    49.2580    23.8470     2.6070   -11.8220 
  232.0000    56.6340    16.9230    17.2610    30.1820    23.7260     2.5350   -11.5170 
  232.1250    58.5770    10.9900    11.0720    15.1780    23.6920     2.4460   -11.3070 
  232.2500    60.5700     8.1130     7.8790     8.3600    23.7390     2.3710   -11.1970 
  232.3750    64.2980     7.1970     6.5590     7.0220    23.7970     2.3230   -11.1740 
  232.5000    68.8430     7.5240     6.4700     8.0820    23.6150     2.3050   -11.2180 
  232.6250    73.4140     8.5950     7.2980    10.0990    23.6660     2.3080   -11.2460 
  232.7500    78.4430     9.7750     8.4960    11.8130    23.9440     2.3170   -11.2760 
  232.8750    84.9540    10.6740     9.6670    12.1210    24.2430     2.3260   -11.2750 
  233.0000    91.5880    11.0750    10.4650    11.3280    24.3820     2.3340   -11.2610 
  233.1250    94.7870    10.9240    10.6450    10.0790    24.4260     2.3460   -11.1740 
  233.2500    95.8220    10.5530    10.4250     9.2140    24.4560     2.3600   -11.0530 
  233.3750    97.1010    10.1830    10.0410     8.8890    24.4670     2.3750   -10.8920 
  233.5000    98.1640     9.8260     9.6840     8.8640    24.4680     2.3880   -10.7240 
  233.6250    98.3800     9.5010     9.4680     8.9360    24.4660     2.3930   -10.6020 
  233.7500    99.0110     9.3210     9.3710     9.0150    24.4680     2.3920   -10.5290 
  233.8750   101.0990     9.3490     9.3610     9.0770    24.4730     2.3870   -10.5150 
  234.0000   104.5490     9.5380     9.4170     9.1510    24.4790     2.3820   -10.5100 
  234.1250   113.3640     9.8230     9.5350     9.2440    24.4840     2.3810   -10.5480 
  234.2500   122.7640    10.1440     9.7030     9.3850    24.4860     2.3850   -10.5530 
  234.3750   125.1310    10.4980     9.9090     9.5630    24.4860     2.3910   -10.5580 
  234.5000   121.5730    10.8670    10.1260     9.7160    24.4860     2.3970   -10.5160 
  234.6250   118.5210    11.1950    10.2910     9.8120    24.4860     2.4030   -10.4580 
  234.7500   115.7260    11.4030    10.3400     9.7830    24.4860     2.4090   -10.3700 
  234.8750   110.7410    11.4140    10.2120     9.6350    24.4860     2.4140   -10.2720 
  235.0000   105.4820    11.1740     9.8690     9.4860    24.4860     2.4190   -10.1870 
  235.1250   105.9040    10.6500     9.3010     9.2600    24.4860     2.4210   -10.0950 
  235.2500   107.1120    10.0060     8.6460     8.9390    24.4860     2.4210    -9.9550 
  235.3750   105.6890     9.4690     8.0640     8.6130    24.4870     2.4190    -9.8720 
  235.5000   103.3450     9.3600     7.7660     8.5070    24.4890     2.4150    -9.8330 
  235.6250   102.6390    10.2930     8.1670     9.3570    24.5170     2.4120    -9.8070 
  235.7500   100.3490    12.6780     9.6380    12.0680    24.5300     2.4100    -9.7900 
  235.8750    93.6190    17.0290    12.7440    17.3380    24.4440     2.4060    -9.7500 
  236.0000    85.5360    23.7210    18.0610    25.5660    24.2940     2.3970    -9.7140 
  236.1250    78.0810    33.1390    26.3480    37.8090    24.1700     2.3790    -9.6770 
  236.2500    69.8450    44.3260    36.8950    53.3450    24.0500     2.3550    -9.6310 
  236.3750    63.4720    56.5120    48.9560    72.8380    23.9050     2.3300    -9.5550 
  236.5000    60.5300    69.2420    61.8390   100.5990    23.8590     2.3090    -9.4880 
  236.6250    58.7650    83.3020    75.8300   135.2790    24.0110     2.2930    -9.4210 
  236.7500    57.5040    99.9090    91.7750   175.8420    24.2340     2.2780    -9.3690 
  236.8750    58.2120   119.5860   110.1400   223.6100    24.3660     2.2590    -9.3400 
  237.0000    60.3620   140.8710   129.7630   271.3610    24.4110     2.2360    -9.3200 
  237.1250    61.2660   158.8490   146.5170   320.6840    24.4390     2.2120    -9.2860 
  237.2500    59.7140   168.5490   156.1580   326.6330    24.4760     2.1960    -9.2470 
  237.3750    59.5540   167.2580   156.1870   290.2960    24.4950     2.1900    -9.2180 
  237.5000    61.7060   156.3780   147.3470   224.1300    24.4400     2.1940    -9.1550 
  237.6250    62.2330   140.9780   133.3910   139.6540    24.4080     2.2000    -9.0930 
  237.7500    59.3050   127.1280   120.0730   117.3150    24.4270     2.2040    -9.0510 
  237.8750    56.6030   116.7650   109.7830   110.6180    24.3990     2.2060    -9.0070 
  238.0000    58.2920   109.7680   102.8560   105.2100    24.3370     2.2080    -8.9750 
  238.1250    62.4620   105.5110    98.8510    94.0970    24.3000     2.2130    -8.9800 
  238.2500    65.5670   102.7640    96.4650    89.4360    24.3830     2.2190    -9.0090 
  238.3750    69.1070   101.1990    95.2810    93.0210    24.4830     2.2220    -9.0510 
  238.5000    71.8950   100.6200    95.0540    98.1350    24.5310     2.2220    -9.1400 
  238.6250    70.3700   100.5570    95.3750    97.8830    24.5070     2.2210    -9.2100 
  238.7500    65.9040    99.8550    95.2070    94.9520    24.4940     2.2180    -9.2650 
  238.8750    62.3260    97.3140    93.5740    95.2460    24.4870     2.2170    -9.3050 
  239.0000    61.1860    92.6640    90.0770   101.8130    24.4910     2.2180    -9.3380 
  239.1250    61.1570    87.4480    85.7060   105.0050    24.5050     2.2230    -9.3580 
  239.2500    61.3450    85.0100    83.1350    94.0000    24.5090     2.2290    -9.3870 
  239.3750    62.0360    87.9690    84.7030    80.3230    24.4750     2.2300    -9.4240 
  239.5000    62.9700    97.6770    91.4800   101.8200    24.4250     2.2230    -9.4820 
  239.6250    63.2860   111.8460   102.3970   167.8810    24.4030     2.2090    -9.5630 
  239.7500    63.4630   123.6890   112.3180   241.7220    24.4070     2.1940    -9.6620 
  239.8750    63.5640   126.5210   116.3280   307.8630    24.4410     2.1860    -9.7850 
