~V
VERS. 2.00: Ver 2.00
~W
STRT.M 90.0000:
STOP.M 264.0000:
STEP.M 0.1250:
NULL. -999.2500:
UWI. DF3021:
~C
DEPT.M :
AC.US/MT :
DEN.GM/CC :
GR.API :
CALI.CM :
RXO.OHMM :
RI. :
RML.OHMM :
SP.MV :
~A
# ...
  120.0000   443.3130     2.2740    83.3370    24.2290     5.8490     4.8380     5.4610   -21.7650 
  120.1250   449.9410     2.2820    82.7310    24.3610     5.3290     4.6360     5.1300   -22.0650 
  120.2500   453.4850     2.2780    84.9960    24.4510     5.0180     4.5040     4.9460   -22.4820 
  120.3750   452.5120     2.2710    86.3660    24.4540     4.9740     4.4910     4.9710   -22.9890 
  120.5000   446.5690     2.2630    82.5940    24.3300     5.4790     4.6130     5.2040   -23.5640 
  120.6250   437.4440     2.2540    76.2380    23.9880     6.2130     4.8810     5.6190   -24.2640 
  120.7500   429.6440     2.2470    72.6130    23.6110     6.6890     5.2390     6.1220   -25.0400 
  120.8750   424.9260     2.2440    72.6400    23.3410     6.9150     5.6440     6.6580   -25.8580 
  121.0000   423.2360     2.2400    74.3000    23.1520     7.3360     6.0510     7.1790   -26.6810 
  121.1250   427.9890     2.2270    74.8860    22.9390     8.1370     6.4160     7.6380   -27.4350 
  121.2500   442.5320     2.2100    75.5800    22.7120     8.6780     6.7390     8.0370   -28.0290 
  121.3750   464.8860     2.2000    75.7790    22.5330     8.8050     7.0260     8.3840   -28.4780 
  121.5000   486.1710     2.2020    74.2220    22.4190     8.8000     7.2770     8.6860   -28.8040 
  121.6250   496.9590     2.2070    71.1260    22.3140     9.0610     7.4680     8.9270   -28.9490 
  121.7500   500.6810     2.2080    68.4980    22.2410     9.4500     7.5850     9.0980   -28.9570 
  121.8750   501.8790     2.2030    68.3240    22.2510     9.5790     7.6140     9.1760   -28.8410 
  122.0000   499.5650     2.1940    69.9010    22.3380     9.2850     7.5480     9.1370   -28.6030 
  122.1250   486.5610     2.1870    72.6210    22.4080     8.8920     7.3850     8.9640   -28.2670 
  122.2500   464.8670     2.1850    75.2990    22.4210     8.6630     7.1820     8.7300   -27.9350 
  122.3750   443.0070     2.1850    74.7800    22.3860     8.5210     6.9940     8.5130   -27.5800 
  122.5000   429.2950     2.1820    72.5710    22.3390     8.3310     6.8840     8.3990   -27.1940 
  122.6250   425.7460     2.1810    71.9790    22.2590     8.1510     6.9240     8.4850   -26.7900 
  122.7500   425.3800     2.1880    73.3150    22.1730     8.1720     7.1030     8.7530   -26.4100 
  122.8750   424.8380     2.2030    74.2400    22.1110     8.4130     7.3950     9.1580   -26.0810 
  123.0000   424.1040     2.2170    73.4490    22.1260     8.7650     7.7570     9.6290   -25.7850 
  123.1250   424.1510     2.2230    72.8680    22.1640     9.0140     8.1550    10.1100   -25.5450 
  123.2500   423.6600     2.2210    71.5090    22.1760     9.1100     8.5880    10.6080   -25.2810 
  123.3750   419.8420     2.2160    70.7740    22.1610     9.2380     9.0870    11.1820   -25.0180 
  123.5000   410.5270     2.2130    73.1870    22.1200     9.6050     9.6600    11.8630   -24.7840 
  123.6250   397.1620     2.2210    76.0300    22.0690    10.3950    10.2260    12.5440   -24.5630 
  123.7500   387.0770     2.2410    75.5420    22.0150    11.1570    10.6190    12.9840   -24.3540 
  123.8750   385.8990     2.2650    72.3990    21.9770    11.4330    10.6970    12.9810   -24.2000 
  124.0000   394.8710     2.2800    69.3120    21.9910    11.0220    10.4140    12.4730   -24.1190 
  124.1250   411.5200     2.2700    67.1520    22.0910    10.0980     9.8070    11.5330   -24.1240 
  124.2500   429.2170     2.2430    65.4970    22.1790     9.4100     9.0950    10.4830   -24.2050 
  124.3750   442.1020     2.2160    66.8780    22.2260     9.3280     8.4350     9.5530   -24.3540 
  124.5000   445.2310     2.2000    71.2350    22.3100     9.5360     7.9570     8.9210   -24.5400 
  124.6250   439.6210     2.1980    73.8320    22.4840     8.8850     7.8430     8.8410   -24.7740 
  124.7500   437.2330     2.1990    72.2590    22.5820     8.3630     8.1550     9.3870   -24.9920 
  124.8750   444.7370     2.2030    69.7720    22.6200     8.9110     8.9160    10.5640   -25.0820 
  125.0000   457.9130     2.2240    68.2620    22.6620    10.6480     9.9810    12.1110   -25.0220 
  125.1250   462.8690     2.2790    66.7320    22.7290    13.0450    10.8160    13.2180   -24.7770 
  125.2500   455.0710     2.3540    66.6220    22.6820    14.9950    10.8130    13.0550   -24.4000 
  125.3750   440.4050     2.4120    71.4470    22.4810    15.0860     9.8340    11.4780   -23.9360 
  125.5000   427.2490     2.4170    79.5230    22.3100    12.4560     8.3550     9.2300   -23.4180 
  125.6250   418.7300     2.3620    83.3540    22.3240     9.1020     7.0820     7.4280   -22.8770 
  125.7500   410.2410     2.2920    82.9700    22.4120     7.3860     6.2930     6.4540   -22.3570 
  125.8750   400.0720     2.2400    81.4680    22.4760     7.0660     5.9800     6.2270   -21.9140 
  126.0000   392.4750     2.2120    80.2660    22.4700     7.6120     6.0180     6.4810   -21.5270 
  126.1250   396.7160     2.2060    81.9740    22.4900     8.5250     6.1860     6.8160   -21.1640 
  126.2500   411.9680     2.2210    87.8170    22.7620     8.8290     6.2110     6.8460   -20.8620 
  126.3750   430.4940     2.2550    94.2250    23.3580     7.8130     5.9980     6.4870   -20.6060 
  126.5000   443.1450     2.2870    95.3590    23.9120     6.2580     5.6100     5.9060   -20.4050 
  126.6250   446.0320     2.2880    92.4560    24.1500     5.5090     5.1850     5.3540   -20.2230 
  126.7500   446.0360     2.2720    93.2110    24.1410     5.1860     4.8210     4.9390   -20.0540 
  126.8750   448.3020     2.2670    99.2360    24.1540     4.9130     4.5410     4.6610   -19.9120 
  127.0000   453.6320     2.2850   105.1770    24.2140     4.6110     4.3540     4.5060   -19.8740 
  127.1250   458.1150     2.3130   105.1520    24.2640     4.4810     4.2990     4.5300   -20.0220 
  127.2500   457.3290     2.3270    98.6110    24.1860     4.5400     4.3950     4.7780   -20.2670 
  127.3750   449.4280     2.3220    88.2030    23.9250     4.8480     4.6570     5.2780   -20.5860 
  127.5000   435.8090     2.3000    79.6720    23.4270     5.6380     5.0390     5.9510   -20.9290 
  127.6250   421.8430     2.2650    77.3610    22.9370     6.8990     5.4130     6.5530   -21.2540 
  127.7500   413.4420     2.2300    77.5810    22.5830     7.9240     5.6600     6.8650   -21.5480 
  127.8750   411.2140     2.2190    76.6580    22.4920     8.1290     5.8040     6.9130   -21.7790 
  128.0000   408.7960     2.2440    74.4840    22.7050     7.7330     6.0150     7.0000   -21.9290 
  128.1250   392.4080     2.3060    72.7510    23.0400     8.1070     6.6510     7.7420   -21.9900 
  128.2500   357.6210     2.3750    70.7940    23.3910    10.6770     8.0070     9.5740   -21.9660 
  128.3750   309.4110     2.4370    68.2880    23.5510    16.8300    10.4290    12.9020   -21.8640 
  128.5000   264.4110     2.4890    65.6480    23.5010    26.1630    14.1830    17.9510   -21.6920 
  128.6250   258.0130     2.5300    62.6870    23.3350    34.0310    18.9090    24.0790   -21.5220 
  128.7500   304.1490     2.5570    63.6050    23.3600    36.8000    22.2040    28.0910   -21.3500 
  128.8750   387.2480     2.5630    69.6170    23.4860    33.2790    21.7740    26.9540   -21.1960 
  129.0000   467.0210     2.5450    77.0960    23.4970    25.0580    18.0340    21.3920   -21.0330 
  129.1250   505.4830     2.5060    81.8320    23.3280    16.7680    13.5610    15.2320   -20.8120 
  129.2500   515.4100     2.4590    85.1410    23.1460    10.8830    10.0150    10.6730   -20.5420 
  129.3750   517.4860     2.4100    88.2590    23.1460     7.7200     7.5660     7.7910   -20.2310 
  129.5000   521.3440     2.3620    89.6130    23.4100     6.1750     6.0370     6.2170   -19.9170 
  129.6250   524.4270     2.3210    90.1010    23.7000     5.7930     5.2790     5.6440   -19.5990 
  129.7500   524.9140     2.2940    93.3400    23.8830     5.7640     4.9530     5.5500   -19.2880 
  129.8750   523.7020     2.2810    98.7250    23.9790     5.8010     4.8950     5.6810   -18.9540 
