~V
VERS. 2.00: Ver 2.00
~W
STRT.M 64.0000:
STOP.M 268.0000:
STEP.M 0.1250:
NULL. -999.2500:
UWI. DF3073:
~C
DEPT.M :
SP.MV :
GR.API :
CALI.CM :
RXO.OHMM :
RI. :
RML.OHMM :
DEN.GM/CC :
~A
# ...
  232.7500   -20.5720    68.9150    25.1170    49.7630    43.4820    43.9480     2.2890 
  232.8750   -20.6000    72.6900    25.1150    46.7020    39.7970    40.1250     2.2880 
  233.0000   -20.6300    81.8710    25.0990    30.8740    36.4390    36.5170     2.3010 
  233.1250   -20.6760    87.0280    25.0550    20.0730    34.2860    34.2890     2.3160 
  233.2500   -20.7310    83.8970    24.9500    17.2480    33.5990    33.8190     2.3140 
  233.3750   -20.8040    79.0480    24.9490    17.9310    34.3770    35.0610     2.2860 
  233.5000   -20.8920    78.4200    25.1680    23.6640    36.5300    37.8130     2.2580 
  233.6250   -20.9840    78.4870    25.1270    32.7260    40.1220    41.8990     2.2490 
  233.7500   -21.0820    75.2990    25.1350    37.8480    44.4190    46.5630     2.2630 
  233.8750   -21.1880    71.3900    25.1260    36.3350    48.7750    51.3360     2.2820 
  234.0000   -21.2770    68.5520    25.1560    33.0960    53.0190    56.1540     2.2870 
  234.1250   -21.3450    66.3390    25.0990    31.5080    57.4890    61.3900     2.2780 
  234.2500   -21.4050    64.2290    25.1500    33.8230    62.2400    67.0870     2.2630 
  234.3750   -21.4460    64.1600    25.1320    42.3630    67.0450    72.9800     2.2550 
  234.5000   -21.4900    65.7990    25.0880    53.2990    71.5220    78.5390     2.2530 
  234.6250   -21.5440    67.6220    25.1000    58.7480    74.4740    82.3420     2.2470 
  234.7500   -21.5880    68.0790    25.0690    59.6310    75.2880    83.6080     2.2390 
  234.8750   -21.6140    66.5850    25.0630    59.9700    73.8660    82.1860     2.2370 
  235.0000   -21.6550    65.6180    25.1070    59.4330    70.6800    78.6120     2.2430 
  235.1250   -21.7340    66.9490    25.1140    53.0710    66.5180    73.9820     2.2480 
  235.2500   -21.8290    67.7230    25.1100    44.4130    62.6750    69.6900     2.2500 
  235.3750   -21.9370    67.3000    25.0640    37.7290    59.7450    66.4390     2.2540 
  235.5000   -22.0510    68.6690    25.0970    38.1120    57.9190    64.4460     2.2680 
  235.6250   -22.1580    71.6850    25.0530    38.9680    57.4350    63.9520     2.2860 
  235.7500   -22.2770    72.2210    25.0600    38.5980    58.0550    64.7610     2.2940 
  235.8750   -22.4330    70.2360    25.0470    39.2830    59.6320    66.6360     2.2840 
  236.0000   -22.5940    68.6030    25.0300    40.3950    61.9470    69.3100     2.2670 
  236.1250   -22.7270    68.1190    25.0360    40.9880    64.8460    72.4970     2.2580 
  236.2500   -22.8320    67.8920    25.0370    42.6140    67.8700    75.6980     2.2630 
  236.3750   -22.9100    69.1470    25.0180    49.3610    70.5090    78.2870     2.2720 
  236.5000   -22.9910    71.3880    24.9520    57.5190    72.2360    79.7000     2.2660 
  236.6250   -23.1070    70.1980    24.8430    56.0710    72.5430    79.4060     2.2390 
  236.7500   -23.2320    66.2590    24.8640    48.9160    71.8890    78.1080     2.2000 
  236.8750   -23.3570    62.9420    24.9590    46.4300    70.8220    76.4970     2.1780 
  237.0000   -23.4850    64.4660    24.9970    48.4190    70.0160    75.4020     2.1840 
  237.1250   -23.6020    69.9850    24.9210    48.5920    70.6640    76.2790     2.2110 
  237.2500   -23.7080    74.5100    24.8120    45.0660    73.5500    79.6630     2.2380 
  237.3750   -23.8130    74.5260    24.8660    40.7620    78.7500    85.5130     2.2560 
  237.5000   -23.8750    70.9530    24.7900    44.4890    85.5730    92.9930     2.2670 
  237.6250   -23.8970    69.7380    24.7000    55.7660    92.2900   100.3330     2.2710 
  237.7500   -23.9060    71.1900    24.2670    71.1910    96.8240   104.9330     2.2710 
  237.8750   -23.8880    72.7010    23.6600    83.8390    97.6350   105.0710     2.2780 
  238.0000   -23.8210    74.7570    23.4550    87.5550    93.8920    99.9510     2.3120 
  238.1250   -23.7200    79.9600    23.3370    72.0640    85.8450    90.0850     2.3700 
  238.2500   -23.5980    85.9730    23.2150    49.4190    76.3970    79.1630     2.4250 
  238.3750   -23.4480    89.4980    23.2850    35.4360    67.7420    69.6270     2.4370 
  238.5000   -23.2900    90.0130    23.5130    34.6380    60.9920    62.4570     2.4170 
  238.6250   -23.0890    89.7380    24.1640    36.1610    56.7340    57.9900     2.3910 
  238.7500   -22.8690    89.9630    24.4640    34.9080    54.5090    55.7410     2.3770 
  238.8750   -22.6400    90.0020    24.5100    32.1910    54.1410    55.4840     2.3750 
  239.0000   -22.4180    88.4150    24.3890    29.8690    55.5090    56.9240     2.3850 
  239.1250   -22.1780    84.7720    24.0640    29.3420    58.2670    59.6740     2.4110 
  239.2500   -21.9260    81.9650    23.7890    27.1760    61.4670    62.7680     2.4400 
  239.3750   -21.6610    82.0510    23.7260    24.9470    64.5260    65.6780     2.4490 
  239.5000   -21.3810    84.1240    23.9450    33.1590    66.8960    67.8730     2.4460 
  239.6250   -21.1410    83.0290    24.0960    43.1260    67.8800    68.6890     2.4480 
  239.7500   -20.9290    79.0870    23.8670    46.1830    67.5750    68.2590     2.4550 
  239.8750   -20.7450    77.7150    23.6450    39.4570    66.5940    67.2300     2.4540 
  240.0000   -20.5880    82.2850    23.4030    33.8920    65.7580    66.3800     2.4470 
  240.1250   -20.4500    85.7430    23.2440    28.8440    65.8440    66.5850     2.4380 
  240.2500   -20.3100    84.0180    23.0870    24.2530    67.0160    67.9240     2.4270 
  240.3750   -20.1790    80.4590    23.1290    20.9580    68.9190    69.9930     2.4190 
  240.5000   -20.0870    77.4680    23.3670    22.0710    71.0840    72.2310     2.4300 
  240.6250   -20.0080    75.5510    23.8070    27.6910    72.6820    73.8190     2.4640 
  240.7500   -19.9070    74.4070    24.2590    33.5850    73.0850    74.1720     2.5000 
  240.8750   -19.7790    75.3440    24.3480    40.2040    72.1500    73.1970     2.4970 
  241.0000   -19.6300    76.9470    24.5790    43.2550    70.1730    71.2850     2.4570 
  241.1250   -19.4910    76.9640    24.6260    43.9490    67.7510    69.0070     2.4090 
  241.2500   -19.3890    78.0630    24.5910    38.4040    65.5090    67.0180     2.3830 
  241.3750   -19.3000    82.1630    24.5300    36.1560    64.0240    65.9800     2.3860 
  241.5000   -19.2210    87.2810    24.1690    41.1690    63.8410    66.4340     2.4050 
  241.6250   -19.1570    87.1660    23.5840    53.5220    65.8450    69.2620     2.4340 
  241.7500   -19.0810    83.8300    23.1740    51.5390    70.4120    74.7280     2.4710 
  241.8750   -19.0230    82.4180    22.6520    41.4310    77.8540    83.2510     2.5180 
  242.0000   -18.9830    83.9510    22.4930    45.3450    88.0420    95.0640     2.5700 
  242.1250   -18.9480    84.0040    22.7860    66.5170   100.1850   109.9800     2.6180 
  242.2500   -18.9220    80.9970    23.1310    94.8130   110.5960   123.3260     2.6490 
  242.3750   -18.9010    76.4430    23.7050    97.3800   114.1080   127.7460     2.6640 
  242.5000   -18.8550    72.3070    24.2350    69.3210   106.5920   117.7220     2.6790 
  242.6250   -18.8120    69.1450    24.0670    44.8080    88.2980    94.9980     2.6900 
  242.7500   -18.8280    65.2910    23.9920    38.9290    67.2770    70.5920     2.6820 
  242.8750   -18.8750    61.9400    24.3760    39.9980    48.5190    50.0040     2.6360 
  243.0000   -18.9590    63.1250    24.7470    39.4520    34.3730    34.9550     2.5590 
  243.1250   -19.0660    70.9290    24.6310    27.4370    25.5180    25.6470     2.4720 
  243.2500   -19.1420    80.3730    24.6050    17.4370    20.0530    19.9330     2.3990 
  243.3750   -19.2000    87.6130    24.5690    12.5530    16.9910    16.7110     2.3620 
  243.5000   -19.2330    92.1860    24.4650    12.4470    15.3360    15.0110     2.3500 
  243.6250   -19.2180    94.9920    24.7540    13.5980    14.5340    14.2730     2.3510 
  243.7500   -19.1780    96.4170    24.9200    14.5470    14.0030    13.8020     2.3590 
  243.8750   -19.1570    95.9190    24.6500    14.1430    13.5280    13.3360     2.3730 
