~V
VERS. 2.00: Ver 2.00
~W
STRT.M 60.0000:
STOP.M 277.0000:
STEP.M 0.1250:
NULL. -999.2500:
UWI. DF3044:
~C
DEPT.M :
GR.API :
CALI.CM :
RXO.OHMM :
RI. :
RML.OHMM :
DEN.GM/CC :
SP.MV :
~A
# ...
  206.2500    81.6030    23.5620     5.9930     4.9040     6.6930     2.4240   -13.0330 
  206.3750    81.1510    23.5610     6.0870     4.8450     6.6530     2.4230   -12.7780 
  206.5000    76.2620    23.5590     6.1240     4.8140     6.6290     2.4100   -12.5720 
  206.6250    74.6440    23.5610     6.1350     4.8770     6.7200     2.3910   -12.4470 
  206.7500    76.7820    23.5630     6.3440     5.0960     7.0270     2.3740   -12.3950 
  206.8750    77.6650    23.5610     6.9680     5.5410     7.6460     2.3620   -12.4170 
  207.0000    75.6210    23.5510     8.1630     6.2600     8.6360     2.3560   -12.4870 
  207.1250    73.8050    23.5440    10.2050     7.2840    10.0170     2.3540   -12.5930 
  207.2500    73.6920    23.5380    12.6450     8.4610    11.5580     2.3540   -12.7400 
  207.3750    73.3870    23.5350    14.5110     9.6310    13.0070     2.3590   -12.9090 
  207.5000    71.9090    23.5300    15.2230    10.6330    14.1410     2.3730   -13.1030 
  207.6250    70.3080    23.5280    14.4370    11.3310    14.7980     2.4020   -13.2900 
  207.7500    69.4930    23.5280    13.6610    11.7620    15.0990     2.4290   -13.4660 
  207.8750    69.3390    23.5280    14.3280    11.9320    15.0990     2.4390   -13.6410 
  208.0000    69.1950    23.5280    16.0840    11.8190    14.7860     2.4290   -13.8290 
  208.1250    69.9130    23.5260    17.0340    11.4270    14.1540     2.4110   -14.0270 
  208.2500    72.6290    23.5230    15.2360    10.9950    13.5040     2.4020   -14.2250 
  208.3750    74.9300    23.5180    12.4500    10.7850    13.1870     2.3960   -14.4370 
  208.5000    74.5170    23.5120    10.9720    11.0200    13.5030     2.3850   -14.6770 
  208.6250    72.1360    23.5040    12.5500    11.9100    14.7200     2.3660   -14.9750 
  208.7500    69.6370    23.4990    16.8050    13.3040    16.5860     2.3460   -15.3140 
  208.8750    67.1560    23.4970    21.9920    14.9800    18.7120     2.3340   -15.6660 
  209.0000    65.2230    23.4920    25.6100    16.6440    20.5680     2.3410   -16.0430 
  209.1250    66.5440    23.4900    25.1530    18.1710    21.8470     2.3540   -16.4490 
  209.2500    68.3630    23.4890    22.7000    19.9610    23.1720     2.3550   -16.8700 
  209.3750    67.5100    23.4890    22.8550    22.6880    25.4320     2.3400   -17.3130 
  209.5000    63.6180    23.4890    29.7080    27.0540    29.4760     2.3250   -17.7570 
  209.6250    59.1460    23.4890    41.0500    33.8450    36.3300     2.3160   -18.1630 
  209.7500    57.0190    23.4890    49.9570    42.0060    45.0950     2.3030   -18.5470 
  209.8750    58.9390    23.4890    57.2630    49.0320    52.8630     2.2820   -18.9220 
  210.0000    64.4040    23.4890    65.3400    51.2990    54.7300     2.2630   -19.2580 
  210.1250    69.2750    23.4940    66.0820    46.3440    47.8670     2.2670   -19.5500 
  210.2500    70.7490    23.5310    55.2670    38.1530    38.0960     2.2940   -19.8130 
  210.3750    69.3430    23.6200    40.3180    30.0600    29.3060     2.3320   -20.0340 
  210.5000    67.3900    23.7070    28.9320    23.8670    22.9770     2.3620   -20.2210 
  210.6250    66.0770    23.7620    26.2830    20.4040    19.6030     2.3720   -20.4140 
  210.7500    63.6050    23.7910    27.2540    19.0910    18.4230     2.3630   -20.6090 
  210.8750    61.8380    23.8030    25.0900    19.8100    19.2530     2.3400   -20.8040 
  211.0000    62.7880    23.8060    19.7800    22.7020    22.1600     2.3150   -21.0020 
  211.1250    63.0950    23.8070    21.9910    28.5990    27.9040     2.3070   -21.2140 
  211.2500    62.5070    23.8050    40.9450    37.3320    36.4270     2.3200   -21.4630 
  211.3750    63.4170    23.8040    70.3990    48.5320    47.5200     2.3450   -21.7390 
  211.5000    64.1010    23.8070    90.4750    61.1480    60.1640     2.3720   -22.0450 
  211.6250    60.2250    23.8360    91.0580    73.9800    72.8350     2.3850   -22.3670 
  211.7500    55.8480    23.8980    94.0800    86.8970    85.1850     2.3730   -22.6980 
  211.8750    55.3510    23.9550   109.9400   101.0220    98.5680     2.3370   -23.0290 
  212.0000    56.4100    23.9810   131.5800   117.7110   114.9350     2.2890   -23.3750 
  212.1250    59.5300    23.9780   148.4310   138.1280   136.4390     2.2530   -23.7370 
  212.2500    65.8030    23.9620   151.3510   161.0960   162.2320     2.2330   -24.0710 
  212.3750    68.4910    23.9390   143.2270   185.1160   190.7520     2.2230   -24.3770 
  212.5000    63.9950    23.9400   134.1490   208.0340   218.9070     2.2160   -24.6500 
  212.6250    58.3450    23.9730   134.2320   226.4950   241.3960     2.2100   -24.8860 
  212.7500    57.1350    23.9890   143.5840   238.7880   255.3980     2.2070   -25.0830 
  212.8750    57.8870    23.9790   156.9630   243.3220   258.8240     2.2040   -25.2520 
  213.0000    58.4150    23.9310   165.2640   239.3820   251.1790     2.1970   -25.3940 
  213.1250    58.8860    23.8500   160.2350   227.4090   233.7400     2.1890   -25.5030 
  213.2500    57.8980    23.8130   145.4380   210.6310   214.0380     2.1820   -25.5710 
  213.3750    55.8890    23.7850   126.8210   191.1320   197.1510     2.1750   -25.6080 
  213.5000    55.8510    23.7280   112.6680   174.8050   182.3040     2.1710   -25.6260 
  213.6250    57.3950    23.6390   110.5140   163.5380   171.9060     2.1770   -25.6280 
  213.7500    57.5430    23.5900   118.3310   156.5790   165.8120     2.1880   -25.6260 
  213.8750    57.1520    23.5760   129.2170   153.4620   163.7740     2.1920   -25.6110 
  214.0000    58.2400    23.5750   137.5770   153.8150   165.4460     2.1910   -25.5960 
  214.1250    59.2520    23.5750   141.8070   157.7720   170.9060     2.1910   -25.5800 
  214.2500    57.1100    23.5850   146.5000   164.1630   178.7180     2.1900   -25.6080 
  214.3750    53.6710    23.6420   152.7150   171.9420   187.5930     2.1870   -25.6580 
  214.5000    52.7530    23.7810   159.4560   179.5270   195.9120     2.1860   -25.7300 
  214.6250    54.4460    23.9240   164.4030   184.4240   201.3760     2.1920   -25.8060 
  214.7500    56.2780    23.9770   165.9930   185.7950   203.3330     2.2010   -25.8910 
  214.8750    57.0500    23.9610   167.7280   184.4330   202.4150     2.2090   -26.0130 
  215.0000    57.6910    23.8910   172.6140   182.4520   200.5110     2.2170   -26.1690 
  215.1250    58.9410    23.8160   176.6780   182.4020   200.1970     2.2220   -26.3060 
  215.2500    60.0940    23.7530   175.5210   185.1730   202.6810     2.2220   -26.4130 
  215.3750    59.5570    23.7120   166.9750   190.6690   208.0480     2.2170   -26.5240 
  215.5000    56.1880    23.6930   158.2230   198.0130   215.4400     2.2100   -26.6330 
  215.6250    54.5620    23.6910   157.0010   206.1240   223.6640     2.2070   -26.7700 
  215.7500    57.2350    23.6970   160.0570   214.3110   231.9410     2.2190   -26.9010 
  215.8750    61.5640    23.7080   160.5920   222.4580   240.1170     2.2480   -26.9960 
  216.0000    62.4470    23.7230   159.4330   230.0870   247.6880     2.2890   -27.0350 
  216.1250    58.5640    23.7370   165.4070   235.5130   253.0350     2.3130   -27.0890 
  216.2500    54.6020    23.7580   188.7240   237.4220   254.9810     2.3040   -27.1360 
  216.3750    53.4960    23.7800   219.1610   234.9020   252.7360     2.2700   -27.1830 
  216.5000    56.6790    23.7940   230.8730   228.2900   246.5870     2.2340   -27.2360 
  216.6250    59.2380    23.8010   210.4970   219.3970   238.0320     2.2160   -27.2400 
  216.7500    57.8410    23.7970   189.2300   211.1500   229.8610     2.2120   -27.2300 
  216.8750    54.3760    23.7790   180.8670   205.0390   223.6480     2.2100   -27.2400 
  217.0000    53.0250    23.7430   181.5740   201.4580   219.9750     2.2030   -27.2790 
  217.1250    55.8300    23.7270   178.8440   200.0940   218.6770     2.1910   -27.3080 
  217.2500    58.2710    23.7260   170.1300   199.6050   218.3430     2.1820   -27.3400 
  217.3750    58.5250    23.7270   160.4720   199.2870   218.2140     2.1780   -27.3810 
