~V
VERS. 2.00: Ver 2.00
~W
STRT.M 130.0000:
STOP.M 271.0000:
STEP.M 0.1250:
NULL. -999.2500:
UWI. DF3076:
~C
DEPT.M :
DEN.GM/CC :
GR.API :
CALI.CM :
RXO.OHMM :
RI. :
RML.OHMM :
SP.MV :
~A
# ...
  197.5000     2.4250    58.3330    23.4000     5.2090     5.4540     5.9380   -10.7910 
  197.6250     2.4130    55.3520    23.3870     5.2230     5.7170     6.0120   -10.7890 
  197.7500     2.4010    48.6400    23.3910     5.2060     5.8170     5.9340   -10.8270 
  197.8750     2.3860    45.9290    23.3890     5.1810     5.7690     5.7670   -10.9160 
  198.0000     2.3700    47.8910    23.3530     5.1510     5.6220     5.5810   -11.0350 
  198.1250     2.3590    48.5700    23.3210     5.1150     5.4490     5.4610   -11.1800 
  198.2500     2.3620    47.9610    23.2920     5.1260     5.3190     5.4580   -11.3250 
  198.3750     2.3780    49.0700    23.2610     5.2390     5.2710     5.5990   -11.4700 
  198.5000     2.4020    52.6230    23.2450     5.5180     5.3180     5.8840   -11.6200 
  198.6250     2.4250    53.7440    23.2490     5.9770     5.4600     6.2830   -11.7930 
  198.7500     2.4420    52.9800    23.3070     6.4330     5.6430     6.6970   -11.9930 
  198.8750     2.4560    55.1330    23.4490     6.7430     5.8150     7.0540   -12.2200 
  199.0000     2.4680    61.3170    23.6120     6.9250     5.9350     7.3130   -12.4870 
  199.1250     2.4760    66.8740    23.6940     7.0320     5.9820     7.4720   -12.8130 
  199.2500     2.4770    69.3690    23.7050     7.0980     6.0010     7.6170   -13.2100 
  199.3750     2.4750    69.8390    23.6900     7.1600     6.0430     7.8290   -13.6610 
  199.5000     2.4750    68.8680    23.7060     7.3890     6.1500     8.1670   -14.1890 
  199.6250     2.4780    69.2640    23.7750     7.9890     6.3510     8.6610   -14.7860 
  199.7500     2.4770    75.1680    23.8470     8.7650     6.6140     9.2380   -15.4390 
  199.8750     2.4660    84.9650    23.8890     9.3770     6.9050     9.8350   -16.1420 
  200.0000     2.4510    94.5790    23.9240     9.6720     7.2060    10.4220   -16.9030 
  200.1250     2.4400   102.0720    23.9650     9.9040     7.5290    11.0120   -17.7300 
  200.2500     2.4320   105.8090    24.0000    10.2790     7.8900    11.6380   -18.6140 
  200.3750     2.4220   102.5950    23.9460    10.8390     8.2950    12.2970   -19.5310 
  200.5000     2.4030    93.7050    23.7280    11.6570     8.7260    12.9570   -20.4350 
  200.6250     2.3810    85.5700    23.3840    12.3660     9.1540    13.5990   -21.2570 
  200.7500     2.3670    82.5240    23.1400    12.7480     9.6030    14.2950   -21.9690 
  200.8750     2.3670    84.0880    23.0460    12.8260    10.1390    15.1670   -22.5300 
  201.0000     2.3780    88.4910    23.0410    13.0140    10.8280    16.2940   -22.8930 
  201.1250     2.3940    90.9190    23.0760    14.1000    11.6880    17.6310   -23.0090 
  201.2500     2.4110    89.1940    23.1280    16.5670    12.5620    18.8610   -22.9090 
  201.3750     2.4310    86.9780    23.1930    19.1480    13.2310    19.6100   -22.6110 
  201.5000     2.4550    87.6530    23.3000    19.6360    13.4640    19.5880   -22.1310 
  201.6250     2.4720    92.3880    23.4600    17.8400    13.1190    18.7610   -21.4960 
  201.7500     2.4810    96.9900    23.5460    16.4220    12.4770    17.6750   -20.7770 
  201.8750     2.4850    99.5800    23.5240    15.7600    11.7660    16.6680   -20.0160 
  202.0000     2.4900   100.7890    23.4500    14.8640    11.1080    15.8330   -19.2580 
  202.1250     2.4930   102.1530    23.4310    13.9200    10.4890    15.0290   -18.5300 
  202.2500     2.4900   103.7640    23.5510    13.2250     9.8220    14.0850   -17.8430 
  202.3750     2.4820   103.0460    23.7720    12.3760     9.0960    13.0190   -17.2050 
  202.5000     2.4690    98.7310    23.9790    10.7750     8.4010    12.0300   -16.6410 
  202.6250     2.4510    93.3190    24.1390     9.2150     7.9290    11.4630   -16.1880 
  202.7500     2.4320    90.1110    24.2200     8.8640     7.7590    11.4160   -15.8050 
  202.8750     2.4210    89.9080    24.3010     9.7360     7.9170    11.8590   -15.4680 
  203.0000     2.4180    92.4740    24.3480    10.9970     8.3520    12.6010   -15.1460 
  203.1250     2.4150    95.2750    24.3480    11.5200     8.8860    13.2250   -14.8060 
  203.2500     2.4060    96.4390    24.3040    11.2400     9.2130    13.3150   -14.4390 
  203.3750     2.3950    95.7180    24.2150    10.7310     9.1220    12.7070   -14.0440 
  203.5000     2.3900    93.6540    24.0840    10.0980     8.5900    11.5480   -13.6270 
  203.6250     2.3960    88.1000    23.9660     8.9660     7.7640    10.2010   -13.1960 
  203.7500     2.4010    79.5810    23.8370     7.5810     6.9280     9.0300   -12.7890 
  203.8750     2.4000    70.6410    23.7100     6.6180     6.2310     8.1840   -12.4360 
  204.0000     2.3960    64.7890    23.6300     6.2910     5.7430     7.6920   -12.1630 
  204.1250     2.3970    65.2130    23.5180     6.2240     5.5030     7.5390   -11.9970 
  204.2500     2.4080    68.9800    23.3370     6.1510     5.4310     7.5680   -11.9190 
  204.3750     2.4240    72.3430    23.1600     6.0830     5.4680     7.6750   -11.9190 
  204.5000     2.4390    75.1630    23.0860     6.0980     5.5570     7.7880   -11.9800 
  204.6250     2.4480    81.4880    23.1520     6.1930     5.6730     7.8900   -12.0830 
  204.7500     2.4520    88.0300    23.3170     6.2940     5.8060     7.9930   -12.1940 
  204.8750     2.4560    88.6900    23.4980     6.3990     5.9500     8.0980   -12.3010 
  205.0000     2.4620    85.2740    23.5990     6.5790     6.0900     8.1850   -12.3890 
  205.1250     2.4700    85.5430    23.6050     6.8030     6.1920     8.2090   -12.4730 
  205.2500     2.4790    90.7250    23.6200     6.8560     6.2330     8.1530   -12.5600 
  205.3750     2.4860    96.0480    23.6700     6.6880     6.2000     8.0190   -12.6560 
  205.5000     2.4840    96.9470    23.7560     6.4860     6.1040     7.8290   -12.7550 
  205.6250     2.4660    92.4190    23.8240     6.4010     5.9660     7.6240   -12.8730 
  205.7500     2.4470    85.7120    23.8660     6.3920     5.8270     7.4460   -13.0080 
  205.8750     2.4420    80.0410    23.9090     6.3820     5.7130     7.3150   -13.1620 
  206.0000     2.4520    80.5790    23.9510     6.4110     5.6330     7.2340   -13.3350 
  206.1250     2.4590    87.2320    23.9660     6.4650     5.5920     7.1960   -13.5370 
  206.2500     2.4490    90.8610    23.9690     6.5120     5.5750     7.1870   -13.7680 
  206.3750     2.4320    89.5010    23.9680     6.5390     5.5850     7.2200   -14.0250 
  206.5000     2.4220    87.3800    23.9700     6.6100     5.6370     7.3230   -14.3230 
  206.6250     2.4240    89.5460    23.9690     6.8350     5.7650     7.5480   -14.6540 
  206.7500     2.4270    92.5220    23.9670     7.2420     5.9720     7.8880   -15.0120 
  206.8750     2.4220    95.2980    23.9490     7.8670     6.2530     8.3180   -15.4020 
  207.0000     2.4110    98.6500    23.9160     8.6090     6.5800     8.7890   -15.8230 
  207.1250     2.4040   100.4760    23.8560     9.1870     6.9160     9.2500   -16.2500 
  207.2500     2.4130    99.1180    23.7920     9.4550     7.2530     9.7120   -16.6830 
  207.3750     2.4280    95.2320    23.7130     9.7380     7.6250    10.2420   -17.1210 
  207.5000     2.4360    90.1200    23.6650    10.4920     8.0980    10.9470   -17.5680 
  207.6250     2.4320    87.5490    23.6550    11.9260     8.8040    12.0410   -18.0290 
  207.7500     2.4220    86.1500    23.6570    13.8250     9.8390    13.6720   -18.5070 
  207.8750     2.4180    83.4290    23.6570    16.3930    11.3830    16.0930   -19.0050 
  208.0000     2.4240    80.5540    23.6540    19.4130    13.7220    19.6620   -19.5380 
  208.1250     2.4390    80.2920    23.6610    24.8240    17.6260    25.2120   -20.1130 
  208.2500     2.4520    79.7960    23.6850    37.4160    23.6070    33.1000   -20.7060 
  208.3750     2.4440    77.3680    23.7090    61.7170    32.2100    43.7920   -21.3130 
  208.5000     2.4030    76.3520    23.6850    88.2450    43.3510    57.1850   -21.9170 
  208.6250     2.3450    80.3800    23.6650   100.2280    55.6700    71.6520   -22.5030 
