~V
VERS. 2.00: Ver 2.00
~W
STRT.M 57.0000:
STOP.M 272.0000:
STEP.M 0.1250:
NULL. -999.2500:
UWI. DF3050:
~C
DEPT.M :
SP.MV :
GR.API :
CALI.CM :
RXO.OHMM :
RI. :
RML.OHMM :
DEN.GM/CC :
~A
# ...
  169.5000   -20.1150    70.7320    24.7250    15.1870    13.4930    15.9670     2.4800 
  169.6250   -20.0260    65.7930    24.5570    13.6510    12.8580    15.0100     2.4700 
  169.7500   -19.9770    65.0910    24.5250    12.6570    12.2610    14.1300     2.4550 
  169.8750   -19.9930    66.5380    24.5180    11.8010    11.7600    13.3890     2.4490 
  170.0000   -20.0670    67.4700    24.5180    11.0670    11.3870    12.8540     2.4510 
  170.1250   -20.2150    67.1960    24.5280    10.6340    11.1680    12.5530     2.4500 
  170.2500   -20.4430    66.7100    24.5660    10.6060    11.1210    12.4770     2.4410 
  170.3750   -20.6880    64.7030    24.6610    11.0530    11.1850    12.5390     2.4370 
  170.5000   -20.9060    60.1950    24.6570    10.9130    11.3100    12.7030     2.4480 
  170.6250   -21.0880    56.6600    24.5430    10.2140    11.4250    12.8830     2.4670 
  170.7500   -21.2360    56.2350    24.5440    10.1270    11.4700    13.0100     2.4830 
  170.8750   -21.3560    56.5370    24.6290    10.6640    11.3750    12.9490     2.4890 
  171.0000   -21.4490    58.3970    24.6980    11.0080    11.0900    12.6470     2.4840 
  171.1250   -21.5330    63.0600    24.7500    11.4800    10.6780    12.2060     2.4650 
  171.2500   -21.6760    66.9830    24.5190    10.9330    10.2960    11.8620     2.4290 
  171.3750   -21.9020    66.2010    24.3300     9.9200    10.1560    11.9490     2.3900 
  171.5000   -22.2100    64.0590    24.0110     8.8010    10.4730    12.8580     2.3650 
  171.6250   -22.5880    64.9740    23.8770     8.4540    11.5460    15.0680     2.3600 
  171.7500   -23.0020    68.3990    23.8240     9.1880    13.9840    19.3170     2.3590 
  171.8750   -23.4240    73.0510    23.8380    13.7840    17.9440    25.5990     2.3410 
  172.0000   -23.8330    78.2680    24.1170    25.4280    23.7630    34.0950     2.3060 
  172.1250   -24.1930    82.7870    24.4440    42.2540    31.5610    44.6950     2.2700 
  172.2500   -24.4310    84.2520    24.6350    53.7950    41.0040    56.5960     2.2490 
  172.3750   -24.5620    82.5430    24.7380    71.9640    50.4890    67.9380     2.2390 
  172.5000   -24.6420    79.6880    24.7720    89.1310    58.6140    77.1980     2.2340 
  172.6250   -24.7050    78.2280    24.7900    92.2670    64.3900    83.3860     2.2300 
  172.7500   -24.7630    78.6770    24.7870    88.5110    67.4640    86.3790     2.2240 
  172.8750   -24.8450    79.3980    24.7930    87.3580    69.1740    88.0380     2.2220 
  173.0000   -24.9370    81.4280    24.7900    89.8800    70.1640    89.0830     2.2280 
  173.1250   -25.0530    86.9040    24.7840    92.9590    70.5790    89.5780     2.2400 
  173.2500   -25.2250    90.3060    24.7750    92.5870    70.6240    89.7310     2.2530 
  173.3750   -25.4130    86.7350    24.7690    86.8700    70.7030    90.0390     2.2640 
  173.5000   -25.5820    79.0350    24.7770    77.1970    71.0960    90.5870     2.2660 
  173.6250   -25.6990    74.6260    24.7990    71.5010    71.7360    91.2200     2.2570 
  173.7500   -25.7040    77.4980    24.8710    76.8020    72.5360    91.7080     2.2430 
  173.8750   -25.6260    81.6470    24.9660    84.2420    73.0810    91.6530     2.2360 
  174.0000   -25.5480    82.5020    24.9240    89.7180    73.0580    90.6830     2.2350 
  174.1250   -25.4800    80.1030    24.9870    91.2800    72.3210    88.7290     2.2380 
  174.2500   -25.4430    78.1090    24.6310    87.6510    70.8840    86.0210     2.2360 
  174.3750   -25.4550    76.3600    24.2340    79.3030    69.1970    83.1370     2.2330 
  174.5000   -25.5040    74.1300    24.2050    69.8550    67.5070    80.5160     2.2340 
  174.6250   -25.5770    73.0430    24.4490    65.2030    66.0990    78.4520     2.2470 
  174.7500   -25.6920    75.4900    24.4980    65.3050    65.1420    77.0180     2.2670 
  174.8750   -25.7910    78.0290    24.5240    66.5210    64.6430    76.1690     2.2730 
  175.0000   -25.8490    78.8620    24.4790    69.5510    64.5610    75.8360     2.2620 
  175.1250   -25.8640    78.3370    24.3960    72.1490    64.7010    75.8310     2.2450 
  175.2500   -25.8080    78.0920    24.6540    70.9110    64.9400    76.0790     2.2410 
  175.3750   -25.7020    78.7350    24.9950    67.0490    65.3800    76.6440     2.2480 
  175.5000   -25.5970    80.2990    24.9750    60.2940    66.1620    77.6450     2.2530 
  175.6250   -25.5280    80.8520    25.0870    61.3650    67.3050    79.0350     2.2480 
  175.7500   -25.5300    78.9000    25.0860    68.5340    68.7550    80.8750     2.2390 
  175.8750   -25.6200    76.3440    25.0170    68.3920    70.6320    83.3100     2.2400 
  176.0000   -25.7470    74.4790    25.0550    62.9840    73.1830    86.5300     2.2490 
  176.1250   -25.8940    74.1230    25.0820    64.5510    76.4920    90.5870     2.2590 
  176.2500   -26.0320    76.6490    25.0610    78.1750    80.4190    95.2660     2.2550 
  176.3750   -26.1170    78.5650    24.9330    83.7460    84.7140   100.3700     2.2420 
  176.5000   -26.1200    76.1420    24.8180    70.9600    89.1810   105.7250     2.2300 
  176.6250   -26.0470    72.1390    24.6160    58.1270    93.6020   111.1070     2.2250 
  176.7500   -25.9270    72.7290    24.7970    65.4300    97.5680   115.9390     2.2290 
  176.8750   -25.7760    74.9120    24.8210    68.4050   100.7570   119.7970     2.2390 
  177.0000   -25.6250    74.5640    24.7830    72.1070   102.9160   122.4110     2.2510 
  177.1250   -25.4980    72.7090    24.7960    84.8550   103.5470   123.0960     2.2590 
  177.2500   -25.4430    73.3630    24.7860    89.6580   102.2390   121.1930     2.2560 
  177.3750   -25.4580    74.5470    24.7840    92.6250    99.4460   117.4590     2.2460 
  177.5000   -25.5100    73.7840    24.7750    91.0940    95.8920   112.8730     2.2340 
  177.6250   -25.5590    70.8920    24.7890    94.4820    92.6730   108.9990     2.2290 
  177.7500   -25.5480    67.0510    24.7840    93.2870    91.5750   108.2380     2.2340 
  177.8750   -25.4890    65.5480    24.7770    83.1100    93.8940   111.6280     2.2420 
  178.0000   -25.4070    66.8270    24.7800    70.3990    99.9470   119.2410     2.2430 
  178.1250   -25.2850    69.2330    24.7850    84.1320   109.3980   130.6760     2.2350 
  178.2500   -25.1560    70.8680    24.8120   121.4250   121.2270   144.6150     2.2200 
  178.3750   -25.0370    70.9150    24.9150   159.7350   132.4800   157.4520     2.2050 
  178.5000   -24.9600    69.6620    24.8620   186.4200   141.2560   166.7950     2.1930 
  178.6250   -24.9730    67.2610    24.7990   197.5410   146.0740   170.9760     2.1870 
  178.7500   -25.0630    66.5040    24.7780   186.8810   144.9910   168.1510     2.1930 
  178.8750   -25.1750    67.8600    24.7670   159.0270   139.7110   160.9670     2.2060 
  179.0000   -25.2680    70.4140    24.7570   128.5250   132.3030   152.0430     2.2170 
  179.1250   -25.3270    73.0260    24.7790   117.1910   124.2860   142.5750     2.2200 
  179.2500   -25.3090    75.8970    24.7980   117.1700   115.4250   132.2080     2.2190 
  179.3750   -25.2330    78.9080    24.9180   124.6110   105.8750   121.1700     2.2190 
  179.5000   -25.1020    81.0000    24.8680   115.0610    96.1090   110.1540     2.2210 
  179.6250   -24.9190    81.8510    24.8150    86.1690    87.2080   100.5800     2.2220 
  179.7500   -24.7490    81.8280    24.7890    75.3230    80.8310    94.2500     2.2260 
  179.8750   -24.6560    83.5610    24.7880    70.1290    77.1550    91.3540     2.2340 
  180.0000   -24.6180    85.4950    24.7800    65.0220    76.7120    92.5070     2.2430 
  180.1250   -24.6320    82.7400    24.7850    60.4330    80.0840    98.1230     2.2460 
  180.2500   -24.6810    74.4550    24.7870    63.5210    87.7010   108.3540     2.2380 
  180.3750   -24.7360    67.8810    24.7850    83.6740    97.3720   120.8150     2.2270 
  180.5000   -24.7490    68.2130    24.8180   117.7660   107.3110   133.5510     2.2200 
  180.6250   -24.7110    71.6030    25.0410   130.7610   116.0640   144.4430     2.2180 
