~V
VERS. 2.00: Ver 2.00
~W
STRT.M 125.0000:
STOP.M 245.0000:
STEP.M 0.1250:
NULL. -999.2500:
UWI. DF3026:
~C
DEPT.M :
SP.MV :
GR.API :
CALI.CM :
RXO.OHMM :
RI. :
RML.OHMM :
DEN.GM/CC :
~A
# ...
  192.5000   -30.2740    97.9800    25.6010     7.4170     6.2230     9.6750     2.4340 
  192.6250   -30.5670    96.1920    25.5390     7.1100     6.1870     9.6700     2.4480 
  192.7500   -30.9300    86.2160    25.4960     6.9970     6.2520     9.8620     2.4580 
  192.8750   -31.3570    76.9550    25.4810     7.2220     6.4270    10.2480     2.4560 
  193.0000   -31.8110    76.4840    25.4790     7.9280     6.7100    10.7960     2.4470 
  193.1250   -32.2750    81.6990    25.4620     9.0120     7.0840    11.4530     2.4430 
  193.2500   -32.7200    83.2780    25.3890    10.0810     7.4640    12.1040     2.4390 
  193.3750   -33.1020    79.8600    25.2470    10.8010     7.7550    12.6180     2.4330 
  193.5000   -33.3550    74.8190    25.1350    11.0260     7.8630    12.8210     2.4300 
  193.6250   -33.4220    73.5300    25.1080    10.6240     7.6970    12.4680     2.4330 
  193.7500   -33.2970    75.0680    25.2030     9.8800     7.3320    11.6420     2.4310 
  193.8750   -33.0070    76.4670    25.4540     8.9780     6.8590    10.5640     2.4200 
  194.0000   -32.5920    76.6850    25.8110     8.0870     6.4000     9.5700     2.4120 
  194.1250   -32.0780    75.1510    26.1220     7.4540     6.1230     9.0510     2.4240 
  194.2500   -31.5100    73.6860    26.2280     7.1920     6.1240     9.1220     2.4440 
  194.3750   -30.9180    72.4660    26.1380     7.5010     6.4710     9.8230     2.4610 
  194.5000   -30.3350    71.9140    25.9100     8.5810     7.1720    11.1070     2.4740 
  194.6250   -29.7880    71.5780    25.8000    10.5160     8.1620    12.7970     2.4910 
  194.7500   -29.2800    71.9690    25.7650    12.5290     9.1440    14.3200     2.5030 
  194.8750   -28.7580    73.6740    25.7650    13.7620     9.7800    15.0600     2.5000 
  195.0000   -28.1820    75.7460    25.7650    13.5810     9.7790    14.5920     2.4870 
  195.1250   -27.4740    77.3970    25.7650    11.6610     9.0120    12.9450     2.4700 
  195.2500   -26.6300    77.5250    25.7650     9.5750     7.8840    10.9680     2.4470 
  195.3750   -25.6340    72.3620    25.7640     7.7110     6.7220     9.1670     2.4140 
  195.5000   -24.4980    60.9500    25.7410     6.1110     5.7510     7.7730     2.3770 
  195.6250   -23.2460    49.8610    25.6620     5.0960     5.1260     6.9180     2.3410 
  195.7500   -21.9630    45.8360    25.5750     4.6540     4.7980     6.5010     2.3080 
  195.8750   -20.7220    47.0920    25.5960     4.6040     4.7190     6.4490     2.2880 
  196.0000   -19.5690    49.2510    25.7390     4.6620     4.8130     6.6430     2.2900 
  196.1250   -18.5640    50.1470    25.7100     4.7240     4.9910     6.9090     2.3100 
  196.2500   -17.7110    52.1830    25.5380     4.7730     5.1520     7.0810     2.3300 
  196.3750   -17.0240    56.6660    25.3070     4.7870     5.2600     7.1320     2.3500 
  196.5000   -16.5130    63.2540    25.3010     4.7690     5.3200     7.1150     2.3830 
  196.6250   -16.1670    70.0100    25.6770     4.7970     5.3430     7.0830     2.4240 
  196.7500   -15.9240    75.4290    26.0270     4.8900     5.3340     7.0510     2.4400 
  196.8750   -15.7410    78.3210    26.0770     4.9830     5.2930     7.0180     2.4190 
  197.0000   -15.5920    78.7230    25.8860     5.0370     5.2340     6.9860     2.3790 
  197.1250   -15.4820    79.0700    25.6660     5.0530     5.1810     6.9460     2.3630 
  197.2500   -15.3990    80.1130    25.5270     5.0200     5.1480     6.9040     2.3730 
  197.3750   -15.3490    79.7970    25.4830     5.0260     5.1410     6.8770     2.3920 
  197.5000   -15.3290    77.6010    25.4790     5.0730     5.1690     6.8900     2.3950 
  197.6250   -15.3580    76.1680    25.4980     5.1630     5.2520     6.9800     2.4070 
  197.7500   -15.4270    77.1510    25.5520     5.4080     5.3730     7.1140     2.4050 
  197.8750   -15.5410    77.4570    25.6260     5.9230     5.4930     7.2160     2.3990 
  198.0000   -15.7070    76.0940    25.6930     6.6250     5.5530     7.2070     2.3930 
  198.1250   -15.9210    76.1390    25.7690     6.6060     5.4980     7.0670     2.3960 
  198.2500   -16.1830    79.6170    25.8390     6.0660     5.3780     6.9570     2.4070 
  198.3750   -16.4910    83.9560    25.8680     5.5630     5.2610     7.0120     2.4130 
  198.5000   -16.8360    86.0420    25.8710     5.5590     5.2050     7.2470     2.4120 
  198.6250   -17.2290    85.7660    25.8740     6.1940     5.2630     7.6100     2.4120 
  198.7500   -17.6530    82.8940    25.8880     7.0930     5.4600     8.0670     2.4170 
  198.8750   -18.1090    78.0730    25.9220     7.8530     5.8790     8.7120     2.4210 
  199.0000   -18.5810    74.6110    25.9480     8.3790     6.6540     9.7290     2.4220 
  199.1250   -19.0870    71.6110    25.9580     9.7040     8.1150    11.5260     2.4220 
  199.2500   -19.6110    65.1060    25.9630    13.7730    10.5110    14.3520     2.4210 
  199.3750   -20.1640    57.3040    25.9770    22.8950    14.2270    18.5570     2.4080 
  199.5000   -20.7460    55.5660    26.0000    35.8390    19.5720    24.5150     2.3790 
  199.6250   -21.3330    60.5140    26.0370    47.4740    26.5230    32.5490     2.3360 
  199.7500   -21.9140    62.7380    26.0670    53.6480    33.5530    41.0760     2.2970 
  199.8750   -22.4770    61.7640    26.1070    57.2300    39.1600    48.1150     2.2730 
  200.0000   -23.0400    61.1290    26.1350    59.2630    42.7640    52.6900     2.2640 
  200.1250   -23.5950    59.9480    26.1440    57.9810    45.0120    55.5510     2.2570 
  200.2500   -24.1380    55.9160    26.1490    55.2530    47.3370    58.6270     2.2460 
  200.3750   -24.6490    53.4290    26.1540    55.5310    50.3630    62.9110     2.2310 
  200.5000   -25.1200    55.5250    26.1570    58.1490    54.1600    68.5960     2.2180 
  200.6250   -25.5570    60.8130    26.1410    58.3740    58.3900    74.8650     2.2200 
  200.7500   -25.9710    65.1440    26.0560    59.3730    62.4270    80.1480     2.2580 
  200.8750   -26.3700    65.9030    25.8650    62.0340    65.9010    83.4990     2.3090 
  201.0000   -26.7480    62.6840    25.6300    59.8630    68.7840    85.0420     2.3390 
  201.1250   -27.0960    59.4570    25.5290    51.0540    71.6050    86.2570     2.3300 
  201.2500   -27.4260    58.8450    25.5060    47.8960    75.0920    88.8600     2.2960 
  201.3750   -27.7460    59.1950    25.5080    57.5170    79.5280    93.3290     2.2650 
  201.5000   -28.0600    58.6130    25.5070    72.0930    84.7650    99.2450     2.2460 
  201.6250   -28.3630    59.5130    25.4470    81.7430    90.3810   105.8810     2.2370 
  201.7500   -28.6640    60.5870    25.3140    83.7020    95.8370   112.3140     2.2360 
  201.8750   -28.9600    60.7110    25.1850    82.9120   101.0810   118.3020     2.2380 
  202.0000   -29.2370    59.9430    25.1370    82.7180   106.5520   124.3870     2.2390 
  202.1250   -29.4930    59.4480    25.2050    86.9220   112.9490   131.5810     2.2370 
  202.2500   -29.7310    58.4360    25.3380    92.4740   120.0360   139.6450     2.2300 
  202.3750   -29.9510    58.5830    25.4550    96.2260   127.1940   147.7980     2.2210 
  202.5000   -30.1460    59.9740    25.5000    98.7180   133.7730   155.3080     2.2150 
  202.6250   -30.3110    61.9140    25.4970   100.5680   139.1200   161.4930     2.2160 
  202.7500   -30.4540    64.2860    25.4970   100.3030   143.2270   166.2450     2.2260 
  202.8750   -30.5840    65.0400    25.4980    98.9350   145.9810   169.2070     2.2350 
  203.0000   -30.6950    61.8590    25.5000   100.2530   147.1370   169.7460     2.2380 
  203.1250   -30.7850    57.0900    25.5000   105.1590   146.0910   166.8410     2.2350 
  203.2500   -30.8600    56.6230    25.4970   108.6610   143.2430   161.3870     2.2310 
  203.3750   -30.9120    57.7930    25.4700   108.5020   139.0280   154.3850     2.2270 
  203.5000   -30.9510    55.3950    25.3860   105.0220   133.9200   146.7400     2.2210 
  203.6250   -30.9790    52.7310    25.2080   100.8110   128.1680   139.0450     2.2150 
