~V
VERS. 2.00: Ver 2.00
~W
STRT.M 64.0000:
STOP.M 262.0000:
STEP.M 0.1250:
NULL. -999.2500:
UWI. DF3019:
~C
DEPT.M :
GR.API :
RML.OHMM :
RI. :
RXO.OHMM :
CALI.CM :
DEN.GM/CC :
SP.MV :
~A
# ...
   97.7500    77.6170    11.9890     9.4260    19.0900    23.6810  -999.2500   -24.1890 
   97.8750    71.9620    11.9460     9.6280    13.8970    23.6880  -999.2500   -25.0720 
   98.0000    65.9120    11.5090     9.4790    10.0940    23.8000  -999.2500   -25.8520 
   98.1250    63.6910    11.0460     9.2110     9.3860    23.8490  -999.2500   -26.5740 
   98.2500    65.9920    10.8070     9.0450     9.5110    23.6810  -999.2500   -27.1430 
   98.3750    70.5700    10.8180     9.0330     9.9360    23.3100  -999.2500   -27.5660 
   98.5000    74.9760    10.9770     9.1240    10.5640    22.8720  -999.2500   -27.9030 
   98.6250    78.1060    11.1410     9.2250    10.7300    22.6090  -999.2500   -28.2650 
   98.7500    78.5950    11.2370     9.2770    10.0410    22.5630  -999.2500   -28.5070 
   98.8750    75.3910    11.2730     9.2820     9.8650    22.7480  -999.2500   -28.7450 
   99.0000    69.4630    11.2800     9.2660    10.1140    23.1440  -999.2500   -28.9710 
   99.1250    64.1430    11.2860     9.2520     9.9380    23.5140  -999.2500   -29.1440 
   99.2500    61.2620    11.2990     9.2430     9.8470    23.6650  -999.2500   -29.3770 
   99.3750    60.9610    11.3160     9.2340     9.8750    23.5400  -999.2500   -29.5230 
   99.5000    64.1400    11.3320     9.2180     9.8620    23.5290  -999.2500   -29.6300 
   99.6250    68.9850    11.3530     9.1980     9.8660    23.5180  -999.2500   -29.6880 
   99.7500    70.1260    11.3830     9.1820     9.9340    23.4850  -999.2500   -29.6670 
   99.8750    67.0700    11.4210     9.1740     9.9810    23.4390  -999.2500   -29.6410 
  100.0000    63.4450    11.4610     9.1730    10.0260    23.4260  -999.2500   -29.6060 
  100.1250    62.9530    11.4870     9.1740    10.0520    23.4270  -999.2500   -29.5280 
  100.2500    63.6170    11.4910     9.1680    10.0020    23.4240  -999.2500   -29.4290 
  100.3750    63.5310    11.4710     9.1560     9.8940    23.4260  -999.2500   -29.3660 
  100.5000    63.6520    11.4370     9.1390     9.8080    23.4280  -999.2500   -29.2520 
  100.6250    64.0350    11.4130     9.1280     9.8330    23.4440  -999.2500   -29.1010 
  100.7500    63.5950    11.4150     9.1310     9.9610    23.4760  -999.2500   -29.0050 
  100.8750    63.4780    11.4480     9.1490    10.1420    23.5310  -999.2500   -28.8260 
  101.0000    64.6890    11.5040     9.1820    10.2500    23.5600  -999.2500   -28.6540 
  101.1250    67.3970    11.5630     9.2230    10.2410    23.5370  -999.2500   -28.5000 
  101.2500    69.1220    11.6120     9.2650    10.1810    23.4210  -999.2500   -28.2750 
  101.3750    70.5070    11.6500     9.3060    10.2060    23.3750  -999.2500   -28.0830 
  101.5000    73.0370    11.6810     9.3410    10.3060    23.4480  -999.2500   -27.9270 
  101.6250    75.2010    11.7090     9.3660    10.4520    23.4800  -999.2500   -27.7720 
  101.7500    75.6030    11.7300     9.3770    10.6280    23.5090  -999.2500   -27.6470 
  101.8750    73.0580    11.7360     9.3730    10.8470    23.5110  -999.2500   -27.5630 
  102.0000    67.8830    11.7290     9.3580    11.0360    23.4800  -999.2500   -27.4700 
  102.1250    63.8520    11.7210     9.3450    10.9390    23.4540  -999.2500   -27.3570 
  102.2500    63.0700    11.7300     9.3470    10.5680    23.4170  -999.2500   -27.3050 
  102.3750    64.2580    11.7590     9.3680    10.3760    23.3560  -999.2500   -27.1930 
  102.5000    65.3430    11.7950     9.4010    10.3740    23.2950  -999.2500   -27.1030 
  102.6250    65.9460    11.7950     9.4160    10.4280    23.2630  -999.2500   -27.0260 
  102.7500    68.8180    11.7360     9.3900    10.5170    23.2920  -999.2500   -26.8780 
  102.8750    73.1790    11.6160     9.3110    10.5340    23.3410  -999.2500   -26.8170 
  103.0000    75.8690    11.4640     9.1930    10.4010    23.4160  -999.2500   -26.7190 
  103.1250    75.0830    11.3310     9.0650    10.0690    23.4950  -999.2500   -26.6900 
  103.2500    73.9290    11.2500     8.9610     9.6880    23.5490  -999.2500   -26.7220 
  103.3750    73.5860    11.2230     8.8990     9.4060    23.5790  -999.2500   -26.7450 
  103.5000    72.9050    11.2270     8.8750     9.4330    23.6020  -999.2500   -26.7430 
  103.6250    71.9980    11.2240     8.8780     9.5080    23.6370  -999.2500   -26.7690 
  103.7500    72.0210    11.1900     8.8880     9.5670    23.6580  -999.2500   -26.8290 
  103.8750    72.4820    11.1280     8.8990     9.5890    23.6640  -999.2500   -26.7370 
  104.0000    72.6380    11.0620     8.9190     9.5210    23.6630  -999.2500   -26.6400 
  104.1250    73.3910    11.0410     8.9710     9.4140    23.6560  -999.2500   -26.4900 
  104.2500    73.9260    11.0920     9.0650     9.3160    23.6200  -999.2500   -26.0900 
  104.3750    71.2720    11.2090     9.1920     9.2470    23.5290  -999.2500   -25.6400 
  104.5000    66.4400    11.3450     9.3160     9.2190    23.4580  -999.2500   -25.1140 
  104.6250    66.0430    11.3770     9.3410     9.4180    23.3050  -999.2500   -24.3490 
  104.7500    69.5060    11.1970     9.1900     9.1120    23.1920  -999.2500   -23.4960 
  104.8750    73.5520    10.7400     8.8090     8.6240    23.1460  -999.2500   -22.5700 
  105.0000    77.9750    10.0040     8.1980     8.1700    23.1620  -999.2500   -21.5800 
  105.1250    86.6080     9.0570     7.4130     7.4730    23.2790  -999.2500   -20.5420 
  105.2500    95.3600     8.0950     6.6130     6.5760    23.5030  -999.2500   -19.5810 
  105.3750   100.8600     7.2870     5.9280     5.8820    23.7240  -999.2500   -18.7430 
  105.5000   106.7710     6.7900     5.4750     5.5640    23.8990  -999.2500   -18.0340 
  105.6250   112.2120     6.7980     5.4100     5.5050    24.1010  -999.2500   -17.4890 
  105.7500   111.6590     7.2500     5.7140     5.7350    24.2320  -999.2500   -17.1150 
  105.8750   104.8700     8.0170     6.3300     6.4110    24.2100  -999.2500   -16.8690 
  106.0000    96.2430     8.8510     7.0990     7.5880    24.1500  -999.2500   -16.7030 
  106.1250    90.1610     9.3800     7.7370     9.2980    24.1240  -999.2500   -16.6800 
  106.2500    88.2730     9.4240     8.0180    10.9870    24.1260  -999.2500   -16.6790 
  106.3750    93.0100     8.9980     7.8660    11.5590    24.1180  -999.2500   -16.6860 
  106.5000   101.7630     8.3040     7.3790    10.3750    24.0950  -999.2500   -16.7400 
  106.6250   104.6000     7.6540     6.7830     7.2600    24.0530  -999.2500   -16.7670 
  106.7500   101.8660     7.2400     6.2990     6.1590    24.0620  -999.2500   -16.8130 
  106.8750   100.5370     7.0870     5.9960     6.0150    24.1220  -999.2500   -16.9180 
  107.0000   103.3180     7.1200     5.8600     6.1390    24.2120     0.0000   -16.9720 
  107.1250   107.2960     7.2320     5.8370     5.9650    24.2950     0.0000   -17.0950 
  107.2500   108.3890     7.3100     5.8340     5.8940    24.3370     0.0000   -17.3290 
  107.3750   108.0360     7.3140     5.8110     5.8910    24.3550     0.0000   -17.4430 
  107.5000   108.4410     7.2500     5.7580     5.8660    24.3430     0.0000   -17.5580 
  107.6250   110.2620     7.1540     5.6930     5.8520    24.2820     0.5710   -17.8060 
  107.7500   112.5530     7.0910     5.6560     5.9830    24.1830     2.2870   -17.9570 
  107.8750   114.9410     7.1290     5.6900     6.2100    24.0760     2.2940   -18.1820 
  108.0000   115.8090     7.3540     5.8550     6.3600    23.9040     2.2990   -18.5160 
  108.1250   111.4800     7.8680     6.2310     6.7990    23.7020     2.3040   -18.7770 
  108.2500   104.3770     8.5850     6.7690     7.6110    23.5560     2.3130   -19.1050 
  108.3750    99.3440     9.3510     7.3720     8.6980    23.5070     2.3280   -19.5150 
  108.5000    95.9230     9.9530     7.8870    10.4070    23.4940     2.3450   -19.9870 
  108.6250    92.2330    10.1260     8.0990    12.7330    23.4820     2.3540   -20.4000 
  108.7500    90.2790     9.8920     7.9840    13.5960    23.4980     2.3480   -20.8260 
  108.8750    91.8580     9.3920     7.6180    10.9470    23.5960     2.3280   -21.2750 
