~V
VERS. 2.00: Ver 2.00
~W
STRT.M 64.0000:
STOP.M 278.0000:
STEP.M 0.1250:
NULL. -999.2500:
UWI. DF3056:
~C
DEPT.M :
SP.MV :
GR.API :
CALI.CM :
RXO.OHMM :
RI. :
RML.OHMM :
DEN.GM/CC :
~A
# ...
   75.2500   -43.0320    64.9100    24.1720    13.7690     8.9750     9.9780  -999.2500 
   75.3750   -42.7320    67.8030    24.1410    13.6690     9.0080    10.0380  -999.2500 
   75.5000   -42.4500    64.1370    24.1020    13.5930     9.0080    10.0750  -999.2500 
   75.6250   -42.1970    58.5170    24.1530    13.4280     8.9720    10.0680  -999.2500 
   75.7500   -41.9710    60.3220    24.2100    14.4610     8.9150    10.0270  -999.2500 
   75.8750   -41.7730    66.0180    23.9980    15.2880     8.8540     9.9720  -999.2500 
   76.0000   -41.6020    68.6820    23.9090    14.6080     8.8010     9.9240  -999.2500 
   76.1250   -41.4070    65.2360    23.8930    12.8780     8.7720     9.8800  -999.2500 
   76.2500   -41.1720    62.2550    23.8140    12.7830     8.7670     9.8410  -999.2500 
   76.3750   -40.8820    63.0120    23.8070    12.9110     8.7840     9.8130  -999.2500 
   76.5000   -40.5830    65.5650    23.8430    12.6870     8.8050     9.8050  -999.2500 
   76.6250   -40.3290    67.4440    23.7520    11.8460     8.8200     9.8190  -999.2500 
   76.7500   -40.1440    67.0120    23.6190    11.1640     8.8320     9.8310  -999.2500 
   76.8750   -40.0050    66.1340    23.5930    10.8760     8.8450     9.8500  -999.2500 
   77.0000   -39.9000    65.6020    23.5930    10.5700     8.8710     9.8800  -999.2500 
   77.1250   -39.8270    65.5380    23.5940    10.1330     8.9030     9.9110  -999.2500 
   77.2500   -39.7660    65.4600    23.5950     9.9730     8.9060     9.8990  -999.2500 
   77.3750   -39.6960    63.2160    23.6200     9.5430     8.8610     9.8220  -999.2500 
   77.5000   -39.5830    61.2020    23.6700     9.1550     8.7700     9.6880  -999.2500 
   77.6250   -39.3680    63.8610    23.7300    10.1570     8.6360     9.5040  -999.2500 
   77.7500   -39.1190    68.4350    23.9850    11.3330     8.4750     9.3030  -999.2500 
   77.8750   -38.8840    72.5410    24.2200    11.8730     8.3360     9.1530  -999.2500 
   78.0000   -38.6920    73.9890    23.9340    11.3750     8.2570     9.0990  -999.2500 
   78.1250   -38.5780    70.3600    23.6470    10.9820     8.2660     9.1740  -999.2500 
   78.2500   -38.5120    63.7170    23.4310    11.1070     8.3570     9.3320  -999.2500 
   78.3750   -38.5110    60.0130    23.3240    11.4160     8.4990     9.5250  -999.2500 
   78.5000   -38.6010    61.3320    23.5380    11.4900     8.6420     9.6830  -999.2500 
   78.6250   -38.7650    64.0950    23.4870    11.0920     8.7460     9.7570  -999.2500 
   78.7500   -38.8840    66.8690    23.4500    10.4100     8.8090     9.7540  -999.2500 
   78.8750   -38.8800    67.9640    23.6540     9.6680     8.8130     9.6640  -999.2500 
   79.0000   -38.7050    65.8300    24.6390     9.6170     8.7690     9.5220  -999.2500 
   79.1250   -38.3320    61.8470    24.8540    10.0280     8.7330     9.4190  -999.2500 
   79.2500   -37.8630    59.9020    24.6060    10.4880     8.7310     9.3900  -999.2500 
   79.3750   -37.3470    60.1810    24.4320    10.7900     8.7670     9.4360  -999.2500 
   79.5000   -36.7280    60.8490    24.3370    10.9990     8.8380     9.5390  -999.2500 
   79.6250   -36.0250    60.6050    24.1870    10.6580     8.9340     9.6730  -999.2500 
   79.7500   -35.2640    59.6750    23.9990    10.0800     9.0030     9.7860  -999.2500 
   79.8750   -34.4570    58.3870    23.8810     9.4080     9.0020     9.8140  -999.2500 
   80.0000   -33.6170    57.5200    23.9110     9.0830     8.8940     9.7230  -999.2500 
   80.1250   -32.7190    57.2080    24.1740     9.0070     8.6490     9.4740  -999.2500 
   80.2500   -31.7720    59.9540    24.2190     9.0630     8.3070     9.1170  -999.2500 
   80.3750   -30.7700    68.7020    24.1840     9.0470     7.9080     8.7010  -999.2500 
   80.5000   -29.7990    81.7630    23.9710     8.4610     7.4990     8.2860  -999.2500 
   80.6250   -28.9220    92.4740    24.1150     7.1130     7.1410     7.9320  -999.2500 
   80.7500   -28.2060    98.5020    24.5070     6.3650     6.8480     7.6670  -999.2500 
   80.8750   -27.7150   101.7170    24.6650     6.6540     6.6360     7.5180  -999.2500 
   81.0000   -27.4620   103.3670    24.7910     7.7790     6.5130     7.4750  -999.2500 
   81.1250   -27.5000   102.7390    24.7770     8.6830     6.4720     7.5080  -999.2500 
   81.2500   -27.7460   101.2950    24.6970     9.0060     6.4830     7.5860  -999.2500 
   81.3750   -28.1380   101.1710    24.6600     9.0720     6.5200     7.6680  -999.2500 
   81.5000   -28.6390   104.1370    24.6130     9.0990     6.5590     7.7130  -999.2500 
   81.6250   -29.1670   107.0300    24.5110     9.3420     6.6020     7.7540  -999.2500 
   81.7500   -29.6580   103.8890    24.4950     9.5540     6.6730     7.8210  -999.2500 
   81.8750   -30.1080    94.8780    24.5180     9.2540     6.7540     7.8880  -999.2500 
   82.0000   -30.5370    84.2360    24.6240     8.6210     6.8050     7.9240  -999.2500 
   82.1250   -30.9320    78.4560    24.4880     8.8240     6.7970     7.9000  -999.2500 
   82.2500   -31.2780    76.8060    24.3620     9.2530     6.6820     7.7540  -999.2500 
   82.3750   -31.6190    78.0070    24.2910    10.8120     6.4770     7.5300  -999.2500 
   82.5000   -32.0010    80.5680    24.2270    12.0330     6.3030     7.3850  -999.2500 
   82.6250   -32.4840    85.5270    24.2100    10.9780     6.2680     7.4390  -999.2500 
   82.7500   -33.0710    92.3430    24.3400     9.0760     6.4120     7.7280  -999.2500 
   82.8750   -33.7360    96.2020    24.4530     8.6010     6.7830     8.3070  -999.2500 
   83.0000   -34.4220    91.8460    24.4750     9.5460     7.3930     9.1150  -999.2500 
   83.1250   -35.1100    79.0260    24.4630    15.5580     8.1950    10.0050  -999.2500 
   83.2500   -35.8010    67.1310    24.3490    28.9820     9.0830    10.8750  -999.2500 
   83.3750   -36.4640    63.7490    24.1860    32.4160     9.9350    11.6210  -999.2500 
   83.5000   -37.0820    67.7760    23.9390    21.0440    10.5720    12.1070  -999.2500 
   83.6250   -37.6280    68.8880    23.8900    12.4940    10.8960    12.2860  -999.2500 
   83.7500   -38.1160    64.4250    23.7620    12.5050    11.0140    12.2600  -999.2500 
   83.8750   -38.5540    62.2960    23.3590    16.1300    10.9030    12.0400  -999.2500 
   84.0000   -38.9300    67.3600    23.3600    22.7320    10.6370    11.7170  -999.2500 
   84.1250   -39.2460    75.1130    23.6320    21.9740    10.2920    11.3730  -999.2500 
   84.2500   -39.5310    76.5860    23.8830    16.9200     9.8900    10.9860  -999.2500 
   84.3750   -39.7570    70.8880    24.0830    13.7670     9.4480    10.5620  -999.2500 
   84.5000   -39.8640    63.1010    24.2680    13.0230     9.0340    10.1850  -999.2500 
   84.6250   -39.7950    60.0890    24.3530    12.6300     8.7350     9.9740  -999.2500 
   84.7500   -39.5920    61.7500    24.3670    12.7030     8.5750     9.9800  -999.2500 
   84.8750   -39.2840    64.0300    24.2340    12.8230     8.5600    10.1560  -999.2500 
   85.0000   -38.9360    63.1000    23.9550    12.4370     8.6180    10.4050  -999.2500 
   85.1250   -38.5920    59.9050    23.8610    11.7840     8.6770    10.6330  -999.2500 
   85.2500   -38.2410    58.4410    23.7620    11.3390     8.7470    10.8340  -999.2500 
   85.3750   -37.9040    60.4220    23.7120    11.5000     8.7900    10.9490  -999.2500 
   85.5000   -37.6190    63.2040    23.7240    11.8500     8.7700    10.9240  -999.2500 
   85.6250   -37.4370    63.6060    23.7180    11.6790     8.6610    10.7200  -999.2500 
   85.7500   -37.2980    63.7520    23.6520    11.5680     8.4840    10.3850  -999.2500 
   85.8750   -37.1690    66.1390    23.6000    11.5730     8.2560     9.9990  -999.2500 
   86.0000   -37.0580    72.2510    23.6320    11.5270     8.0280     9.6670  -999.2500 
   86.1250   -36.9680    77.4710    23.8450    10.7290     7.8850     9.5070  -999.2500 
   86.2500   -36.8990    77.4150    23.8410    10.0330     7.8490     9.5590  -999.2500 
   86.3750   -36.8710    74.1550    23.8210    10.4630     7.9320     9.7940  -999.2500 
