~V
VERS. 2.00: Ver 2.00
~W
STRT.M 60.0000:
STOP.M 258.0000:
STEP.M 0.1250:
NULL. -999.2500:
UWI. DF3032:
~C
DEPT.M :
GR.API :
RML.OHMM :
RI. :
RXO.OHMM :
CALI.CM :
DEN.GM/CC :
SP.MV :
~A
# ...
  183.7500    77.0740   106.3210    92.7840    94.7900    24.8400     2.2660   -23.4340 
  183.8750    78.7670   109.5540    95.8160    96.6140    25.0780     2.2630   -23.6560 
  184.0000    77.0940   113.3800    99.5230   101.9540    25.1290     2.2590   -23.6880 
  184.1250    76.0520   116.7400   103.0690   109.7840    24.9690     2.2530   -23.8490 
  184.2500    76.7130   118.8040   105.6610   117.8780    24.7010     2.2470   -24.0290 
  184.3750    76.6800   119.2330   106.8980   119.3610    24.5860     2.2410   -24.0080 
  184.5000    75.6690   118.1650   106.7680   115.0460    24.6950     2.2390   -24.0360 
  184.6250    75.9340   115.8830   105.3930   109.3050    25.0150     2.2390   -24.1070 
  184.7500    78.0290   112.8740   103.2340   104.6330    25.1650     2.2400   -24.1030 
  184.8750    80.1200   109.1600   100.3590   102.7550    25.0940     2.2410   -24.1530 
  185.0000    80.8360   104.8760    96.8990   102.5960    24.8480     2.2410   -24.2310 
  185.1250    80.0990   100.9060    93.5240   101.9000    24.6960     2.2380   -24.2750 
  185.2500    79.3310    98.5220    91.3010    96.9570    24.6960     2.2330   -24.3680 
  185.3750    78.3880    98.5560    90.9930    85.6390    24.7020     2.2220   -24.4930 
  185.5000    76.0280   100.9860    92.7120    79.7680    24.7280     2.2060   -24.6090 
  185.6250    74.6590   104.8670    95.8470    93.3310    24.5520     2.1870   -24.7970 
  185.7500    75.9290   108.3760    98.8830   120.6330    24.3350     2.1710   -24.9450 
  185.8750    77.4020   110.6120   100.9740   127.9980    24.2100     2.1650   -25.0880 
  186.0000    76.1950   111.7760   102.1300   103.5980    24.1870     2.1720   -25.3300 
  186.1250    76.3100   113.3900   103.4780    82.0390    24.1890     2.1940   -25.4730 
  186.2500    78.1110   117.0910   106.4800    73.9030    24.1810     2.2210   -25.6130 
  186.3750    76.8080   123.6550   111.9840    81.9600    24.1710     2.2470   -25.9050 
  186.5000    71.1810   132.7880   119.9310   102.5540    24.1660     2.2660   -26.0860 
  186.6250    65.9320   143.2110   129.3190   123.9710    24.1830     2.2770   -26.2050 
  186.7500    62.9200   153.0010   138.2940   134.4940    24.2920     2.2790   -26.4740 
  186.8750    60.7590   161.2910   145.8790   134.8770    24.5750     2.2730   -26.6420 
  187.0000    61.3470   168.2180   151.9880   138.7330    24.8910     2.2580   -26.6660 
  187.1250    64.0680   174.6990   157.2720   150.3760    24.8840     2.2390   -26.8000 
  187.2500    63.9750   181.3900   162.4760   163.5590    24.6990     2.2220   -26.8190 
  187.3750    61.3910   187.3700   167.0400   167.9330    24.7390     2.2110   -26.6400 
  187.5000    61.0280   190.1600   169.0860   166.5340    25.0230     2.2080   -26.5690 
  187.6250    63.8170   185.1710   164.8960   165.9770    25.1560     2.2140   -26.4510 
  187.7500    64.9530   171.9620   153.9010   168.5680    25.0580     2.2230   -26.2240 
  187.8750    64.6380   152.7790   137.6040   170.8390    24.8300     2.2320   -26.1200 
  188.0000    65.8550   132.7200   119.8990   158.1910    24.7070     2.2420   -26.0860 
  188.1250    69.1950   118.7590   106.6010   123.4500    24.6990     2.2530   -26.0850 
  188.2500    71.4950   113.7840   100.7810    88.8190    24.9100     2.2640   -26.1960 
  188.3750    70.8690   118.9430   103.8470    74.9910    25.0820     2.2700   -26.3490 
  188.5000    67.2760   134.1400   115.8400    81.9120    25.0980     2.2700   -26.5140 
  188.6250    63.6360   159.2400   136.4260   106.9280    24.7960     2.2610   -26.7030 
  188.7500    62.5980   189.5010   161.1420   144.6120    24.6210     2.2470   -26.9010 
  188.8750    63.5630   220.3940   185.9440   177.7680    24.5490     2.2330   -26.9940 
  189.0000    64.2310   246.6410   206.5280   185.9940    24.5320     2.2220   -26.9840 
  189.1250    62.3580   261.3940   217.7550   185.5230    24.5280     2.2150   -26.9480 
  189.2500    59.2650   263.3250   219.0580   192.5910    24.5280     2.2120   -26.8370 
  189.3750    57.9630   252.1070   210.4010   203.2170    24.5280     2.2130   -26.6480 
  189.5000    60.4000   229.7390   193.2600   203.8930    24.5370     2.2160   -26.4280 
  189.6250    65.7990   201.0770   170.8930   191.6470    24.6960     2.2200   -26.2850 
  189.7500    69.5560   174.6580   149.5880   170.9950    25.0420     2.2240   -26.0410 
  189.8750    71.3020   155.8230   133.6770   144.0550    25.3690     2.2280   -25.8190 
  190.0000    72.6570   146.9510   125.5060   115.8300    25.5040     2.2330   -25.7990 
  190.1250    73.5460   148.4120   125.8590   102.2990    25.4820     2.2370   -25.6450 
  190.2500    73.2270   154.4470   130.2460   107.5850    25.3220     2.2400   -25.4730 
  190.3750    71.6300   159.3140   134.0440   125.7560    24.9610     2.2420   -25.4520 
  190.5000    70.2690   156.9710   132.3310   150.5590    24.6910     2.2420   -25.2810 
  190.6250    69.4940   141.3840   120.0990   149.3750    24.6040     2.2430   -25.1110 
  190.7500    70.5330   116.1290    99.7970   123.0940    24.6130     2.2450   -25.0270 
  190.8750    74.1670    87.7070    76.3050    90.7890    24.6970     2.2510   -24.8520 
  191.0000    79.7030    63.1630    55.4090    62.1600    24.8330     2.2630   -24.6830 
  191.1250    84.1940    47.7690    41.8550    38.7500    24.9700     2.2880   -24.5650 
  191.2500    85.7020    40.3540    34.9670    24.9660    24.9910     2.3220   -24.5300 
  191.3750    84.2300    39.8280    33.9350    19.8950    24.9980     2.3560   -24.5730 
  191.5000    80.5570    45.0040    37.9710    24.0150    25.0560     2.3780   -24.6830 
  191.6250    76.8250    54.7730    46.6030    36.6600    24.9950     2.3730   -24.8460 
  191.7500    74.2260    65.7610    57.0790    57.4820    24.7640     2.3430   -25.0270 
  191.8750    74.0060    74.7780    66.5000    75.5840    24.6240     2.3020   -25.2230 
  192.0000    75.7510    78.6890    71.6870    76.0330    24.8280     2.2640   -25.4090 
  192.1250    76.6220    74.6670    69.4740    68.1040    24.9850     2.2440   -25.5230 
  192.2500    77.2320    65.2690    61.7960    61.7400    25.0120     2.2430   -25.5070 
  192.3750    78.1590    53.6920    51.4980    53.3720    24.9200     2.2590   -25.4120 
  192.5000    78.3840    42.8350    41.3830    40.3340    24.7710     2.2830   -25.2320 
  192.6250    77.8110    34.5220    33.3420    28.8240    24.6030     2.3060   -24.8470 
  192.7500    79.5550    28.4270    27.3130    20.0770    24.4380     2.3210   -24.4140 
  192.8750    84.4880    24.1700    23.0390    17.5370    24.2770     2.3270   -23.8520 
  193.0000    90.3200    21.4590    20.2580    18.6710    24.1910     2.3300   -23.0830 
  193.1250    95.2410    20.3740    19.0050    18.7310    24.1400     2.3370   -22.4700 
  193.2500    97.7860    20.5050    18.8840    15.5760    24.0810     2.3500   -21.9570 
  193.3750    96.4470    21.4980    19.6210    14.6130    24.0180     2.3600   -21.3810 
  193.5000    91.1070    22.8310    20.8170    16.3940    23.9750     2.3610   -21.0140 
  193.6250    86.2720    23.8910    21.9630    20.9230    23.9760     2.3500   -20.8180 
  193.7500    86.0610    24.4340    22.7280    23.2530    23.9890     2.3390   -20.6300 
  193.8750    88.1360    24.6090    23.1180    21.5280    24.0120     2.3360   -20.6980 
  194.0000    87.0190    24.8660    23.4320    19.5780    24.0760     2.3430   -20.8920 
  194.1250    81.9450    25.9370    24.2570    20.4670    24.2720     2.3520   -21.0070 
  194.2500    79.4820    28.1200    25.9400    23.1980    24.5720     2.3540   -21.1670 
  194.3750    81.7010    31.4500    28.5980    27.8470    24.8890     2.3440   -21.3040 
  194.5000    83.8280    35.6390    32.0660    33.6280    25.1310     2.3290   -21.3810 
  194.6250    81.6760    40.0460    35.8540    37.4330    25.2130     2.3150   -21.4610 
  194.7500    78.5130    43.7480    39.1390    40.5780    25.2310     2.3080   -21.5120 
  194.8750    77.8230    46.0010    41.2310    45.1070    25.2310     2.3070   -21.5300 
