~V
VERS. 2.00: Ver 2.00
~W
STRT.M 60.0000:
STOP.M 270.0000:
STEP.M 0.1250:
NULL. -999.2500:
UWI. DF3075:
~C
DEPT.M :
GR.API :
RML.OHMM :
RI. :
RXO.OHMM :
CALI.CM :
DEN.GM/CC :
SP.MV :
~A
# ...
  116.2500    95.6240     8.1100     6.8330     8.1950    24.7300     2.2910   -14.5680 
  116.3750    95.2560     8.4010     7.1550     9.6930    24.6670     2.3340   -14.6610 
  116.5000    97.1880     8.5670     7.3750    10.6280    24.6360     2.3880   -14.8490 
  116.6250    99.9280     8.5200     7.4230     9.7480    24.4660     2.4320   -15.0520 
  116.7500    99.2810     8.3200     7.3150     8.4860    24.2050     2.4460   -15.2510 
  116.8750    97.1520     8.0540     7.0920     7.7360    23.9900     2.4250   -15.4790 
  117.0000    97.1490     7.7940     6.8230     7.1300    23.9120     2.3790   -15.6540 
  117.1250    98.2490     7.6020     6.5920     6.7430    23.9540     2.3300   -15.8800 
  117.2500    97.8950     7.5270     6.4580     6.5180    23.9940     2.2950   -16.0080 
  117.3750    97.0500     7.5870     6.4300     6.4050    23.9980     2.2760   -16.1090 
  117.5000    95.7830     7.7530     6.4880     6.4070    24.0490     2.2700   -16.0750 
  117.6250    92.8010     7.9150     6.5670     6.5960    24.1840     2.2670   -16.0110 
  117.7500    90.8970     7.9520     6.5950     6.9550    24.3650     2.2610   -15.8500 
  117.8750    91.4810     7.8140     6.5270     7.1970    24.5150     2.2530   -15.6420 
  118.0000    93.6700     7.5360     6.3430     7.1280    24.5350     2.2470   -15.4220 
  118.1250    97.5440     7.1910     6.0710     6.5160    24.4820     2.2500   -15.1260 
  118.2500   102.3050     6.8700     5.7960     6.0710    24.3670     2.2650   -14.8330 
  118.3750   106.0540     6.6420     5.6030     5.5300    24.3090     2.2890   -14.5080 
  118.5000   107.9790     6.5600     5.5420     5.0680    24.3080     2.3170   -14.2140 
  118.6250   108.4690     6.6790     5.6430     5.0810    24.3540     2.3400   -13.9560 
  118.7500   106.8280     6.9230     5.8460     5.5050    24.4420     2.3570   -13.7500 
  118.8750   105.1970     7.1820     6.0710     6.3030    24.5550     2.3660   -13.5940 
  119.0000   103.1990     7.3430     6.2370     7.2070    24.6510     2.3700   -13.5060 
  119.1250    99.7980     7.3220     6.2610     7.6360    24.6900     2.3660   -13.4810 
  119.2500    97.7440     7.1530     6.1410     6.7340    24.6420     2.3540   -13.4970 
  119.3750    98.2460     6.8540     5.8920     5.8390    24.5680     2.3400   -13.5580 
  119.5000    99.4330     6.4710     5.5580     5.4810    24.5630     2.3300   -13.6520 
  119.6250   100.0130     6.1070     5.2390     5.5300    24.5260     2.3310   -13.7840 
  119.7500   102.3090     5.9020     5.0460     5.8220    24.3260     2.3420   -13.9540 
  119.8750   104.6130     5.9640     5.0490     6.2790    24.0700     2.3620   -14.2350 
  120.0000   102.5720     6.3140     5.2770     6.1850    23.8900     2.3900   -14.5310 
  120.1250    98.6630     6.9120     5.7350     6.4350    23.8220     2.4250   -14.9100 
  120.2500    93.9080     7.6000     6.3150     7.4610    23.7930     2.4630   -15.2880 
  120.3750    86.0680     8.2420     6.9040     9.5380    23.7900     2.4930   -15.7080 
  120.5000    76.6740     8.6840     7.3580    12.9350    23.7940     2.4990   -16.1000 
  120.6250    73.3550     8.7380     7.5150    16.1310    23.7990     2.4670   -16.4830 
  120.7500    76.5900     8.4470     7.3820    12.4950    23.7950     2.4150   -16.8840 
  120.8750    80.6880     7.9430     7.0520     8.0400    23.7790     2.3630   -17.2440 
  121.0000    82.4760     7.4500     6.6710     6.4830    23.7700     2.3280   -17.6620 
  121.1250    83.7000     7.1850     6.4050     6.4750    23.7770     2.3170   -18.0830 
  121.2500    84.9330     7.1460     6.3270     6.7000    23.7900     2.3190   -18.5810 
  121.3750    84.1240     7.3350     6.4660     6.9870    23.7970     2.3200   -19.0780 
  121.5000    79.8360     7.7210     6.8460     7.4090    23.7810     2.3090   -19.5670 
  121.6250    74.4140     8.4740     7.5170     8.1620    23.7340     2.2810   -20.0060 
  121.7500    72.4200     9.5000     8.4010     9.0340    23.6700     2.2460   -20.3110 
  121.8750    72.9710    10.7990     9.4340     9.6630    23.6190     2.2210   -20.5020 
  122.0000    71.7360    12.2030    10.4780    10.1850    23.6380     2.2290   -20.5310 
  122.1250    68.1570    12.8760    11.2540    10.9480    23.7750     2.2890   -20.4030 
  122.2500    67.6020    12.9750    11.5220    12.2850    23.9490     2.3800   -20.1250 
  122.3750    71.8970    12.3920    11.1440    14.0270    24.0520     2.4600   -19.7010 
  122.5000    77.9650    11.2020    10.1480    13.9530    24.0310     2.4910   -19.1270 
  122.6250    83.5630     9.6210     8.6910    10.9170    24.0150     2.4550   -18.4830 
  122.7500    90.4890     8.0590     7.1860     8.8640    24.0070     2.4000   -17.8180 
  122.8750    96.8510     6.7930     5.8920     6.9580    24.1440     2.3610   -17.2350 
  123.0000    99.1860     6.0070     4.9600     5.4000    24.4230     2.3480   -16.7410 
  123.1250    96.3020     5.8780     4.5640     4.8740    24.5650     2.3490   -16.3790 
  123.2500    91.7240     6.2970     4.6760     5.0470    24.6200     2.3420   -16.1210 
  123.3750    87.4130     7.2310     5.3210     6.1760    24.5600     2.3260   -15.9180 
  123.5000    83.2720     8.6570     6.5190     8.6210    24.4960     2.3140   -15.8370 
  123.6250    78.6600    10.5980     8.3230    12.1060    24.4940     2.3370   -15.7730 
  123.7500    73.5970    12.7820    10.4950    17.2580    24.5190     2.3980   -15.8470 
  123.8750    68.1150    14.8660    12.7640    24.5100    24.5480     2.4880   -15.8920 
  124.0000    64.8330    16.4340    14.7650    30.0640    24.6490     2.5850   -16.0020 
  124.1250    64.5360    17.0480    15.9970    30.2840    24.7270     2.6570   -16.0650 
  124.2500    65.4360    16.8460    16.3670    27.6380    24.7160     2.6950   -16.1760 
  124.3750    66.7300    16.0540    15.9370    25.7730    24.6270     2.7020   -16.4060 
  124.5000    68.8820    14.9140    14.9250    24.3800    24.5740     2.6840   -16.7770 
  124.6250    70.7070    13.6070    13.5500    22.1220    24.5080     2.6410   -17.2930 
  124.7500    70.6490    12.3070    12.0990    18.1950    24.3700     2.5800   -17.8580 
  124.8750    70.5060    11.1390    10.7130    14.1150    24.1740     2.5050   -18.4040 
  125.0000    71.5110    10.1840     9.4860    11.2350    23.9740     2.4270   -18.8650 
  125.1250    73.4720     9.4770     8.5180    10.1350    23.9760     2.3570   -19.2190 
  125.2500    76.1080     8.9600     7.7930     9.8030    24.0910     2.3040   -19.4900 
  125.3750    78.5820     8.6540     7.3440     9.3850    24.2350     2.2700   -19.6840 
  125.5000    78.5750     8.5970     7.1720     8.3400    24.3320     2.2550   -19.8290 
  125.6250    77.4210     8.8220     7.2870     7.4070    24.3260     2.2580   -19.9690 
  125.7500    79.1720     9.1880     7.5530     7.5450    24.3330     2.2690   -20.0550 
  125.8750    82.2250     9.5290     7.8510     8.0800    24.4060     2.2800   -20.1680 
  126.0000    83.2570     9.6900     8.0620     8.7760    24.6130     2.2840   -20.2990 
  126.1250    82.6590     9.5620     8.0540     9.5520    24.6910     2.2720   -20.4270 
  126.2500    81.4590     9.2290     7.8320    10.1480    24.8460     2.2520   -20.4940 
  126.3750    80.6570     8.7690     7.4420     9.7480    24.9500     2.2360   -20.5250 
  126.5000    79.9680     8.2980     6.9900     8.3060    24.7770     2.2340   -20.6350 
  126.6250    80.3310     7.9860     6.6600     6.6930    24.6140     2.2510   -20.7610 
  126.7500    81.2470     7.9540     6.5550     6.1490    24.3630     2.2760   -21.0190 
  126.8750    82.0610     8.2480     6.7130     6.7540    24.1240     2.2940   -21.3920 
  127.0000    81.6670     8.8190     7.1020     8.0380    23.9420     2.2980   -21.8740 
  127.1250    79.3970     9.5220     7.6630     9.5850    23.8670     2.2870   -22.5150 
  127.2500    77.3150    10.1560     8.2610    10.8750    23.8660     2.2740   -23.2230 
  127.3750    75.0390    10.6090     8.7960    11.6770    23.8560     2.2670   -23.9950 
