~V
VERS. 2.00: Ver 2.00
~W
STRT.M 56.0000:
STOP.M 270.0000:
STEP.M 0.1250:
NULL. -999.2500:
UWI. DF3053:
~C
DEPT.M :
GR.API :
CALI.CM :
RXO.OHMM :
RI. :
RML.OHMM :
DEN.GM/CC :
SP.MV :
~A
# ...
  247.1250    68.7680    23.8230   127.7590   119.0340   134.3100     2.1680   -33.0420 
  247.2500    69.5900    23.8950   133.9460   114.0370   127.5150     2.1950   -32.9460 
  247.3750    68.7290    23.9440   149.7210   105.0380   116.0610     2.2460   -32.9220 
  247.5000    65.4890    23.9860   143.7260    95.2010   104.6930     2.2920   -32.9240 
  247.6250    64.0300    24.0350   110.3910    88.4010    97.6660     2.3110   -32.8930 
  247.7500    65.4050    24.0720    92.0080    86.4220    96.2680     2.3140   -32.8030 
  247.8750    66.4660    24.0930    86.8930    90.2240   101.5580     2.3270   -32.6470 
  248.0000    64.9800    24.0460    95.9920    99.8620   114.3500     2.3710   -32.4350 
  248.1250    63.4550    23.9270   181.4370   112.6640   132.8830     2.4410   -32.1730 
  248.2500    64.0440    23.8320   286.7360   119.8730   142.8290     2.5060   -31.8960 
  248.3750    63.6020    23.7810   288.7380   113.0860   128.1740     2.5390   -31.6320 
  248.5000    58.4300    23.7250   185.2600    91.7090    93.9010     2.5350   -31.4210 
  248.6250    50.1500    23.6340   102.2950    65.2180    62.2580     2.5100   -31.2680 
  248.7500    43.5210    23.5590    61.6900    43.6570    40.8040     2.4890   -31.1220 
  248.8750    38.7070    23.5170    37.7550    29.0790    27.3160     2.4750   -30.9440 
  249.0000    35.1680    23.5310    32.3900    20.1050    18.8830     2.4490   -30.7350 
  249.1250    34.9180    23.5970    29.7350    14.9380    13.8370     2.3930   -30.5500 
  249.2500    38.3790    23.5880    20.3880    11.5460    10.5470     2.3250   -30.4330 
  249.3750    43.9730    23.4600    10.3160     9.3310     8.4670     2.2830   -30.3780 
  249.5000    49.1630    23.3070     7.7940     7.9460     7.2230     2.2730   -30.3390 
  249.6250    52.2010    23.2150     7.5360     7.2230     6.6110     2.2780   -30.2640 
  249.7500    52.2770    23.1290     8.1040     6.8890     6.3530     2.2850   -30.1710 
  249.8750    49.7530    23.0420     8.5540     6.8200     6.3200     2.2930   -30.0920 
  250.0000    46.1830    23.0050     8.4240     6.8960     6.3810     2.3020   -30.0490 
  250.1250    43.0480    23.0640     7.5170     6.9920     6.4090     2.3100   -30.0260 
  250.2500    42.4940    23.1730     7.7500     7.0340     6.3650     2.3140   -30.0010 
  250.3750    44.0920    23.2890     8.0300     7.0160     6.2680     2.3140   -29.9730 
  250.5000    46.7120    23.3760     8.4870     6.9630     6.1660     2.3150   -29.9550 
  250.6250    48.4500    23.4020     8.6170     6.9100     6.1290     2.3210   -29.9700 
  250.7500    48.3240    23.4040     8.4280     6.8790     6.1710     2.3310   -30.0110 
  250.8750    46.7010    23.4070     8.5070     6.8620     6.2610     2.3390   -30.0740 
  251.0000    43.2520    23.4130     8.7290     6.8360     6.3410     2.3430   -30.1570 
  251.1250    39.5480    23.4150     8.4700     6.7630     6.3430     2.3410   -30.2630 
  251.2500    38.6400    23.3950     7.9500     6.6400     6.2780     2.3350   -30.3890 
  251.3750    40.1200    23.3450     7.6570     6.4790     6.1960     2.3280   -30.5290 
  251.5000    41.4910    23.2830     7.3450     6.3100     6.1450     2.3230   -30.6690 
  251.6250    41.0410    23.2450     7.1460     6.1750     6.1290     2.3190   -30.7960 
  251.7500    41.7460    23.2550     7.1890     6.0900     6.1030     2.3170   -30.8920 
  251.8750    44.4190    23.3050     7.2600     6.0540     6.0410     2.3200   -30.9400 
  252.0000    45.2100    23.3690     7.2850     6.0530     5.9520     2.3310   -30.9310 
  252.1250    42.2930    23.3930     7.2190     6.0580     5.8770     2.3490   -30.8720 
  252.2500    40.9590    23.3740     7.3690     6.0480     5.8490     2.3580   -30.7970 
  252.3750    43.3560    23.3650     7.4990     6.0230     5.8760     2.3490   -30.7330 
  252.5000    45.7550    23.4100     7.3630     6.0010     5.9540     2.3330   -30.7050 
  252.6250    44.4360    23.4900     7.0350     6.0160     6.0810     2.3240   -30.7210 
  252.7500    42.5650    23.5430     7.0420     6.0810     6.2420     2.3360   -30.7500 
  252.8750    43.1480    23.5570     7.3890     6.2010     6.4250     2.3510   -30.7650 
  253.0000    43.4270    23.5570     7.9380     6.3630     6.6210     2.3540   -30.7440 
  253.1250    40.1770    23.5580     8.7320     6.5460     6.8180     2.3450   -30.7020 
  253.2500    37.0510    23.5580     9.2340     6.7160     6.9980     2.3390   -30.6860 
  253.3750    37.3880    23.5530     9.1440     6.8530     7.1470     2.3440   -30.7350 
  253.5000    40.5670    23.5470     8.9840     6.9470     7.2530     2.3560   -30.8440 
  253.6250    42.9870    23.5500     8.8080     6.9880     7.3170     2.3680   -30.9690 
  253.7500    44.0790    23.5550     8.5130     6.9910     7.3560     2.3760   -31.0570 
  253.8750    44.1040    23.5560     8.2530     6.9700     7.3800     2.3850   -31.0910 
  254.0000    43.1610    23.5480     8.1180     6.9400     7.3970     2.3900   -31.0820 
  254.1250    42.7560    23.5460     8.1190     6.9170     7.4060     2.3780   -31.0720 
  254.2500    43.3320    23.5670     8.2300     6.9100     7.4070     2.3440   -31.1070 
  254.3750    43.0100    23.6040     8.3290     6.9270     7.4060     2.3080   -31.1860 
  254.5000    41.4740    23.6400     8.2160     6.9660     7.4100     2.2930   -31.2570 
  254.6250    41.1890    23.6510     8.1160     7.0190     7.4370     2.3060   -31.2420 
  254.7500    42.6170    23.6320     8.2660     7.0740     7.5030     2.3340   -31.1560 
  254.8750    43.8170    23.5940     8.6050     7.1230     7.6150     2.3550   -31.0870 
  255.0000    43.0750    23.5540     8.9760     7.1640     7.7580     2.3630   -31.1240 
  255.1250    40.8660    23.5360     8.9160     7.1980     7.8930     2.3630   -31.2820 
  255.2500    39.2710    23.5360     8.7360     7.2320     7.9860     2.3610   -31.4590 
  255.3750    39.6780    23.5450     9.1360     7.2660     8.0300     2.3670   -31.5930 
  255.5000    41.6280    23.5520    10.3510     7.3010     8.0360     2.3790   -31.6900 
  255.6250    43.5320    23.5660    11.0570     7.3360     8.0210     2.3900   -31.7710 
  255.7500    45.1140    23.5960    10.6120     7.3700     8.0100     2.3860   -31.8080 
  255.8750    46.7930    23.6270     9.4220     7.4060     8.0330     2.3690   -31.7290 
  256.0000    47.5360    23.6370     8.4470     7.4530     8.1320     2.3510   -31.4820 
  256.1250    47.0720    23.6360     8.5050     7.5320     8.3390     2.3340   -31.1040 
  256.2500    46.9100    23.6540     8.8890     7.6470     8.6010     2.3140   -30.7540 
  256.3750    47.1030    23.6780     9.5450     7.7830     8.8560     2.2940   -30.5300 
  256.5000    46.1130    23.6810    11.0030     7.9120     9.0520     2.2820   -30.4610 
  256.6250    43.6410    23.6560    12.6530     7.9960     9.1650     2.2850   -30.5490 
  256.7500    42.3510    23.6350    12.4330     8.0380     9.2410     2.3000   -30.7270 
  256.8750    41.7020    23.6300    11.1150     8.0710     9.3290     2.3220   -30.9650 
  257.0000    40.8950    23.6330    10.4060     8.1360     9.4780     2.3490   -31.2370 
  257.1250    41.1360    23.6350    11.2500     8.2670     9.7230     2.3760   -31.5240 
  257.2500    43.1930    23.6330    13.6880     8.4250    10.0070     2.3860   -31.7890 
  257.3750    44.2280    23.6300    16.6250     8.5480    10.2250     2.3810   -31.9780 
  257.5000    41.8430    23.6390    17.9010     8.5740    10.2620     2.3720   -32.0360 
  257.6250    39.0340    23.6670    15.7040     8.4640    10.0530     2.3710   -31.9230 
  257.7500    39.8150    23.6820    12.4500     8.2910     9.7590     2.3830   -31.7400 
  257.8750    42.5480    23.6630     9.8230     8.1420     9.5530     2.3940   -31.6150 
  258.0000    43.6790    23.6150     8.9860     8.0910     9.5530     2.3980   -31.6670 
  258.1250    42.3850    23.5750     9.1200     8.1920     9.8020     2.3970   -31.9650 
  258.2500    42.6530    23.5590     9.7170     8.3820    10.1450     2.3970   -32.2050 
