~V
VERS. 2.00: Ver 2.00
~W
STRT.M 57.0000:
STOP.M 272.0000:
STEP.M 0.1250:
NULL. -999.2500:
UWI. DF3050:
~C
DEPT.M :
SP.MV :
GR.API :
CALI.CM :
RXO.OHMM :
RI. :
RML.OHMM :
DEN.GM/CC :
~A
# ...
  124.5000   -20.3950    96.5370    24.5010     4.8510     5.0020     6.2620     2.2890 
  124.6250   -20.4110    88.7550    24.4790     5.3630     5.1750     6.5310     2.2650 
  124.7500   -20.4370    88.9850    24.3400     5.7380     5.3580     6.7890     2.2450 
  124.8750   -20.4750    91.9290    24.4670     5.8130     5.5220     6.9990     2.2450 
  125.0000   -20.5260    94.4770    24.4520     5.4810     5.6470     7.1540     2.2700 
  125.1250   -20.6120    97.2070    24.5030     5.3000     5.7230     7.2460     2.3120 
  125.2500   -20.7400    98.7380    24.5060     7.2990     5.7440     7.2850     2.3450 
  125.3750   -20.8960    96.4250    24.4750     8.5260     5.7290     7.2850     2.3540 
  125.5000   -21.0560    92.2670    24.2730     7.4120     5.6640     7.2170     2.3350 
  125.6250   -21.2400    91.8580    24.0510     5.8770     5.5710     7.1220     2.2980 
  125.7500   -21.4840    94.5700    23.7500     5.5390     5.5050     7.0580     2.2640 
  125.8750   -21.7620    94.8150    23.7540     5.4750     5.4770     7.0480     2.2450 
  126.0000   -22.0480    93.9030    23.6770     5.5620     5.5170     7.1560     2.2410 
  126.1250   -22.3380    93.7080    23.6210     5.6040     5.6610     7.4560     2.2400 
  126.2500   -22.6160    90.5010    23.6510     5.7420     5.9400     7.9290     2.2300 
  126.3750   -22.8600    82.9980    23.6470     6.2370     6.2680     8.4310     2.2130 
  126.5000   -23.0630    77.3720    23.6130     6.9710     6.5800     8.8400     2.1970 
  126.6250   -23.2170    77.7420    23.6130     7.6390     6.8030     9.0450     2.1880 
  126.7500   -23.2970    81.0140    23.6410     7.8390     6.8260     8.9250     2.1860 
  126.8750   -23.3140    83.3410    23.6530     7.7560     6.7070     8.5890     2.1880 
  127.0000   -23.2580    86.0020    23.6770     7.4480     6.4990     8.1450     2.2000 
  127.1250   -23.1250    89.7990    23.8440     7.2750     6.2660     7.7200     2.2220 
  127.2500   -22.9240    92.9620    23.8550     6.3250     6.0660     7.4140     2.2420 
  127.3750   -22.7130    93.3090    23.8340     5.6630     5.9430     7.2610     2.2440 
  127.5000   -22.4940    92.2820    23.8300     5.8630     5.8860     7.1830     2.2290 
  127.6250   -22.2410    92.5810    23.7060     6.5730     5.8380     7.0810     2.2050 
  127.7500   -21.9570    94.2150    24.0480     6.8240     5.7530     6.8930     2.1880 
  127.8750   -21.6790    95.3170    24.3820     6.4670     5.6120     6.6450     2.1910 
  128.0000   -21.4520    98.8530    24.4840     5.7050     5.4320     6.3650     2.2110 
  128.1250   -21.2830   104.5840    24.5110     4.9890     5.2410     6.0860     2.2400 
  128.2500   -21.1560   105.5840    24.5250     4.6940     5.0620     5.8560     2.2740 
  128.3750   -21.0540   100.9310    24.5750     4.5830     4.9020     5.6670     2.3110 
  128.5000   -21.0160    97.1070    24.5860     4.8990     4.7520     5.5010     2.3500 
  128.6250   -21.0760    98.3890    24.5930     5.0100     4.6150     5.3520     2.3800 
  128.7500   -21.2520    99.8390    24.7730     4.9310     4.4770     5.1690     2.3860 
  128.8750   -21.5090    99.2430    24.7730     4.5080     4.3310     4.9510     2.3810 
  129.0000   -21.7880    99.0100    24.6190     4.1870     4.2010     4.7770     2.3750 
  129.1250   -22.0700    98.6240    24.5520     3.9510     4.1380     4.7360     2.3700 
  129.2500   -22.3990    93.8540    24.5920     3.9500     4.2080     4.9100     2.3520 
  129.3750   -22.7740    86.8280    24.6210     4.3350     4.4070     5.2730     2.3200 
  129.5000   -23.1770    83.8760    24.5130     5.0090     4.7450     5.8340     2.2840 
  129.6250   -23.5890    85.3110    24.4670     5.3720     5.2220     6.5670     2.2590 
  129.7500   -23.9780    83.9430    24.2890     6.2650     5.8320     7.4560     2.2440 
  129.8750   -24.3300    78.5730    24.2410     8.0490     6.5320     8.4620     2.2220 
  130.0000   -24.6640    72.5780    24.4060     9.1460     7.2930     9.5140     2.1910 
  130.1250   -24.9670    68.6720    24.1580     8.6530     8.0430    10.4890     2.1640 
  130.2500   -25.1790    67.8870    24.0410     8.1920     8.6800    11.2650     2.1660 
  130.3750   -25.3030    66.8910    23.9380     8.9500     9.1570    11.7810     2.1870 
  130.5000   -25.3620    65.2930    23.7310    10.2660     9.4150    12.0040     2.2090 
  130.6250   -25.3640    67.4140    23.8000    12.1390     9.4160    11.9120     2.2180 
  130.7500   -25.3130    74.8810    23.5580    12.1850     9.1860    11.5720     2.2170 
  130.8750   -25.2390    79.4850    23.3740    10.4570     8.8500    11.1310     2.2140 
  131.0000   -25.1460    77.2000    23.3150     8.2540     8.4750    10.6870     2.2110 
  131.1250   -25.0470    74.2610    23.3360     7.5990     8.1290    10.3370     2.2080 
  131.2500   -24.9580    76.2090    23.4730     7.6110     7.8820    10.1590     2.2040 
  131.3750   -24.8910    76.8840    23.4350     7.4630     7.7540    10.1390     2.1960 
  131.5000   -24.8290    74.9260    23.6000     7.4860     7.7300    10.2350     2.1860 
  131.6250   -24.7600    73.3150    24.0780     7.7690     7.7920    10.4150     2.1790 
  131.7500   -24.6970    72.4010    24.1430     7.8870     7.9330    10.6630     2.1750 
  131.8750   -24.6320    69.1160    24.1180     7.8720     8.1250    10.9400     2.1710 
  132.0000   -24.5750    64.6460    24.1080     7.9430     8.3640    11.2240     2.1630 
  132.1250   -24.5220    64.6180    23.9890     8.2300     8.6270    11.5130     2.1550 
  132.2500   -24.4660    71.3710    24.1010     8.7420     8.8840    11.7730     2.1620 
  132.3750   -24.3850    77.8350    24.0210     9.1040     9.1090    11.9920     2.1910 
  132.5000   -24.2900    81.1570    24.0540     9.1290     9.2930    12.1990     2.2280 
  132.6250   -24.2050    81.9120    23.9700     9.0270     9.4570    12.4190     2.2500 
  132.7500   -24.1190    81.6880    23.7210     9.2510     9.5860    12.6410     2.2440 
  132.8750   -24.0280    80.4430    23.7230     9.3390     9.6380    12.7610     2.2230 
  133.0000   -23.9360    79.2420    23.6730     9.3510     9.5260    12.6400     2.2000 
  133.1250   -23.8450    78.7370    23.6650     9.5060     9.1870    12.1430     2.1860 
  133.2500   -23.7630    77.1040    23.6390     9.8580     8.6150    11.2690     2.1860 
  133.3750   -23.6920    76.1660    23.6210     9.9780     7.9270    10.2210     2.1940 
  133.5000   -23.6410    79.0520    23.7690     9.4610     7.2460     9.2070     2.2080 
  133.6250   -23.6190    84.4930    23.7720     8.1770     6.6900     8.4560     2.2320 
  133.7500   -23.6620    86.8530    23.8640     6.3370     6.4130     8.2110     2.2640 
  133.8750   -23.7660    84.1670    23.9800     5.2330     6.4260     8.4130     2.2830 
  134.0000   -23.8970    77.9650    23.9320     5.7700     6.6960     8.9630     2.2750 
  134.1250   -24.0400    72.6990    23.6960     7.3180     7.1550     9.7020     2.2460 
  134.2500   -24.1820    72.4160    23.8340     8.3120     7.6580    10.3740     2.2170 
  134.3750   -24.2960    74.1240    24.0150     8.7960     8.0720    10.8110     2.2000 
  134.5000   -24.3560    74.7000    24.1370     9.2190     8.3340    10.9700     2.1930 
  134.6250   -24.3570    75.3980    23.9850     9.2470     8.4200    10.8630     2.1890 
  134.7500   -24.2730    77.7250    24.1050     8.6720     8.3190    10.5280     2.1890 
  134.8750   -24.1160    78.7180    24.0400     7.9810     8.1120    10.1190     2.1890 
  135.0000   -23.9270    77.0760    24.1380     7.9070     7.8460     9.6930     2.1860 
  135.1250   -23.6990    74.6340    24.4250     8.2650     7.5310     9.2210     2.1810 
  135.2500   -23.4010    74.5290    24.4560     8.4050     7.1650     8.6890     2.1890 
  135.3750   -23.0760    77.6220    24.4620     7.9780     6.8220     8.2050     2.2180 
  135.5000   -22.7840    83.9590    24.4920     6.8320     6.5320     7.8080     2.2540 
  135.6250   -22.5210    88.8690    24.4500     5.6760     6.2900     7.4950     2.2770 
