~V
VERS. 2.00: Ver 2.00
~W
STRT.M 130.0000:
STOP.M 268.0000:
STEP.M 0.1250:
NULL. -999.2500:
UWI. DF3061:
~C
DEPT.M :
GR.API :
CALI.CM :
RXO.OHMM :
RI. :
RML.OHMM :
DEN.GM/CC :
SP.MV :
~A
# ...
  253.7500    82.3440    24.1270    12.1750    13.2130    15.2610     2.3360   -27.8310 
  253.8750    80.8530    24.1630    12.1780    13.3980    15.4750     2.3200   -27.9040 
  254.0000    82.0360    24.2790    11.6810    13.5630    15.6650     2.3040   -28.0050 
  254.1250    88.6720    24.3300    11.5020    13.7250    15.8520     2.2920   -28.1290 
  254.2500    93.9250    24.3200    11.8680    13.8940    16.0470     2.2810   -28.2640 
  254.3750    92.9420    24.0790    12.3820    14.0130    16.1850     2.2710   -28.4050 
  254.5000    91.3440    23.7950    13.8620    13.9890    16.1570     2.2690   -28.5300 
  254.6250    95.6030    23.7870    14.2150    13.7240    15.8510     2.2720   -28.6010 
  254.7500   101.1720    23.9270    14.1710    13.2170    15.2650     2.2790   -28.6240 
  254.8750   101.2740    24.2550    14.8320    12.4900    14.4260     2.2870   -28.6240 
  255.0000    94.8420    24.1150    14.5990    11.6500    13.4550     2.2920   -28.5600 
  255.1250    85.7290    23.8520    12.3220    10.8320    12.5110     2.2890   -28.4500 
  255.2500    80.0700    23.8320     9.9060    10.1130    11.6800     2.2790   -28.3220 
  255.3750    79.8470    23.9150     9.0000     9.5420    11.0210     2.2740   -28.1800 
  255.5000    81.1080    23.8570     8.5580     9.1520    10.5710     2.2770   -28.0170 
  255.6250    82.5630    23.8150     8.3040     8.9450    10.3320     2.2800   -27.9040 
  255.7500    83.8620    23.7980     8.1200     8.8510    10.2230     2.2770   -27.9110 
  255.8750    83.8310    23.8150     8.1840     8.8450    10.2160     2.2750   -27.9400 
  256.0000    82.2780    23.7700     8.2570     8.8780    10.2540     2.2840   -27.9380 
  256.1250    81.3950    23.7720     8.2670     8.9190    10.3010     2.3020   -27.8400 
  256.2500    82.8130    23.8120     8.3280     8.9670    10.3570     2.3210   -27.7090 
  256.3750    83.2200    23.7630     8.3930     9.0440    10.4460     2.3390   -27.6510 
  256.5000    82.3750    23.8150     8.4950     9.1610    10.5810     2.3490   -27.6390 
  256.6250    83.8540    23.7750     8.8480     9.3240    10.7690     2.3430   -27.5600 
  256.7500    85.1390    23.8760     9.3270     9.5360    11.0140     2.3230   -27.3460 
  256.8750    85.1390    23.9540     9.6480     9.7840    11.3000     2.2970   -27.1010 
  257.0000    85.1390    23.9090     9.7560    10.0240    11.5770     2.2780   -26.9010 
  257.1250    85.1390    23.7980    10.0330    10.2000    11.7810     2.2780   -26.6510 
  257.2500    85.1390    23.8820    10.5140    10.2510    11.8400     2.3030   -26.3490 
  257.3750    85.1390    23.9390    10.8670    10.1350    11.7060     2.3400   -25.9010 
  257.5000    85.1390    23.8000    10.7170     9.8510    11.3780     2.3670   -25.3520 
  257.6250    85.1390    23.6530     9.6690     9.4360    10.8990     2.3800   -24.8220 
  257.7500    85.1390    23.4120     8.3010     8.9710    10.3610     2.3880   -24.2690 
  257.8750    85.1390    23.2900     7.3250     8.5360     9.8590     2.3920   -23.6560 
  258.0000    85.1390    23.2760     7.1910     8.2150     9.4890     2.3880   -22.9730 
  258.1250    85.1390    23.1740     7.2740     8.0710     9.3220     2.3880   -22.3290 
  258.2500    85.1390    23.2520     7.2950     8.0640     9.3140     2.4080   -21.7220 
  258.3750    85.1390    23.3000     7.3230     8.1730     9.4400     2.4450   -21.1980 
  258.5000    85.1390    23.2010     7.5450     8.3200     9.6100     2.4650   -20.7280 
  258.6250    85.1390    23.4070     8.0850     8.3700     9.6670     2.4560   -20.3070 
  258.7500    85.1390    23.4630     7.7820     8.2920     9.5770     2.4280   -20.0170 
  258.8750    85.1390    23.4030     7.0560     8.1010     9.3570     2.3990   -19.7690 
  259.0000    85.1390    23.3780     6.7830     7.8150     9.0260     2.3750   -19.4960 
  259.1250    85.1390    23.3980     6.6340     7.5050     8.6680     2.3550   -19.3350 
  259.2500    85.1390    23.3720     6.5140     7.2500     8.3740     2.3520   -19.2330 
  259.3750    85.1390    23.3740     6.3930     7.0880     8.1870     2.3760   -19.1270 
  259.5000    85.1390    23.4150     6.3130     7.0290     8.1180     2.4070   -19.0810 
  259.6250    85.1390    23.4290     6.3020     7.0990     8.1990     2.4220   -19.0960 
  259.7500    85.1390    23.4310     6.3450     7.2130     8.3310     2.4100   -19.0320 
  259.8750    85.1390    23.3350     6.8870     7.3090     8.4420     2.3900   -18.9950 
  260.0000    85.1390    23.1720     7.2180     7.3830     8.5270     2.3850   -19.0140 
  260.1250    85.1390    23.1650     7.0190     7.4240     8.5750     2.3920   -18.9620 
  260.2500    85.1390    23.2180     6.5020     7.4300     8.5820     2.3920   -18.8760 
  260.3750    85.1390    23.2710     6.5370     7.4010     8.5490     2.3820   -18.8370 
  260.5000    85.1390    23.1650     6.7330     7.3640     8.5060     2.3780   -18.7270 
  260.6250    85.1390    23.2480     6.9220     7.3190     8.4540     2.3910   -18.6080 
  260.7500    85.1390    23.4130     7.0620     7.2860     8.4150     2.4180   -18.5780 
  260.8750    85.1390    23.4430     7.0590     7.2660     8.3920     2.4460   -18.5100 
  261.0000    85.1390    23.4400     6.9320     7.2540     8.3780     2.4630   -18.4460 
  261.1250    85.1390    23.4190     6.8140     7.2490     8.3730     2.4610   -18.3900 
  261.2500    85.1390    23.4230     6.6810     7.2530     8.3770     2.4440   -18.4100 
  261.3750    85.1390    23.4220     6.5960     7.2660     8.3920     2.4260   -18.4300 
  261.5000    85.1390    23.4080     6.6550     7.2880     8.4180     2.4180   -18.5010 
  261.6250    85.1390    23.3800     7.1480     7.3010     8.4330     2.4160   -18.5670 
  261.7500    85.1390    23.1840     7.3790     7.3080     8.4410     2.4130   -18.5810 
  261.8750    85.1390    23.1660     7.7230     7.3030     8.4350     2.4030   -18.6310 
  262.0000    85.1390    23.3310     8.3970     7.3000     8.4310     2.3910   -18.6900 
  262.1250    85.1390    23.2980     8.8540     7.2880     8.4170     2.3840   -18.7900 
  262.2500    85.1390    23.1990     8.9490     7.2830     8.4120     2.3820   -18.8370 
  262.3750    85.1390    23.3830     8.9520     7.2830     8.4120     2.3810   -18.8380 
  262.5000    85.1390    23.4160     8.9530     7.2820     8.4110     2.3750   -18.8980 
  262.6250    85.1390    23.3880     8.9950     7.2820     8.4110     2.3600   -18.9420 
  262.7500    85.1390    23.2760     8.8120     7.2820     8.4110     2.3490   -18.9310 
  262.8750    85.1390    23.2620     8.3010     7.2820     8.4110     2.3560   -18.8980 
  263.0000    85.1390    23.2160     7.5270     7.2820     8.4110     2.3690   -18.8490 
  263.1250    85.1390    23.5820     6.7710     7.2820     8.4110     2.3670   -18.8720 
  263.2500    85.1390    23.8110     6.8060     7.2820     8.4110     2.3420   -18.8950 
  263.3750    85.1390    23.8240     7.5860     7.2820     8.4110     2.3180   -18.9040 
  263.5000    85.1390    23.8890     9.0220     7.2820     8.4110     2.3250   -18.8920 
  263.6250    85.1390    23.7530    10.6930     7.2820     8.4110     2.3600   -18.8000 
  263.7500    85.1390    23.8680    11.6610     7.2820     8.4110     2.3980   -18.7760 
  263.8750    85.1390    24.0980    11.0280     7.2820     8.4110     2.4060   -18.7100 
  264.0000    85.1390    24.0390     9.1840     7.2820     8.4110     2.3850   -18.6900 
  264.1250    85.1390    23.9270     9.2690     7.2820     8.4110     2.3560   -18.6900 
  264.2500    85.1390    23.7860    11.0800     7.2820     8.4110     2.3430  -999.2500 
  264.3750    85.1390    23.7400    12.3720     7.2820     8.4110     2.3540  -999.2500 
  264.5000    85.1390    23.7410    11.2640     7.2820     8.4110     2.3650  -999.2500 
  264.6250    85.1390    23.4830     9.8810     7.2820     8.4110     2.3660  -999.2500 
  264.7500    85.1390    23.4610     9.4150     7.2820     8.4110     2.3620  -999.2500 
  264.8750    85.1390    23.5240     9.5990     7.2820     8.4110     2.3660  -999.2500 
