~V
VERS. 2.00: Ver 2.00
~W
STRT.M 125.0000:
STOP.M 245.0000:
STEP.M 0.1250:
NULL. -999.2500:
UWI. DF3026:
~C
DEPT.M :
SP.MV :
GR.API :
CALI.CM :
RXO.OHMM :
RI. :
RML.OHMM :
DEN.GM/CC :
~A
# ...
  181.2500   -34.0230    58.4220    23.8240    64.9490   110.1420   110.9470     2.2200 
  181.3750   -33.9130    57.2890    24.0260    66.6730   100.5740   101.2480     2.2440 
  181.5000   -33.8120    58.0120    24.1980    62.5030    89.0530    89.6430     2.2720 
  181.6250   -33.7090    59.3190    24.2120    49.2590    78.2390    78.7170     2.2900 
  181.7500   -33.6260    63.3290    24.1160    36.8940    70.1470    70.5480     2.2980 
  181.8750   -33.5580    67.7740    24.0330    29.7090    65.5120    65.9810     2.3000 
  182.0000   -33.4950    66.7210    24.0410    26.5080    64.2270    64.9770     2.2970 
  182.1250   -33.4400    59.9880    24.1790    26.0860    66.1200    67.5050     2.2920 
  182.2500   -33.3790    54.9570    24.4170    28.0180    70.0410    72.3840     2.2880 
  182.3750   -33.3230    53.9790    24.7700    31.2820    75.5690    79.1540     2.2830 
  182.5000   -33.2570    54.2990    25.0700    33.7580    82.5750    87.6550     2.2760 
  182.6250   -33.1930    54.8070    25.2020    35.3660    91.5280    98.2960     2.2650 
  182.7500   -33.1050    56.2250    25.3380    39.2140   102.2510   110.8640     2.2470 
  182.8750   -32.9980    57.2660    25.5770    46.7940   114.0440   124.7110     2.2260 
  183.0000   -32.8550    54.8740    25.8420    56.9190   125.0570   137.9120     2.2110 
  183.1250   -32.6790    51.8560    26.0800    72.0280   131.6020   146.1890     2.2090 
  183.2500   -32.4490    54.1280    26.2940    94.8970   131.9080   147.1020     2.2140 
  183.3750   -32.1590    61.0950    26.5480   117.6590   125.8210   140.4100     2.2180 
  183.5000   -31.8240    65.8700    26.7660   125.4430   115.2400   128.5350     2.2160 
  183.6250   -31.4170    62.5280    26.8430   112.9830   103.6100   115.7010     2.2030 
  183.7500   -30.9450    55.3510    26.8590    96.8330    93.9490   105.2080     2.1860 
  183.8750   -30.4010    50.4230    26.8520    82.1730    86.5950    97.1010     2.1890 
  184.0000   -29.7860    51.0310    26.8270    68.5180    79.7980    88.9920     2.2370 
  184.1250   -29.1000    52.9310    26.6610    61.6130    70.4180    77.1290     2.3400 
  184.2500   -28.3740    52.1090    26.2740    63.5520    58.2050    62.2320     2.4510 
  184.3750   -27.6160    54.5260    25.7180    59.5570    45.3780    47.6200     2.5350 
  184.5000   -26.8400    61.4560    25.3060    40.6100    34.6240    36.1620     2.5700 
  184.6250   -26.0710    65.4750    25.2660    21.5740    27.6170    29.1000     2.5570 
  184.7500   -25.3270    62.5370    25.4030    14.7520    23.1180    24.7260     2.5320 
  184.8750   -24.6330    56.6180    25.4420    15.5920    19.9090    21.6850     2.5250 
  185.0000   -24.0040    51.7540    25.2600    19.2120    16.9260    18.7480     2.5390 
  185.1250   -23.4590    47.8970    24.8870    18.7320    13.6270    15.1590     2.5440 
  185.2500   -22.9880    45.0610    24.6950    13.4340    10.3540    11.4100     2.5130 
  185.3750   -22.5940    43.8350    24.9040     7.4870     7.5950     8.2270     2.4480 
  185.5000   -22.2770    42.9750    25.4920     4.3610     5.5850     5.9820     2.3610 
  185.6250   -22.0470    42.2850    26.3030     3.5950     4.3690     4.7280     2.2580 
  185.7500   -21.8870    42.7820    26.7650     3.4540     3.6400     4.0470     2.1570 
  185.8750   -21.7820    44.4450    27.1000     3.5100     3.2340     3.7140     2.0860 
  186.0000   -21.7160    45.6830    27.2880     3.5590     3.0250     3.5800     2.0650 
  186.1250   -21.6870    46.1430    26.8260     3.5350     2.9560     3.5910     2.1000 
  186.2500   -21.7100    47.0580    26.3180     3.5270     2.9880     3.7230     2.1570 
  186.3750   -21.7690    47.5310    26.3750     3.6330     3.1280     3.9890     2.2130 
  186.5000   -21.8440    47.0880    26.7680     3.8440     3.3740     4.3680     2.2520 
  186.6250   -21.9280    46.1310    26.7100     4.0570     3.7070     4.8020     2.2700 
  186.7500   -22.0090    42.9050    26.5610     4.1830     4.0600     5.2120     2.2860 
  186.8750   -22.0800    37.8350    26.6660     4.2690     4.3800     5.5630     2.3150 
  187.0000   -22.1490    34.8050    26.9520     4.4080     4.6210     5.8460     2.3610 
  187.1250   -22.2060    37.4190    27.2510     4.6850     4.7460     6.0490     2.4090 
  187.2500   -22.2410    40.3920    27.3320     5.0230     4.7770     6.1720     2.4310 
  187.3750   -22.2670    40.1180    27.5160     5.2110     4.7360     6.2090     2.4180 
  187.5000   -22.2890    39.3320    28.0490     5.1110     4.6570     6.1740     2.3820 
  187.6250   -22.3120    42.3230    28.4250     4.8860     4.5850     6.1330     2.3480 
  187.7500   -22.3380    46.8990    28.2170     4.8280     4.5580     6.1670     2.3330 
  187.8750   -22.3820    49.1080    27.6110     4.9470     4.5930     6.3030     2.3370 
  188.0000   -22.4540    49.6450    27.1110     5.1060     4.6770     6.5170     2.3520 
  188.1250   -22.5470    51.3540    26.9420     5.1930     4.7710     6.7290     2.3690 
  188.2500   -22.6520    53.3800    26.8290     5.2490     4.8280     6.8600     2.3850 
  188.3750   -22.7670    54.7420    26.6570     5.2590     4.8280     6.8930     2.3940 
  188.5000   -22.8810    55.5060    26.6180     5.2060     4.7750     6.8600     2.3870 
  188.6250   -22.9860    55.6810    26.7910     5.1100     4.6910     6.8060     2.3590 
  188.7500   -23.0850    54.0590    26.8540     5.0450     4.6100     6.7570     2.3310 
  188.8750   -23.1750    52.0230    26.6090     5.0620     4.5490     6.7050     2.3230 
  189.0000   -23.2530    50.4740    26.0840     5.1110     4.5140     6.6430     2.3370 
  189.1250   -23.3130    48.8200    25.6320     5.0790     4.5050     6.5710     2.3510 
  189.2500   -23.3540    46.2340    25.6910     4.9780     4.5120     6.4980     2.3550 
  189.3750   -23.3680    43.2440    26.3850     4.8950     4.5320     6.4430     2.3550 
  189.5000   -23.3690    44.6140    26.9980     4.8650     4.5650     6.4260     2.3630 
  189.6250   -23.3800    49.1410    26.5130     4.8720     4.6150     6.4940     2.3870 
  189.7500   -23.4060    52.5170    25.6500     4.8780     4.6800     6.6450     2.4110 
  189.8750   -23.4500    54.1930    25.0780     4.8940     4.7590     6.8450     2.4240 
  190.0000   -23.5150    55.8090    24.7090     4.9610     4.8500     7.0520     2.4260 
  190.1250   -23.6390    55.7860    24.3940     5.1270     4.9600     7.2460     2.4300 
  190.2500   -23.8170    54.1410    24.3880     5.3130     5.1020     7.4640     2.4450 
  190.3750   -24.0510    55.7980    24.9340     5.4490     5.2850     7.7590     2.4630 
  190.5000   -24.3450    61.1660    25.9690     5.5550     5.5060     8.1520     2.4680 
  190.6250   -24.7030    64.1910    26.2880     5.7850     5.7400     8.6460     2.4580 
  190.7500   -25.1140    66.1240    26.0470     6.2460     5.9480     9.1660     2.4490 
  190.8750   -25.5740    69.7680    25.7940     6.8090     6.1080     9.6050     2.4560 
  191.0000   -26.0840    74.3520    25.7280     7.1680     6.2110     9.8520     2.4730 
  191.1250   -26.6100    75.5640    25.7420     7.1090     6.2670     9.8380     2.4770 
  191.2500   -27.1390    76.1380    25.7630     7.0050     6.3150     9.7340     2.4610 
  191.3750   -27.6630    78.9030    25.8310     7.1890     6.3930     9.7160     2.4370 
  191.5000   -28.1580    82.2420    25.9860     7.7480     6.5210     9.8850     2.4190 
  191.6250   -28.5910    83.9020    26.0970     8.3780     6.6830    10.2090     2.4160 
  191.7500   -28.9600    86.1080    26.1500     8.6360     6.8140    10.4990     2.4210 
  191.8750   -29.2560    87.9510    26.0990     8.5350     6.8660    10.6200     2.4310 
  192.0000   -29.4930    87.6490    25.9990     8.3400     6.8200    10.5530     2.4450 
  192.1250   -29.6950    86.2260    25.9270     8.2060     6.6830    10.3440     2.4540 
  192.2500   -29.8720    86.9340    25.8300     8.0340     6.5110    10.0930     2.4490 
  192.3750   -30.0530    92.0510    25.7090     7.7820     6.3460     9.8510     2.4360 
