~V
VERS. 2.00: Ver 2.00
~W
STRT.M 65.0000:
STOP.M 252.0000:
STEP.M 0.1250:
NULL. -999.2500:
UWI. DF3012:
~C
DEPT.M :
GR.API :
RML.OHMM :
RI. :
RXO.OHMM :
CALI.CM :
DEN.GM/CC :
SP.MV :
~A
# ...
  177.5000    79.5330    60.7820    53.5130    43.6580    24.9500     2.2980   -32.5380 
  177.6250    81.7340    68.9160    59.6670    49.1100    24.9810     2.3000   -32.6600 
  177.7500    81.5110    82.1580    70.4630    62.5920    24.9910     2.2890   -32.7670 
  177.8750    76.6410   100.0150    85.6600    86.6440    25.0070     2.2690   -32.9470 
  178.0000    69.7430   120.6830   103.8010   120.4620    25.0420     2.2450   -33.0630 
  178.1250    65.2750   140.4710   121.6940   149.2090    25.0600     2.2290   -33.1400 
  178.2500    64.8120   155.6030   135.7610   159.3070    25.0620     2.2210   -33.2550 
  178.3750    65.4100   164.0040   143.9110   157.8050    25.0460     2.2200   -33.4150 
  178.5000    65.8970   165.9020   146.0260   152.6860    25.0110     2.2210   -33.4530 
  178.6250    69.1300   163.3000   143.5240   144.8240    24.9920     2.2220   -33.5070 
  178.7500    74.8340   159.9350   139.8160   136.4490    24.9670     2.2250   -33.6390 
  178.8750    79.7080   157.6700   136.7410   128.1430    24.9150     2.2290   -33.6260 
  179.0000    80.9630   157.4860   135.3700   120.8500    24.8390     2.2340   -33.6550 
  179.1250    79.9880   160.1500   136.5570   119.4280    24.8250     2.2360   -33.6850 
  179.2500    78.5120   165.0690   139.8830   124.9210    24.8690     2.2340   -33.5850 
  179.3750    76.1040   171.6830   144.9240   134.6320    24.9390     2.2300   -33.4750 
  179.5000    74.3080   179.1590   151.0000   144.4600    24.9790     2.2280   -33.3680 
  179.6250    75.6120   186.2940   157.1460   151.0820    24.9870     2.2290   -33.2920 
  179.7500    78.3480   191.9400   162.3120   158.2080    24.9870     2.2320   -33.1390 
  179.8750    79.3400   195.1400   165.6520   167.3590    24.9870     2.2350   -33.0140 
  180.0000    77.5090   195.1210   166.4770   176.0440    24.9870     2.2350   -32.8920 
  180.1250    72.1340   190.8570   163.8800   181.3040    24.9740     2.2320   -32.7510 
  180.2500    65.7910   183.2260   158.4640   181.9490    24.9430     2.2280   -32.6810 
  180.3750    62.7110   173.1760   150.8910   176.0300    24.8930     2.2260   -32.5560 
  180.5000    64.8810   162.1670   142.2510   162.8770    24.7930     2.2270   -32.4520 
  180.6250    69.6130   152.0880   134.0300   147.5330    24.5730     2.2340   -32.3360 
  180.7500    73.5290   143.9660   127.2460   134.5440    24.3450     2.2440   -32.1780 
  180.8750    74.9130   137.9400   122.1930   124.0600    24.2180     2.2540   -32.0780 
  181.0000    74.0730   133.2980   118.4930   117.6750    24.2170     2.2600   -31.9150 
  181.1250    73.2120   128.3800   115.1740   114.1370    24.3420     2.2600   -31.7660 
  181.2500    73.0420   122.2080   111.0780   112.5880    24.4990     2.2550   -31.6440 
  181.3750    73.0950   114.3220   105.6220   110.8230    24.5100     2.2480   -31.5080 
  181.5000    73.1580   105.9260    98.7670   103.4550    24.2610     2.2440   -31.4030 
  181.6250    74.3670    97.4300    90.9760    89.4350    24.0490     2.2440   -31.3140 
  181.7500    75.7020    90.9720    83.3870    78.3380    24.0540     2.2510   -31.2380 
  181.8750    75.5720    86.5760    76.8980    73.1560    24.1620     2.2620   -31.0520 
  182.0000    74.6300    81.6020    72.1260    68.8450    24.2470     2.2740   -30.9570 
  182.1250    74.2080    78.6270    69.4900    62.3090    24.3260     2.2820   -30.9480 
  182.2500    74.5070    77.2290    68.1270    58.3460    24.4260     2.2840   -30.8350 
  182.3750    75.6490    76.1740    67.0990    58.9880    24.4920     2.2800   -30.8410 
  182.5000    78.7070    74.2140    65.3950    62.3250    24.5410     2.2740   -30.8100 
  182.6250    80.3690    70.4350    62.1880    64.0830    24.6270     2.2750   -30.7400 
  182.7500    78.6220    65.7990    58.1270    62.2990    24.6000     2.2850   -30.7770 
  182.8750    75.9120    62.1070    54.5790    57.0060    24.5500     2.3040   -30.8730 
  183.0000    76.5060    61.8790    53.5800    50.2110    24.5300     2.3240   -30.9810 
  183.1250    77.6490    69.4040    58.7570    50.0900    24.5850     2.3330   -31.0550 
  183.2500    74.0310    85.8890    71.4660    62.8490    24.7110     2.3250   -31.2130 
  183.3750    68.5020   110.9740    91.8160    91.2690    24.8520     2.3020   -31.3220 
  183.5000    64.4820   140.8480   116.9700   139.3640    24.9520     2.2750   -31.4700 
  183.6250    62.5240   166.1830   139.4200   195.5210    24.9810     2.2530   -31.6650 
  183.7500    62.1840   177.7720   151.1520   215.2030    24.9870     2.2420   -31.7440 
  183.8750    64.9860   171.3560   148.1860   209.9940    24.9840     2.2420   -31.8240 
  184.0000    69.2640   150.8610   132.9630   187.0910    24.9700     2.2480   -31.8600 
  184.1250    71.2080   126.9310   113.3460   131.6430    24.9080     2.2530   -31.8370 
  184.2500    71.5960   108.2780    97.1470    88.2480    24.7720     2.2550   -31.8240 
  184.3750    73.0770    96.5700    86.5500    69.1610    24.5340     2.2540   -31.8510 
  184.5000    75.9510    90.7770    81.1980    64.8040    24.2360     2.2550   -31.8660 
  184.6250    77.3110    89.3050    80.0230    67.7780    23.9910     2.2600   -31.9030 
  184.7500    76.5510    89.2100    80.4570    71.5760    23.9020     2.2670   -32.1290 
  184.8750    74.7200    88.8200    80.9490    74.6110    23.9000     2.2710   -32.3590 
  185.0000    72.2820    87.2280    80.5050    77.6040    23.9460     2.2700   -32.5800 
  185.1250    70.0380    84.4900    78.8900    78.0950    23.9910     2.2660   -33.0690 
  185.2500    69.4390    81.8570    77.0560    71.8130    24.0300     2.2630   -33.5660 
  185.3750    71.5510    80.2570    75.8180    62.6160    24.0440     2.2620   -34.1460 
  185.5000    75.2740    80.0130    75.5610    58.7180    24.0470     2.2630   -34.9060 
  185.6250    77.5180    80.7190    76.0550    62.5970    24.0490     2.2630   -35.6050 
  185.7500    78.2720    81.2200    76.3490    68.8920    24.0490     2.2610   -36.3370 
  185.8750    79.2180    80.8630    75.8050    71.4760    24.0480     2.2610   -37.1610 
  186.0000    81.6380    79.6630    74.3760    68.9770    24.0520     2.2640   -37.9760 
  186.1250    81.9790    79.2020    73.1290    66.4390    24.0650     2.2730   -38.7530 
  186.2500    79.1840    82.1950    74.1560    66.0630    24.0710     2.2810   -39.4680 
  186.3750    75.7390    90.8130    80.1010    71.1910    24.0770     2.2820   -40.1340 
  186.5000    72.6870   108.4490    94.2080    87.8480    24.1210     2.2710   -40.7710 
  186.6250    68.6330   138.4850   122.4070   126.9930    24.2530     2.2480   -41.3330 
  186.7500    63.5030   183.0990   165.2480   190.3290    24.4420     2.2190   -41.8270 
  186.8750    60.4320   240.8230   221.7260   276.2700    24.6830     2.1900   -42.2300 
  187.0000    59.6900   306.9980   286.5240   372.4430    24.9020     2.1680   -42.5660 
  187.1250    57.8670   380.4140   348.4660   434.5200    25.0010     2.1570   -42.7890 
  187.2500    54.9460   439.9310   396.8520   442.9640    25.0500     2.1550   -42.9350 
  187.3750    52.8010   478.2800   426.9010   420.5940    25.0640     2.1610   -43.0590 
  187.5000    52.6960   496.6470   440.3620   395.4980    25.0660     2.1690   -43.0300 
  187.6250    54.1120   500.7430   442.0960   379.9530    25.0660     2.1760   -42.9500 
  187.7500    56.7420   499.1050   439.2950   375.9170    25.0620     2.1780   -42.8950 
  187.8750    60.0180   493.7370   433.8610   382.4830    25.0460     2.1770   -42.8730 
  188.0000    61.7930   484.6350   425.9140   388.9980    25.0110     2.1750   -42.7550 
  188.1250    61.7390   470.8970   414.7120   376.9470    24.9930     2.1730   -42.5120 
  188.2500    61.4430   454.0560   401.1900   353.1350    24.9870     2.1740   -42.3370 
  188.3750    60.3390   435.9340   386.5650   332.7300    24.9870     2.1770   -41.9880 
  188.5000    57.3310   418.7500   372.4180   316.8700    24.9850     2.1820   -41.6320 
  188.6250    54.6700   405.1730   360.7860   307.0190    24.9840     2.1880   -41.4030 
