~V
VERS. 2.00: Ver 2.00
~W
STRT.M 125.0000:
STOP.M 245.0000:
STEP.M 0.1250:
NULL. -999.2500:
UWI. DF3026:
~C
DEPT.M :
SP.MV :
GR.API :
CALI.CM :
RXO.OHMM :
RI. :
RML.OHMM :
DEN.GM/CC :
~A
# ...
  237.5000   -12.3040    55.7510    23.4500    10.1160     6.3700     7.4860     2.4050 
  237.6250   -12.3160    55.7510    23.3790    11.6350     6.3700     7.4860     2.4110 
  237.7500   -12.3190    55.7510    23.3510    13.4050     6.3700     7.4860     2.4310 
  237.8750   -12.3400    55.7510    23.3480    14.3380     6.3700     7.4860     2.4450 
  238.0000   -12.3590    55.7510    23.3500    14.3950     6.3700     7.4860     2.4480 
  238.1250   -12.3430    55.7510    23.3120    13.8790     6.3700     7.4860     2.4410 
  238.2500   -12.3400    55.7510    23.1940    12.8710     6.3700     7.4860     2.3930 
  238.3750   -12.3460    55.7510    23.0160    11.3790     6.3700     7.4860     2.2760 
  238.5000   -12.3340    55.7510    22.8430     9.6260     6.3700     7.4860     2.1060 
  238.6250   -12.3390    55.7510    22.7030     8.5710     6.3700     7.4860     1.9320 
  238.7500   -12.3650    55.7510    22.5790     8.4620     6.3700     7.4860     1.8040 
  238.8750   -12.3910    55.7510    22.4900     8.7920     6.3700     7.4860     1.7160 
  239.0000   -12.3950    55.7510    22.3140     8.7390     6.3700     7.4860     1.6570 
  239.1250   -12.3770    55.7510    21.6200     7.9660     6.3700     7.4860     1.6180 
  239.2500   -12.3740    55.7510    20.3340     7.0210     6.3700     7.4860     1.5940 
  239.3750   -12.3620    55.7510    18.7710     6.3410     6.3700     7.4860     1.5760 
  239.5000   -12.3650    55.7510    17.3360     6.0060     6.3700     7.4860     1.5640 
  239.6250   -12.3750    55.7510    16.4770     5.9170     6.3700     7.4860     1.5600 
  239.7500   -12.3590    55.7510    16.1740     5.8990     6.3700     7.4860     1.5590 
  239.8750   -12.3240    55.7510    16.1220     5.8950     6.3700     7.4860     1.5590 
  240.0000   -12.3160    55.7510    16.1210     5.8900     6.3700     7.4860     1.5600 
  240.1250   -12.3160    55.7510    16.1200     5.8880     6.3700     7.4860     1.5640 
  240.2500  -999.2500    55.7510    16.1190     5.8880     6.3700     7.4860     1.5700 
  240.3750  -999.2500    55.7510    16.1210     5.8890     6.3700     7.4860     1.5760 
  240.5000  -999.2500    55.7510    16.1220     5.8910     6.3700     7.4860     1.5820 
  240.6250  -999.2500    55.7510    16.1220     5.8910     6.3700     7.4860     1.5850 
  240.7500  -999.2500    55.7510    16.1220     5.8900     6.3700     7.4860     1.5830 
  240.8750  -999.2500    55.7510    16.1220     5.8910     6.3700     7.4860     1.5760 
  241.0000  -999.2500    55.7510    16.1220     5.8930     6.3700     7.4860     1.5690 
  241.1250  -999.2500    55.7510    16.1220     5.8950     6.3700     7.4860     1.5630 
  241.2500  -999.2500    55.7510    16.1220     5.8960     6.3700     7.4860     1.5620 
  241.3750  -999.2500    55.7510    16.1220     5.8950     6.3700     7.4860     1.5660 
  241.5000  -999.2500    55.7510    16.1220     5.8920     6.3700     7.4860     1.5720 
  241.6250  -999.2500    55.7510    16.1220     5.8910     6.3700     7.4860     1.5770 
  241.7500  -999.2500    55.7510    16.1220     5.8910     6.3700     7.4860     1.5760 
  241.8750  -999.2500    55.7510    16.1220     5.8930     6.3700     7.4860     1.5710 
  242.0000  -999.2500    55.7510    16.1220     5.8950     6.3700     7.4860     1.5640 
  242.1250  -999.2500    55.7510    16.1220     5.8950     6.3700     7.4860     1.5570 
  242.2500  -999.2500    55.7510    16.1220     5.8940     6.3700     7.4860     1.5540 
  242.3750  -999.2500    55.7510    16.1220     5.8930     6.3700     7.4860     1.5560 
  242.5000  -999.2500    55.7510    16.1220     5.8920     6.3700     7.4860     1.5650 
  242.6250  -999.2500  -999.2500  -999.2500  -999.2500  -999.2500  -999.2500     1.5770 
  242.7500  -999.2500  -999.2500  -999.2500  -999.2500  -999.2500  -999.2500     1.5810 
  242.8750  -999.2500  -999.2500  -999.2500  -999.2500  -999.2500  -999.2500     1.5750 
  243.0000  -999.2500  -999.2500  -999.2500  -999.2500  -999.2500  -999.2500     1.5650 
  243.1250  -999.2500  -999.2500  -999.2500  -999.2500  -999.2500  -999.2500     1.5600 
  243.2500  -999.2500  -999.2500  -999.2500  -999.2500  -999.2500  -999.2500     1.5630 
  243.3750  -999.2500  -999.2500  -999.2500  -999.2500  -999.2500  -999.2500     1.5690 
  243.5000  -999.2500  -999.2500  -999.2500  -999.2500  -999.2500  -999.2500     1.5730 
  243.6250  -999.2500  -999.2500  -999.2500  -999.2500  -999.2500  -999.2500     1.5760 
  243.7500  -999.2500  -999.2500  -999.2500  -999.2500  -999.2500  -999.2500     1.5740 
  243.8750  -999.2500  -999.2500  -999.2500  -999.2500  -999.2500  -999.2500     1.5690 
  244.0000  -999.2500  -999.2500  -999.2500  -999.2500  -999.2500  -999.2500     1.5650 
  244.1250  -999.2500  -999.2500  -999.2500  -999.2500  -999.2500  -999.2500     1.5650 
  244.2500  -999.2500  -999.2500  -999.2500  -999.2500  -999.2500  -999.2500     1.5680 
  244.3750  -999.2500  -999.2500  -999.2500  -999.2500  -999.2500  -999.2500     1.5730 
  244.5000  -999.2500  -999.2500  -999.2500  -999.2500  -999.2500  -999.2500     1.5690 
  244.6250  -999.2500  -999.2500  -999.2500  -999.2500  -999.2500  -999.2500     1.5660 
  244.7500  -999.2500  -999.2500  -999.2500  -999.2500  -999.2500  -999.2500     1.6880 
  244.8750  -999.2500  -999.2500  -999.2500  -999.2500  -999.2500  -999.2500     1.9430 
  245.0000  -999.2500  -999.2500  -999.2500  -999.2500  -999.2500  -999.2500     2.1930 
