~V
VERS. 2.00: Ver 2.00
~W
STRT.M 60.0000:
STOP.M 283.0000:
STEP.M 0.1250:
NULL. -999.2500:
UWI. DF3045:
~C
DEPT.M :
DEN.GM/CC :
SP.MV :
AC.US/MT :
GR.API :
CALI.CM :
RXO.OHMM :
RI. :
RML.OHMM :
~A
# ...
  230.0000     2.5930   -25.4310   366.4520    60.9000    23.7600     7.8950    10.0960    11.5410 
  230.1250     2.5340   -25.4130   392.6450    58.3730    23.7850     6.9140     8.3320     9.7740 
  230.2500     2.5030   -25.3670   402.7260    57.4760    23.8840     6.9830     7.3020     8.8390 
  230.3750     2.4900   -25.3170   409.1420    59.1680    24.0670     7.1400     6.7230     8.3320 
  230.5000     2.4850   -25.2780   417.8450    62.1620    24.2910     6.9270     6.4200     8.0450 
  230.6250     2.4810   -25.2110   426.0120    65.2430    24.1220     6.0540     6.3170     7.9050 
  230.7500     2.4740   -25.1720   431.8080    69.3220    24.1220     5.0320     6.3260     7.8760 
  230.8750     2.4610   -25.2100   433.9140    73.9080    24.5050     4.5740     6.4490     8.0060 
  231.0000     2.4420   -25.3270   428.9050    80.5020    24.8220     4.7810     6.7410     8.3840 
  231.1250     2.4350   -25.4960   417.4170    90.4100    24.4080     5.6920     7.2340     9.0300 
  231.2500     2.4500   -25.7210   402.5800    97.2030    24.3840     7.9150     7.8350     9.7930 
  231.3750     2.4830   -25.9630   388.5290    97.3080    24.2880    10.1950     8.4400    10.5390 
  231.5000     2.5140   -26.1750   384.1840    96.7780    24.3070    10.6270     8.9110    11.0910 
  231.6250     2.5220   -26.3600   386.5680   103.2640    24.3770     9.6200     9.1060    11.2920 
  231.7500     2.5150   -26.4920   389.4310   110.1110    24.3940     8.9740     9.0740    11.2550 
  231.8750     2.5100   -26.5330   389.4730   112.8280    24.4260     8.7800     8.9060    11.0920 
  232.0000     2.5130   -26.5040   388.9340   114.4180    24.4080     8.6500     8.6910    10.9130 
  232.1250     2.5150   -26.4360   389.1160   115.2840    24.4440     8.5390     8.5300    10.8350 
  232.2500     2.5110   -26.3700   389.7960   116.0230    24.4430     8.4610     8.4680    10.8970 
  232.3750     2.5070   -26.3090   389.8090   116.8500    24.4170     8.4650     8.4880    11.0610 
  232.5000     2.5080   -26.2790   388.5900   115.6260    24.4180     8.4940     8.5650    11.2760 
  232.6250     2.5070   -26.3260   386.6810   112.2300    24.5250     8.6530     8.6780    11.4910 
  232.7500     2.4910   -26.4250   385.5940   113.1920    24.5760     8.8870     8.7950    11.6490 
  232.8750     2.4610   -26.5650   386.4580   118.9780    24.5040     9.0800     8.9090    11.7520 
  233.0000     2.4380   -26.7180   388.1450   122.3180    24.5490     9.1100     9.0070    11.8020 
  233.1250     2.4450   -26.8700   389.7580   119.4470    24.6720     9.1600     9.0770    11.8020 
  233.2500     2.4670   -26.9740   390.7710   115.6180    24.6880     9.1510     9.1480    11.7860 
  233.3750     2.4840   -27.0600   390.4040   113.0960    24.6740     9.0100     9.2160    11.7720 
  233.5000     2.4920   -27.1390   388.7090   111.9190    24.6500     8.9540     9.2760    11.7560 
  233.6250     2.4990   -27.1600   386.4880   112.6950    24.4390     8.9330     9.3190    11.7620 
  233.7500     2.5070   -27.1820   384.6330   113.7580    24.4350     8.9980     9.3450    11.7680 
  233.8750     2.5090   -27.2260   383.1710   112.7810    24.3940     8.8720     9.3250    11.7140 
  234.0000     2.5020   -27.3400   381.6640   108.6790    24.3880     9.0240     9.2110    11.5120 
  234.1250     2.4990   -27.5520   380.0730   106.5240    24.3660     9.1230     8.9410    11.0870 
  234.2500     2.5010   -27.8460   378.0900   107.7460    24.3350     8.9080     8.5960    10.5540 
  234.3750     2.5090   -28.1770   375.7860   109.0940    24.1670     8.6660     8.3280    10.1380 
  234.5000     2.4910   -28.5050   375.7100   108.9560    24.0370     8.8190     8.3090    10.1350 
  234.6250     2.4650   -28.8220   378.7980   108.4370    23.8630     8.8240     8.8850    11.1340 
  234.7500     2.4530   -29.1240   380.3030   105.1720    23.6580     8.9930    10.5580    13.7120 
  234.8750     2.4690   -29.4040   368.6410    96.3420    23.5870    10.2440    14.0430    18.4550 
  235.0000     2.4920   -29.6520   345.2980    84.8430    23.6590    19.8940    20.1180    26.0550 
  235.1250     2.4880   -29.8730   323.1950    75.0180    23.8040    48.5380    30.6010    38.1700 
  235.2500     2.4510   -30.1000   317.5880    68.1200    24.0960    98.6330    45.8880    55.0150 
  235.3750     2.4030   -30.3460   330.9100    65.6070    24.5320   148.1850    65.5990    76.2200 
  235.5000     2.3640   -30.6340   341.9000    66.2810    24.6810   174.8080    87.3250    99.5390 
  235.6250     2.3330   -30.9860   363.9250    65.8150    24.6810   162.6900   105.7360   119.7040 
  235.7500     2.3050   -31.3450   381.6600    63.5630    24.5930   149.0480   117.1230   131.9720 
  235.8750     2.2810   -31.6940   389.4850    61.6290    24.4540   148.1940   121.5020   136.0360 
  236.0000     2.2680   -31.9880   392.1720    60.3430    24.4140   154.1800   122.0460   136.2620 
  236.1250     2.2700   -32.1850   392.5540    61.2570    24.4650   151.0960   120.2980   134.5120 
  236.2500     2.2820   -32.2780   391.9530    64.2280    24.4030   148.5330   116.9840   131.0710 
  236.3750     2.2890   -32.2800   391.6670    66.7940    24.3690   148.3340   112.0940   125.6340 
  236.5000     2.2840   -32.1960   391.9740    67.0020    24.2810   139.3090   105.9760   118.6230 
  236.6250     2.2770   -32.0280   391.9390    65.1160    23.8620   119.9420    99.5910   111.0040 
  236.7500     2.2770   -31.8180   390.9670    62.2210    23.8520   101.4950    93.5350   103.5500 
  236.8750     2.2850   -31.6530   389.5840    60.1500    23.9060    97.0940    87.7960    96.1980 
  237.0000     2.2900   -31.5310   388.7560    61.1790    24.0630   100.9700    82.0500    88.8190 
  237.1250     2.2840   -31.3250   388.3290    64.4870    24.1550    94.6100    76.4750    81.6870 
  237.2500     2.2690   -31.1680   387.6480    66.9470    24.3290    87.3920    71.1960    75.0780 
  237.3750     2.2560   -31.0750   386.7760    68.0050    24.2860    84.7500    66.2160    68.9960 
  237.5000     2.2530   -31.0190   386.4160    70.1080    24.2100    78.9020    61.4910    63.4300 
  237.6250     2.2580   -30.9770   386.4430    72.8640    24.0020    63.5880    57.0720    58.4900 
  237.7500     2.2670   -30.9120   385.6180    73.5780    23.8260    50.0820    53.0850    54.1670 
  237.8750     2.2800   -30.8140   383.8120    71.7430    23.9600    51.3190    49.5960    50.4260 
  238.0000     2.2960   -30.6770   383.1030    70.8560    24.6050    60.7120    46.4820    47.1080 
  238.1250     2.3100   -30.4480   384.4350    73.9040    24.9580    55.3180    43.7500    44.2580 
  238.2500     2.3210   -30.1830   386.5820    76.7500    25.0020    43.2220    41.5010    41.9900 
  238.3750     2.3230   -29.9080   387.4310    76.6810    24.9830    34.1620    39.9260    40.4820 
  238.5000     2.3120   -29.6580   387.6260    73.6950    24.9390    31.4000    39.1410    39.8410 
  238.6250     2.2970   -29.4550   388.6380    71.7960    24.7820    36.5610    39.3820    40.3550 
  238.7500     2.2910   -29.3110   390.9970    73.9720    24.6370    41.5450    40.6970    42.0650 
  238.8750     2.2960   -29.2210   393.4470    78.0440    24.6070    42.8530    43.2260    45.0840 
  239.0000     2.3010   -29.2130   394.5890    78.7650    24.3170    41.8550    47.0500    49.3310 
  239.1250     2.3000   -29.2690   394.3100    73.2560    24.3210    42.3590    52.0490    54.6580 
  239.2500     2.2960   -29.3290   393.0220    66.6740    24.4060    52.4280    57.4570    60.2700 
  239.3750     2.2910   -29.3560   391.4290    63.1880    24.3120    70.9320    62.5970    65.4360 
  239.5000     2.2810   -29.3590   390.3370    64.1610    24.2760    89.6250    66.8750    69.6400 
  239.6250     2.2700   -29.3070   390.2520    67.2410    24.3740    89.4410    69.2390    71.8330 
  239.7500     2.2610   -29.2310   391.1740    68.0800    24.2810    78.8960    69.1100    71.4690 
  239.8750     2.2520   -29.1550   392.2650    65.6140    24.0810    66.5010    66.3160    68.4320 
