~V
VERS. 2.00: Ver 2.00
~W
STRT.M 61.0000:
STOP.M 276.0000:
STEP.M 0.1250:
NULL. -999.2500:
UWI. DF3051:
~C
DEPT.M :
SP.MV :
GR.API :
CALI.CM :
RXO.OHMM :
RI. :
RML.OHMM :
DEN.GM/CC :
~A
   61.0000  -999.2500    45.6290    26.0710     0.9840     3.7520     7.2820  -999.2500 
   61.1250  -999.2500    47.6450    26.0440     1.0040     4.0980     4.3660  -999.2500 
   61.2500  -999.2500    49.0020    26.0050     1.0200     3.9200     3.0660  -999.2500 
   61.3750  -999.2500    48.2920    25.9740     1.0300     3.4890     2.3820  -999.2500 
   61.5000  -999.2500    46.8740    25.9520     1.0380     3.1510     1.8520  -999.2500 
   61.6250  -999.2500    45.2190    25.9250     1.0490     3.0110     1.3180  -999.2500 
   61.7500  -999.2500    44.2440    25.8880     1.0690     3.0180     0.9130  -999.2500 
   61.8750  -999.2500    44.1300    25.8560     1.0850     3.1600     0.7760  -999.2500 
   62.0000    21.6160    43.0940    25.8460     1.0800     3.3860     0.8900  -999.2500 
   62.1250    21.6160    41.8340    25.8710     1.0490     3.5560     1.2190  -999.2500 
   62.2500    21.4690    41.7080    25.9110     1.0190     3.5860     1.5430  -999.2500 
   62.3750    21.1770    43.2100    25.9380     1.0020     3.5240     1.6650  -999.2500 
   62.5000    21.0370    47.0410    25.9110     0.9870     3.5310     1.6060  -999.2500 
   62.6250    21.0340    50.3820    25.7750     0.9570     3.7240     1.5070  -999.2500 
   62.7500    21.0850    48.7880    25.5440     0.9190     3.8770     1.4320  -999.2500 
   62.8750    21.1960    44.8450    25.2550     0.8880     3.7650     1.3640  -999.2500 
   63.0000    21.4140    43.9670    24.9540     0.8730     3.5010     1.2950  -999.2500 
   63.1250    21.8350    46.1250    24.6980     0.8740     3.3060     1.2320  -999.2500 
   63.2500    22.4500    46.8020    24.5190     0.8820     3.1570     1.1780  -999.2500 
   63.3750    23.1440    45.9440    24.4200     0.8950     2.9830     1.1460  -999.2500 
   63.5000    23.8080    45.0320    24.3690     0.9100     2.7920     1.1020  -999.2500 
   63.6250    24.3780    43.3140    24.3380     0.9200     2.6130     0.8800  -999.2500 
   63.7500    24.8770    42.1730    24.3210     0.9220     2.3900     0.4930  -999.2500 
   63.8750    25.2650    43.1080    24.3580     0.9210     2.0240     0.1080  -999.2500 
   64.0000    25.4260    44.7690    24.5240     0.9280     1.5250    -0.1660  -999.2500 
   64.1250    24.8910    45.5860    24.8750     0.9630     1.1520    -0.3000  -999.2500 
   64.2500    23.1930    45.9530    25.2470     1.0720     0.9930    -0.3480  -999.2500 
   64.3750    20.1190    47.3980    25.4130     1.3980     0.9740    -0.3360  -999.2500 
   64.5000    15.9970    50.8020    25.2140     2.2040     1.0370    -0.2790  -999.2500 
   64.6250    11.2060    54.4460    24.6670     3.8580     1.1910    -0.1510  -999.2500 
   64.7500     6.1300    55.9240    24.0760     5.8390     1.4740     0.1060  -999.2500 
   64.8750     0.9530    55.4940    23.6290     7.1810     1.9620     0.6320  -999.2500 
   65.0000    -4.1470    55.0110    23.3720     7.4390     2.7030     1.5850  -999.2500 
   65.1250    -8.7600    55.7120    23.2490     7.1460     3.5940     2.7920  -999.2500 
   65.2500   -12.4650    55.6920    23.1840     6.9890     4.3810     3.7380  -999.2500 
   65.3750   -15.0360    53.9940    23.1690     7.0040     4.9790     4.3810  -999.2500 
   65.5000   -16.7050    52.1780    23.1910     7.1250     5.4290     4.8830  -999.2500 
   65.6250   -17.7260    53.0880    23.2240     7.2810     5.7840     5.2860  -999.2500 
   65.7500   -18.4080    56.6020    23.2490     7.4200     6.0670     5.5550  -999.2500 
   65.8750   -18.8710    60.4890    23.2760     7.5270     6.2580     5.6780  -999.2500 
   66.0000   -19.1790    64.0490    23.3180     7.5720     6.3380     5.7010  -999.2500 
   66.1250   -19.3010    66.1960    23.3710     7.5040     6.3220     5.7060  -999.2500 
   66.2500   -19.2650    66.0250    23.4100     7.4190     6.3200     5.7830  -999.2500 
   66.3750   -19.1400    65.8350    23.4240     7.5800     6.4310     5.9810  -999.2500 
   66.5000   -19.0650    67.3900    23.4190     8.3470     6.7260     6.3220  -999.2500 
   66.6250   -19.1600    67.8370    23.4030     9.9780     7.2330     6.8170  -999.2500 
   66.7500   -19.3910    67.7470    23.3850    11.5650     7.8120     7.3570  -999.2500 
   66.8750   -19.6830    70.5390    23.3770    11.9260     8.2830     7.7580  -999.2500 
   67.0000   -19.9580    77.0130    23.3850    10.7990     8.4730     7.8260  -999.2500 
   67.1250   -20.2330    81.9730    23.4010     9.2300     8.2950     7.5650  -999.2500 
   67.2500   -20.5350    81.1990    23.4130     8.2210     7.9360     7.2620  -999.2500 
   67.3750   -20.8620    76.1760    23.4260     7.8120     7.5500     7.0520  -999.2500 
   67.5000   -21.1590    71.3830    23.4500     7.7790     7.2450     6.9690  -999.2500 
   67.6250   -21.3070    70.7370    23.4870     7.8940     7.0760     6.9820  -999.2500 
   67.7500   -21.2870    70.2190    23.5210     7.9570     7.0080     7.0330  -999.2500 
   67.8750   -21.1850    69.3200    23.5320     7.8740     7.0110     7.0990  -999.2500 
   68.0000   -21.1520    72.4190    23.5080     7.6610     7.0640     7.1860  -999.2500 
   68.1250   -21.2730    76.6990    23.4490     7.5050     7.1490     7.3160  -999.2500 
   68.2500   -21.4570    76.5110    23.3550     7.5080     7.2400     7.4570  -999.2500 
   68.3750   -21.5510    75.0140    23.1930     7.5630     7.3170     7.5600  -999.2500 
   68.5000   -21.4520    75.7920    22.9190     7.5490     7.3670     7.5970  -999.2500 
   68.6250   -21.2300    76.3290    22.5210     7.5980     7.3860     7.6120  -999.2500 
   68.7500   -21.0510    74.9370    22.1430     7.8880     7.3940     7.6650  -999.2500 
   68.8750   -20.9400    74.1070    21.9760     8.3360     7.4060     7.7680  -999.2500 
   69.0000   -20.7860    75.4820    22.1510     8.7110     7.4320     7.9020  -999.2500 
   69.1250   -20.4640    78.0040    22.6640     8.8850     7.4760     8.0340  -999.2500 
   69.2500   -19.9930    80.2180    23.2800     8.9670     7.5270     8.1550  -999.2500 
   69.3750   -19.5090    80.2570    23.8430     8.9630     7.5670     8.2670  -999.2500 
   69.5000   -19.1310    79.0200    24.2620     8.7810     7.5700     8.3480  -999.2500 
   69.6250   -18.8850    80.1670    24.4940     8.3250     7.4870     8.3000  -999.2500 
   69.7500   -18.6230    83.0670    24.6240     7.7740     7.3050     8.0700  -999.2500 
   69.8750   -18.2340    87.2290    24.7310     7.3500     7.0240     7.6830  -999.2500 
   70.0000   -17.7550    93.7800    24.8720     7.1500     6.6730     7.2190  -999.2500 
   70.1250   -17.3050   101.3700    25.0610     6.9870     6.2960     6.7410  -999.2500 
   70.2500   -17.0320   104.4990    25.2590     6.6810     5.9520     6.3200  -999.2500 
   70.3750   -16.9520   101.5990    25.4350     6.3550     5.7010     6.0450  -999.2500 
   70.5000   -16.9720    97.6020    25.5650     6.2580     5.6140     6.0330  -999.2500 
   70.6250   -16.9830    96.3110    25.6290     6.5460     5.8240     6.4640  -999.2500 
   70.7500   -16.9760    93.8420    25.6490     7.0720     6.3490     7.3440  -999.2500 
   70.8750   -17.0510    86.9890    25.6540     7.8460     7.1780     8.6390  -999.2500 
   71.0000   -17.3120    78.7760    25.6640     9.0620     8.1880    10.1280  -999.2500 
   71.1250   -17.8070    75.8180    25.6790    10.4620     9.0390    11.1900  -999.2500 
   71.2500   -18.3660    78.4920    25.6900    10.8420     9.3930    11.3550  -999.2500 
   71.3750   -18.8460    82.5720    25.6920     9.8330     9.1530    10.6780  -999.2500 
   71.5000   -19.2230    83.2080    25.6870     8.4430     8.5030     9.6270  -999.2500 
   71.6250   -19.5690    79.1780    25.6740     7.9250     7.7550     8.7050  -999.2500 
   71.7500   -20.0060    76.3160    25.6670     7.9460     7.1450     8.0900  -999.2500 
   71.8750   -20.5280    78.1520    25.6910     8.0720     6.7500     7.7970  -999.2500 
   72.0000   -20.9910    82.1200    25.7520     8.4280     6.5910     7.8300  -999.2500 
   72.1250   -21.2480    82.5700    25.8100     9.8880     6.7290     8.3070  -999.2500 
