~V
VERS. 2.00: Ver 2.00
~W
STRT.M 63.0000:
STOP.M 272.0000:
STEP.M 0.1250:
NULL. -999.2500:
UWI. DF3013:
~C
DEPT.M :
DEN.GM/CC :
SP.MV :
AC.US/MT :
GR.API :
CALI.CM :
RXO.OHMM :
RI. :
RML.OHMM :
~A
# ...
  153.0000     2.2850   -11.7200   396.3710    89.7260    25.0140    16.8920    16.2430    17.5050 
  153.1250     2.2760   -11.8120   396.5940    86.1070    24.9820    17.4270    16.4100    17.5670 
  153.2500     2.2720   -11.8870   396.8370    82.5460    24.9420    17.4310    16.5890    17.6590 
  153.3750     2.2750   -11.9580   396.6680    81.4250    24.8940    16.8370    16.7870    17.7920 
  153.5000     2.2790   -12.0390   395.9750    81.9920    24.8500    15.8650    17.0100    17.9620 
  153.6250     2.2770   -12.1150   394.6710    83.9300    24.8250    16.1100    17.1920    18.0710 
  153.7500     2.2700   -12.1730   393.4570    87.4740    24.8210    16.3520    17.1710    17.9150 
  153.8750     2.2670   -12.2110   394.0920    92.1250    24.8340    16.5920    16.7480    17.2760 
  154.0000     2.2780   -12.2480   398.2490    94.4490    24.8540    16.2580    15.8260    16.1020 
  154.1250     2.3040   -12.3170   406.0610    91.8800    24.8650    13.5570    14.5820    14.6820 
  154.2500     2.3330   -12.4150   414.1900    87.0940    24.8640    10.9030    13.5290    13.6100 
  154.3750     2.3530   -12.5230   420.2550    84.2700    24.8640    10.1810    13.0400    13.2710 
  154.5000     2.3560   -12.6220   423.9470    86.7730    24.8650    11.4400    13.3230    13.8080 
  154.6250     2.3400   -12.7130   426.1570    91.4700    24.8540    15.1450    14.5280    15.2070 
  154.7500     2.3200   -12.8170   427.4300    90.7040    24.8330    22.8080    16.2930    16.9450 
  154.8750     2.3070   -12.9340   426.6470    86.2060    24.8130    27.8750    18.1430    18.4890 
  155.0000     2.3120   -13.0510   423.5330    83.8330    24.7840    25.1720    19.4800    19.3340 
  155.1250     2.3310   -13.1470   420.5580    86.5400    24.6880    18.5650    19.7710    19.1670 
  155.2500     2.3500   -13.2010   420.0690    88.8490    24.5310    16.7760    19.2900    18.3920 
  155.3750     2.3620   -13.2130   421.6830    88.3150    24.3910    17.5590    18.3130    17.2880 
  155.5000     2.3690   -13.1990   422.9170    86.6950    24.3600    17.9830    17.0180    15.9810 
  155.6250     2.3720   -13.1820   423.1190    86.5440    24.4670    16.3270    15.4900    15.5370 
  155.7500     2.3780   -13.1830   425.1440    87.9060    24.6060    14.5610    13.9670    14.0570 
  155.8750     2.3890   -13.2000   429.1480    89.1920    24.7010    12.4880    12.7640    13.0430 
  156.0000     2.4010   -13.2280   431.5960    88.7940    24.7330    10.9050    12.2400    12.9430 
  156.1250     2.3940   -13.2640   427.9040    89.4370    24.7300    11.5000    12.9910    14.4400 
  156.2500     2.3660   -13.3110   421.7300    91.7420    24.7280    14.5730    15.3560    17.7250 
  156.3750     2.3310   -13.3820   418.3140    92.3700    24.7280    23.5820    19.9500    23.1890 
  156.5000     2.3030   -13.4760   418.7240    87.9350    24.7270    37.2920    27.3200    31.1550 
  156.6250     2.2870   -13.6020   420.2360    80.7180    24.7310    49.1440    37.5530    41.6200 
  156.7500     2.2750   -13.7490   420.0200    77.8540    24.7220    54.6030    48.1340    52.2340 
  156.8750     2.2660   -13.9030   419.1090    80.5350    24.6430    52.8620    56.3770    60.2300 
  157.0000     2.2610   -14.0350   418.3590    83.4260    24.4370    48.3590    60.8690    64.1760 
  157.1250     2.2690   -14.1110   418.4050    82.3140    24.1290    49.4120    62.1620    65.0840 
  157.2500     2.2850   -14.1490   418.9020    80.2210    23.8750    52.2430    62.6960    65.7220 
  157.3750     2.3000   -14.1880   418.7130    80.0270    23.7560    49.4610    63.6080    67.1670 
  157.5000     2.3050   -14.2700   417.0420    79.3080    23.7520    45.2940    65.1380    69.4370 
  157.6250     2.2980   -14.4220   415.2480    76.0930    23.7800    48.7020    66.6240    71.5140 
  157.7500     2.2900   -14.6040   415.2590    75.5610    23.7940    53.8010    67.0860    72.1570 
  157.8750     2.2910   -14.7800   416.5310    78.1000    23.8540    57.3560    66.1750    71.0490 
  158.0000     2.3020   -14.9270   417.4830    78.3900    24.0440    59.5260    64.4040    69.0160 
  158.1250     2.3120   -15.0340   417.3760    75.5840    24.3900    59.2040    63.1120    67.7590 
  158.2500     2.3110   -15.1130   417.3740    75.9610    24.7300    55.1000    63.4160    68.3740 
  158.3750     2.3010   -15.1810   418.4130    79.0690    24.9400    56.1140    65.7550    71.1340 
  158.5000     2.2870   -15.2500   419.9610    79.4900    24.9970    71.6360    69.7710    75.5000 
  158.6250     2.2750   -15.3260   420.5050    77.4500    24.9830    83.8990    74.2750    80.0330 
  158.7500     2.2660   -15.3920   419.8410    75.9000    24.9780    83.3240    77.7550    83.1310 
  158.8750     2.2610   -15.4350   418.7190    74.0160    24.9610    79.1590    79.4980    84.2080 
  159.0000     2.2560   -15.4550   417.5420    71.9640    24.9030    77.3070    79.7150    83.7960 
  159.1250     2.2500   -15.4710   416.3150    71.7770    24.8350    75.1720    79.4400    83.2430 
  159.2500     2.2470   -15.5050   415.3640    71.9490    24.8040    76.6290    79.7720    83.5460 
  159.3750     2.2500   -15.5530   414.9940    69.7070    24.8010    77.0220    80.8650    84.6790 
  159.5000     2.2570   -15.6000   415.3320    67.9090    24.8030    74.9160    82.2740    86.0620 
  159.6250     2.2620   -15.6340   416.2970    69.5400    24.8030    73.6330    83.4440    87.1030 
  159.7500     2.2650   -15.6610   417.0090    70.7590    24.8020    74.3880    84.4730    88.0040 
  159.8750     2.2680   -15.6900   416.5610    69.4660    24.8010    74.5630    85.9320    89.4090 
  160.0000     2.2690   -15.7180   414.8680    67.5980    24.8050    72.1220    88.3790    91.8800 
  160.1250     2.2670   -15.7130   413.8370    70.1710    24.8300    73.7550    91.7740    95.2820 
  160.2500     2.2610   -15.6610   415.9590    74.3740    24.8710    84.0930    94.6310    97.9090 
  160.3750     2.2510   -15.5590   421.3960    76.1250    24.9500   100.3000    95.0860    97.5870 
  160.5000     2.2390   -15.4210   427.2100    75.0620    25.1050   106.9720    91.5980    92.6720 
  160.6250     2.2340   -15.2680   428.2550    71.9640    25.3250    92.6840    83.4430    83.0000 
  160.7500     2.2460   -15.1110   424.1020    68.9510    25.4720    71.5380    73.1700    71.9990 
  160.8750     2.2720   -14.9600   417.3840    68.5000    25.4980    56.0020    63.2690    62.4070 
  161.0000     2.3020   -14.8210   411.4110    72.2040    25.5060    44.8360    55.7870    55.9540 
  161.1250     2.3190   -14.7020   408.6540    75.6230    25.6300    36.3270    52.5560    54.0100 
  161.2500     2.3230   -14.6130   408.5420    74.5360    25.7840    31.2330    53.5270    56.1430 
  161.3750     2.3180   -14.5570   410.7820    71.5390    25.8250    45.7860    59.0470    62.5050 
  161.5000     2.3040   -14.5370   415.4510    69.4120    25.7040    77.0080    69.1580    73.1320 
  161.6250     2.2800   -14.5570   421.0350    68.5540    25.4940   100.6640    83.1550    87.5950 
  161.7500     2.2560   -14.6060   424.4410    67.6140    25.3210   108.7260    97.2140   102.2050 
  161.8750     2.2390   -14.6800   425.7350    67.5340    25.2290   108.4910   107.4250   112.5620 
  162.0000     2.2340   -14.7730   428.1140    68.7590    25.2070    95.4640   111.0690   115.5080 
  162.1250     2.2400   -14.8750   433.0340    70.1940    25.2040    81.1990   107.8470   111.3470 
  162.2500     2.2440   -14.9690   434.5950    69.3130    25.1660    77.1140   102.0550   105.2930 
  162.3750     2.2410   -15.0370   429.0480    68.0150    25.0870    74.3270    96.3890   100.1000 
  162.5000     2.2310   -15.0720   419.8200    68.9610    24.9950    73.8360    92.2450    96.8290 
  162.6250     2.2260   -15.0650   414.6770    71.0040    24.9170    81.2140    90.2540    95.7500 
  162.7500     2.2280   -15.0320   414.2180    70.9490    24.8300    79.5270    89.6590    95.8920 
  162.8750     2.2330   -14.9870   415.0450    69.0930    24.6830    82.3080    89.6810    96.4260 
