~V
VERS. 2.00: Ver 2.00
~W
STRT.M 65.0000:
STOP.M 273.0000:
STEP.M 0.1250:
NULL. -999.2500:
UWI. DF3011:
~C
DEPT.M :
DEN.GM/CC :
GR.API :
RML.OHMM :
RI. :
RXO.OHMM :
CALI.CM :
AC.US/MT :
SP.MV :
~A
# ...
  215.0000     2.2110    68.7830    84.2250    78.5440    85.5280    25.6840   380.8450   -14.3740 
  215.1250     2.1960    65.9900    89.2980    82.9000    86.7970    25.6670   377.6630   -14.1310 
  215.2500     2.1810    64.8110    96.9790    90.1860    89.8920    25.6430   373.1370   -13.7940 
  215.3750     2.1850    64.4450   104.9360    98.5210    98.1200    25.5860   365.1070   -13.3740 
  215.5000     2.2280    62.7990   107.2580   103.6410   115.9590    25.5000   351.0510   -12.8970 
  215.6250     2.3180    57.3590    97.8730    98.1960   134.4410    25.4600   333.3170   -12.3260 
  215.7500     2.4460    51.5470    76.2930    81.0900   143.6770    25.4490   314.7190   -11.7400 
  215.8750     2.5640    50.8600    49.1230    56.7010   138.3170    25.4510   295.8720   -11.1910 
  216.0000     2.6240    56.2430    28.3200    33.6950    92.4550    25.4620   280.3070   -10.6450 
  216.1250     2.6010    64.1080    17.1070    19.1870    31.3180    25.5230   279.1690   -10.0780 
  216.2500     2.4900    72.2260    10.9120    11.2110    11.0550    25.6630   302.0000    -9.6400 
  216.3750     2.3460    78.9900     7.6560     7.2730     5.5940    25.9040   344.8840    -9.3950 
  216.5000     2.2120    80.9600     6.1620     5.5560     4.6240    26.3600   388.6220    -9.2530 
  216.6250     2.1190    79.3490     5.9240     5.2040     4.9820    26.9370   417.4420    -9.3080 
  216.7500     2.0970    80.2820     6.6840     5.5370     5.7470    26.9750   427.7580    -9.5730 
  216.8750     2.1330    81.9280     7.6900     6.2890     6.8640    26.1970   421.7420    -9.9400 
  217.0000     2.2060    83.8270     8.6520     7.2090     8.1180    25.5630   405.3820   -10.3330 
  217.1250     2.2820    93.4400     9.2840     8.0090     8.9950    25.4170   390.2500   -10.7850 
  217.2500     2.3260   104.5040     9.5530     8.5230     9.1960    25.4380   382.6820   -11.2580 
  217.3750     2.3400   108.2690     9.5180     8.7100     8.9320    25.4450   382.7300   -11.6530 
  217.5000     2.3420   106.9550     9.2900     8.6280     8.6610    25.4370   385.0840   -11.9930 
  217.6250     2.3450   111.5020     8.9710     8.3680     8.5620    25.3940   385.2350   -12.3090 
  217.7500     2.3560   120.0740     8.6230     8.0400     8.5550    25.3280   383.5290   -12.5340 
  217.8750     2.3690   127.8850     8.2500     7.6840     8.5210    25.2660   382.0420   -12.6430 
  218.0000     2.3800   135.9460     7.8700     7.3350     8.4470    25.2600   382.4900   -12.7200 
  218.1250     2.3860   139.9770     7.5920     7.0720     8.4370    25.3100   384.1870   -12.8570 
  218.2500     2.3880   137.8740     7.5380     6.9690     8.6500    25.3600   385.6710   -13.0860 
  218.3750     2.3870   135.4180     7.6840     7.0980     9.1580    25.3350   385.2420   -13.4020 
  218.5000     2.3860   136.7800     8.1310     7.5200    10.1780    25.2460   381.5360   -13.8120 
  218.6250     2.3830   135.4240     9.0210     8.3590    12.0200    25.1310   375.9660   -14.2140 
  218.7500     2.3760   125.8740    10.3510     9.6150    14.5450    25.0220   370.3610   -14.5450 
  218.8750     2.3650   113.4810    12.1550    11.3160    17.3960    24.9060   366.5840   -14.9350 
  219.0000     2.3500   102.6500    14.4040    13.4380    20.3360    24.9290   366.0840   -15.3750 
  219.1250     2.3320    94.8120    16.9930    15.8800    23.9560    25.1730   367.5020   -15.7210 
  219.2500     2.3180    89.3830    19.5820    18.3230    27.2440    25.3720   368.8090   -15.9360 
  219.3750     2.3080    86.1760    21.8540    20.4660    29.3960    25.4420   368.5200   -16.0190 
  219.5000     2.3040    83.1220    23.5280    22.0450    30.0500    25.4490   366.7460   -16.0220 
  219.6250     2.3030    80.6210    24.3380    22.8090    29.5590    25.4490   364.9980   -15.9850 
  219.7500     2.3020    80.8920    24.4850    22.9480    28.7150    25.4490   363.8120   -15.9420 
  219.8750     2.3010    84.0930    24.1770    22.6580    28.1170    25.4490   363.0970   -15.8630 
  220.0000     2.2990    90.4580    23.6550    22.1560    27.6300    25.4500   363.4020   -15.7840 
  220.1250     2.2950    96.6810    23.0880    21.6240    26.9100    25.4590   365.1870   -15.6520 
  220.2500     2.2930    96.6360    22.5480    21.1670    26.4940    25.4780   368.2600   -15.4600 
  220.3750     2.2950    92.1180    22.1720    20.8450    26.5460    25.4970   371.6750   -15.3230 
  220.5000     2.3000    89.4060    22.0670    20.7600    26.4610    25.5120   374.0500   -15.2100 
  220.6250     2.3080    91.4550    22.9060    21.2160    26.4370    25.5160   374.9810   -15.0620 
  220.7500     2.3140    91.5950    24.7000    22.4020    26.9230    25.5180   374.7610   -14.9540 
  220.8750     2.3150    89.0640    27.5380    24.3870    28.2030    25.5180   374.0310   -14.8770 
  221.0000     2.3080    85.9590    30.8920    26.8840    31.2350    25.5170   373.0670   -14.7520 
  221.1250     2.2950    80.9950    32.4210    28.9760    36.1810    25.5070   371.4540   -14.6680 
  221.2500     2.2810    75.7240    32.1460    29.6400    41.5360    25.4680   368.9580   -14.6270 
  221.3750     2.2720    76.1350    29.6950    28.3190    45.0300    25.3670   366.4270   -14.5130 
  221.5000     2.2750    84.6330    25.7660    25.3030    41.7790    25.1760   366.3100   -14.3680 
  221.6250     2.2900    94.8540    21.9800    21.7540    30.1470    25.0230   369.5230   -14.2520 
  221.7500     2.3120   101.2840    19.3590    18.8900    20.0230    24.8950   374.9750   -14.1780 
  221.8750     2.3280   102.3370    17.8750    16.9840    16.3240    24.7560   380.2880   -14.1370 
  222.0000     2.3330    99.9920    17.0170    15.7890    17.1570    24.6220   383.0380   -14.1420 
  222.1250     2.3270    97.1320    16.2670    14.9060    19.7960    24.6620   383.3600   -14.2680 
  222.2500     2.3170    98.0340    15.3980    14.0510    21.1130    24.8400   382.7540   -14.4680 
  222.3750     2.3120   103.3960    14.7260    13.3650    19.2420    25.0210   382.9880   -14.7550 
  222.5000     2.3130   108.1210    14.8460    13.3760    16.0000    25.0300   384.3260   -15.1670 
  222.6250     2.3190   105.4190    17.4870    15.4980    18.3800    24.8040   384.0290   -15.6980 
  222.7500     2.3260    95.3680    23.7070    20.8190    29.1550    24.5630   379.7770   -16.2540 
  222.8750     2.3300    82.6000    34.3060    30.2540    47.0600    24.5320   372.1310   -16.8410 
  223.0000     2.3280    71.5920    49.2130    43.6890    69.7040    24.8420   364.8610   -17.4680 
  223.1250     2.3180    65.3050    66.4120    59.2010    90.1970    25.2200   361.0530   -18.0820 
  223.2500     2.2980    64.1400    80.7490    72.4580   102.4090    25.4880   360.6620   -18.6340 
  223.3750     2.2750    67.1660    87.9560    80.0480   105.2890    25.5780   361.8680   -19.1590 
  223.5000     2.2540    70.8830    87.0900    80.9170   102.2210    25.5930   362.6370   -19.5560 
  223.6250     2.2420    72.7300    81.1990    76.5800    93.2290    25.5950   362.0470   -19.7840 
  223.7500     2.2420    72.3880    75.1330    71.0400    81.4490    25.5970   360.0050   -19.9400 
  223.8750     2.2490    71.8130    70.7290    66.3160    71.9500    25.5990   357.4640   -19.9810 
  224.0000     2.2600    72.0570    68.7740    63.5400    67.0490    25.5970   356.2530   -19.9580 
  224.1250     2.2700    72.8330    69.9590    63.6790    67.8450    25.5940   356.5800   -19.8710 
  224.2500     2.2800    71.6100    73.6140    66.3330    71.4290    25.5780   356.7580   -19.7660 
  224.3750     2.2890    67.7270    79.1430    71.0890    78.5480    25.5340   354.8460   -19.6240 
  224.5000     2.2970    64.0220    85.6390    77.1490    87.5880    25.4630   351.8130   -19.4700 
  224.6250     2.2990    63.5990    91.6980    83.2600    98.7980    25.4340   351.0700   -19.3310 
  224.7500     2.2930    65.7970    96.2480    88.1730   100.5230    25.4310   354.0800   -19.1800 
  224.8750     2.2820    69.0850    98.7810    91.2170    98.0680    25.3960   359.8880   -18.9830 
