~V
VERS. 2.00: Ver 2.00
~W
STRT.M 56.0000:
STOP.M 260.0000:
STEP.M 0.1250:
NULL. -999.2500:
UWI. DF3033:
~C
DEPT.M :
GR.API :
RML.OHMM :
RI. :
RXO.OHMM :
CALI.CM :
DEN.GM/CC :
SP.MV :
~A
# ...
  168.5000    68.5950   159.2340   138.4490   133.5010    24.6450     2.2290   -28.5890 
  168.6250    65.4160   182.7430   159.1420   154.0660    24.6520     2.2240   -28.7600 
  168.7500    65.9560   203.1010   177.4260   169.8430    24.6440     2.2210   -28.8850 
  168.8750    68.2620   218.3600   191.6100   182.8990    24.6280     2.2200   -28.9280 
  169.0000    67.1260   227.8900   201.0810   191.1760    24.6310     2.2210   -28.9670 
  169.1250    64.1320   231.6070   205.6810   190.8330    24.6690     2.2210   -28.8990 
  169.2500    64.4580   231.8900   207.3820   185.4500    24.7140     2.2210   -28.9210 
  169.3750    66.6440   230.3030   207.5260   182.1770    24.7480     2.2200   -28.8620 
  169.5000    67.5670   228.2320   207.2860   184.5120    24.7590     2.2210   -28.8210 
  169.6250    67.1690   226.1540   207.2530   184.8490    24.7580     2.2240   -28.7840 
  169.7500    66.1100   222.9930   206.7010   174.0290    24.7590     2.2270   -28.7810 
  169.8750    65.0500   217.3380   203.9530   161.1480    24.7630     2.2280   -28.8600 
  170.0000    65.8500   207.1400   197.0800   159.0020    24.7710     2.2260   -28.9180 
  170.1250    67.9660   192.5050   184.0550   168.9670    24.7880     2.2230   -28.9810 
  170.2500    67.3090   174.6440   166.5780   170.1390    24.8110     2.2240   -29.0130 
  170.3750    65.5460   156.7990   146.9470   154.9010    24.8240     2.2310   -29.0680 
  170.5000    67.0560   141.4530   128.0370   125.5900    24.8070     2.2450   -29.0950 
  170.6250    70.9060   125.3850   113.3670    99.2860    24.7510     2.2610   -29.1810 
  170.7500    71.8600   116.2630   104.3890    84.8710    24.7030     2.2740   -29.1720 
  170.8750    71.0080   115.0640   102.3880    78.3020    24.6820     2.2770   -29.1490 
  171.0000    72.4790   122.9290   108.7160    78.9970    24.6790     2.2690   -29.0950 
  171.1250    74.8530   143.9680   127.1230    93.6960    24.6790     2.2480   -29.1410 
  171.2500    73.4210   178.8370   157.7860   115.0790    24.6780     2.2200   -29.1010 
  171.3750    67.8840   227.7360   200.5090   135.0640    24.6760     2.1930   -29.1080 
  171.5000    62.5930   286.2650   251.3550   165.9300    24.6660     2.1710   -29.0770 
  171.6250    59.4580   341.2130   299.4650   193.5650    24.6360     2.1580   -29.0420 
  171.7500    58.0600   375.5750   331.1200   206.0530    24.5650     2.1530   -29.0920 
  171.8750    58.8900   377.1720   336.3480   197.2170    24.4580     2.1530   -29.1110 
  172.0000    61.0950   345.2830   313.5070   182.1740    24.3630     2.1600   -29.1930 
  172.1250    63.8220   292.8090   270.4930   167.3100    24.2500     2.1750   -29.1340 
  172.2500    66.8450   242.4860   225.9460   142.9600    24.0920     2.1970   -29.2210 
  172.3750    68.5920   203.7000   189.3730   116.0430    23.8860     2.2200   -29.2390 
  172.5000    66.8720   178.0840   164.0190    91.1260    23.7420     2.2350   -29.2850 
  172.6250    62.6720   164.2300   149.8740    72.7610    23.6760     2.2360   -29.3010 
  172.7500    61.0470   155.7520   141.4560    66.2300    23.6280     2.2250   -29.2600 
  172.8750    60.4560   148.7460   135.2060    70.2810    23.5990     2.2130   -29.2600 
  173.0000    59.3070   140.7020   128.5950    78.7220    23.6850     2.2060   -29.1930 
  173.1250    60.3120   131.5160   120.9980    87.3640    23.9450     2.2110   -29.1850 
  173.2500    63.4920   124.2530   114.7050    95.5500    24.2820     2.2230   -29.0800 
  173.3750    65.4240   122.7570   113.1570    93.8590    24.5820     2.2340   -28.9840 
  173.5000    64.8110   130.9460   120.1480    85.1410    24.7440     2.2360   -28.9000 
  173.6250    65.1590   154.5030   141.0740    97.3630    24.8040     2.2230   -28.8360 
  173.7500    65.4560   191.9240   174.5420   135.2550    24.8240     2.2050   -28.7540 
  173.8750    62.6570   239.1790   216.7450   196.1590    24.8220     2.1900   -28.6710 
  174.0000    59.2230   287.0320   259.3140   246.5930    24.7980     2.1820   -28.6010 
  174.1250    59.2460   318.4080   287.1590   233.9340    24.7730     2.1830   -28.5830 
  174.2500    61.9800   322.6700   292.0000   220.2790    24.7550     2.1870   -28.5190 
  174.3750    64.1150   298.9220   272.9720   214.2700    24.7370     2.1920   -28.5280 
  174.5000    64.6290   255.3950   237.4670   208.0410    24.7070     2.1980   -28.4730 
  174.6250    65.7280   207.3400   196.7480   187.0860    24.7030     2.2090   -28.4010 
  174.7500    67.6230   163.9190   160.3930   158.6900    24.7230     2.2240   -28.3780 
  174.8750    69.8260   130.0830   132.1120   126.3220    24.7460     2.2410   -28.2910 
  175.0000    71.6280   111.4970   113.1330    99.1630    24.7550     2.2570   -28.2650 
  175.1250    73.8980   104.7450   104.5340    81.5850    24.7530     2.2640   -28.1400 
  175.2500    76.6340   105.4850   103.5040    77.2450    24.7560     2.2630   -28.1430 
  175.3750    77.3270   112.0350   108.4020    82.2270    24.7640     2.2550   -28.0780 
  175.5000    74.3570   122.3190   117.1950    95.1570    24.7840     2.2440   -28.0460 
  175.6250    68.2860   133.8730   127.4960   119.6020    24.8190     2.2360   -28.0290 
  175.7500    62.4740   144.3390   136.8680   142.7250    24.8470     2.2340   -27.9390 
  175.8750    60.5470   153.1170   144.5410   148.2860    24.8890     2.2360   -27.8990 
  176.0000    63.6630   161.2810   151.2830   134.4280    24.9320     2.2380   -27.7770 
  176.1250    68.5760   171.8720   159.5960   126.9070    24.9790     2.2370   -27.7570 
  176.2500    70.4530   186.8740   171.3170   127.5970    24.9990     2.2320   -27.6030 
  176.3750    69.3930   206.3900   186.6150   138.1100    25.0090     2.2240   -27.4540 
  176.5000    66.0560   228.1490   203.6470   157.6370    25.0100     2.2170   -27.2280 
  176.6250    63.0730   246.7740   218.0200   178.4780    24.9750     2.2140   -27.0340 
  176.7500    63.1070   257.5810   226.0310   198.1880    24.9240     2.2150   -26.8710 
  176.8750    66.9890   258.3560   225.9590   202.4440    24.8830     2.2190   -26.7390 
  177.0000    71.8250   250.1690   218.6070   199.5620    24.8310     2.2220   -26.6170 
  177.1250    73.5610   236.3650   206.4780   183.5450    24.8020     2.2240   -26.4970 
  177.2500    74.1250   222.0910   193.7450   169.5770    24.7740     2.2250   -26.4460 
  177.3750    74.5920   209.7210   182.4690   158.3440    24.7520     2.2260   -26.4790 
  177.5000    74.7160   200.2940   173.6430   152.1050    24.7120     2.2280   -26.6050 
  177.6250    74.4170   194.7500   168.1100   144.4760    24.6400     2.2290   -26.7470 
  177.7500    73.1310   192.8610   165.6150   137.8080    24.6270     2.2300   -26.9710 
  177.8750    70.3700   194.8850   166.3090   136.3060    24.7160     2.2310   -27.1410 
  178.0000    67.6030   200.6120   170.0090   140.3960    24.8020     2.2310   -27.3930 
  178.1250    66.3540   209.0150   175.9400   143.9710    24.8360     2.2320   -27.5220 
  178.2500    65.3170   217.2360   181.8290   150.8910    24.8510     2.2330   -27.7010 
  178.3750    62.5000   223.0140   185.8710   161.2430    24.8820     2.2350   -27.7790 
  178.5000    61.0410   224.9440   186.9320   169.1160    24.9050     2.2400   -27.8200 
  178.6250    63.5310   222.2230   184.3590   185.5950    24.9100     2.2490   -27.8550 
  178.7500    66.5200   216.0530   179.1410   166.8790    24.8790     2.2610   -27.7500 
  178.8750    67.8730   206.6810   171.6020   134.9150    24.7900     2.2730   -27.6310 
  179.0000    67.4740   194.2450   161.9750   116.9490    24.6450     2.2790   -27.4050 
  179.1250    66.7190   179.2360   150.7370   130.4260    24.5380     2.2780   -27.2490 
  179.2500    65.6980   163.7830   139.4410   145.6720    24.4770     2.2710   -26.9770 
  179.3750    65.4180   149.5130   129.3090   142.0550    24.5130     2.2640   -26.7380 
  179.5000    66.6620   137.1670   120.9010   121.8360    24.6370     2.2600   -26.4830 
  179.6250    67.8920   126.0870   113.6130   112.1630    24.7210     2.2600   -26.1720 
