~V
VERS. 2.00: Ver 2.00
~W
STRT.M 64.0000:
STOP.M 268.0000:
STEP.M 0.1250:
NULL. -999.2500:
UWI. DF3002:
~C
DEPT.M :
GR.API :
RML.OHMM :
RI. :
RXO.OHMM :
DEN.GM/CC :
SP.MV :
~A
# ...
  231.3750    72.3240   111.0600    99.7100   100.4080     2.2530   -31.7460 
  231.5000    68.1930   103.3540    93.6880    93.8570     2.2540   -31.7990 
  231.6250    64.5140    95.5880    87.2280    89.5630     2.2540   -31.9060 
  231.7500    63.2230    88.7290    81.2660    86.4410     2.2510   -32.0130 
  231.8750    64.5830    83.5830    76.5830    79.4200     2.2470   -32.1240 
  232.0000    67.7560    80.8830    73.9260    70.2970     2.2450   -32.2690 
  232.1250    71.8130    81.8330    74.4830    67.7720     2.2450   -32.4840 
  232.2500    73.9190    86.2650    78.2390    70.1570     2.2470   -32.6110 
  232.3750    73.2810    93.9980    85.1310    77.5010     2.2470   -32.7470 
  232.5000    72.3550   104.2370    94.5100    89.1920     2.2430   -32.9220 
  232.6250    72.1990   115.3480   104.9910   107.7110     2.2390   -32.9990 
  232.7500    71.6130   124.9490   114.3700   121.0530     2.2370   -33.0690 
  232.8750    68.6500   131.1950   120.9520   126.2290     2.2390   -33.1210 
  233.0000    64.1310   132.6790   123.6100   127.1100     2.2450   -33.1180 
  233.1250    62.7290   128.6610   121.3410   122.6070     2.2500   -32.9910 
  233.2500    65.4510   120.8890   115.4260   115.1260     2.2540   -32.9280 
  233.3750    69.0710   111.3660   106.8940   107.8350     2.2560   -32.7970 
  233.5000    69.6950   101.2090    97.0040   103.3680     2.2580   -32.5990 
  233.6250    68.4080    93.4300    87.2380    95.3110     2.2620   -32.4770 
  233.7500    68.6220    87.5510    78.7900    80.7610     2.2690   -32.2750 
  233.8750    70.3940    81.8380    72.2880    68.3290     2.2800   -32.1650 
  234.0000    73.1760    76.9030    67.9130    61.4700     2.2910   -32.0560 
  234.1250    74.3300    74.5490    65.7770    59.2330     2.2970   -32.0040 
  234.2500    73.7990    73.8120    65.1270    58.6100     2.2910   -32.0130 
  234.3750    72.5970    74.1200    65.4930    58.9890     2.2740   -31.9950 
  234.5000    72.0660    74.9660    66.4150    60.3520     2.2560   -32.1290 
  234.6250    72.1810    76.1160    67.6220    62.1280     2.2440   -32.2100 
  234.7500    71.8310    77.6600    69.1070    64.5690     2.2430   -32.3330 
  234.8750    71.1570    79.9730    71.1460    68.4230     2.2470   -32.4890 
  235.0000    69.3760    83.4500    74.0700    68.4650     2.2460   -32.5440 
  235.1250    69.8050    88.5090    78.2730    63.5450     2.2380   -32.6580 
  235.2500    73.6690    94.5950    83.3790    67.8820     2.2310   -32.7640 
  235.3750    77.3540   100.9190    88.7880    82.3550     2.2440   -32.8140 
  235.5000    77.9610   106.4690    93.6740    90.0370     2.2810   -32.7820 
  235.6250    77.5080   109.9970    96.9740    85.5710     2.3340   -32.7560 
  235.7500    78.5010   111.4310    98.5340    79.8510     2.3870   -32.6510 
  235.8750    79.2060   111.1030    98.5620    75.6130     2.4180   -32.5270 
  236.0000    78.9380   109.7390    97.6360    77.9630     2.4210   -32.4280 
  236.1250    80.5750   108.0820    96.4100    81.7470     2.4000   -32.2630 
  236.2500    83.2010   106.5400    95.3050    84.0640     2.3660   -32.0680 
  236.3750    84.9290   105.0790    94.3270    80.7900     2.3290   -31.9270 
  236.5000    84.2270   103.5060    93.3130    81.0930     2.2960   -31.8720 
  236.6250    78.5480   101.5490    91.9940    83.6360     2.2740   -31.7500 
  236.7500    70.3240    99.2380    90.3330    87.5450     2.2620   -31.7230 
  236.8750    63.7500    96.7940    88.4710    88.6170     2.2610   -31.6130 
  237.0000    61.4870    94.5720    86.6900    86.2170     2.2630   -31.5610 
  237.1250    64.2750    93.0350    85.3770    80.8290     2.2650   -31.5400 
  237.2500    69.5910    92.2260    84.6280    78.0390     2.2640   -31.4060 
  237.3750    73.9350    92.0100    84.3770    77.6150     2.2580   -31.3350 
  237.5000    74.2700    92.0910    84.4060    78.8670     2.2490   -31.1340 
  237.6250    71.7670    92.1640    84.4620    81.4450     2.2380   -30.9680 
  237.7500    69.1390    92.3120    84.5670    82.5860     2.2300   -30.7980 
  237.8750    66.4300    93.1210    85.1880    83.1510     2.2270   -30.5830 
  238.0000    64.8950    95.4850    87.1080    83.2080     2.2270   -30.4080 
  238.1250    64.2120   100.6780    91.5360    84.9170     2.2270   -30.2320 
  238.2500    62.8470   108.4890    98.4280    89.3840     2.2260   -30.0410 
  238.3750    63.4130   118.2200   107.2770   100.7020     2.2240   -29.8320 
  238.5000    68.1560   128.3710   116.7850   130.4220     2.2220   -29.6630 
  238.6250    70.5780   136.2410   124.4940   148.8300     2.2210   -29.4570 
  238.7500    66.7160   139.8080   128.4260   144.3680     2.2190   -29.2690 
  238.8750    62.3020   137.6760   127.2450   134.4400     2.2180   -29.0820 
  239.0000    61.6220   129.4370   120.5380   128.8590     2.2220   -28.8570 
  239.1250    63.8690   115.3750   108.4480   122.8280     2.2350   -28.6270 
  239.2500    66.6850    98.8870    93.8660   112.7770     2.2550   -28.4120 
  239.3750    70.0570    82.6990    79.1130   102.3140     2.2770   -28.2200 
  239.5000    72.7900    69.0270    66.2130    85.2990     2.2900   -27.9850 
  239.6250    74.1400    59.7300    57.0430    61.0130     2.2910   -27.8200 
  239.7500    74.2270    54.2680    51.3850    47.1440     2.2850   -27.6180 
  239.8750    74.0500    52.2000    48.9300    45.5380     2.2780   -27.4720 
  240.0000    74.6430    52.9860    49.2000    47.4340     2.2760   -27.3860 
  240.1250    75.7020    56.3260    51.9390    50.0850     2.2760   -27.2110 
  240.2500    76.4800    61.0700    56.0720    53.3500     2.2750   -27.0870 
  240.3750    76.9510    66.4320    60.8610    58.3970     2.2720   -26.8450 
  240.5000    76.6170    71.6610    65.5760    67.7510     2.2650   -26.5620 
  240.6250    74.4020    76.0170    69.4650    76.0210     2.2590   -26.2500 
  240.7500    71.6980    79.3620    72.3330    78.4620     2.2540   -25.8420 
  240.8750    71.3800    81.7190    74.1510    76.9180     2.2520   -25.4760 
  241.0000    71.3820    83.1710    74.9800    75.5490     2.2540   -24.9760 
  241.1250    68.9280    83.5370    74.6980    78.1590     2.2630   -24.5510 
  241.2500    68.7630    82.8570    73.4680    80.1010     2.2850   -24.2190 
  241.3750    73.8400    81.1120    71.3790    81.9140     2.3270   -23.8860 
  241.5000    79.9730    78.4960    68.6650    77.5890     2.3860   -23.6330 
  241.6250    79.3860    75.4030    65.7030    67.3780     2.4520   -23.4650 
  241.7500    75.4190    72.4050    62.9340    60.5730     2.5100   -23.2910 
  241.8750    73.9710    69.7890    60.5730    59.3340     2.5380   -23.0620 
  242.0000    74.8540    67.6490    58.6750    60.7290     2.5400   -22.9130 
  242.1250    74.9390    65.9810    57.2150    61.2410     2.5270   -22.6820 
  242.2500    75.5470    64.5560    55.9570    61.7750     2.5140   -22.3880 
  242.3750    76.9550    63.1940    54.7290    58.3280     2.5160   -22.1020 
  242.5000    78.2130    61.7030    53.3720    54.9570     2.5270   -21.8440 
  242.6250    77.7850    59.8050    51.6770    52.3650     2.5350   -21.5560 
  242.7500    77.4630    57.3900    49.5800    49.6450     2.5270   -21.3290 
  242.8750    79.9950    54.4510    47.0770    50.1340     2.4950   -21.1290 
  243.0000    83.8490    51.2220    44.3370    55.4560     2.4450   -20.8190 
  243.1250    84.9570    48.5000    41.9430    56.6140     2.3870   -20.6510 
  243.2500    83.1700    47.3150    40.6860    48.5460     2.3340   -20.4130 
  243.3750    81.0750    48.5270    41.2490    38.2780     2.3100   -20.1890 
  243.5000    81.3410    52.2710    43.7940    32.7980     2.3270   -19.9460 
  243.6250    81.5250    57.3520    47.4850    34.3680     2.3810   -19.5620 
  243.7500    79.6770    60.7520    49.9750    41.1340     2.4540   -19.2290 
  243.8750    76.0950    59.6720    49.0780    47.4150     2.5100   -18.8190 
  244.0000    72.7220    52.7710    43.6100    53.7140     2.5260   -18.4880 
  244.1250    72.5550    40.8800    34.2770    48.7650     2.5070   -18.1030 
