~V
VERS. 2.00: Ver 2.00
~W
STRT.M 110.0000:
STOP.M 242.0000:
STEP.M 0.1250:
NULL. -999.2500:
UWI. DF306:
~C
DEPT.M :
DEN.GM/CC :
AC.US/MT :
GR.API :
CALI.CM :
RXO.OHMM :
RI. :
RML.OHMM :
SP.MV :
~A
# ...
  160.0000     2.2570   387.5020    69.2740    25.2370    73.7020    88.2120    94.9730   -26.1140 
  160.1250     2.2560   385.9930    66.4780    25.2870    83.8650    93.3190   101.4500   -26.3620 
  160.2500     2.2500   383.6260    63.6500    25.3220   111.3110   104.6930   114.3830   -26.6690 
  160.3750     2.2500   380.7870    61.6080    25.3390   147.0550   121.4720   132.7980   -27.0220 
  160.5000     2.2610   377.7220    60.8280    25.3320   173.8500   141.2230   154.0730   -27.3730 
  160.6250     2.2700   374.9230    60.2810    25.2740   183.4410   158.3460   171.8260   -27.7140 
  160.7500     2.2700   372.9980    58.7110    25.1940   187.7250   167.1280   179.6420   -27.9920 
  160.8750     2.2630   372.0240    57.2820    25.1240   190.6420   165.1640   175.3260   -28.1680 
  161.0000     2.2520   371.2030    56.5510    25.0650   189.9950   154.8000   162.4930   -28.2480 
  161.1250     2.2470   369.3670    56.7780    25.0140   175.5570   141.5860   148.0370   -28.2430 
  161.2500     2.2510   366.9660    57.5230    25.0120   149.0910   131.1930   137.5870   -28.2150 
  161.3750     2.2610   365.2880    59.2410    25.0490   127.0110   126.4300   133.5540   -28.1870 
  161.5000     2.2700   365.1810    60.8110    25.0580   127.5630   128.6730   136.8710   -28.2110 
  161.6250     2.2700   366.1710    60.7650    25.0070   154.0540   138.9840   148.3800   -28.2950 
  161.7500     2.2610   366.7750    59.8610    24.9620   181.0290   154.4750   165.0780   -28.4640 
  161.8750     2.2450   366.6770    58.3960    24.9400   192.7280   171.7770   183.2030   -28.7560 
  162.0000     2.2330   366.6900    57.2280    24.8940   190.8730   185.3060   196.1710   -29.1410 
  162.1250     2.2380   368.1210    57.4180    24.7920   183.9120   186.2100   193.8230   -29.6300 
  162.2500     2.2550   370.7290    58.9340    24.7080   178.2770   174.2260   177.7270   -30.1640 
  162.3750     2.2710   373.6030    60.4060    24.7430   174.4670   154.1530   155.1370   -30.7030 
  162.5000     2.2760   376.0710    61.0740    24.9180   159.1770   133.3000   134.2380   -31.2010 
  162.6250     2.2660   378.2680    62.3580    25.1120   124.5200   119.1610   121.7110   -31.6340 
  162.7500     2.2490   380.5150    63.8350    25.1630    96.5710   114.5800   118.6520   -31.9540 
  162.8750     2.2330   381.9650    64.7450    25.0630    97.4660   121.4030   126.0970   -32.1000 
  163.0000     2.2240   380.4610    63.9800    24.9370   136.6680   141.0250   145.4690   -32.0620 
  163.1250     2.2280   372.2580    60.0660    24.9160   210.0150   176.5670   181.5270   -31.7610 
  163.2500     2.2400   357.6190    55.1390    24.9620   275.2050   223.3370   232.2320   -31.2670 
  163.3750     2.2590   339.5230    51.5410    25.0200   298.2890   271.9440   288.4790   -30.6280 
  163.5000     2.2860   323.9170    49.7580    25.0620   284.8430   304.3880   325.5280   -29.8910 
  163.6250     2.3130   319.4320    47.9670    25.0640   276.4800   296.0250   308.8260   -29.1360 
  163.7500     2.3230   327.2110    48.8960    25.0050   291.1220   255.4170   256.6000   -28.4600 
  163.8750     2.3130   343.9710    55.9760    24.8920   283.1020   201.7210   197.6220   -27.9320 
  164.0000     2.2910   362.9500    64.9950    24.7660   220.2200   152.7360   149.9750   -27.5780 
  164.1250     2.2750   375.9990    70.2770    24.6420   140.5350   119.3680   120.4390   -27.4700 
  164.2500     2.2720   381.1370    71.8430    24.5160    98.7600    99.5340   103.8690   -27.5200 
  164.3750     2.2760   380.4970    70.8440    24.4040    85.5320    90.7250    97.4370   -27.6680 
  164.5000     2.2820   378.2460    68.6000    24.3370    86.9630    90.5820    99.1700   -27.8710 
  164.6250     2.2840   377.9760    66.2070    24.2960   102.1920    98.2320   108.6080   -28.0240 
  164.7500     2.2800   378.5340    65.1630    24.2060   125.3650   110.2930   122.4500   -28.0590 
  164.8750     2.2770   375.6690    63.3170    24.0710   143.2730   123.9050   137.2280   -27.9300 
  165.0000     2.2860   364.7250    59.6640    24.0160   147.3500   136.0570   148.9930   -27.6440 
  165.1250     2.3240   343.1380    57.6710    24.1760   144.6300   144.5480   155.4150   -27.1510 
  165.2500     2.3960   317.7380    57.2640    24.4350   147.4050   151.2430   159.9430   -26.5370 
  165.3750     2.4900   296.5610    58.1030    24.6460   157.7990   159.0970   166.3410   -25.8350 
  165.5000     2.5860   285.5890    59.1370    24.7530   174.8530   169.7940   176.0410   -25.0750 
  165.6250     2.6610   286.4530    58.1990    24.7880   198.1300   177.6250   180.1480   -24.2880 
  165.7500     2.7050   295.8870    55.8060    24.8110   227.4230   169.2340   161.5210   -23.5160 
  165.8750     2.7090   313.7200    55.3220    24.8220   243.6310   137.1500   118.8810   -22.7930 
  166.0000     2.6710   337.6180    59.0100    24.8240   202.8810    91.9100    73.6050   -22.1100 
  166.1250     2.6050   360.9190    65.3680    24.8040   113.2410    54.6710    43.8630   -21.5470 
  166.2500     2.5410   379.3240    72.0460    24.7740    45.9020    31.4310    26.3530   -21.0910 
  166.3750     2.4850   393.9670    81.0430    24.7590    19.2920    19.0570    16.6610   -20.7380 
  166.5000     2.4320   405.5540    91.7280    24.7680    11.2180    13.1420    11.6650   -20.4960 
  166.6250     2.3780   410.4940    98.9510    24.7820     9.3540    10.9950    10.0100   -20.3740 
  166.7500     2.3390   405.2270    98.9930    24.7710     9.4430    10.9080    10.6110   -20.3330 
  166.8750     2.3410   386.5700    90.9840    24.6890    13.1070    13.1680    13.7000   -20.3280 
  167.0000     2.4000   354.1800    78.1440    24.5350    26.1410    18.8400    20.1050   -20.3280 
  167.1250     2.4940   311.3280    66.8880    24.3990    57.5760    30.2170    32.1640   -20.2650 
  167.2500     2.5740   268.5170    60.5270    24.3800    92.0490    46.0180    49.3680   -20.1350 
  167.3750     2.6220   234.2240    59.8510    24.4720   114.1170    60.9340    66.2640   -19.9480 
  167.5000     2.6470   213.9440    62.1690    24.6140   114.1060    66.6590    71.9810   -19.6870 
  167.6250     2.6570   210.2520    64.6130    24.7460    90.1670    59.2110    62.2130   -19.3540 
  167.7500     2.6540   214.4770    65.4450    24.8300    60.5580    46.8280    48.4190   -18.9810 
  167.8750     2.6370   219.3280    63.7940    24.8600    41.5090    34.5100    35.6660   -18.6020 
  168.0000     2.6100   230.8350    60.8380    24.8650    32.7790    24.3030    25.1880   -18.2340 
  168.1250     2.5770   247.5840    59.6700    24.8700    25.1640    17.0180    17.4790   -17.9160 
  168.2500     2.5440   268.9340    60.9960    24.8630    15.9090    11.9600    11.9710   -17.6320 
  168.3750     2.5180   295.2660    61.6270    24.8460     8.5350     8.6680     8.3410   -17.3700 
  168.5000     2.5010   324.9020    59.8620    24.8400     5.1760     6.6510     6.1650   -17.1320 
  168.6250     2.4870   353.8720    58.4510    24.8240     4.6490     5.5850     5.1370   -16.9080 
  168.7500     2.4580   378.5290    58.2360    24.7460     4.5160     5.0130     4.7040   -16.6840 
  168.8750     2.4110   397.0900    56.9880    24.6380     4.2440     4.7440     4.5970   -16.4630 
  169.0000     2.3600   409.1940    54.7060    24.6050     4.0300     4.6290     4.6000   -16.2580 
  169.1250     2.3400   414.2340    54.4330    24.7300     4.0960     4.5470     4.5410   -16.0750 
  169.2500     2.3540   413.7610    55.8250    24.9500     4.4090     4.4250     4.3740   -15.9260 
  169.3750     2.3780   408.7180    56.9930    25.1720     4.8400     4.2590     4.1200   -15.8330 
  169.5000     2.3850   401.1910    57.5210    25.3240     5.1730     4.0750     3.8390   -15.8000 
  169.6250     2.3830   395.0440    58.5440    25.3960     5.1580     3.9290     3.6310   -15.8720 
  169.7500     2.3620   393.3290    59.9160    25.4550     4.8590     3.8610     3.5710   -16.0380 
  169.8750     2.3330   396.7840    61.1760    25.5210     4.4710     3.9030     3.7050   -16.2920 
