~V
VERS. 2.00: Ver 2.00
~W
STRT.M 60.0000:
STOP.M 275.0000:
STEP.M 0.1250:
NULL. -999.2500:
UWI. DF3003:
~C
DEPT.M :
DEN.GM/CC :
SP.MV :
AC.US/MT :
GR.API :
RML.OHMM :
RI. :
RXO.OHMM :
CALI.CM :
~A
# ...
  160.0000     2.2240   -20.0280   394.1050    64.2010    80.4230    76.0580    69.3130    24.3690 
  160.1250     2.2340   -20.3990   392.0170    69.3820    80.4500    76.5160    72.3400    24.4170 
  160.2500     2.2440   -20.8000   389.7800    75.2950    81.1030    77.2880    70.1070    24.4070 
  160.3750     2.2510   -21.1740   388.9190    78.1390    83.3400    79.1670    64.2240    24.3740 
  160.5000     2.2530   -21.5850   389.8520    77.9470    88.3930    83.0760    61.1370    24.3500 
  160.6250     2.2500   -22.1050   390.6160    77.4730    97.1990    90.2000    68.1750    24.3440 
  160.7500     2.2440   -22.7270   390.0300    78.4370   108.6670   100.0250    82.1810    24.3490 
  160.8750     2.2360   -23.4620   389.3970    78.2590   121.1850   111.6370    99.2970    24.3620 
  161.0000     2.2260   -24.1240   389.5470    74.5240   133.9200   123.5320   114.9970    24.3870 
  161.1250     2.2170   -24.7530   388.7740    69.5460   144.4570   133.6870   127.3450    24.4220 
  161.2500     2.2100   -25.3730   386.5930    66.4740   151.9430   141.3350   134.1890    24.4400 
  161.3750     2.2070   -25.9380   383.3460    65.2630   156.5540   146.5280   137.1590    24.4390 
  161.5000     2.2060   -26.4810   380.9350    64.2200   158.8450   149.7790   136.4320    24.4190 
  161.6250     2.2060   -26.8010   384.1200    63.4340   158.9420   151.1820   139.1450    24.3650 
  161.7500     2.2040   -26.9630   391.1890    61.7740   156.7730   150.7100   147.1570    24.2630 
  161.8750     2.2000   -26.9560   395.8090    59.6510   152.1530   147.7880   151.8140    24.1240 
  162.0000     2.1970   -26.9090   393.6310    59.8620   144.9210   142.1540   145.3540    23.9630 
  162.1250     2.1980   -26.8490   385.6410    63.1260   136.6970   134.1480   130.0930    23.8350 
  162.2500     2.2030   -26.7440   378.6450    67.0580   128.8250   125.6570   115.8560    23.7640 
  162.3750     2.2080   -26.6940   377.3570    69.8470   121.5060   118.1530   102.5560    23.8450 
  162.5000     2.2130   -26.6040   381.8990    70.2630   115.5360   112.5200    93.6550    24.0590 
  162.6250     2.2160   -26.5950   385.8840    66.8610   111.5760   108.8840    93.9650    24.2150 
  162.7500     2.2200   -26.6740   385.1120    62.8950   108.1100   105.9070    99.9230    24.3150 
  162.8750     2.2270   -26.8770   381.5620    62.3910   104.2000   102.5610   107.2990    24.3920 
  163.0000     2.2360   -27.2150   378.1420    62.4670    99.5900    98.3700   111.7720    24.4520 
  163.1250     2.2410   -27.5110   374.8620    60.6120    95.1160    93.8830   105.0210    24.4830 
  163.2500     2.2390   -27.7980   372.7740    60.9120    92.3920    90.7720    86.5890    24.4760 
  163.3750     2.2270   -27.9840   373.4320    64.6510    93.1870    90.9630    68.6690    24.4390 
  163.5000     2.2100   -28.1310   378.0480    69.3010    99.2690    96.3170    65.4540    24.3760 
  163.6250     2.1950   -28.2500   385.2460    69.4330   112.9740   109.0650    80.9680    24.2650 
  163.7500     2.1870   -28.3230   391.1770    66.8330   132.4820   127.3370   108.5190    24.0650 
  163.8750     2.1860   -28.3460   394.5650    63.5390   154.5150   148.0590   143.3720    23.7450 
  164.0000     2.1900   -28.1610   396.3730    60.2280   173.5930   166.3430   177.4300    23.4210 
  164.1250     2.1980   -27.9940   397.3680    59.3000   181.4790   175.0500   197.9930    23.1970 
  164.2500     2.2070   -27.8230   397.4240    60.9830   176.9910   172.7890   196.5480    23.0220 
  164.3750     2.2160   -27.7070   396.6810    64.9410   163.4700   161.5690   170.1180    22.9070 
  164.5000     2.2250   -27.6670   395.5110    68.9920   147.2680   146.3010   136.1450    22.8650 
  164.6250     2.2300   -27.5530   394.6110    69.1420   134.6630   132.8840   113.8390    22.8630 
  164.7500     2.2290   -27.3660   394.6840    67.4190   127.5990   124.3710   105.3900    22.8630 
  164.8750     2.2220   -27.0730   395.8890    65.7290   126.1680   121.4980   105.5980    22.8650 
  165.0000     2.2130   -26.8320   397.7230    66.0690   129.3260   123.5870   112.2700    22.8770 
  165.1250     2.2050   -26.5370   399.1220    68.4020   135.0720   128.9760   123.5680    22.9300 
  165.2500     2.2030   -26.2520   399.0230    68.8460   139.8590   134.1790   132.7730    23.0570 
  165.3750     2.2070   -25.9530   396.9490    66.0740   141.0350   136.5490   136.2050    23.3170 
  165.5000     2.2140   -25.6360   392.9880    62.3860   137.1830   134.3980   134.0740    23.7730 
  165.6250     2.2220   -25.3480   387.6530    63.9610   128.4850   127.2110   123.5340    24.3090 
  165.7500     2.2280   -25.1170   382.7270    70.1160   118.3900   117.8410   103.9200    24.6960 
  165.8750     2.2290   -24.9330   379.6950    76.7220   109.3990   108.7060    84.5130    24.8130 
  166.0000     2.2200   -24.6900   379.3320    80.0400   103.0170   101.6030    72.8850    25.0260 
  166.1250     2.2020   -24.5440   381.8320    78.6570   100.0710    97.7300    68.2910    25.0930 
  166.2500     2.1840   -24.3730   385.4120    76.2610    99.5420    96.3420    67.8420    25.1580 
  166.3750     2.1730   -24.1790   388.1070    74.9420   100.7140    96.7920    69.0830    25.1720 
  166.5000     2.1760   -23.9950   388.5490    76.2740   102.9570    98.4440    72.5520    25.1830 
  166.6250     2.1930   -23.9630   386.8890    81.0250   105.9120   100.9110    77.8140    25.2130 
  166.7500     2.2130   -23.8090   385.0760    85.9410   109.2030   103.7700    81.7910    25.2750 
  166.8750     2.2280   -23.7010   384.0990    88.6880   112.5440   106.7530    85.8110    25.3350 
  167.0000     2.2300   -23.6660   384.2760    88.2670   115.4630   109.4370    92.2850    25.4030 
  167.1250     2.2200   -23.7500   385.3080    85.6470   117.0880   111.0310    98.0730    25.3920 
  167.2500     2.2050   -23.7670   386.1210    81.9740   117.1290   111.1970   100.9180    25.3460 
  167.3750     2.1940   -23.8250   386.5750    79.2140   115.6650   109.9180    98.6850    25.2990 
  167.5000     2.1880   -23.9410   387.2660    77.9880   113.2630   107.6150    93.0190    25.2690 
  167.6250     2.1900   -24.0230   388.7260    76.0130   110.8170   105.0320    86.7580    25.2120 
  167.7500     2.1960   -24.1850   390.1870    73.7420   108.9470   102.8430    82.3500    25.0940 
  167.8750     2.2030   -24.3470   390.2150    73.1680   107.6250   101.1400    81.6860    24.8940 
  168.0000     2.2090   -24.5150   387.2180    74.7750   106.3790    99.5840    84.0480    24.7370 
  168.1250     2.2170   -24.6130   380.8020    76.4070   104.4760    97.5490    87.1420    24.6460 
  168.2500     2.2290   -24.6710   374.2440    76.1280   101.8230    94.8750    88.2140    24.6190 
  168.3750     2.2440   -24.7660   370.3730    74.6140    98.9620    91.9710    85.5710    24.5860 
  168.5000     2.2600   -24.8270   370.0690    72.0210    97.0550    89.8460    79.0220    24.5250 
  168.6250     2.2710   -24.8270   372.4490    69.2070    98.4120    90.5980    72.8690    24.3870 
  168.7500     2.2720   -24.7540   375.6770    66.8150   104.5280    95.6100    71.8150    24.2550 
  168.8750     2.2610   -24.6620   379.1080    64.2930   116.5960   105.9520    77.9440    24.1600 
  169.0000     2.2420   -24.6200   382.6270    61.4370   134.4430   121.5040    92.9700    24.1600 
  169.1250     2.2200   -24.5850   386.2940    60.9820   155.4640   140.1070   118.3430    24.2300 
  169.2500     2.2020   -24.6260   389.4520    60.9960   172.8300   156.1900   146.8170    24.3610 
  169.3750     2.1920   -24.6210   391.1040    58.5180   180.1320   164.3320   167.4640    24.4780 
  169.5000     2.1920   -24.5350   390.9310    53.8120   172.7800   160.6600   174.0230    24.5260 
  169.6250     2.2010   -24.5380   390.7310    52.4020   151.5300   144.1050   152.6970    24.5300 
  169.7500     2.2170   -24.4430   392.7830    55.0890   126.6940   122.8120   121.9170    24.5440 
  169.8750     2.2330   -24.2250   397.0110    59.1660   106.3450   103.7850    88.6620    24.5680 
