~V
VERS. 2.00: Ver 2.00
~W
STRT.M 63.0000:
STOP.M 272.0000:
STEP.M 0.1250:
NULL. -999.2500:
UWI. DF3013:
~C
DEPT.M :
DEN.GM/CC :
SP.MV :
AC.US/MT :
GR.API :
CALI.CM :
RXO.OHMM :
RI. :
RML.OHMM :
~A
# ...
  213.0000     2.2380   -17.5250   417.3400    72.2900    24.9350    54.7250    58.2940    60.0190 
  213.1250     2.2300   -17.6160   416.6180    67.6460    24.9820    51.1960    57.8750    59.9290 
  213.2500     2.2270   -17.7000   415.8580    62.8810    24.9950    47.9140    58.0660    60.5230 
  213.3750     2.2290   -17.7890   411.7160    63.1880    24.9960    49.4280    59.2760    62.2400 
  213.5000     2.2350   -17.8840   398.9780    66.2100    24.9930    55.5060    61.7880    65.3430 
  213.6250     2.2440   -17.9840   380.3530    66.9600    24.9440    61.5950    65.7990    69.9320 
  213.7500     2.2520   -18.0780   370.2100    66.0750    24.8580    65.4450    70.5960    75.1510 
  213.8750     2.2520   -18.1630   375.5310    65.3910    24.7790    67.1160    75.3310    80.0230 
  214.0000     2.2360   -18.2400   388.6750    65.0560    24.7220    69.7190    79.0410    83.5110 
  214.1250     2.2080   -18.3010   402.6610    63.2800    24.6480    70.6270    80.7150    84.5860 
  214.2500     2.1890   -18.3370   416.0020    62.5850    24.5560    67.0330    80.5700    83.6730 
  214.3750     2.1970   -18.3400   416.7300    63.7120    24.4960    62.8630    78.9930    81.3230 
  214.5000     2.2360   -18.3180   399.1830    63.8890    24.4780    60.5050    76.5660    78.2320 
  214.6250     2.2830   -18.3140   376.9620    61.2730    24.4630    67.2510    73.9350    75.0830 
  214.7500     2.3070   -18.3600   373.1720    58.8550    24.4620    83.8560    71.5470    72.2360 
  214.8750     2.3010   -18.4640   393.1090    59.7130    24.4760    84.4250    69.3690    69.5800 
  215.0000     2.2800   -18.5940   422.7160    63.7040    24.4590    64.7390    67.0620    66.7280 
  215.1250     2.2580   -18.7040   436.8300    67.9650    24.3790    58.7590    64.0620    63.1550 
  215.2500     2.2430   -18.7940   426.8260    71.6660    24.2920    54.2720    60.3070    58.9480 
  215.3750     2.2370   -18.8910   409.3420    74.0640    24.2040    47.7770    56.0820    54.5350 
  215.5000     2.2410   -19.0200   403.3030    74.7110    24.0840    39.8580    51.9300    50.5330 
  215.6250     2.2550   -19.1910   407.5220    74.3960    23.9740    35.6330    48.6350    47.7500 
  215.7500     2.2700   -19.3760   410.9500    71.7190    23.9890    36.1070    46.6310    46.4890 
  215.8750     2.2780   -19.5490   412.7910    67.6510    24.1330    37.3560    46.3710    47.1110 
  216.0000     2.2730   -19.6870   413.7010    66.0730    24.3090    38.1600    48.3100    49.9860 
  216.1250     2.2550   -19.7780   413.6790    68.0720    24.4140    41.2930    53.2580    55.8700 
  216.2500     2.2370   -19.8380   413.0060    69.3820    24.4560    46.8030    60.7560    64.3490 
  216.3750     2.2300   -19.8760   411.7690    67.9910    24.4930    55.7750    70.0950    74.7790 
  216.5000     2.2380   -19.9060   409.1760    67.0450    24.5690    77.6800    79.6430    85.4280 
  216.6250     2.2560   -19.9250   404.9720    68.4430    24.6730    99.5200    86.2180    92.4960 
  216.7500     2.2700   -19.9100   401.6320    68.9410    24.7550   102.8200    88.2130    94.0650 
  216.8750     2.2740   -19.8400   402.9260    68.4220    24.8070    90.9240    85.9950    90.9830 
  217.0000     2.2690   -19.7070   410.2930    68.1170    24.8540    79.2430    81.5920    86.0810 
  217.1250     2.2570   -19.5230   419.0050    69.7600    24.9020    74.2440    77.6760    82.4590 
  217.2500     2.2430   -19.3260   423.3390    71.3230    24.9510    64.2860    75.6990    81.1410 
  217.3750     2.2320   -19.1410   421.7650    70.0770    24.9930    63.4650    75.3840    81.4070 
  217.5000     2.2300   -18.9870   413.5160    66.7230    25.0180    71.3400    75.1290    81.2580 
  217.6250     2.2430   -18.8700   398.7280    63.7490    25.0030    74.6990    72.6850    78.1410 
  217.7500     2.2560   -18.7810   386.1390    62.4690    24.9440    75.7010    68.0560    72.5900 
  217.8750     2.2580   -18.7120   384.5220    62.6620    24.8560    66.8300    62.5810    66.5810 
  218.0000     2.2500   -18.6610   394.2940    63.3560    24.7700    45.2480    58.1160    62.2550 
  218.1250     2.2500   -18.6330   405.2500    65.3660    24.7090    42.0510    56.7680    61.5650 
  218.2500     2.2590   -18.6150   409.6930    68.4230    24.6190    59.4420    58.6700    64.2410 
  218.3750     2.2670   -18.5980   409.1180    70.9690    24.4590    75.8690    63.3080    69.6600 
  218.5000     2.2600   -18.5690   407.4380    69.1720    24.2800    77.3280    69.4650    76.5790 
  218.6250     2.2410   -18.5120   405.6980    63.3780    24.2030    71.0840    75.1820    82.8740 
  218.7500     2.2260   -18.4340   403.4750    61.2980    24.2580    68.3470    78.8980    86.8760 
  218.8750     2.2270   -18.3400   401.4530    64.2370    24.3770    69.3200    80.3250    88.4200 
  219.0000     2.2400   -18.2350   400.4690    67.4920    24.4810    71.7470    80.2350    88.5370 
  219.1250     2.2480   -18.1200   400.9010    68.3690    24.5410    75.2270    79.5980    88.3010 
  219.2500     2.2470   -18.0040   398.3080    69.3010    24.5900    78.0270    78.8040    87.9120 
  219.3750     2.2480   -17.8930   386.5190    70.4590    24.6410    77.7150    77.7050    87.0770 
  219.5000     2.2670   -17.7910   365.3380    69.6950    24.6970    71.5700    76.2370    85.6500 
  219.6250     2.3060   -17.6950   345.5500    69.2690    24.7410    57.2500    74.6630    83.8440 
  219.7500     2.3480   -17.5980   334.8370    70.3190    24.7500    48.1180    73.6520    82.4740 
  219.8750     2.3760   -17.4980   330.7100    70.0490    24.7570    47.2820    74.0090    82.4900 
  220.0000     2.3790   -17.3990   330.2050    68.0240    24.8040    57.2140    76.5290    84.8510 
  220.1250     2.3600   -17.3090   332.8120    68.3740    24.8530    78.4850    82.4450    91.0520 
  220.2500     2.3460   -17.2350   332.0730    71.5170    24.8560    93.4270    91.9300   101.2760 
  220.3750     2.3530   -17.1770   321.5150    72.9870    24.8300   113.4710   104.7260   114.9910 
  220.5000     2.3900   -17.1250   301.2930    69.7450    24.7500   146.6330   117.0950   126.7000 
  220.6250     2.4590   -17.0580   271.5230    66.4240    24.4830   150.8710   115.9840   117.8740 
  220.7500     2.5300   -16.9680   239.9850    67.5550    24.1140   144.8170    94.9710    86.9150 
  220.8750     2.5580   -16.8640   228.2600    71.4510    23.9160   129.1260    62.9910    52.3920 
  221.0000     2.5060   -16.7730   259.8390    73.3320    24.0520    87.2790    35.2720    28.3180 
  221.1250     2.3920   -16.7330   332.7120    71.4160    24.4510    38.2950    19.5880    16.2340 
  221.2500     2.2950   -16.7480   395.4570    68.5130    24.8760    11.1970    11.5440    10.1030 
  221.3750     2.2540   -16.8060   418.7890    66.5420    25.1840     4.7870     7.8190     7.2770 
  221.5000     2.2660   -16.8990   408.2610    67.5390    25.2050     5.0460     6.2710     6.2780 
  221.6250     2.3180   -17.0490   392.8360    74.6950    24.8410     5.8420     6.0020     6.4170 
  221.7500     2.3810   -17.2810   390.9540    83.9100    24.3970     6.6270     6.3810     7.0310 
  221.8750     2.4320   -17.6160   397.4260    91.4890    24.1270     7.0860     7.1190     7.7660 
  222.0000     2.4530   -18.0550   403.9750    97.1080    24.0550     7.3080     7.9040     8.3340 
  222.1250     2.4480   -18.5670   406.2020   102.0420    24.0620     7.3770     8.4190     8.5330 
  222.2500     2.4340   -19.0820   405.7740   106.1340    24.0640     7.3620     8.6160     8.4780 
  222.3750     2.4190   -19.5500   404.2210   108.0530    24.0640     7.3600     8.5650     8.3050 
  222.5000     2.4060   -19.9470   403.2300   108.5550    24.0640     7.6730     8.3600     8.1140 
  222.6250     2.3920   -20.2760   404.5620   109.6910    24.0640     7.9060     8.0650     7.9570 
  222.7500     2.3810   -20.5710   407.0130   110.5940    24.0640     7.9500     7.7710     7.8880 
  222.8750     2.3760   -20.8380   408.8230   111.3540    24.0640     7.7710     7.5890     8.0060 
