~V
VERS. 2.00: Ver 2.00
~W
STRT.M 125.0000:
STOP.M 265.0000:
STEP.M 0.1250:
NULL. -999.2500:
UWI. DF3008:
~C
DEPT.M :
DEN.GM/CC :
GR.API :
CALI.CM :
RXO.OHMM :
RI. :
RML.OHMM :
SP.MV :
~A
# ...
  136.2500     2.3760    74.7510    24.6400     6.2160     5.7160     6.6490   -16.0530 
  136.3750     2.3440    69.7790    24.5660     6.8760     5.9940     7.1020   -16.7360 
  136.5000     2.3080    67.5100    24.4300     7.9550     6.6500     8.0690   -17.4440 
  136.6250     2.2840    65.9260    24.3680     9.0710     7.6120     9.4430   -18.1220 
  136.7500     2.2720    62.7420    24.3510    10.4180     8.5960    10.8280   -18.7490 
  136.8750     2.2600    59.4870    24.3510    11.9330     9.2960    11.7720   -19.2840 
  137.0000     2.2470    61.7630    24.3590    12.7890     9.4560    11.8890   -19.6460 
  137.1250     2.2430    67.7760    24.3850    11.8920     8.9570    11.0630   -19.7110 
  137.2500     2.2540    73.1460    24.4180    10.2470     8.1330     9.8690   -19.5360 
  137.3750     2.2780    75.7860    24.4320     8.7470     7.2500     8.7120   -19.1690 
  137.5000     2.3010    78.8140    24.4320     7.6950     6.4880     7.8230   -18.7190 
  137.6250     2.3180    82.6330    24.4340     7.1230     5.9620     7.3090   -18.3050 
  137.7500     2.3300    85.4180    24.4280     7.3740     5.6380     7.0710   -18.0320 
  137.8750     2.3300    86.2350    24.3910     8.1740     5.4930     7.0480   -17.9420 
  138.0000     2.3090    84.9590    24.2970     8.6370     5.5070     7.1950   -18.0900 
  138.1250     2.2690    83.8460    24.1640     8.4650     5.6920     7.5310   -18.5520 
  138.2500     2.2310    81.8460    24.0760     8.6190     6.0250     8.0460   -19.2590 
  138.3750     2.2100    77.0050    24.0170     9.4550     6.4930     8.7320   -20.1480 
  138.5000     2.2010    70.5250    23.9660    10.4500     7.0610     9.5310   -21.1220 
  138.6250     2.1930    66.9640    23.9440    10.9500     7.6510    10.3010   -22.0900 
  138.7500     2.1830    67.3290    23.9370    11.1480     8.1540    10.8880   -23.0040 
  138.8750     2.1710    67.3450    23.9360    11.2620     8.5030    11.2130   -23.8260 
  139.0000     2.1610    63.9420    23.9360    11.3990     8.6890    11.3030   -24.5080 
  139.1250     2.1540    60.7150    23.9360    11.6700     8.7350    11.2380   -24.9610 
  139.2500     2.1510    59.7740    23.9360    12.1240     8.7210    11.1260   -25.2030 
  139.3750     2.1510    60.2720    23.9360    12.6910     8.6940    11.0160   -25.2350 
  139.5000     2.1510    58.5750    23.9360    13.2660     8.6880    10.9620   -25.0750 
  139.6250     2.1540    56.3150    23.9360    13.5370     8.7260    11.0100   -24.6810 
  139.7500     2.1590    57.7290    23.9360    13.3590     8.7600    11.0810   -24.0750 
  139.8750     2.1680    64.1980    23.9360    13.0760     8.6950    11.0150   -23.2390 
  140.0000     2.1840    71.5810    23.9450    13.2280     8.4250    10.6210   -22.2080 
  140.1250     2.2140    74.2860    23.9710    13.1480     7.8670     9.7610   -21.0080 
  140.2500     2.2560    79.4740    24.0120    11.8620     7.1670     8.6960   -19.7220 
  140.3750     2.2960    90.6090    24.0460     9.5250     6.4880     7.7050   -18.4270 
  140.5000     2.3230    96.9340    24.0850     7.4350     5.9680     6.9940   -17.1820 
  140.6250     2.3360    93.9900    24.1030     6.6330     5.7080     6.6800   -16.0680 
  140.7500     2.3470    88.6590    24.1080     6.7410     5.6470     6.6380   -15.0920 
  140.8750     2.3570    86.8560    24.1150     7.0530     5.7130     6.7420   -14.2720 
  141.0000     2.3620    86.2570    24.1370     7.0620     5.8110     6.8530   -13.6130 
  141.1250     2.3600    86.1160    24.1740     6.7680     5.8340     6.8330   -13.1330 
  141.2500     2.3540    88.5120    24.1890     6.5690     5.7420     6.6510   -12.7710 
  141.3750     2.3520    91.0940    24.1930     6.4830     5.5340     6.3190   -12.4780 
  141.5000     2.3620    93.1290    24.2010     6.5550     5.2380     5.8800   -12.2160 
  141.6250     2.3880    95.2530    24.2310     6.1780     4.8960     5.4040   -11.9510 
  141.7500     2.4110    96.5210    24.2870     5.4890     4.5750     4.9910   -11.7040 
  141.8750     2.4220    96.9970    24.3330     5.0670     4.3320     4.7180   -11.4930 
  142.0000     2.4180    96.7370    24.3510     5.3300     4.2060     4.6330   -11.3250 
  142.1250     2.4090    95.7320    24.3780     6.1930     4.2270     4.7590   -11.1910 
  142.2500     2.4010    93.6170    24.4580     7.2630     4.3530     5.0100   -11.0780 
  142.3750     2.3950    91.3830    24.5720     8.3670     4.5520     5.3270   -10.9750 
  142.5000     2.3900    89.0540    24.6670     9.2290     4.8080     5.6690   -10.8860 
  142.6250     2.3940    86.1080    24.6890     9.3460     5.1530     6.0700   -10.8240 
  142.7500     2.4210    81.5430    24.6910     9.1520     5.6420     6.6180   -10.7580 
  142.8750     2.4730    74.6230    24.6900     9.2440     6.3530     7.4380   -10.6880 
  143.0000     2.5330    65.6300    24.6900    10.2350     7.3650     8.6550   -10.6120 
  143.1250     2.5690    58.2660    24.6900    12.3930     8.8000    10.4330   -10.5430 
  143.2500     2.5800    53.2100    24.6900    15.1500    10.5790    12.6560   -10.4810 
  143.3750     2.5850    49.8090    24.6900    17.9820    12.5570    15.1160   -10.4410 
  143.5000     2.5970    47.8600    24.6900    19.9150    14.4830    17.4520   -10.4230 
  143.6250     2.6100    47.2500    24.6830    20.4510    16.0200    19.1900   -10.4260 
  143.7500     2.6160    47.7180    24.6620    20.3560    17.1030    20.3020   -10.4440 
  143.8750     2.6190    48.1220    24.6300    20.3740    17.7790    20.9190   -10.4670 
  144.0000     2.6250    48.0450    24.6100    20.4220    18.1560    21.2280   -10.4840 
  144.1250     2.6310    46.9280    24.6050    20.3890    18.3460    21.3900   -10.5070 
  144.2500     2.6310    45.0520    24.6050    20.3130    18.4870    21.5520   -10.5260 
  144.3750     2.6270    44.3570    24.6050    20.2970    18.6400    21.7740   -10.5420 
  144.5000     2.6180    45.5090    24.6050    20.3670    18.8480    22.0900   -10.5570 
  144.6250     2.6060    45.9410    24.6050    20.9270    19.1380    22.5070   -10.5740 
  144.7500     2.5950    44.3600    24.6050    21.6650    19.4670    22.9310   -10.6060 
  144.8750     2.5940    42.4310    24.5980    22.0290    19.7980    23.2830   -10.6610 
  145.0000     2.6000    42.1540    24.5770    22.0570    20.1340    23.5620   -10.7220 
  145.1250     2.6050    42.5270    24.5330    21.8070    20.5390    23.8780   -10.7950 
  145.2500     2.6030    42.5930    24.5010    21.6780    21.0720    24.3620   -10.8980 
  145.3750     2.6000    43.7310    24.4850    22.0510    21.7590    25.0840   -11.0250 
  145.5000     2.6080    45.7890    24.5210    23.4050    22.5510    25.9880   -11.1550 
  145.6250     2.6260    46.7000    24.6800    25.9880    23.2770    26.8330   -11.2840 
  145.7500     2.6420    46.9130    24.8460    27.2020    23.7360    27.3280   -11.4110 
  145.8750     2.6470    47.2750    24.9690    26.6410    23.8000    27.3160   -11.5330 
  146.0000     2.6420    47.7170    25.0180    25.5450    23.4490    26.8090   -11.6610 
  146.1250     2.6300    48.5740    25.0190    24.4880    22.7280    25.9120   -11.7740 
  146.2500     2.6200    50.8210    25.0200    23.9320    21.8290    24.8540   -11.8810 
  146.3750     2.6140    53.9410    25.0200    23.6000    20.8460    23.7160   -11.9830 
  146.5000     2.6110    55.6800    25.0200    23.0920    19.8450    22.5340   -12.0820 
  146.6250     2.6040    56.9580    25.0200    22.0760    18.9110    21.3950   -12.1960 
  146.7500     2.5940    58.9860    25.0200    20.4750    18.1390    20.4400   -12.3110 
  146.8750     2.5880    60.1020    25.0200    18.9650    17.6310    19.8110   -12.4160 
  147.0000     2.5900    57.4940    25.0200    18.3450    17.4580    19.5960   -12.5030 
  147.1250     2.5980    54.0140    25.0180    18.7640    17.6810    19.8610   -12.5790 
  147.2500     2.6010    53.1470    25.0150    20.2170    18.1380    20.4080   -12.6130 
  147.3750     2.5970    54.5920    25.0120    22.3180    18.6520    21.0230   -12.6230 
