~V
VERS. 2.00: Ver 2.00
~W
STRT.M 110.0000:
STOP.M 242.0000:
STEP.M 0.1250:
NULL. -999.2500:
UWI. DF306:
~C
DEPT.M :
DEN.GM/CC :
AC.US/MT :
GR.API :
CALI.CM :
RXO.OHMM :
RI. :
RML.OHMM :
SP.MV :
~A
# ...
  180.0000     2.4140   399.5410   100.2270    25.4050     5.8910     5.6060     7.3390   -16.2870 
  180.1250     2.4020   402.5350   102.2200    25.3140     6.0630     5.6950     7.5800   -16.4780 
  180.2500     2.3980   405.3630   102.5520    25.2370     6.3820     5.8750     7.9620   -16.7410 
  180.3750     2.3960   408.3080    99.4080    25.1600     6.9310     6.1270     8.4270   -17.0470 
  180.5000     2.3890   411.3170    94.7940    25.0540     7.6550     6.4170     8.9020   -17.3670 
  180.6250     2.3800   413.6770    92.2410    24.9200     8.2430     6.6960     9.2960   -17.6930 
  180.7500     2.3770   414.6050    92.7260    24.8120     8.5340     6.9300     9.5820   -17.9960 
  180.8750     2.3820   413.7410    94.7680    24.7460     8.6220     7.1080     9.7760   -18.2550 
  181.0000     2.3880   411.4850    96.5430    24.7080     8.6830     7.2380     9.9180   -18.4460 
  181.1250     2.3900   408.9890    95.2020    24.6900     8.8650     7.3350    10.0310   -18.5540 
  181.2500     2.3910   407.4520    92.2190    24.6780     9.1800     7.4140    10.1150   -18.5980 
  181.3750     2.3930   407.2590    90.0730    24.6640     9.5440     7.4710    10.1500   -18.5930 
  181.5000     2.3920   408.0620    90.7720    24.6690     9.8290     7.4940    10.1140   -18.5420 
  181.6250     2.3880   409.0010    92.8590    24.7250     9.8010     7.4690     9.9890   -18.4470 
  181.7500     2.3840   409.3580    94.0020    24.8200     9.4120     7.4090     9.8190   -18.3370 
  181.8750     2.3830   408.9310    94.7560    24.9170     8.8630     7.3410     9.6520   -18.2070 
  182.0000     2.3790   407.8190    93.0540    24.9770     8.5150     7.2930     9.5250   -18.0770 
  182.1250     2.3730   406.1540    88.8710    24.9810     8.5690     7.2920     9.4660   -17.9880 
  182.2500     2.3730   403.9430    86.8510    24.9750     8.8240     7.3420     9.4830   -17.9190 
  182.3750     2.3780   400.7330    88.8570    24.9910     9.1480     7.4500     9.5910   -17.8780 
  182.5000     2.3800   396.0850    92.3040    25.0170     9.4370     7.6140     9.7850   -17.8680 
  182.6250     2.3760   390.2410    93.9060    25.0270     9.5770     7.8200    10.0290   -17.8760 
  182.7500     2.3720   385.0320    93.4280    25.0270     9.6170     8.0220    10.2450   -17.8790 
  182.8750     2.3710   382.2630    92.4830    25.0250     9.7830     8.1710    10.3570   -17.8850 
  183.0000     2.3740   382.7680    91.5560    25.0170    10.1970     8.2350    10.3260   -17.9050 
  183.1250     2.3860   385.5810    91.2750    25.0040    10.4500     8.2370    10.2110   -17.9100 
  183.2500     2.4020   387.6800    91.5090    24.9880    10.1050     8.2790    10.1820   -17.9180 
  183.3750     2.4110   387.4130    91.9500    24.9650     9.4720     8.4430    10.3630   -17.9170 
  183.5000     2.4070   384.9640    91.7540    24.9220     9.4850     8.7720    10.8000   -17.9080 
  183.6250     2.4050   382.2400    90.8320    24.8230    11.0680     9.2780    11.4720   -17.8910 
  183.7500     2.4140   381.1050    91.3880    24.7180    13.0380     9.8500    12.1660   -17.8810 
  183.8750     2.4250   381.7810    92.3890    24.6870    13.6700    10.3440    12.6470   -17.8710 
  184.0000     2.4240   383.2970    91.2490    24.7520    12.7580    10.6200    12.7530   -17.8390 
  184.1250     2.4070   384.3480    89.1250    24.8460    11.9730    10.6050    12.4820   -17.7980 
  184.2500     2.3920   384.8470    89.7500    24.9120    11.7350    10.4400    12.0960   -17.7310 
  184.3750     2.3860   385.6180    92.2850    24.9900    10.9230    10.2350    11.7630   -17.6530 
  184.5000     2.3840   387.4890    92.7070    25.1210     9.4470    10.0560    11.5600   -17.5860 
  184.6250     2.3770   390.5980    92.2630    25.2670     8.7890     9.9050    11.4580   -17.5410 
  184.7500     2.3690   393.7010    94.8750    25.3310     9.2140     9.7050    11.2750   -17.5330 
  184.8750     2.3720   395.6910    98.4630    25.2720     9.7040     9.3990    10.8790   -17.5800 
  185.0000     2.3870   396.0650    96.7880    25.1250     9.5860     9.0280    10.3180   -17.7110 
  185.1250     2.4040   394.7840    90.3590    24.9780     9.1420     8.7960     9.9530   -17.9410 
  185.2500     2.4120   392.2270    86.4530    24.8920     9.0200     8.9530    10.2460   -18.2930 
  185.3750     2.4060   387.9290    85.1320    24.8780     9.9700     9.8360    11.7200   -18.7590 
  185.5000     2.3860   381.2290    82.8760    24.8940    14.1370    12.0000    15.0220   -19.3280 
  185.6250     2.3600   371.8800    78.3450    24.9010    28.3680    17.0190    21.7590   -19.9910 
  185.7500     2.3390   361.8860    73.4760    24.9480    54.2690    26.2490    33.2210   -20.7190 
  185.8750     2.3280   353.4570    70.1950    25.0480    83.7300    41.3970    51.5620   -21.4750 
  186.0000     2.3220   348.4100    69.6590    25.1510   109.0760    63.1960    78.5270   -22.2240 
  186.1250     2.3050   348.0720    70.9170    25.1890   138.0850    89.8100   112.8400   -22.9520 
  186.2500     2.2720   351.2100    71.2540    25.2050   172.1090   114.9910   144.8050   -23.6270 
  186.3750     2.2400   356.8930    70.3090    25.2490   195.9850   134.5070   167.4820   -24.2370 
  186.5000     2.2250   364.0670    69.1940    25.3120   202.4460   146.3740   179.2650   -24.7710 
  186.6250     2.2260   371.2120    68.6390    25.3570   194.7730   149.0180   179.9240   -25.2480 
  186.7500     2.2280   376.5630    68.5270    25.3170   180.2650   145.5340   174.2370   -25.6820 
  186.8750     2.2300   378.8860    67.5710    25.1810   163.6270   139.2560   166.5180   -26.0980 
  187.0000     2.2350   377.9250    65.7330    25.0520   148.5700   133.5680   160.3950   -26.5020 
  187.1250     2.2370   374.4950    64.7770    25.0580   139.6170   131.3130   158.5570   -26.8970 
  187.2500     2.2340   370.8120    65.4240    25.1360   143.8630   132.8060   160.8560   -27.3020 
  187.3750     2.2300   368.1370    66.1970    25.1850   164.9930   137.4810   166.4270   -27.7120 
  187.5000     2.2310   366.9340    65.5010    25.1910   192.7360   143.8780   173.4340   -28.1230 
  187.6250     2.2340   367.1810    63.2810    25.1760   202.7380   149.9340   179.2450   -28.5500 
  187.7500     2.2310   368.3430    62.1150    25.1240   194.0760   154.3530   182.6050   -28.9740 
  187.8750     2.2250   370.3830    63.4000    25.0500   182.6850   157.2280   184.0610   -29.3770 
  188.0000     2.2180   373.2460    65.6160    25.0000   179.0270   159.6560   185.3100   -29.7590 
  188.1250     2.2140   376.2900    65.1440    24.9950   182.2690   162.8910   188.0160   -30.1330 
  188.2500     2.2140   378.4250    63.2320    25.0050   189.8170   166.6610   191.6590   -30.4770 
  188.3750     2.2180   379.2180    63.6910    25.0170   202.0760   169.7580   194.5940   -30.8130 
  188.5000     2.2250   379.2230    67.1510    25.0370   212.0470   170.8170   194.9910   -31.1470 
  188.6250     2.2350   379.9140    69.2790    25.0660   205.2910   168.7260   191.5150   -31.4750 
  188.7500     2.2400   382.0990    67.8660    25.0800   188.5430   164.6720   185.9250   -31.8050 
  188.8750     2.2320   385.4670    66.1130    25.0690   176.5310   160.1010   180.2140   -32.1600 
  189.0000     2.2120   388.8920    66.2110    25.0560   174.3510   156.3160   175.9270   -32.5410 
  189.1250     2.1910   390.8860    66.5470    25.0710   176.0300   154.1470   173.8630   -32.9180 
  189.2500     2.1810   391.3610    64.6330    25.0930   178.9210   153.0680   173.0780   -33.3210 
  189.3750     2.1830   391.0430    61.9720    25.0990   185.5170   152.4250   172.6830   -33.7120 
  189.5000     2.1880   390.8880    61.7640    25.0830   191.6740   151.8190   172.2300   -34.0750 
  189.6250     2.1890   391.2590    63.7020    25.0460   185.9150   151.6160   172.2630   -34.3760 
  189.7500     2.1930   391.8990    64.2050    25.0190   173.2730   152.5530   173.6980   -34.6050 
  189.8750     2.2030   391.9220    63.4920    25.0320   167.6640   155.2000   177.1260   -34.7220 
