~V
VERS. 2.00: Ver 2.00
~W
STRT.M 60.0000:
STOP.M 282.0000:
STEP.M 0.1250:
NULL. -999.2500:
UWI. DF3058:
~C
DEPT.M :
GR.API :
RML.OHMM :
RI. :
RXO.OHMM :
CALI.CM :
DEN.GM/CC :
SP.MV :
~A
# ...
  206.2500    67.5400    20.5050    17.7120    22.0810    24.7010     2.4450   -16.2960 
  206.3750    63.2790    21.3660    18.4940    22.5700    24.6590     2.4680   -15.6810 
  206.5000    60.8110    21.3340    18.4740    23.4240    24.5840     2.5000   -15.0570 
  206.6250    61.6740    19.9470    17.2300    23.6460    24.5260     2.5300   -14.4760 
  206.7500    64.2370    17.7230    15.1600    22.0430    24.4760     2.5450   -13.9430 
  206.8750    67.3490    15.3010    12.8150    17.9990    24.5280     2.5390   -13.4840 
  207.0000    70.2390    13.3100    10.7670    12.7690    24.7440     2.5170   -13.1350 
  207.1250    72.2520    12.2960     9.4940     9.4010    24.6770     2.4910   -12.9000 
  207.2500    73.4300    11.9170     8.9610     8.9410    24.5900     2.4700   -12.7620 
  207.3750    73.2120    12.3300     9.0760     9.5130    24.4500     2.4560   -12.7210 
  207.5000    72.7000    13.1790     9.6640    10.2640    24.3950     2.4480   -12.7750 
  207.6250    74.1760    14.0300    10.4820    11.2250    24.3450     2.4490   -12.8690 
  207.7500    76.1090    14.5610    11.2120    12.5250    24.3750     2.4560   -12.9730 
  207.8750    77.7610    14.7180    11.7120    13.9330    24.4240     2.4660   -13.0580 
  208.0000    80.8130    14.6960    12.0180    14.6610    24.4770     2.4740   -13.0920 
  208.1250    85.5990    14.8990    12.3520    13.5040    24.5420     2.4740   -13.0980 
  208.2500    86.4170    15.4920    12.8810    12.3750    24.5600     2.4730   -13.0920 
  208.3750    80.2270    16.2940    13.5310    12.9900    24.5110     2.4810   -13.0450 
  208.5000    71.6040    16.8240    13.9950    15.1460    24.4320     2.5040   -12.9580 
  208.6250    68.4650    16.3460    13.7060    17.8230    24.2850     2.5340   -12.8430 
  208.7500    70.6630    14.7860    12.5390    19.3210    24.2530     2.5490   -12.6920 
  208.8750    73.0430    12.5120    10.7230    17.0620    24.3250     2.5300   -12.5370 
  209.0000    72.2310    10.2320     8.7940    10.9730    24.4680     2.4800   -12.3960 
  209.1250    72.3180     8.7230     7.3650     6.6110    24.4250     2.4160   -12.2710 
  209.2500    76.5960     8.0480     6.5490     5.5590    24.4290     2.3650   -12.1760 
  209.3750    81.4700     8.0120     6.2700     5.5680    24.4320     2.3350   -12.1320 
  209.5000    82.6510     8.3160     6.3680     5.8320    24.4340     2.3260   -12.1400 
  209.6250    80.4850     8.6850     6.6850     6.1540    24.4340     2.3330   -12.2090 
  209.7500    80.2540     9.0040     7.0670     6.4900    24.4350     2.3430   -12.3530 
  209.8750    84.1210     9.3630     7.5140     6.8820    24.4390     2.3530   -12.5170 
  210.0000    89.4970     9.9300     8.1050     7.5770    24.4410     2.3620   -12.6830 
  210.1250    88.5860    10.9110     8.9870     9.1350    24.4420     2.3700   -12.8460 
  210.2500    81.0870    12.2640    10.1540    11.4590    24.4430     2.3750   -12.9790 
  210.3750    73.9730    13.8820    11.5400    14.3180    24.4450     2.3760   -13.0750 
  210.5000    71.5190    15.5720    12.9880    17.2110    24.4420     2.3710   -13.1350 
  210.6250    72.0790    17.0300    14.2230    18.6880    24.4220     2.3560   -13.1480 
  210.7500    73.2810    18.0550    15.0640    19.0920    24.3900     2.3340   -13.1410 
  210.8750    74.1610    18.5610    15.4400    19.4970    24.3770     2.3100   -13.1150 
  211.0000    73.5140    18.6510    15.4380    19.7590    24.3760     2.2910   -13.0860 
  211.1250    71.5390    18.7070    15.3400    19.6610    24.3550     2.2860   -13.0770 
  211.2500    72.0560    19.3270    15.5880    19.1760    24.3210     2.2960   -13.0550 
  211.3750    76.1770    21.1000    16.6220    20.0150    24.2880     2.3190   -13.0250 
  211.5000    80.0600    24.6060    18.9440    24.1890    24.2610     2.3480   -12.9760 
  211.6250    77.6870    30.7290    23.4480    32.7520    24.2280     2.3740   -12.9230 
  211.7500    71.5480    39.3000    30.2410    44.6760    24.2200     2.3900   -12.8420 
  211.8750    66.9350    50.1240    39.3530    56.9420    24.2090     2.3950   -12.7700 
  212.0000    64.6810    62.6170    50.3720    69.1660    24.2560     2.3880   -12.7010 
  212.1250    61.4710    75.7480    62.3990    82.0560    24.2940     2.3760   -12.6110 
  212.2500    57.4370    88.0430    73.9100    96.0450    24.3780     2.3610   -12.5340 
  212.3750    55.3960    98.3160    83.7320   107.5910    24.3440     2.3460   -12.4690 
  212.5000    55.4140   105.5950    90.9350   110.6610    24.3390     2.3280   -12.4330 
  212.6250    57.8260   108.8510    94.5250   112.0790    24.4260     2.3030   -12.4150 
  212.7500    60.0440   109.3490    95.4740   108.2570    24.4960     2.2750   -12.4240 
  212.8750    60.1500   108.4870    94.8960   102.4330    24.5440     2.2470   -12.4470 
  213.0000    59.8240   107.4470    93.8820   101.5970    24.5630     2.2260   -12.4760 
  213.1250    61.1680   106.4740    92.9190   103.9940    24.5650     2.2150   -12.5080 
  213.2500    62.3270   104.9510    91.7370   106.8040    24.5650     2.2150   -12.5460 
  213.3750    61.3500   102.3870    89.9740   107.3920    24.5650     2.2200   -12.5880 
  213.5000    60.3920    98.9170    87.6300   100.6570    24.5660     2.2260   -12.6400 
  213.6250    61.6660    95.5190    85.3140    88.8480    24.5520     2.2310   -12.7230 
  213.7500    63.2690    93.3130    83.8710    82.4000    24.5230     2.2320   -12.7960 
  213.8750    63.9900    92.7600    83.7570    84.1180    24.5000     2.2290   -12.8650 
  214.0000    63.0250    93.5960    84.8780    90.9930    24.4970     2.2230   -12.9270 
  214.1250    62.3650    94.9160    86.5710    95.0580    24.5030     2.2180   -12.9900 
  214.2500    64.3430    95.5710    87.7920    94.2370    24.5040     2.2170   -13.0250 
  214.3750    68.5750    94.9910    87.9600    91.1420    24.5040     2.2220   -13.0460 
  214.5000    70.7150    93.1690    86.9970    88.4220    24.5040     2.2330   -13.0430 
  214.6250    65.7510    90.7390    85.2830    85.2900    24.5040     2.2420   -13.0070 
  214.7500    60.5960    88.6630    83.6250    83.2640    24.5040     2.2440   -12.9760 
  214.8750    60.7100    87.6860    82.5010    82.0930    24.5040     2.2400   -12.9180 
  215.0000    63.5390    88.0350    82.1670    81.7110    24.5040     2.2320   -12.8420 
  215.1250    62.8650    90.3460    82.8290    82.4830    24.5040     2.2260   -12.7670 
  215.2500    61.4960    93.5830    84.2170    84.3120    24.5040     2.2230   -12.7350 
  215.3750    62.4320    96.5890    86.0800    87.2470    24.5040     2.2210   -12.7170 
  215.5000    62.6570    99.0160    88.1130    90.7280    24.5120     2.2190   -12.7200 
  215.6250    59.4810   100.9470    90.0320    94.2820    24.5220     2.2150   -12.7360 
  215.7500    57.7600   102.5380    91.7680    95.6930    24.5230     2.2120   -12.7930 
  215.8750    59.8700   103.6620    93.3950    95.4730    24.5120     2.2100   -12.8910 
  216.0000    62.8780   104.9120    95.0200    96.0180    24.5050     2.2090   -13.0130 
  216.1250    63.3920   106.3090    96.6340    99.3950    24.5080     2.2090   -13.1260 
  216.2500    63.7510   107.4810    98.0130   104.0710    24.5030     2.2090   -13.2170 
  216.3750    65.0230   108.0620    98.8420   106.0950    24.4730     2.2080   -13.2950 
  216.5000    66.4450   107.8120    98.8890   104.2690    24.4470     2.2070   -13.3480 
  216.6250    65.2140   106.7780    98.1260   100.1070    24.4350     2.2050   -13.3350 
  216.7500    62.7760   105.7070    97.1820    96.2100    24.4330     2.2050   -13.2870 
  216.8750    60.0580   105.3790    96.7520    93.3670    24.4310     2.2120   -13.1990 
  217.0000    58.0770   106.4900    97.5130    91.9790    24.4270     2.2270   -13.0920 
  217.1250    58.6020   109.7870   100.2460    94.2380    24.4250     2.2540   -12.9620 
  217.2500    60.8460   114.9600   104.7950   100.0100    24.4260     2.2800   -12.8420 
  217.3750    61.8910   121.7250   110.9930   109.3960    24.4320     2.2970   -12.7260 
