~V
VERS. 2.00: Ver 2.00
~W
STRT.M 65.0000:
STOP.M 267.0000:
STEP.M 0.1250:
NULL. -999.2500:
UWI. DF3007:
~C
DEPT.M :
GR.API :
RML.OHMM :
RI. :
RXO.OHMM :
CALI.CM :
DEN.GM/CC :
SP.MV :
~A
# ...
  121.2500    70.0320    11.6140    10.2510    10.4560    23.1260     2.2210   -28.6500 
  121.3750    72.2790    11.3380     9.9820    10.2320    23.1590     2.2180   -28.4960 
  121.5000    76.4940    11.0500     9.6840    10.0860    23.1680     2.2130   -28.3450 
  121.6250    77.2990    10.8150     9.4070     9.8950    23.1680     2.2090   -28.2520 
  121.7500    75.7820    10.6580     9.1840     9.5610    23.1700     2.2080   -28.0730 
  121.8750    73.3130    10.5680     9.0210     9.3180    23.1680     2.2100   -27.9680 
  122.0000    71.5310    10.5040     8.8980     9.1470    23.1650     2.2120   -27.8320 
  122.1250    72.7070    10.4110     8.7880     9.1390    23.1620     2.2140   -27.7010 
  122.2500    75.5980    10.2860     8.6750     9.2660    23.1600     2.2160   -27.5850 
  122.3750    76.2990    10.1640     8.5740     9.5590    23.1650     2.2180   -27.4730 
  122.5000    73.7270    10.1000     8.5140     9.9120    23.1750     2.2180   -27.4720 
  122.6250    72.3610    10.1610     8.5440    10.2850    23.1950     2.2130   -27.4280 
  122.7500    73.2970    10.3370     8.6650    10.7730    23.2250     2.2060   -27.5300 
  122.8750    74.2400    10.5920     8.8640    11.1790    23.2510     2.1990   -27.5950 
  123.0000    73.9340    10.8690     9.1020    11.3350    23.2760     2.1940   -27.6610 
  123.1250    74.0480    11.0970     9.3240    11.1820    23.3140     2.1940   -27.7250 
  123.2500    74.7590    11.2430     9.4870    10.5200    23.3340     2.1940   -27.7830 
  123.3750    73.8120    11.3060     9.5750     9.9980    23.3520     2.1940   -27.8140 
  123.5000    71.6170    11.3160     9.6040     9.9890    23.4030     2.1930   -27.8140 
  123.6250    70.5950    11.3340     9.6150    10.1810    23.5150     2.1970   -27.8150 
  123.7500    71.8340    11.4060     9.6560    10.5000    23.5920     2.2130   -27.7770 
  123.8750    73.7270    11.5460     9.7450    10.7910    23.6060     2.2420   -27.7390 
  124.0000    75.2360    11.7360     9.8800    10.9410    23.5800     2.2740   -27.7830 
  124.1250    75.6730    11.9180    10.0310    11.0780    23.5300     2.2940   -27.7850 
  124.2500    75.4600    12.0280    10.1540    11.2890    23.5090     2.2910   -27.8750 
  124.3750    75.3880    12.0290    10.2210    11.6180    23.5080     2.2670   -27.9190 
  124.5000    75.0760    11.9190    10.2230    11.9940    23.5120     2.2310   -28.0030 
  124.6250    72.7080    11.7260    10.1720    12.1850    23.4700     2.1980   -27.9860 
  124.7500    69.9020    11.5310    10.1110    12.2010    23.3670     2.1750   -27.8720 
  124.8750    69.0880    11.3970    10.0780    12.0780    23.2180     2.1650   -27.6560 
  125.0000    70.6180    11.3720    10.1060    12.0320    23.0730     2.1650   -27.2280 
  125.1250    71.5150    11.4790    10.2140    12.0880    22.9700     2.1720   -26.8000 
  125.2500    70.8910    11.6320    10.3490    12.0890    22.9040     2.1810   -26.2360 
  125.3750    70.8330    11.7120    10.4270    12.0420    22.9040     2.1890   -25.5570 
  125.5000    72.8390    11.5810    10.3400    11.8970    22.9700     2.1960   -24.7990 
  125.6250    75.4330    11.0930     9.9640    11.6440    23.0920     2.2050   -23.8940 
  125.7500    78.2070    10.3310     9.3520    11.2270    23.1510     2.2190   -23.0350 
  125.8750    81.5690     9.4330     8.6030    10.3170    23.2130     2.2360   -22.0890 
  126.0000    83.8390     8.5670     7.8480     8.8190    23.4350     2.2540   -21.2830 
  126.1250    84.9780     7.9180     7.2360     7.2500    23.9520     2.2680   -20.5110 
  126.2500    87.3520     7.5090     6.8090     6.6010    24.3890     2.2780   -19.8210 
  126.3750    89.8150     7.3110     6.5610     6.4520    24.5520     2.2860   -19.2780 
  126.5000    88.9220     7.2580     6.4590     6.4100    24.5540     2.2920   -18.8350 
  126.6250    86.2560     7.2850     6.4570     6.3070    24.5340     2.3010   -18.5870 
  126.7500    86.6330     7.3170     6.4800     6.2960    24.5350     2.3110   -18.4230 
  126.8750    88.9440     7.3210     6.4880     6.1720    24.5590     2.3200   -18.4620 
  127.0000    89.8170     7.2800     6.4540     5.9510    24.5720     2.3270   -18.5550 
  127.1250    91.3360     7.1690     6.3520     5.9740    24.5690     2.3300   -18.7670 
  127.2500    94.6090     6.9900     6.1840     6.1020    24.5530     2.3330   -18.9570 
  127.3750    97.4290     6.7530     5.9600     6.2300    24.5110     2.3390   -19.2350 
  127.5000    97.5860     6.5000     5.7140     6.1670    24.4560     2.3490   -19.5560 
  127.6250    94.9540     6.3390     5.5240     6.1870    24.4410     2.3550   -19.9650 
  127.7500    90.8490     6.3850     5.4840     5.9710    24.3970     2.3480   -20.5290 
  127.8750    87.3160     6.7410     5.6840     6.1590    24.2980     2.3220   -21.0850 
  128.0000    86.8830     7.4490     6.1860     6.7030    24.1440     2.2810   -21.7410 
  128.1250    88.5230     8.4730     7.0160     7.5430    23.8940     2.2390   -22.4530 
  128.2500    86.2290     9.5640     8.0000     8.8950    23.5480     2.2090   -23.2390 
  128.3750    80.3410    10.4950     8.9510    10.6030    23.1270     2.2000   -24.0390 
  128.5000    75.7770    11.0890     9.6790    12.6210    22.7400     2.2080   -24.7620 
  128.6250    75.4620    11.2590    10.0230    12.7840    22.6080     2.2270   -25.4470 
  128.7500    77.3340    11.2190    10.1040    11.6100    22.6220     2.2410   -26.0250 
  128.8750    78.7420    11.1610    10.0740    10.5690    22.7070     2.2450   -26.5440 
  129.0000    79.0360    11.2040    10.0600    10.0790    22.8250     2.2380   -26.9590 
  129.1250    78.4420    11.3400    10.1070    10.1700    22.9970     2.2240   -27.1530 
  129.2500    76.7540    11.4320    10.1490    10.7410    23.1920     2.2100   -27.3590 
  129.3750    73.9860    11.3890    10.1150    11.5220    23.3310     2.1990   -27.4280 
  129.5000    71.1720    11.2350     9.9930    11.9950    23.4290     2.1890   -27.4780 
  129.6250    69.5460    11.1880     9.9040    11.8240    23.5140     2.1780   -27.3770 
  129.7500    68.6320    11.4970    10.0270    11.6470    23.5800     2.1670   -27.1730 
  129.8750    67.0450    12.2470    10.4550    11.7610    23.6210     2.1650   -26.8310 
  130.0000    65.1190    13.2450    11.1020    11.9870    23.6550     2.1850   -26.3490 
  130.1250    65.1710    13.9140    11.6080    12.1930    23.6740     2.2430   -25.7800 
  130.2500    67.5440    13.7560    11.5780    12.2470    23.5980     2.3230   -25.0090 
  130.3750    71.9380    12.6280    10.8350    12.3130    23.3950     2.4020   -24.2750 
  130.5000    78.2560    10.8560     9.5390    12.3510    23.0930     2.4510   -23.5110 
  130.6250    85.7050     9.1770     8.1810    11.1750    22.9050     2.4490   -22.9670 
  130.7500    90.9350     8.1660     7.2270     8.9710    22.8570     2.4130   -22.5740 
  130.8750    91.4180     7.9820     6.8570     8.3900    22.9120     2.3610   -22.3950 
  131.0000    87.3300     8.5320     7.0890     9.3740    23.0020     2.3120   -22.3820 
  131.1250    81.7950     9.6080     7.8840    11.2360    23.0230     2.2770   -22.4120 
  131.2500    78.6160    10.7430     8.8980    11.7910    23.0080     2.2630   -22.5520 
  131.3750    78.3310    11.5660     9.8000    11.4160    23.0070     2.2720   -22.5740 
  131.5000    80.1500    11.7840    10.2630    11.1720    23.0350     2.3010   -22.5040 
  131.6250    82.6700    11.2070    10.0010    11.3400    23.1610     2.3400   -22.2470 
  131.7500    85.9690    10.1510     9.2180    11.4280    23.4610     2.3690   -21.7860 
  131.8750    90.2780     8.9350     8.1770    10.4600    23.9200     2.3790   -21.3350 
  132.0000    93.7490     7.8820     7.1720     7.8410    24.3710     2.3700   -20.8370 
  132.1250    95.3130     7.3150     6.5010     6.6400    24.5580     2.3460   -20.4940 
  132.2500    95.4080     7.2550     6.2360     6.4440    24.5960     2.3190   -20.2760 
  132.3750    93.9620     7.6440     6.3700     6.5050    24.5540     2.2940   -20.2130 
