~V
VERS. 2.00: Ver 2.00
~W
STRT.M 58.0000:
STOP.M 259.0000:
STEP.M 0.1250:
NULL. -999.2500:
UWI. DF3010:
~C
DEPT.M :
GR.API :
RML.OHMM :
RI. :
RXO.OHMM :
CALI.CM :
DEN.GM/CC :
SP.MV :
~A
# ...
  226.7500    76.9950    16.6580    16.3980    30.1190    23.8380     2.5220   -24.0870 
  226.8750    86.6700    11.3070    10.9500    11.7840    23.9150     2.4890   -24.2280 
  227.0000    92.1040     9.6690     8.7350     8.2100    24.1070     2.4490   -24.4140 
  227.1250    94.2750     9.7610     8.3680     8.5020    24.2940     2.4230   -24.6090 
  227.2500    97.0800    10.4350     8.7900     9.6890    24.3550     2.4120   -24.8810 
  227.3750    99.1920    11.1980     9.5770     9.8160    24.3350     2.4090   -25.2620 
  227.5000    98.4880    11.7360    10.3760     9.2160    24.3660     2.4070   -25.5190 
  227.6250    96.5120    11.8810    10.9030     9.0920    24.4460     2.4040   -25.7480 
  227.7500    96.4040    11.7740    11.1540     9.3530    24.4980     2.4030   -26.0040 
  227.8750    98.2780    11.5460    11.2130     9.7700    24.4420     2.4040   -26.0820 
  228.0000   100.1580    11.2980    11.1700    10.0400    24.3560     2.4090   -26.2080 
  228.1250   101.9180    11.1050    11.0760    10.2100    24.2000     2.4140   -26.3460 
  228.2500   106.5630    10.9950    10.9590    10.4420    24.1850     2.4180   -26.3820 
  228.3750   113.0610    10.9770    10.8240    10.6330    24.2490     2.4200   -26.4050 
  228.5000   119.0780    11.0310    10.6760    10.6560    24.2320     2.4210   -26.4650 
  228.6250   123.1630    11.1200    10.5240    10.5050    24.2000     2.4200   -26.5360 
  228.7500   127.6830    11.2010    10.3790    10.4500    24.2680     2.4200   -26.5380 
  228.8750   130.3140    11.2590    10.2450    10.5240    24.3950     2.4220   -26.6080 
  229.0000   129.1170    11.2950    10.1250    10.5770    24.4140     2.4260   -26.6540 
  229.1250   128.5220    11.3190    10.0230    10.6230    24.5180     2.4320   -26.7090 
  229.2500   128.9740    11.3360     9.9390    10.5330    24.5190     2.4370   -26.8550 
  229.3750   126.2280    11.3320     9.8670    10.4730    24.4350     2.4380   -26.9650 
  229.5000   118.8930    11.2850     9.7950    10.3050    24.3540     2.4340   -27.0930 
  229.6250   114.5710    11.1690     9.7040    10.4000    24.4140     2.4270   -27.2050 
  229.7500   117.1140    11.0150     9.6050    10.6850    24.4820     2.4220   -27.3530 
  229.8750   123.6210    10.8930     9.5450    10.8240    24.5150     2.4200   -27.5970 
  230.0000   130.2250    10.9120     9.6030    10.6420    24.4830     2.4200   -27.8200 
  230.1250   131.7560    11.2520     9.9230    10.4950    24.4820     2.4190   -28.1080 
  230.2500   127.9440    11.9580    10.5450    10.9020    24.4590     2.4130   -28.3930 
  230.3750   118.7290    13.0200    11.4700    11.8370    24.3580     2.4000   -28.6100 
  230.5000   106.8630    14.3050    12.5950    13.1680    24.2150     2.3860   -28.7960 
  230.6250    98.5430    15.4840    13.6460    14.6790    24.2350     2.3760   -28.9500 
  230.7500    97.9540    16.1910    14.2910    15.5870    24.3820     2.3760   -29.0040 
  230.8750   104.2740    16.1760    14.2920    15.9480    24.4420     2.3880   -28.9570 
  231.0000   112.0770    15.3880    13.5930    15.9990    24.4450     2.4080   -28.9000 
  231.1250   116.1170    14.0000    12.3180    14.7790    24.3880     2.4300   -28.8480 
  231.2500   115.6090    12.5010    10.9320    12.3790    24.3000     2.4470   -28.8210 
  231.3750   112.0590    11.3330     9.7950    10.7670    24.3030     2.4550   -28.8670 
  231.5000   108.0280    11.0900     9.2490    10.3740    24.3260     2.4540   -29.0220 
  231.6250   105.0120    12.8200    10.0060    10.9760    24.2940     2.4490   -29.2560 
  231.7500   103.6650    17.5050    12.6880    13.7310    24.3140     2.4420   -29.6420 
  231.8750   101.1890    25.9980    18.1730    21.0850    24.3140     2.4320   -30.1280 
  232.0000    93.5690    38.6190    27.1200    34.0770    24.2930     2.4170   -30.5970 
  232.1250    82.6730    55.0400    39.8570    59.3970    24.2100     2.3940   -31.1430 
  232.2500    74.8810    71.2310    54.2560    89.1300    24.0160     2.3660   -31.5950 
  232.3750    71.4230    85.9150    68.0810    96.0080    23.7740     2.3370   -32.0830 
  232.5000    68.7390    97.3940    79.4290    83.4620    23.5540     2.3160   -32.5260 
  232.6250    65.3530   105.2360    87.3960    78.7030    23.4730     2.3100   -32.9020 
  232.7500    62.5970   111.5870    93.5490    90.6540    23.5560     2.3160   -33.2880 
  232.8750    62.5790   117.6430    98.8780   107.0660    23.7900     2.3280   -33.5190 
  233.0000    66.3450   123.4870   103.6310   118.6430    24.1210     2.3360   -33.7830 
  233.1250    70.2480   127.9230   107.1070   124.7240    24.4290     2.3310   -33.9870 
  233.2500    71.0630   129.9940   108.7940   129.0330    24.5560     2.3160   -34.1460 
  233.3750    68.9200   129.2560   108.4280   133.8060    24.5860     2.2960   -34.3460 
  233.5000    66.0250   126.0750   106.2600   134.2280    24.5870     2.2790   -34.5090 
  233.6250    66.0470   121.5200   102.9900   127.6620    24.5840     2.2700   -34.5470 
  233.7500    68.8700   117.4170    99.9590   111.5410    24.5620     2.2690   -34.6010 
  233.8750    71.7110   115.0910    98.2400    96.9730    24.4820     2.2730   -34.7180 
  234.0000    70.8300   115.5060    98.7180    94.7290    24.3330     2.2790   -34.7410 
  234.1250    67.2080   119.7070   102.3840    97.1370    24.1830     2.2850   -34.7850 
  234.2500    67.2090   127.0010   108.7210    98.4530    24.1470     2.2890   -34.8140 
  234.3750    70.3570   136.6170   117.0970   104.0190    24.2160     2.2900   -34.7750 
  234.5000    73.2810   147.1680   126.3720   116.0650    24.2600     2.2880   -34.7780 
  234.6250    72.0030   156.3020   134.6390   129.7560    24.1040     2.2820   -34.7990 
  234.7500    67.7810   162.1620   140.3330   139.4440    23.8030     2.2750   -34.7620 
  234.8750    62.8250   163.8310   142.6140   144.1930    23.5310     2.2670   -34.6340 
  235.0000    59.5990   161.7310   141.6650   143.1190    23.3860     2.2610   -34.6010 
  235.1250    59.9890   157.7100   138.7450   137.4780    23.3630     2.2610   -34.5090 
  235.2500    61.0800   154.7910   136.3440   129.5690    23.3930     2.2670   -34.3780 
  235.3750    61.3790   154.6860   136.0220   124.6100    23.4280     2.2760   -34.2510 
  235.5000    63.2590   157.7100   138.2830   126.5190    23.4290     2.2840   -34.0210 
  235.6250    67.3550   162.5760   142.3420   133.3950    23.4820     2.2870   -33.8480 
  235.7500    69.2040   166.2680   145.7730   141.7530    23.5000     2.2870   -33.6150 
  235.8750    67.6820   166.4560   146.5920   152.5650    23.4770     2.2840   -33.3590 
  236.0000    66.2370   161.9630   143.6220   157.1050    23.4250     2.2830   -33.0750 
  236.1250    66.7960   152.8090   136.4930   145.2200    23.3430     2.2850   -32.6510 
  236.2500    66.9930   141.6070   127.2000   120.6260    23.3290     2.2890   -32.3060 
  236.3750    67.1100   130.0140   117.1960   104.2730    23.4360     2.2960   -31.8830 
  236.5000    67.8350   119.0880   107.6030   100.8210    23.5620     2.3080   -31.4700 
  236.6250    68.6470   109.6210    99.3430    99.3340    23.5940     2.3260   -31.0960 
  236.7500    70.5010   101.6080    92.5040    92.9990    23.5620     2.3450   -30.6270 
  236.8750    74.3220    94.9430    86.9710    82.1200    23.6070     2.3610   -30.1640 
  237.0000    78.6470    89.2260    82.3290    75.3000    23.7930     2.3770   -29.7360 
  237.1250    82.5860    83.8260    77.9400    74.3580    24.0070     2.4040   -29.3210 
  237.2500    86.5040    78.1190    73.1950    72.4450    24.1290     2.4420   -28.8510 
  237.3750    86.9350    71.9190    67.8980    69.2080    24.1420     2.4840   -28.4730 
  237.5000    81.7240    65.3780    62.1620    67.2430    24.1050     2.5130   -28.0640 
  237.6250    76.5380    58.9610    56.3700    57.1410    24.0460     2.5070   -27.6260 
  237.7500    76.6990    53.1230    50.9680    49.0410    23.9470     2.4740   -27.2800 
  237.8750    80.0090    48.1340    46.2290    44.3970    23.8940     2.4330   -26.9380 
