~V
VERS. 2.00: Ver 2.00
~W
STRT.M 62.0000:
STOP.M 265.0000:
STEP.M 0.1250:
NULL. -999.2500:
UWI. DF3071:
~C
DEPT.M :
GR.API :
CALI.CM :
RXO.OHMM :
RI. :
RML.OHMM :
DEN.GM/CC :
SP.MV :
~A
# ...
  230.7500    67.4910    25.5750    96.5950   121.3430   141.2280     2.2360   -21.6830 
  230.8750    70.3290    25.5550    90.4120   114.9000   133.6710     2.2560   -21.7550 
  231.0000    72.4780    25.5360    83.8780   109.3320   127.0970     2.2690   -21.8140 
  231.1250    72.2170    25.4960    79.5290   105.5090   122.3290     2.2650   -21.8330 
  231.2500    70.6630    25.4560    77.6140   103.0880   118.9230     2.2490   -21.8380 
  231.3750    70.1610    25.4440    77.9810   101.5350   116.1930     2.2390   -21.8020 
  231.5000    71.5820    25.4630    79.4230   100.1120   113.2130     2.2370   -21.7000 
  231.6250    74.7110    25.4800    79.4190    97.7300   108.8530     2.2400   -21.6150 
  231.7500    76.8340    25.4700    76.7620    93.8910   103.0280     2.2400   -21.5160 
  231.8750    77.1550    25.4440    72.7800    88.7860    96.2990     2.2400   -21.4670 
  232.0000    76.6190    25.4250    68.9300    83.2650    89.7130     2.2450   -21.3650 
  232.1250    74.9330    25.4130    64.1210    78.6300    84.6380     2.2540   -21.3280 
  232.2500    74.3770    25.3840    57.8830    75.5760    81.4640     2.2630   -21.2980 
  232.3750    75.8610    25.3590    54.3740    74.2900    80.0790     2.2700   -21.3030 
  232.5000    79.3250    25.3760    56.0500    74.3350    79.8410     2.2730   -21.3380 
  232.6250    81.5580    25.4330    60.2050    74.6430    79.6560     2.2720   -21.3660 
  232.7500    80.0310    25.4760    60.3550    74.1010    78.6310     2.2700   -21.4320 
  232.8750    78.0210    25.4850    58.4130    72.3620    76.6820     2.2720   -21.4770 
  233.0000    79.6540    25.4580    55.9060    69.8920    74.4700     2.2860   -21.5120 
  233.1250    84.5500    25.3870    52.5300    68.1510    73.4960     2.3120   -21.4890 
  233.2500    87.6590    25.3030    50.3040    68.5620    74.8530     2.3350   -21.4120 
  233.3750    87.6200    25.2420    52.3580    72.0000    79.1690     2.3340   -21.2640 
  233.5000    85.2070    25.2320    59.5930    78.6090    86.4190     2.3110   -21.0690 
  233.6250    80.0990    25.2760    69.8710    87.8670    95.8600     2.2810   -20.8300 
  233.7500    73.0650    25.3300    78.8410    97.4650   105.1960     2.2610   -20.5560 
  233.8750    67.9810    25.3500    84.2220   105.3670   112.5150     2.2530   -20.2680 
  234.0000    68.0050    25.3200    85.9600   110.2060   116.6620     2.2540   -19.9960 
  234.1250    71.1270    25.2630    84.7800   111.6360   117.4500     2.2570   -19.6870 
  234.2500    71.9560    25.2190    83.1790   111.5130   116.7200     2.2580   -19.4620 
  234.3750    70.1100    25.2050    82.1740   110.9970   115.4710     2.2630   -19.3130 
  234.5000    68.8950    25.2180    83.2930   110.3660   113.6430     2.2740   -19.2510 
  234.6250    70.2360    25.2460    84.4110   108.0780   109.3520     2.2860   -19.2140 
  234.7500    70.0340    25.2660    82.3810   102.0740   101.1580     2.2920   -19.1970 
  234.8750    68.5570    25.2650    76.3170    91.2060    88.8580     2.2960   -19.2010 
  235.0000    69.4400    25.2370    67.6430    76.5480    74.1280     2.3050   -19.1910 
  235.1250    73.5810    25.1960    56.2350    61.6020    60.2410     2.3160   -19.2660 
  235.2500    77.3240    25.1200    43.0120    49.7940    49.6210     2.3210   -19.3080 
  235.3750    80.4180    24.9770    32.6260    42.3850    43.2060     2.3200   -19.3700 
  235.5000    84.4280    24.7780    28.3480    39.4030    41.1160     2.3160   -19.3920 
  235.6250    85.4780    24.5980    30.6700    41.3170    43.9140     2.3130   -19.4150 
  235.7500    80.6240    24.4920    36.2440    47.5200    50.7510     2.3070   -19.4150 
  235.8750    73.1020    24.4470    44.2590    57.8880    61.1810     2.2980   -19.4360 
  236.0000    68.9030    24.4330    54.5510    71.2170    73.9500     2.2880   -19.4720 
  236.1250    71.6310    24.4750    71.9640    84.3280    86.3260     2.2860   -19.5060 
  236.2500    75.6210    24.6200    89.0270    93.7120    95.3750     2.2970   -19.5530 
  236.3750    77.0870    24.8730    92.7500    97.8700    99.6220     2.3230   -19.5700 
  236.5000    75.0280    25.1440    82.1680    97.3340    99.2610     2.3560   -19.6070 
  236.6250    74.9550    25.2920    75.0190    93.3940    95.2790     2.3820   -19.6840 
  236.7500    79.1880    25.3370    76.5990    87.9510    89.6220     2.3830   -19.7880 
  236.8750    83.4170    25.3460    78.9340    81.6090    83.0020     2.3620   -19.8770 
  237.0000    82.6750    25.3400    74.0600    74.7580    75.9000     2.3330   -20.0230 
  237.1250    77.5990    25.2980    60.7530    67.9810    68.9860     2.3200   -20.1330 
  237.2500    74.5990    25.2200    49.3300    62.0050    62.9620     2.3370   -20.2680 
  237.3750    76.3150    25.0960    43.8010    57.3660    58.3000     2.3620   -20.3970 
  237.5000    81.9010    24.8850    42.0760    54.2620    55.1520     2.3800   -20.5530 
  237.6250    85.8630    24.6010    40.3990    52.6910    53.4930     2.3870   -20.7620 
  237.7500    84.6830    24.3610    38.6210    51.9330    52.6190     2.3920   -20.9590 
  237.8750    81.3070    24.2170    37.0520    51.4730    52.0680     2.3980   -21.1850 
  238.0000    79.7860    24.1370    36.1420    50.9290    51.5200     2.4060   -21.3510 
  238.1250    82.8700    24.0930    37.1080    50.2050    50.8990     2.4240   -21.4850 
  238.2500    85.7750    24.1300    39.0570    49.5480    50.3880     2.4520   -21.6230 
  238.3750    85.4610    24.2780    40.3370    49.2030    50.2100     2.4730   -21.7500 
  238.5000    82.5370    24.4970    39.8250    49.3360    50.5430     2.4790   -21.8010 
  238.6250    81.6170    24.7580    39.0330    50.1660    51.6020     2.4690   -21.8020 
  238.7500    84.1190    25.0310    40.4010    51.6480    53.2980     2.4510   -21.8480 
  238.8750    86.1890    25.2320    43.0490    53.7040    55.5180     2.4350   -21.8680 
  239.0000    86.5570    25.2660    45.1970    56.0820    57.9880     2.4260   -21.8810 
  239.1250    87.4830    25.1270    47.3810    58.2600    60.1530     2.4240   -21.9450 
  239.2500    90.0220    24.9510    49.5530    59.7020    61.5220     2.4180   -21.9820 
  239.3750    91.9780    24.8490    51.6240    60.1080    61.8700     2.4110   -21.9990 
  239.5000    92.2990    24.8980    53.0760    59.5760    61.3660     2.4060   -21.9890 
  239.6250    93.3260    25.0680    51.8460    58.6090    60.5810     2.4000   -21.9100 
  239.7500    92.9590    25.1960    48.9750    57.9760    60.2510     2.3810   -21.8180 
  239.8750    89.0090    25.2220    47.7220    58.1210    60.7260     2.3570   -21.7000 
  240.0000    84.8070    25.2060    52.3450    59.1060    61.9370     2.3490   -21.5260 
  240.1250    84.8790    25.1600    62.9420    60.4480    63.2980     2.3620   -21.2660 
  240.2500    87.7080    25.0440    68.9630    61.2200    64.0070     2.3840   -20.9180 
  240.3750    90.3050    24.8700    66.4230    60.9160    63.7310     2.4060   -20.5460 
  240.5000    94.1330    24.7270    60.7310    59.7180    62.7830     2.4280   -20.2110 
  240.6250    98.8410    24.6870    57.2280    58.7410    62.3080     2.4500   -19.8820 
  240.7500    97.6750    24.7430    53.8470    59.4010    63.5240     2.4750   -19.4890 
  240.8750    91.0280    24.8490    51.1500    62.7580    67.2690     2.5090   -19.0560 
  241.0000    84.6600    24.9350    55.4190    69.3240    73.8770     2.5550   -18.6340 
  241.1250    82.7000    25.0110    77.0340    79.2180    83.3410     2.6060   -18.1820 
  241.2500    80.0150    25.1390   108.1270    90.5900    93.8720     2.6370   -17.7010 
  241.3750    74.1860    25.2540   130.5160   101.3140   103.0850     2.6420   -17.2200 
  241.5000    69.1970    25.2650   136.5790   108.2790   107.4260     2.6410   -16.7210 
  241.6250    67.8430    25.2030   134.2990   105.7840   101.5600     2.6540   -16.1830 
  241.7500    66.8180    25.1910   125.4080    92.4130    86.5070     2.6750   -15.6440 
  241.8750    61.7020    25.2200   105.2570    70.6450    66.1370     2.6780   -15.1510 
