~V
VERS. 2.00: Ver 2.00
~W
STRT.M 120.0000:
STOP.M 272.0000:
STEP.M 0.1250:
NULL. -999.2500:
UWI. DF3038:
~C
DEPT.M :
GR.API :
RML.OHMM :
RI. :
RXO.OHMM :
CALI.CM :
DEN.GM/CC :
SP.MV :
~A
# ...
  266.2500    69.0860    11.3770     9.4640    14.0300    24.4730     2.4690    -5.9250 
  266.3750    69.0860    11.3750     9.4620    16.7300    24.5070     2.4600    -6.0500 
  266.5000    69.0860    11.3730     9.4570    18.4730    24.5190     2.4540    -6.1300 
  266.6250    69.0860    11.3720     9.4500    17.1200    24.5180     2.4490    -6.2300 
  266.7500    69.0860    11.3690     9.4450    16.3470    24.4940     2.4440    -6.3430 
  266.8750    69.0860    11.3650     9.4430    15.8560    24.4100     2.4370    -6.4700 
  267.0000    69.0860    11.3620     9.4460    15.3210    24.2420     2.4260    -6.5690 
  267.1250    69.0860    11.3600     9.4530    14.7810    23.9890     2.4150    -6.6500 
  267.2500    69.0860    11.3600     9.4610    14.4120    23.6010     2.4060    -6.7370 
  267.3750    69.0860    11.3620     9.4670    13.9750    22.9300     2.4040    -6.7830 
  267.5000    69.0860    11.3630     9.4710    13.2880    21.9030     2.4090    -6.8990 
  267.6250    69.0860    11.3640     9.4720    12.0750    20.7050     2.4160    -7.0020 
  267.7500    69.0860    11.3640     9.4720    10.8990    19.4750     2.4210    -7.0600 
  267.8750    69.0860    11.3640     9.4720    10.0620    18.3650     2.4190    -7.0910 
  268.0000    69.0860    11.3640     9.4720     9.5050    17.6580     2.4140    -7.1430 
  268.1250    69.0860    11.3640     9.4720     9.3170    17.3690     2.4080    -7.0770 
  268.2500    69.0860    11.3640     9.4720     9.2250    17.2440     2.4040    -7.0910 
  268.3750    69.0860    11.3640     9.4720     9.2050    17.1520     2.4010    -7.1280 
  268.5000    69.0860    11.3640     9.4720     9.1800    17.0090     2.3950    -7.1430 
  268.6250    69.0860    11.3640     9.4720     9.1510    16.8300     2.3860    -7.1470 
  268.7500    69.0860    11.3640     9.4720     8.9800    16.7150     2.3770    -7.1340 
  268.8750    69.0860    11.3640     9.4720     8.5870    16.6640     2.3700    -7.1150 
  269.0000    69.0860    11.3640     9.4720     8.1740    16.6170     2.3660    -7.1180 
  269.1250    69.0860    11.3640     9.4720     7.9320    16.5010     2.3630    -7.1760 
  269.2500    69.0860    11.3640     9.4720     7.9380    16.3620     2.3530    -7.1980 
  269.3750    69.0860    11.3640     9.4720     7.9430    16.2690     2.3340    -7.2100 
  269.5000    69.0860    11.3640     9.4720     8.0010    16.1850     2.3060    -7.2100 
  269.6250    69.0860    11.3640     9.4720     7.9610    16.0180     2.2700    -7.1860 
  269.7500    69.0860    11.3640     9.4720     7.8330    15.8010     2.2290    -7.1180 
  269.8750    69.0860    11.3640     9.4720     7.7130    15.5520     2.1880    -7.0920 
  270.0000    69.0860    11.3640     9.4720     7.5060    15.1640     2.1530    -7.1120 
  270.1250    69.0860    11.3640     9.4720     7.2020    14.6600     2.1260    -7.1280 
  270.2500    69.0860    11.3640     9.4720     7.0220    14.3930     2.1110    -7.1090 
  270.3750    69.0860    11.3640     9.4720     6.9580    14.3150     2.1040    -7.0130 
  270.5000    69.0860    11.3640     9.4720     6.9480    14.3090     2.1030    -6.9540 
  270.6250    69.0860    11.3640     9.4720     6.9480    14.3090     2.1040    -6.9470 
  270.7500    69.0860    11.3640     9.4720     6.9480    14.3090     2.1040    -6.9290 
  270.8750    69.0860    11.3640     9.4720     6.9480    14.3090     2.1040    -6.8930 
  271.0000    69.0860    11.3640     9.4720     6.9480    14.3090     2.1030    -6.8440 
  271.1250    69.0860    11.3640     9.4720     6.9480    14.3090     2.1030    -6.8440 
  271.2500    69.0860    11.3640     9.4720     6.9480    14.3090     2.1010    -6.8440 
  271.3750    69.0860    11.3640     9.4720     6.9480    14.3090     2.1000  -999.2500 
  271.5000    69.0860    11.3640     9.4720     6.9470    14.3090     2.0990  -999.2500 
  271.6250    69.0860    11.3640     9.4720     6.9470    14.3090     2.0990  -999.2500 
  271.7500    69.0860    11.3640     9.4720     6.9480    14.3090     2.1010  -999.2500 
  271.8750    69.0860    11.3640     9.4720     6.9480    14.3090     2.1030  -999.2500 
  272.0000    69.0860    11.3640     9.4720     6.9480    14.3090     2.1040  -999.2500 
