~V
VERS. 2.00: Ver 2.00
~W
STRT.M 64.0000:
STOP.M 259.0000:
STEP.M 0.1250:
NULL. -999.2500:
UWI. DF3067:
~C
DEPT.M :
DEN.GM/CC :
GR.API :
CALI.CM :
RXO.OHMM :
RI. :
RML.OHMM :
SP.MV :
~A
# ...
  221.5000     2.2800    67.2090    22.9040    99.7380    91.8850    96.6980   -42.4920 
  221.6250     2.2840    68.1960    23.3430    86.2880    88.8510    93.7280   -42.2360 
  221.7500     2.2800    69.4600    23.7130    85.1240    87.6260    92.5220   -41.9720 
  221.8750     2.2740    70.8740    23.8820   101.2390    88.3030    93.3160   -41.7000 
  222.0000     2.2690    70.9000    23.8970   116.4210    90.4540    95.7540   -41.4220 
  222.1250     2.2680    69.1180    23.8860   112.8730    92.8870    98.6770   -41.1300 
  222.2500     2.2700    68.5150    23.8880   110.0670    93.7930   100.2350   -40.8270 
  222.3750     2.2740    70.1120    23.8880   110.4880    91.9080    99.0830   -40.5240 
  222.5000     2.2800    73.3650    23.8880   108.8810    87.1490    94.8850   -40.2130 
  222.6250     2.2850    75.5040    23.8880    98.7440    80.8230    88.5130   -39.8980 
  222.7500     2.2830    74.3290    23.8880    84.5620    75.1760    82.2350   -39.5690 
  222.8750     2.2780    71.3850    23.8880    74.8110    71.3900    77.4840   -39.2190 
  223.0000     2.2790    69.5900    23.8880    71.2770    69.8650    74.9700   -38.8440 
  223.1250     2.2910    70.1570    23.8880    70.5730    70.5470    74.8830   -38.4640 
  223.2500     2.3050    71.0280    23.8890    83.5180    72.1560    75.9800   -38.0990 
  223.3750     2.3150    71.4930    23.8880   108.0550    73.6300    77.2200   -37.7350 
  223.5000     2.3160    72.1890    23.8780   118.4870    74.1740    77.7780   -37.3680 
  223.6250     2.3080    73.1650    23.8490    95.8400    73.6180    77.3260   -37.0060 
  223.7500     2.2980    73.2120    23.8200    80.2030    72.7500    76.4580   -36.6580 
  223.8750     2.2940    70.6970    23.8000    79.5880    71.9830    75.5550   -36.3310 
  224.0000     2.2980    68.1950    23.7720    86.9360    71.3390    74.6940   -36.0090 
  224.1250     2.3080    70.9210    23.7340    92.9440    70.4960    73.6510   -35.6730 
  224.2500     2.3130    75.5440    23.6750    86.2590    69.1500    72.1690   -35.2960 
  224.3750     2.3070    77.2240    23.5090    75.8120    67.2000    70.1290   -34.8790 
  224.5000     2.2950    75.5620    23.2150    68.7480    64.7620    67.6140   -34.4620 
  224.6250     2.2880    72.5720    22.9930    70.2920    61.9220    64.7460   -34.0450 
  224.7500     2.2880    71.5590    23.0560    70.4760    58.7010    61.6010   -33.6230 
  224.8750     2.2900    73.7250    23.3240    67.7140    55.0180    58.0870   -33.1790 
  225.0000     2.2880    76.1900    23.5520    60.5870    50.9260    54.1790   -32.7130 
  225.1250     2.2940    73.9580    23.5920    54.0460    46.6980    50.0190   -32.2560 
  225.2500     2.3110    71.1840    23.5470    48.3750    42.7490    45.9840   -31.8360 
  225.3750     2.3300    72.0120    23.4760    42.1270    39.3170    42.3520   -31.4870 
  225.5000     2.3390    74.4160    23.3710    35.9780    36.4250    39.2330   -31.1930 
  225.6250     2.3430    75.3790    23.2570    32.0300    33.9400    36.5900   -30.9150 
  225.7500     2.3490    76.0120    23.1970    30.5870    31.5590    34.1270   -30.6540 
  225.8750     2.3500    75.9480    23.1840    31.8020    29.1560    31.6820   -30.4080 
  226.0000     2.3380    75.6020    23.1600    32.3640    26.7500    29.2200   -30.1940 
  226.1250     2.3150    75.1260    23.1010    28.0740    24.5270    26.8920   -29.9980 
  226.2500     2.2930    74.0780    23.0500    24.1770    22.6440    24.8720   -29.8150 
  226.3750     2.2800    73.3830    23.0280    21.7820    21.1900    23.2710   -29.6290 
  226.5000     2.2720    73.6070    23.0270    20.6530    20.1450    22.0880   -29.4070 
  226.6250     2.2670    72.8420    23.0290    20.8430    19.4150    21.2410   -29.1610 
  226.7500     2.2620    69.4680    23.0280    20.9990    18.7730    20.5170   -28.9070 
  226.8750     2.2630    68.1660    23.0290    20.8670    18.0860    19.7840   -28.6560 
  227.0000     2.2710    72.3650    23.0280    20.1840    17.2890    18.9610   -28.4260 
  227.1250     2.2910    77.6800    23.0280    18.3720    16.3800    18.0210   -28.2300 
  227.2500     2.3250    79.4400    23.0330    17.7380    15.4380    17.0280   -28.0630 
  227.3750     2.3680    79.8770    23.0530    17.4280    14.5350    16.0490   -27.9060 
  227.5000     2.4050    83.8790    23.0750    16.3700    13.7610    15.1690   -27.7580 
  227.6250     2.4180    89.5800    23.0740    16.0370    13.2440    14.5350   -27.6320 
  227.7500     2.4130    92.4950    23.0190    15.2360    12.9780    14.1620   -27.5420 
  227.8750     2.4050    93.0340    22.8960    13.6970    12.9230    14.0160   -27.4960 
  228.0000     2.3990    91.2450    22.7580    13.9470    12.9910    14.0150   -27.5140 
  228.1250     2.3860    85.8040    22.8150    14.2140    13.0480    14.0150   -27.5750 
  228.2500     2.3570    79.5710    23.0810    14.4970    13.0050    13.9080   -27.6510 
  228.3750     2.3220    78.3270    23.3710    14.2740    12.8700    13.6960   -27.7450 
  228.5000     2.2940    82.4670    23.5070    13.8030    12.7290    13.4650   -27.8450 
  228.6250     2.2830    85.2440    23.4990    13.7460    12.7050    13.3370   -27.9290 
  228.7500     2.2780    84.6140    23.4900    14.4180    12.8200    13.3420   -27.9860 
  228.8750     2.2740    84.1060    23.4830    15.2820    13.0220    13.4440   -28.0140 
  229.0000     2.2720    85.9930    23.4530    15.8340    13.1970    13.5400   -28.0250 
  229.1250     2.2710    86.0840    23.4170    15.5920    13.2440    13.5130   -28.0150 
  229.2500     2.2710    80.9370    23.3950    15.1800    13.2490    13.4120   -27.9880 
  229.3750     2.2730    75.9330    23.3570    14.6960    13.3860    13.3830   -27.9500 
  229.5000     2.2770    76.1070    23.2840    14.2760    13.6020    13.8390   -27.8980 
  229.6250     2.2860    80.5740    23.1820    14.3740    14.2850    14.7940   -27.8480 
  229.7500     2.2910    84.1550    22.7770    16.6630    15.4070    16.1440   -27.7950 
  229.8750     2.2860    85.3450    21.8620    20.3470    16.8520    17.7020   -27.7460 
  230.0000     2.2720    83.7990    20.6830    22.7300    18.3530    19.1780   -27.6990 
  230.1250     2.2570    79.6920    20.0930    23.3750    19.5000    20.1790   -27.6440 
  230.2500     2.2460    76.0280    20.5480    23.4750    20.1060    20.5970   -27.5900 
  230.3750     2.2370    73.9940    21.7180    22.9470    20.1070    20.3970   -27.5280 
  230.5000     2.2310    72.3580    22.8650    22.5970    19.5020    19.5940   -27.4560 
  230.6250     2.2290    70.3280    23.3840    21.5200    18.3000    18.2240   -27.3860 
  230.7500     2.2340    70.0720    23.4870    20.5600    16.8400    16.6700   -27.3170 
  230.8750     2.2560    72.4610    23.5050    19.0570    15.4520    15.3040   -27.2540 
  231.0000     2.3030    76.6650    23.5160    16.1240    14.4450    14.4640   -27.1860 
  231.1250     2.3630    79.3520    23.5270    14.5150    14.1530    14.4790   -27.1130 
  231.2500     2.4100    79.1740    23.5300    17.2890    14.5350    15.2040   -27.0570 
  231.3750     2.4310    77.7670    23.5110    22.9740    15.4620    16.4250   -27.0260 
  231.5000     2.4270    77.4900    23.4730    26.4930    16.6680    17.7930   -27.0370 
  231.6250     2.4010    77.8250    23.4320    25.8920    17.7190    18.8090   -27.0830 
  231.7500     2.3620    78.2250    23.4040    25.4750    18.2880    19.2250   -27.1520 
  231.8750     2.3270    79.5740    23.3910    23.1520    18.2910    19.0520   -27.2430 
  232.0000     2.3200    81.1390    23.3900    20.3720    17.8790    18.5040   -27.3450 
  232.1250     2.3470    80.9250    23.3900    20.4290    17.2960    17.8290   -27.4490 
  232.2500     2.3790    80.0140    23.3980    19.4570    16.7560    17.2340   -27.5530 
  232.3750     2.3990    80.5570    23.3960    17.0460    16.4260    16.9410   -27.6400 
  232.5000     2.4100    82.0800    23.3400    15.1210    16.5590    17.2690   -27.7080 
  232.6250     2.4300    81.8470    23.2310    15.9910    17.6020    18.7170   -27.7550 
