~V
VERS. 2.00: Ver 2.00
~W
STRT.M 125.0000:
STOP.M 245.0000:
STEP.M 0.1250:
NULL. -999.2500:
UWI. DF3026:
~C
DEPT.M :
SP.MV :
GR.API :
CALI.CM :
RXO.OHMM :
RI. :
RML.OHMM :
DEN.GM/CC :
~A
# ...
  136.2500   -20.5840    84.7450    27.0400     5.5210     5.7120     6.4740     2.3210 
  136.3750   -20.3330    87.4160    27.0080     5.1490     5.5310     6.1600     2.3370 
  136.5000   -20.0870    84.4510    26.9740     4.9190     5.3070     5.8070     2.3340 
  136.6250   -19.8110    77.8660    26.9740     4.9200     5.2370     5.7140     2.3190 
  136.7500   -19.5200    74.5810    26.9430     5.0960     5.4670     6.0410     2.3160 
  136.8750   -19.2150    72.5730    26.9380     5.6710     6.0910     6.8750     2.3400 
  137.0000   -18.9160    65.9950    27.0130     7.2080     7.1120     8.2180     2.3920 
  137.1250   -18.6420    57.9140    27.0930     9.7970     8.3980     9.9320     2.4550 
  137.2500   -18.4040    53.4560    27.0230    12.0060     9.5720    11.5300     2.5020 
  137.3750   -18.1980    53.5330    26.8750    12.4970    10.3380    12.5700     2.5200 
  137.5000   -18.0260    55.5490    26.8150    11.4190    10.6290    12.9020     2.5170 
  137.6250   -17.8730    55.5770    26.8070    10.4820    10.6350    12.8210     2.5050 
  137.7500   -17.7270    53.0010    26.7530    11.4170    10.7170    12.9010     2.4950 
  137.8750   -17.5890    48.9920    26.6700    13.2120    11.0580    13.4050     2.4910 
  138.0000   -17.4520    45.3510    26.5890    14.0170    11.7350    14.3950     2.5000 
  138.1250   -17.3380    43.6910    26.5570    13.7140    12.7920    15.8480     2.5250 
  138.2500   -17.2330    43.3670    26.5470    14.0760    14.0880    17.5370     2.5550 
  138.3750   -17.1320    43.7720    26.5550    15.7400    15.5110    19.3140     2.5870 
  138.5000   -17.0250    43.5080    26.5700    18.4760    16.9350    21.0420     2.6160 
  138.6250   -16.9380    42.7950    26.5820    20.2000    18.1670    22.4880     2.6340 
  138.7500   -16.8730    42.9020    26.5690    20.3090    19.0210    23.4280     2.6380 
  138.8750   -16.8160    44.1910    26.5470    19.5610    19.3460    23.6850     2.6330 
  139.0000   -16.7810    46.2640    26.5180    18.5690    19.1320    23.2850     2.6240 
  139.1250   -16.7540    49.5090    26.4980    17.7270    18.5090    22.4250     2.6140 
  139.2500   -16.7350    52.4710    26.4910    17.0730    17.8090    21.4990     2.6080 
  139.3750   -16.7260    53.9040    26.5150    16.1810    17.2380    20.7430     2.6080 
  139.5000   -16.7320    52.4150    26.5820    15.0630    16.9440    20.3280     2.6130 
  139.6250   -16.7320    49.7870    26.6350    15.1130    17.1020    20.4850     2.6130 
  139.7500   -16.7350    49.6940    26.6550    16.4280    17.6830    21.1750     2.6070 
  139.8750   -16.7520    50.7730    26.6620    17.7930    18.6050    22.2930     2.5980 
  140.0000   -16.7630    49.6310    26.6750    18.5000    19.6600    23.5770     2.5880 
  140.1250   -16.7780    46.9190    26.7010    18.6150    20.4280    24.4890     2.5750 
  140.2500   -16.7900    48.0360    26.7200    18.4800    20.5850    24.5840     2.5610 
  140.3750   -16.7930    52.3320    26.7190    17.9840    20.0230    23.7120     2.5540 
  140.5000   -16.7810    54.2060    26.7220    17.2790    18.9040    22.1100     2.5550 
  140.6250   -16.7640    54.4570    26.7370    16.3810    17.5570    20.2690     2.5610 
  140.7500   -16.7410    56.9120    26.7620    14.9960    16.3490    18.6710     2.5690 
  140.8750   -16.7090    61.3650    26.7790    13.6540    15.4630    17.5310     2.5780 
  141.0000   -16.6770    62.7070    26.7850    13.1400    14.9520    16.8980     2.5810 
  141.1250   -16.6470    57.2610    26.7850    13.6570    14.7790    16.7230     2.5710 
  141.2500   -16.6260    50.6770    26.7850    14.5360    14.7500    16.7580     2.5510 
  141.3750   -16.6130    48.3450    26.7850    15.0870    14.7790    16.8780     2.5320 
  141.5000   -16.6040    50.0840    26.7750    14.7100    14.8440    17.0250     2.5210 
  141.6250   -16.6060    50.3030    26.7410    13.8290    15.0050    17.2400     2.5230 
  141.7500   -16.6100    48.3440    26.7100    13.4840    15.3370    17.6260     2.5310 
  141.8750   -16.6240    47.8050    26.7610    14.3710    15.9030    18.2800     2.5350 
  142.0000   -16.6530    50.7250    26.9160    15.7540    16.7010    19.2160     2.5320 
  142.1250   -16.6790    54.9410    27.0220    16.2500    17.6440    20.3480     2.5310 
  142.2500   -16.7140    55.7230    27.0500    16.3880    18.5260    21.4330     2.5380 
  142.3750   -16.7540    53.7830    27.0250    16.8630    19.1730    22.2480     2.5400 
  142.5000   -16.7990    53.1340    26.9800    17.2640    19.4840    22.6400     2.5220 
  142.6250   -16.8340    54.6180    26.9660    16.9960    19.4770    22.5910     2.4950 
  142.7500   -16.8510    52.5820    27.0130    16.6030    19.3870    22.3990     2.4860 
  142.8750   -16.8540    48.1580    27.1560    16.3860    19.3700    22.2910     2.5010 
  143.0000   -16.8480    46.7780    27.3400    16.7250    19.4620    22.3550     2.5250 
  143.1250   -16.8450    50.4280    27.4660    18.0330    19.5000    22.4300     2.5430 
  143.2500   -16.8330    53.3050    27.5090    19.9500    19.2200    22.1510     2.5570 
  143.3750   -16.8250    53.1420    27.5170    20.5930    18.4770    21.2850     2.5670 
  143.5000   -16.8240    53.0180    27.5180    18.4640    17.3730    19.9330     2.5670 
  143.6250   -16.8330    54.0780    27.5180    14.8810    16.2680    18.5580     2.5570 
  143.7500   -16.8570    54.6660    27.5220    12.5410    15.5270    17.6560     2.5500 
  143.8750   -16.8860    54.8790    27.5300    12.6010    15.3200    17.4690     2.5490 
  144.0000   -16.9090    58.0660    27.5370    14.2470    15.6610    18.0180     2.5500 
  144.1250   -16.9240    63.2490    27.5390    15.9690    16.4670    19.1800     2.5490 
  144.2500   -16.9370    64.7270    27.5390    17.1210    17.3990    20.4730     2.5470 
  144.3750   -16.9400    62.1890    27.5370    18.0900    18.1840    21.4970     2.5460 
  144.5000   -16.9340    59.1470    27.5320    18.6540    18.6450    22.0020     2.5470 
  144.6250   -16.9270    58.7990    27.5260    18.5780    18.7360    21.9500     2.5470 
  144.7500   -16.9180    58.3930    27.5290    18.1570    18.6480    21.6690     2.5440 
  144.8750   -16.9000    57.0110    27.5360    17.7330    18.5060    21.3660     2.5340 
  145.0000   -16.8910    57.4200    27.5390    17.5700    18.3830    21.1620     2.5200 
  145.1250   -16.8830    59.2020    27.5390    17.7130    18.3050    21.0990     2.5150 
  145.2500   -16.8700    58.6210    27.5390    17.8820    18.2240    21.0790     2.5210 
  145.3750   -16.8470    55.2650    27.5390    17.8840    18.0910    21.0010     2.5300 
  145.5000   -16.8240    53.2010    27.5390    17.5920    17.8870    20.8060     2.5310 
  145.6250   -16.7980    55.1270    27.5370    16.9840    17.6450    20.5140     2.5260 
  145.7500   -16.7630    55.2320    27.5330    16.4020    17.4400    20.2560     2.5270 
  145.8750   -16.7410    52.2060    27.5260    16.1990    17.3300    20.1440     2.5360 
  146.0000   -16.7200    48.2790    27.5180    16.5050    17.3220    20.2100     2.5440 
  146.1250   -16.6940    46.9230    27.5100    17.0230    17.3300    20.3280     2.5450 
  146.2500   -16.6650    47.7910    27.5070    17.3010    17.2010    20.2540     2.5440 
  146.3750   -16.6450    49.3390    27.5070    17.3980    16.8430    19.8320     2.5460 
  146.5000   -16.6160    50.9780    27.5070    17.0630    16.2690    19.0640     2.5470 
  146.6250   -16.5890    52.4360    27.5110    15.8360    15.6050    18.1420     2.5400 
  146.7500   -16.5800    53.0900    27.5190    14.6070    15.0430    17.3850     2.5280 
  146.8750   -16.5660    53.2030    27.5210    14.1250    14.6890    16.9760     2.5200 
  147.0000   -16.5550    54.0120    27.5190    14.2840    14.5750    16.9500     2.5170 
  147.1250   -16.5490    55.4440    27.5130    14.4940    14.6780    17.2220     2.5220 
  147.2500   -16.5460    55.6510    27.5090    14.6950    14.8620    17.5490     2.5310 
  147.3750   -16.5340    53.5260    27.5070    14.7650    15.0180    17.7750     2.5450 
