~V
VERS. 2.00: Ver 2.00
~W
STRT.M 110.0000:
STOP.M 277.0000:
STEP.M 0.1250:
NULL. -999.2500:
UWI. DF3015:
~C
DEPT.M :
DEN.GM/CC :
SP.MV :
AC.US/MT :
GR.API :
CALI.CM :
RXO.OHMM :
RI. :
RML.OHMM :
~A
# ...
  170.0000     2.2900   -22.2420   407.9510    67.9950    25.8200    51.2030    69.8270    73.9710 
  170.1250     2.2780   -22.2950   408.2100    68.8170    25.8200    54.9310    71.2060    76.8930 
  170.2500     2.2650   -22.3720   408.2650    69.6810    25.8200    61.0110    73.8480    81.1520 
  170.3750     2.2550   -22.4650   408.2090    69.9290    25.8200    66.5550    77.3460    86.2960 
  170.5000     2.2530   -22.5700   408.2320    70.0520    25.8200    70.8000    81.3450    91.9460 
  170.6250     2.2550   -22.7230   408.3960    70.5140    25.8200    75.8140    85.7260    98.0130 
  170.7500     2.2550   -22.8990   408.5110    70.4980    25.8180    80.6650    90.5630   104.6730 
  170.8750     2.2540   -23.1260   408.4110    68.2070    25.8150    86.3330    96.1470   112.3430 
  171.0000     2.2570   -23.3820   408.0710    64.9500    25.8150    95.2160   102.6900   121.3110 
  171.1250     2.2620   -23.6370   407.5200    63.3650    25.8180   107.6320   110.2880   131.6870 
  171.2500     2.2650   -23.8650   406.8200    64.6140    25.8200   120.0180   118.6370   143.0280 
  171.3750     2.2640   -24.0680   406.0790    67.9180    25.8200   130.3040   127.8180   155.4200 
  171.5000     2.2610   -24.2750   405.5730    69.2230    25.8200   137.2810   138.1740   169.3190 
  171.6250     2.2530   -24.4930   405.6940    67.3440    25.8200   144.5650   150.6370   185.9390 
  171.7500     2.2420   -24.7040   406.2790    64.6410    25.8200   163.6330   165.3770   205.4800 
  171.8750     2.2290   -24.8850   406.9190    62.6330    25.8200   197.3640   182.0280   227.3860 
  172.0000     2.2180   -25.0530   407.2050    60.8900    25.8200   232.0060   199.0920   249.5580 
  172.1250     2.2130   -25.2440   406.9460    59.7690    25.8200   250.0920   213.5200   267.7530 
  172.2500     2.2100   -25.4620   406.5230    60.0030    25.8200   255.9470   223.4510   279.6490 
  172.3750     2.2060   -25.6700   406.3340    59.5520    25.8200   255.0170   228.4040   284.9110 
  172.5000     2.2020   -25.8450   406.6050    57.5000    25.8200   250.4460   229.2980   285.0270 
  172.6250     2.2000   -25.9240   407.2740    55.7530    25.8200   246.3890   227.4650   281.7780 
  172.7500     2.1970   -25.9790   407.9550    54.5950    25.8200   244.6630   224.5130   277.0100 
  172.8750     2.1920   -25.9990   408.3770    53.7730    25.8200   242.2790   220.8300   271.0880 
  173.0000     2.1900   -25.9450   408.3850    53.7760    25.8200   236.8780   216.5750   264.2270 
  173.1250     2.2010   -25.8580   407.9320    54.9840    25.8200   230.1740   212.0800   256.9210 
  173.2500     2.2190   -25.8050   407.2640    57.9770    25.8200   224.9050   207.9140   249.9590 
  173.3750     2.2290   -25.7660   406.5110    61.5570    25.8200   220.7570   204.4080   243.7400 
  173.5000     2.2280   -25.6840   405.6920    63.2680    25.8200   215.8480   201.6780   238.4410 
  173.6250     2.2310   -25.5460   404.8510    63.1240    25.7950   211.1310   199.9080   234.3260 
  173.7500     2.2470   -25.3750   404.2570    62.5630    25.7320   202.8650   197.6920   229.1900 
  173.8750     2.2650   -25.2640   404.1310    61.7830    25.6490   189.8820   191.2690   217.7420 
  174.0000     2.2720   -25.2280   404.3430    61.1380    25.5740   176.8900   176.8190   195.9180 
  174.1250     2.2640   -25.2490   404.3740    62.1010    25.5260   171.3560   153.8370   166.1150 
  174.2500     2.2510   -25.1840   403.9050    64.7210    25.5070   162.7300   129.0340   137.4200 
  174.3750     2.2430   -25.0530   403.1890    66.5380    25.5030   137.1550   107.1590   114.1670 
  174.5000     2.2430   -24.9320   402.9140    67.5340    25.5030   100.4720    90.5770    97.3700 
  174.6250     2.2530   -24.8250   403.8030    69.0520    25.5030    91.8480    79.9660    86.6670 
  174.7500     2.2670   -24.6970   405.4110    70.8390    25.5020    93.2270    72.8060    79.2310 
  174.8750     2.2790   -24.4790   406.8740    70.3670    25.5000    85.6300    67.8870    73.9230 
  175.0000     2.2840   -24.1810   407.4110    70.0090    25.5010    68.6420    64.8140    70.3720 
  175.1250     2.2690   -23.7830   406.6990    70.6190    25.5020    57.5660    63.8320    68.8790 
  175.2500     2.2430   -23.4020   405.4030    70.3270    25.5020    55.5120    64.6250    69.2760 
  175.3750     2.2270   -23.0870   404.1190    68.4120    25.4990    59.6650    67.0760    71.5250 
  175.5000     2.2360   -22.8120   403.2500    68.1670    25.4970    69.4970    70.6560    75.0480 
  175.6250     2.2580   -22.6490   403.0260    69.9610    25.4800    76.8000    74.0970    78.4080 
  175.7500     2.2740   -22.5540   403.2580    71.4140    25.4510    75.8930    76.2630    80.3830 
  175.8750     2.2810   -22.5180   403.6500    71.4110    25.4240    68.4680    76.6800    80.5010 
  176.0000     2.2820   -22.5300   403.7260    71.4910    25.4140    60.7300    74.8960    78.2990 
  176.1250     2.2750   -22.5230   402.7340    70.3070    25.4160    56.4180    69.9150    72.7820 
  176.2500     2.2680   -22.4600   400.5690    68.3680    25.4200    55.8700    62.4540    64.8130 
  176.3750     2.2740   -22.3100   397.6360    67.5970    25.4210    50.9080    53.8250    55.8540 
  176.5000     2.2970   -22.0810   394.9320    67.2370    25.4140    37.4130    45.8100    47.7790 
  176.6250     2.3310   -21.7720   394.1410    67.4320    25.3910    25.5640    40.3920    42.6750 
  176.7500     2.3620   -21.4400   395.7360    69.1240    25.3660    23.8410    37.9140    40.8540 
  176.8750     2.3770   -21.1480   399.2570    71.5250    25.3820    29.7440    38.4220    42.3500 
  177.0000     2.3650   -20.9400   402.9790    72.0760    25.4490    37.4610    41.8040    46.9570 
  177.1250     2.3140   -20.8440   403.2020    70.8500    25.4850    44.9500    48.0550    54.4160 
  177.2500     2.2510   -20.8320   398.2200    69.8140    25.4950    51.3130    55.6260    62.8740 
  177.3750     2.2110   -20.9310   389.0660    69.4070    25.4940    56.0270    62.9440    70.5880 
  177.5000     2.2200   -21.1680   379.7540    69.7150    25.4940    60.1740    68.7090    76.2980 
  177.6250     2.2610   -21.5350   376.3340    70.5350    25.4860    64.4140    72.2900    79.6250 
  177.7500     2.2900   -21.9700   379.8860    70.7490    25.4660    66.7030    74.5760    81.7980 
  177.8750     2.2930   -22.3840   388.1560    71.1940    25.4390    67.0880    76.2560    83.6670 
  178.0000     2.2790   -22.7520   397.0840    72.5160    25.4240    70.0770    77.7740    85.7050 
  178.1250     2.2670   -23.0580   402.9780    72.7160    25.4210    77.1020    78.9830    87.6530 
  178.2500     2.2630   -23.3390   405.9670    69.8710    25.4210    83.8780    79.3120    88.6150 
  178.3750     2.2640   -23.5630   407.1510    66.2330    25.4210    83.9550    78.1130    87.6450 
  178.5000     2.2650   -23.7240   407.4690    64.5030    25.4190    75.5520    75.0760    84.2810 
  178.6250     2.2600   -23.7610   407.2670    65.5500    25.4160    63.6560    70.4870    78.9410 
  178.7500     2.2570   -23.7310   406.9730    68.5910    25.4170    56.8420    65.7440    73.4840 
  178.8750     2.2670   -23.6610   406.9280    70.3640    25.4200    54.1790    61.9230    69.2400 
  179.0000     2.2940   -23.5630   407.1570    69.7480    25.4210    54.0310    59.7720    67.0280 
  179.1250     2.3160   -23.5570   407.2900    69.3600    25.4220    55.5910    59.9650    67.4830 
  179.2500     2.3160   -23.6140   407.0140    72.0780    25.4200    59.0740    62.0270    69.9340 
  179.3750     2.2970   -23.7410   406.3840    74.2120    25.4010    63.1710    65.5190    73.8090 
  179.5000     2.2770   -23.8790   405.7880    71.2970    25.3490    68.1010    69.7900    78.3260 
  179.6250     2.2660   -24.0100   405.7840    65.6640    25.2890    72.9040    73.9230    82.4070 
  179.7500     2.2600   -24.1470   406.4390    62.6610    25.2630    74.7740    77.2010    85.3770 
  179.8750     2.2560   -24.3550   407.6120    65.1480    25.2580    75.0190    79.4450    87.1980 
