~V
VERS. 2.00: Ver 2.00
~W
STRT.M 70.0000:
STOP.M 278.0000:
STEP.M 0.1250:
NULL. -999.2500:
UWI. DF3060:
~C
DEPT.M :
SP.MV :
GR.API :
RML.OHMM :
RI. :
RXO.OHMM :
CALI.CM :
DEN.GM/CC :
~A
# ...
  182.5000   -32.5330    69.5410   183.6410   177.6940   228.6050    20.2100     2.2460 
  182.6250   -32.7790    67.4340   184.7750   178.9190   299.8540    20.2100     2.2440 
  182.7500   -33.0550    65.4120   182.8950   176.8930   305.5990    20.2100     2.2410 
  182.8750   -33.3410    64.7380   179.3610   172.7520   282.7490    20.2100     2.2390 
  183.0000   -33.6320    64.8760   175.9530   168.1970   402.5620    20.2100     2.2410 
  183.1250   -33.9220    64.6080   174.3180   164.9970   757.2560    20.2100     2.2460 
  183.2500   -34.2060    63.5680   174.4930   163.5730  1156.1730    20.2100     2.2520 
  183.3750   -34.4800    61.5320   176.1820   163.8490  1522.8350    20.2100     2.2560 
  183.5000   -34.7240    59.7000   179.2520   165.7400  1744.3340    20.2100     2.2570 
  183.6250   -34.9350    60.1740   184.5600   169.9640  1276.3870    20.2110     2.2540 
  183.7500   -35.1120    61.6060   192.8730   177.0740   925.0280    20.2150     2.2490 
  183.8750   -35.2660    62.0050   205.0720   187.8840   845.6050    20.2240     2.2410 
  184.0000   -35.3900    60.8390   221.4770   202.7760   778.5820    20.2410     2.2320 
  184.1250   -35.4950    60.2520   241.7870   221.7330   624.4840    20.2690     2.2220 
  184.2500   -35.5850    61.3250   262.7680   242.0300   478.6070    20.2940     2.2120 
  184.3750   -35.6430    61.7510   280.2130   260.1290   408.4750    20.3160     2.2040 
  184.5000   -35.6950    59.8650   288.7640   271.2930   426.7510    20.3430     2.1970 
  184.6250   -35.7330    58.1220   280.5650   268.1340   616.7800    20.3560     2.1940 
  184.7500   -35.7530    59.3340   256.6650   250.3170   910.2510    20.3590     2.1960 
  184.8750   -35.7410    61.2900   222.2970   221.0210  1265.4240    20.3590     2.2030 
  185.0000   -35.6950    60.8910   187.2660   188.0620  1623.5750    20.3590     2.2150 
  185.1250   -35.6110    60.2640   163.0280   162.1350  1545.8690    20.3590     2.2260 
  185.2500   -35.5000    62.5610   151.9090   147.6190  1269.0900    20.3600     2.2310 
  185.3750   -35.3840    65.3090   152.5960   144.6180  1091.3580    20.3600     2.2270 
  185.5000   -35.2860    65.1500   161.2590   150.3030  1046.8350    20.3630     2.2210 
  185.6250   -35.2220    62.4050   172.1250   159.8740   923.2290    20.3710     2.2180 
  185.7500   -35.1820    61.1110   179.0710   167.2450   980.2820    20.3890     2.2220 
  185.8750   -35.1610    62.2150   179.8200   169.6450  1342.5820    20.4220     2.2300 
  186.0000   -35.1580    64.0320   176.3650   167.8010  1924.5320    20.4640     2.2380 
  186.1250   -35.1620    65.9480   174.7810   166.1830  2425.0540    20.5170     2.2390 
  186.2500   -35.1880    67.2380   179.2530   169.0730  2436.0490    20.5800     2.2350 
  186.3750   -35.2370    67.8320   189.9260   177.4310  1719.4860    20.6420     2.2290 
  186.5000   -35.2860    68.1490   204.0610   189.4550  1243.0690    20.6920     2.2240 
  186.6250   -35.3300    67.9200   216.9590   201.2980  1197.4690    20.7320     2.2220 
  186.7500   -35.3500    66.4860   225.5570   209.7960  1277.5180    20.7740     2.2210 
  186.8750   -35.3750    63.8960   229.8220   214.3560  1295.1340    20.8340     2.2220 
  187.0000   -35.3960    62.0710   232.0140   216.5000  1110.2160    20.9100     2.2230 
  187.1250   -35.4250    62.4880   235.1780   218.8260   968.7460    20.9710     2.2240 
  187.2500   -35.4360    62.5200   239.9880   222.5110  1210.8420    21.0040     2.2230 
  187.3750   -35.4050    61.4430   244.7570   226.5100  2127.2870    21.0140     2.2180 
  187.5000   -35.3410    59.8620   246.4820   228.3750  3316.0640    21.0140     2.2110 
  187.6250   -35.2340    58.5790   241.0820   224.4670  4842.0760    21.0140     2.2040 
  187.7500   -35.1030    58.2490   228.9400   214.6650  5588.2890    21.0140     2.2020 
  187.8750   -34.9400    59.0110   212.6300   200.7340  4388.4600    21.0140     2.2000 
  188.0000   -34.7550    60.8690   196.7550   186.3150  2774.1880    21.0110     2.1960 
  188.1250   -34.5570    61.9090   186.6720   176.0780  1836.2650    20.9990     2.1860 
  188.2500   -34.3520    61.5840   182.6980   171.0090  1344.8010    20.9720     2.1740 
  188.3750   -34.1250    59.8370   182.7580   169.8250   984.2040    20.9170     2.1660 
  188.5000   -33.9010    57.5200   183.2410   169.6880   855.4910    20.8300     2.1670 
  188.6250   -33.6870    56.3970   179.6100   166.7450  1134.7800    20.7630     2.1770 
  188.7500   -33.5100    56.9710   171.1160   159.8230  1551.7870    20.7500     2.1900 
  188.8750   -33.3330    58.6020   160.1800   150.4820  1897.0030    20.7820     2.2000 
  189.0000   -33.1930    60.5240   151.4760   142.4530  1977.7820    20.8490     2.2060 
  189.1250   -33.0600    62.2420   151.1310   141.2250  1503.2380    20.9450     2.2030 
  189.2500   -32.9580    62.6960   160.1730   148.3400   749.5240    20.9970     2.1940 
  189.3750   -32.9100    61.1200   177.4220   163.1860   413.2360    21.0130     2.1800 
  189.5000   -32.9060    58.3390   198.9120   182.4300   332.3920    21.0140     2.1660 
  189.6250   -32.9480    56.0590   217.4680   199.6510   329.6660    21.0140     2.1570 
  189.7500   -33.0250    55.3630   227.5590   209.4500   291.0840    21.0140     2.1580 
  189.8750   -33.1600    56.4190   227.8470   210.0930   238.1320    21.0140     2.1660 
  190.0000   -33.3020    57.9290   221.2160   203.6200   192.2290    21.0140     2.1780 
  190.1250   -33.4950    57.8660   212.3280   194.0430   191.3680    21.0140     2.1870 
  190.2500   -33.6930    56.7500   204.2550   184.9730   220.9190    21.0140     2.1930 
  190.3750   -33.8730    56.0220   197.0810   177.1910   249.0100    21.0140     2.1990 
  190.5000   -34.0230    56.7090   190.2660   170.5670   262.7040    21.0140     2.2060 
  190.6250   -34.1280    57.9450   183.8260   165.1330   238.3890    21.0140     2.2130 
  190.7500   -34.1750    58.3220   178.4190   160.9830   206.1710    21.0140     2.2190 
  190.8750   -34.1630    58.9130   174.7790   158.5180   204.0860    21.0140     2.2220 
  191.0000   -34.1320    60.0310   173.0800   157.8750   565.4670    21.0140     2.2220 
  191.1250   -34.0560    60.5100   172.6570   158.6480  1153.7090    21.0140     2.2240 
  191.2500   -33.9340    60.1410   171.8660   159.3740  1945.9820    21.0150     2.2270 
  191.3750   -33.7980    59.8860   169.5690   158.8470  2893.2700    21.0160     2.2340 
  191.5000   -33.6200    60.2540   165.2650   156.2790  2611.9940    21.0240     2.2410 
  191.6250   -33.4170    59.8180   159.1490   151.4180  1592.8990    21.0520     2.2460 
  191.7500   -33.1990    58.9240   152.4910   145.4440   738.6010    21.1110     2.2490 
  191.8750   -32.9760    58.6540   145.9720   139.1540   357.0630    21.2240     2.2470 
  192.0000   -32.7290    59.6650   139.7890   132.9750   218.4020    21.3940     2.2410 
  192.1250   -32.4770    61.1880   133.7970   126.9830   148.3210    21.4920     2.2340 
  192.2500   -32.2430    61.4520   127.6050   121.0290   104.6900    21.5260     2.2270 
  192.3750   -32.0420    61.1400   121.2350   115.1410    97.6420    21.5290     2.2230 
  192.5000   -31.9170    62.1800   115.5390   109.7990   121.5190    21.5290     2.2240 
  192.6250   -31.8620    64.1410   112.8490   106.7650   149.5610    21.5290     2.2290 
  192.7500   -31.8770    65.0150   115.9440   107.9780   172.7660    21.5290     2.2350 
  192.8750   -31.9520    65.3190   127.3370   115.7000   183.9250    21.5290     2.2370 
  193.0000   -32.0760    65.9390   148.4620   131.5960   204.8850    21.5290     2.2310 
  193.1250   -32.2390    64.5730   179.4370   156.5690   305.1180    21.5250     2.2170 
  193.2500   -32.4020    60.9080   211.5360   185.4400   487.8030    21.5140     2.2010 
  193.3750   -32.5520    56.7980   239.3370   211.9090   686.5540    21.4860     2.1860 
  193.5000   -32.6680    53.8130   254.9660   229.0430   815.2430    21.4270     2.1780 
  193.6250   -32.7060    52.1240   251.6190   230.1920   778.1720    21.3170     2.1780 
