~V
VERS. 2.00: Ver 2.00
~W
STRT.M 57.0000:
STOP.M 290.0000:
STEP.M 0.1250:
NULL. -999.2500:
UWI. DF3043:
~C
DEPT.M :
SP.MV :
DEN.GM/CC :
AC.US/MT :
GR.API :
CALI.CM :
RXO.OHMM :
RI. :
RML.OHMM :
~A
# ...
  267.0000   -13.2340     2.3840   337.0180    63.7050    24.1240     5.8780     5.4930     6.8960 
  267.1250   -13.2370     2.3770   341.8830    65.0540    23.9920     5.9280     5.4530     6.9180 
  267.2500   -13.2900     2.3590   350.5630    66.6880    23.8700     6.2010     5.4520     6.9760 
  267.3750   -13.3580     2.3330   356.3760    67.8420    23.7920     6.6170     5.4910     7.0590 
  267.5000   -13.3900     2.2900   354.1610    68.5560    23.8000     6.8730     5.5600     7.1460 
  267.6250   -13.3740     2.2340   346.3140    68.2040    23.9540     6.8810     5.6360     7.2000 
  267.7500   -13.3550     2.1960   340.5000    66.4370    24.1430     6.8610     5.6920     7.2100 
  267.8750   -13.3400     2.2100   338.7630    64.8100    24.2150     6.8260     5.7070     7.1730 
  268.0000   -13.2970     2.2650   339.0680    66.6270    24.1760     6.7070     5.6780     7.1010 
  268.1250   -13.1990     2.3230   341.9880    69.4590    24.0850     6.0640     5.6100     7.0090 
  268.2500   -13.0930     2.3440   349.3640    68.8140    23.7450     5.4620     5.5200     6.9110 
  268.3750   -13.0140     2.3390   358.9980    65.3540    23.1810     5.2290     5.4170     6.8050 
  268.5000   -12.9500     2.3270   366.4520    64.0020    22.8400     5.3260     5.3100     6.6880 
  268.6250   -12.8580     2.3200   369.4950    66.9800    23.1030     5.3030     5.2040     6.5670 
  268.7500   -12.7390     2.3130   370.9820    69.9240    23.5210     5.1350     5.1100     6.4630 
  268.8750   -12.6220     2.2910   371.6640    69.8270    23.7490     5.0780     5.0460     6.3970 
  269.0000   -12.5250     2.2570   369.9690    66.5860    23.8520     5.2970     5.0230     6.3820 
  269.1250   -12.4440     2.2330   364.9450    63.4000    23.9560     5.6980     5.0470     6.4180 
  269.2500   -12.3790     2.2470   359.5930    64.1110    24.0320     5.6210     5.0990     6.4700 
  269.3750   -12.3610     2.2700   355.9930    67.4300    24.0970     5.2800     5.1640     6.5080 
  269.5000   -12.4090     2.2720   354.0440    69.4600    24.1540     5.1200     5.2170     6.5090 
  269.6250   -12.4890     2.2480   352.7240    68.2160    24.1730     5.2120     5.2370     6.4610 
  269.7500   -12.5300     2.2260   352.3830    65.5720    24.1680     5.2970     5.2250     6.3920 
  269.8750   -12.5320     2.2210   353.8560    61.6340    24.1380     5.3300     5.1850     6.3300 
  270.0000   -12.5530     2.2240   356.9360    56.9820    24.0950     5.3900     5.1330     6.2990 
  270.1250   -12.6380     2.2280   360.7650    56.1890    24.1040     5.4000     5.0920     6.3180 
  270.2500   -12.7360     2.2360   363.9540    59.3360    24.1930     5.2180     5.0730     6.3750 
  270.3750   -12.7970     2.2510   365.9090    63.5440    24.1880     4.9650     5.0740     6.4530 
  270.5000   -12.8200     2.2680   366.9750    65.9440    23.8780     4.8160     5.0870     6.5330 
  270.6250   -12.8760     2.2810   366.7550    66.5010    23.3940     4.7640     5.1010     6.5900 
  270.7500   -12.9760     2.2880   365.6210    66.5140    23.1930     4.6880     5.1070     6.6190 
  270.8750   -13.0610     2.2940   364.5440    66.0850    23.3400     4.7390     5.1110     6.6230 
  271.0000   -13.0670     2.3080   364.4640    65.5350    23.5560     5.1760     5.1260     6.6220 
  271.1250   -12.9920     2.3300   362.6540    64.7350    23.6720     6.3030     5.1590     6.6430 
  271.2500   -12.9200     2.3490   355.2500    64.2550    23.7770     7.5330     5.2060     6.6990 
  271.3750   -12.8830     2.3580   344.0910    63.7690    23.6850     7.7750     5.2600     6.7850 
  271.5000   -12.8710     2.3570   336.4310    63.9660    23.0810     7.0000     5.3060     6.8840 
  271.6250   -12.8580     2.3510   339.1530    66.0460    22.0900     6.4380     5.3290     6.9700 
  271.7500   -12.8350     2.3380   347.2720    67.8910    21.5550     6.0780     5.3310     7.0300 
  271.8750   -12.8010     2.3220   354.5230    67.8580    21.8930     5.9320     5.3110     7.0590 
  272.0000   -12.7580     2.3080   358.3390    66.1300    22.7340     5.7570     5.2730     7.0600 
  272.1250   -12.7170     2.2970   360.4110    63.9710    23.2740     5.4640     5.2270     7.0320 
  272.2500   -12.6970     2.2730   363.8010    63.1740    23.3920     5.2590     5.1860     6.9830 
  272.3750   -12.7020     2.2340   369.1180    64.8320    23.4270     5.2870     5.1550     6.9160 
  272.5000   -12.7150     2.1930   374.2540    69.3460    23.6310     5.2620     5.1350     6.8460 
  272.6250   -12.7050     2.1660   376.9910    72.6190    23.9640     5.0600     5.1310     6.7920 
  272.7500   -12.6720     2.1500   376.7110    69.9140    24.2490     4.8890     5.1370     6.7640 
  272.8750   -12.6370     2.1350   372.8210    63.5180    24.4140     4.8410     5.1480     6.7650 
  273.0000   -12.6200     2.1210   366.1240    60.0630    24.4720     4.8520     5.1640     6.7910 
  273.1250   -12.6300     2.1170   357.9090    62.3010    24.4550     4.8950     5.1850     6.8410 
  273.2500   -12.6480     2.1270   352.0500    63.9060    24.4090     4.8950     5.2060     6.9070 
  273.3750   -12.6550     2.1430   350.4700    62.0370    24.3500     4.9170     5.2270     6.9840 
  273.5000   -12.6530     2.1590   351.9940    58.6260    24.3000     4.9460     5.2520     7.0670 
  273.6250   -12.6600     2.1720   348.9920    58.9660    24.2790     4.9310     5.2840     7.1450 
  273.7500   -12.6850     2.1770   337.0220    63.0360    24.2840     5.0770     5.3220     7.2070 
  273.8750   -12.7200     2.1710   322.4920    67.0120    24.3070     5.4480     5.3620     7.2490 
  274.0000   -12.7510     2.1520   314.6310    67.0030    24.3260     5.7130     5.3980     7.2700 
  274.1250   -12.7600     2.1400   314.9340    64.9270    24.3540     5.4830     5.4170     7.2770 
  274.2500   -12.7490     2.1720   313.6430    66.2350    24.4060     5.3170     5.4280     7.2880 
  274.3750   -12.7280     2.2460   306.7670    69.3820    24.4860     5.4520     5.4450     7.3200 
  274.5000   -12.7020     2.3300   297.4510    69.3780    24.6050     5.6150     5.4770     7.3880 
  274.6250   -12.6550     2.3910   289.8990    64.5790    24.7600     5.5630     5.5290     7.4990 
  274.7500   -12.6020     2.4140   285.0000    61.0700    24.8950     5.4020     5.5960     7.6320 
  274.8750   -12.5900     2.4190   282.4220    61.9540    24.8570     5.3550     5.6700     7.7690 
  275.0000   -12.6500     2.4170   281.1190    64.0930    24.5790     5.3560     5.7390     7.8900 
  275.1250   -12.7350     2.4090   281.0360    63.7920    24.3430     5.5390     5.7940     7.9760 
  275.2500   -12.7480     2.3940   282.6300    64.0450    24.3970     6.6430     5.8350     8.0300 
  275.3750   -12.6710     2.3760   285.6720    67.2040    24.6250     9.1210     5.8580     8.0440 
  275.5000   -12.5710     2.3550   289.4820    70.0310    24.7610    11.2010     5.8560     8.0030 
  275.6250   -12.5620     2.3310   296.1010    68.7740    24.7770    10.9380     5.8120     7.8840 
  275.7500   -12.6560     2.2930   309.6850    67.5750    24.7930     9.2310     5.7260     7.7030 
  275.8750   -12.7810     2.2300   327.7590    67.2250    24.7980     7.5070     5.6010     7.4840 
  276.0000   -12.8360     2.1390   344.0970    65.6570    25.0180     6.1000     5.4520     7.2570 
  276.1250   -12.7370     2.0260   366.5310    62.6260    25.6510     5.5520     5.3010     7.0550 
  276.2500   -12.5420     1.9130   398.7990    60.3780    26.3310     5.5300     5.1610     6.8860 
  276.3750   -12.3260     1.8250   431.7210    59.6650    26.8830     5.5040     5.0420     6.7540 
  276.5000   -12.1530     1.7810   453.4810    59.3660    27.2550     5.2690     4.9490     6.6590 
  276.6250   -12.0570     1.7860   451.0390    59.7680    27.1460     5.0060     4.8920     6.6130 
  276.7500   -12.0130     1.8360   430.2230    60.9930    26.5640     4.8460     4.8660     6.6080 
  276.8750   -11.9930     1.9040   405.2400    62.1340    25.9210     4.8000     4.8720     6.6350 
