~V
VERS. 2.00: Ver 2.00
~W
STRT.M 61.0000:
STOP.M 318.0000:
STEP.M 0.1250:
NULL. -999.2500:
UWI. DF302:
~C
DEPT.M :
DEN.GM/CC :
SP.MV :
AC.US/MT :
GR.API :
CALI.CM :
RXO.OHMM :
RI. :
RML.OHMM :
~A
# ...
  231.0000     2.2870   -29.5130   422.0150    66.9520    24.0130    33.7620    24.1500    27.6990 
  231.1250     2.2850   -29.6860   419.5600    66.6250    24.2180    34.1830    24.8370    28.4310 
  231.2500     2.2730   -29.8630   415.8140    68.2510    24.3840    34.4160    25.7100    29.4470 
  231.3750     2.2520   -30.0250   411.9940    70.1700    24.3870    36.2980    26.8050    30.7430 
  231.5000     2.2340   -30.1670   408.7070    69.4510    24.2320    39.9970    28.0040    32.1120 
  231.6250     2.2390   -30.2490   405.8240    65.2470    24.0910    43.5050    29.0220    33.1500 
  231.7500     2.2620   -30.2820   404.1440    63.2440    24.0710    45.3750    29.6550    33.6620 
  231.8750     2.2810   -30.2670   405.1690    65.9310    24.1180    45.3600    29.8980    33.7390 
  232.0000     2.3000   -30.2180   409.3410    70.3430    24.1510    43.3800    29.9770    33.7570 
  232.1250     2.3040   -30.1130   414.8430    71.8320    24.1670    40.6120    30.2420    34.1940 
  232.2500     2.2950   -29.9590   418.0360    69.9460    24.1940    39.9480    30.6990    34.9580 
  232.3750     2.2820   -29.7610   416.7520    66.5860    24.2150    43.0240    30.9470    35.4400 
  232.5000     2.2770   -29.5470   411.6040    64.0620    24.2080    47.7470    30.3300    34.7230 
  232.6250     2.2850   -29.3570   406.0570    65.6150    24.1800    46.2930    28.2220    32.0130 
  232.7500     2.3010   -29.2230   402.9350    71.2400    24.1610    37.6000    25.3080    28.3350 
  232.8750     2.3180   -29.1750   401.8560    77.6850    24.1560    27.3370    22.5000    24.9600 
  233.0000     2.3290   -29.2310   401.1060    81.4830    24.1520    21.0230    20.5550    22.8740 
  233.1250     2.3250   -29.4020   398.8040    78.8640    24.1230    20.7160    20.1310    22.8830 
  233.2500     2.3070   -29.6630   395.1220    72.6250    24.0980    25.1760    21.2370    24.8560 
  233.3750     2.2800   -29.9870   391.9480    66.5950    24.1170    33.1240    24.0250    28.8280 
  233.5000     2.2490   -30.3460   391.7320    63.0270    24.1770    41.8160    28.5760    34.7460 
  233.6250     2.2290   -30.6870   395.9040    61.9650    24.2150    50.5720    34.9980    42.6010 
  233.7500     2.2250   -30.9520   399.6120    62.3800    24.2050    64.2710    42.4950    51.4930 
  233.8750     2.2290   -31.0920   411.3820    62.2560    24.1790    84.8620    50.2740    60.5180 
  234.0000     2.2280   -31.0720   416.8950    60.2720    24.1610   103.8600    57.3550    68.4840 
  234.1250     2.2180   -30.9020   419.5470    57.3420    24.1560   111.4270    62.4060    73.7260 
  234.2500     2.2130   -30.6260   419.5910    57.0710    24.1740   112.7170    65.1270    76.0070 
  234.3750     2.2170   -30.2850   418.1400    59.3410    24.2200   112.3440    65.6390    75.6920 
  234.5000     2.2190   -29.8890   415.4150    62.1680    24.2730   110.4820    64.6370    73.8820 
  234.6250     2.2150   -29.4990   409.6850    64.4080    24.2020   109.0750    63.2300    72.1100 
  234.7500     2.2220   -29.1460   397.5220    66.3420    23.9200   109.3970    62.6130    71.6260 
  234.8750     2.2580   -28.8570   375.8250    65.3520    23.5270   110.3550    63.6720    73.2650 
  235.0000     2.3300   -28.6590   342.6270    60.6420    23.2760   111.5910    67.1190    77.5770 
  235.1250     2.4120   -28.5910   304.1370    55.3770    23.3880   118.3810    73.3400    84.6350 
  235.2500     2.5750   -28.6170   267.9050    53.7930    23.7730   137.1440    80.5060    92.1200 
  235.3750     2.6310   -28.7190   241.4110    55.0180    24.2600   166.0160    86.5070    97.5630 
  235.5000     2.6560   -28.8940   231.4150    57.1730    24.6480   183.3090    89.9150    99.8040 
  235.6250     2.6660   -29.1130   232.7240    57.6800    24.7710   160.8230    90.6160    99.4390 
  235.7500     2.6630   -29.3190   236.8030    56.3110    24.7630   122.7740    89.1280    96.4080 
  235.8750     2.6390   -29.4450   234.6480    54.4590    24.7660   102.6870    82.9620    86.6050 
  236.0000     2.6150   -29.4020   222.8500    53.9970    24.7970   119.2820    68.7240    67.1060 
  236.1250     2.6200   -29.0550   211.6690    53.9870    24.7950   181.9000    47.9310    43.9020 
  236.2500     2.6510   -28.3840   213.6320    53.1270    24.7770   179.2560    29.4450    26.0050 
  236.3750     2.6640   -27.3920   236.1450    52.4960    24.7360    98.2090    16.9560    14.7750 
  236.5000     2.6330   -26.1400   277.3570    52.0650    24.6350    22.1470     9.8940     8.5230 
  236.6250     2.5780   -24.7170   321.1700    48.5650    24.4660     7.4910     6.6490     5.6670 
  236.7500     2.5300   -23.2640   357.0060    43.9180    24.3150     4.4200     5.0620     4.4050 
  236.8750     2.4980   -21.8690   381.3920    42.1160    24.2350     4.0530     4.4100     4.0870 
  237.0000     2.4640   -20.6100   396.2110    43.7220    24.2030     4.1300     4.3170     4.2850 
  237.1250     2.4260   -19.5880   406.7210    45.6530    24.1880     4.2480     4.5560     4.6660 
  237.2500     2.3920   -18.8340   413.2350    47.0790    24.1850     4.5190     4.8760     4.9850 
  237.3750     2.3790   -18.3370   413.2780    50.0740    24.1720     4.8560     5.1790     5.2070 
  237.5000     2.3850   -18.0440   404.9860    53.2410    24.1330     5.1230     5.4330     5.3780 
  237.6250     2.4050   -17.8650   393.1330    53.0270    24.1030     5.2190     5.6180     5.5160 
  237.7500     2.4260   -17.7220   381.7590    50.3260    24.1180     5.1710     5.7360     5.6060 
  237.8750     2.4330   -17.5880   373.4000    47.2690    24.1460     5.0790     5.7870     5.6360 
  238.0000     2.4280   -17.4680   369.6420    44.9860    24.1400     5.0620     5.7770     5.6120 
  238.1250     2.4210   -17.3630   370.3550    42.1680    24.1120     5.1640     5.7110     5.5540 
  238.2500     2.4220   -17.2750   375.6710    38.8920    24.1080     5.2930     5.6160     5.5030 
  238.3750     2.4270   -17.2140   384.5700    36.3800    24.1300     5.3680     5.5100     5.4770 
  238.5000     2.4280   -17.1770   394.2690    35.6210    24.1500     5.3540     5.4100     5.4810 
  238.6250     2.4270   -17.1640   400.7460    37.5640    24.1680     5.2940     5.3400     5.5220 
  238.7500     2.4250   -17.1670   402.0160    39.7090    24.2050     5.2770     5.3080     5.6040 
  238.8750     2.4260   -17.1620   398.7490    39.7990    24.2590     5.3370     5.3210     5.7320 
  239.0000     2.4340   -17.1520   393.1820    38.3070    24.3250     5.4740     5.3730     5.9000 
  239.1250     2.4530   -17.1250   388.3850    37.9820    24.3980     5.6540     5.4530     6.0830 
  239.2500     2.4760   -17.0770   385.6210    38.4370    24.4530     5.7950     5.5330     6.2440 
  239.3750     2.4860   -17.0260   384.5870    38.6930    24.4620     5.8580     5.5920     6.3570 
  239.5000     2.4810   -16.9720   383.9510    39.4250    24.4190     5.8560     5.6160     6.4070 
  239.6250     2.4650   -16.9630   382.3580    43.2350    24.3250     5.8280     5.6020     6.4090 
  239.7500     2.4420   -17.0040   379.6720    48.6100    24.2110     5.8030     5.5830     6.4290 
  239.8750     2.4070   -17.1450   377.0270    53.1000    24.1260     5.8210     5.5940     6.5280 
  240.0000     2.3720   -17.4080   377.3560    57.4190    24.0470     5.9570     5.6640     6.7510 
  240.1250     2.3410   -17.8660   383.0270    62.7900    23.8860     6.2990     5.8060     7.1050 
  240.2500     2.3040   -18.5070   394.8920    68.3840    24.0070     6.7490     5.9880     7.5110 
  240.3750     2.2530   -19.3350   410.3290    72.5660    25.0780     7.1400     6.1860     7.9090 
  240.5000     2.2150   -20.3460   422.4950    75.0260    27.2780     7.3290     6.3870     8.2720 
  240.6250     2.2120   -21.5280   426.6370    78.4270    29.4030     7.4670     6.6080     8.6280 
  240.7500     2.2390   -22.8110   423.0430    83.0500    29.8060     8.0630     6.8780     9.0290 
  240.8750     2.2850   -24.1330   416.3390    85.9960    28.3370     9.3700     7.2310     9.5310 
