~V
VERS. 2.00: Ver 2.00
~W
STRT.M 60.0000:
STOP.M 270.0000:
STEP.M 0.1250:
NULL. -999.2500:
UWI. DF3075:
~C
DEPT.M :
GR.API :
RML.OHMM :
RI. :
RXO.OHMM :
CALI.CM :
DEN.GM/CC :
SP.MV :
~A
# ...
  206.2500    69.6810   100.9460    77.0990    94.4250    25.4130     2.3010   -20.3170 
  206.3750    72.5880   113.1510    86.5830   111.0420    25.1460     2.2690   -20.7750 
  206.5000    74.8810   121.7560    93.5650   127.3660    24.9840     2.2470   -21.2020 
  206.6250    74.7170   125.4450    97.2230   123.5500    24.9920     2.2350   -21.5580 
  206.7500    73.8230   125.8040    98.4870   120.4390    25.0330     2.2300   -21.9040 
  206.8750    72.0250   124.3730    98.2550   116.2830    25.0760     2.2260   -22.1960 
  207.0000    70.4590   122.4600    97.3800   111.2270    25.1260     2.2220   -22.4470 
  207.1250    72.0540   120.6670    96.3480   108.5650    25.1470     2.2150   -22.5660 
  207.2500    74.6360   118.8690    95.2780   103.8140    25.1460     2.2070   -22.6430 
  207.3750    74.6590   116.5780    94.0260    99.3920    25.1230     2.2000   -22.6920 
  207.5000    70.8080   113.3740    92.3430    97.8100    25.0640     2.1960   -22.7280 
  207.6250    66.3930   109.2360    90.0320    97.2680    25.0670     2.1950   -22.7250 
  207.7500    65.9520   104.8640    87.3140    94.6500    25.0530     2.1950   -22.6730 
  207.8750    69.4020   100.8370    84.5030    87.5270    24.9490     2.1950   -22.6170 
  208.0000    73.1640    97.4770    81.9600    79.2880    24.6910     2.1930   -22.5390 
  208.1250    72.0260    95.0150    80.1360    75.4330    24.2220     2.1910   -22.5190 
  208.2500    69.1400    93.3600    79.1060    74.1800    23.7670     2.1920   -22.4600 
  208.3750    69.6690    92.5150    78.8930    74.1650    23.6700     2.1980   -22.3960 
  208.5000    73.1250    92.4050    79.3840    74.2650    23.9280     2.2060   -22.3190 
  208.6250    73.8880    92.8820    80.4490    75.0470    24.2930     2.2160   -22.2160 
  208.7500    72.5170    93.6060    81.7940    76.2460    24.4590     2.2220   -22.1090 
  208.8750    71.5850    94.4580    83.2420    77.5160    24.3320     2.2230   -22.0160 
  209.0000    71.0230    95.4130    84.6990    78.9590    24.1920     2.2210   -21.9770 
  209.1250    69.9480    96.1440    86.1520    79.8880    24.1600     2.2180   -21.9870 
  209.2500    70.7730    97.2400    87.6860    78.7980    24.1890     2.2170   -22.0840 
  209.3750    72.2000    98.8900    89.4440    78.5870    24.2330     2.2190   -22.2600 
  209.5000    70.7750   103.0610    91.7340    78.5780    24.2840     2.2220   -22.4780 
  209.6250    68.1060   109.8420    95.2560    80.1680    24.3700     2.2220   -22.8060 
  209.7500    66.8490   121.2460   100.4010    84.2500    24.4650     2.2220   -23.1830 
  209.8750    66.0820   136.4390   107.6360    91.2750    24.6050     2.2220   -23.6010 
  210.0000    65.1380   150.1200   117.3010   100.7520    24.7460     2.2260   -23.9920 
  210.1250    65.4270   165.9930   129.7790   114.3930    24.8340     2.2330   -24.3930 
  210.2500    65.8830   183.9760   144.0130   138.5440    24.9190     2.2400   -24.7240 
  210.3750    65.4650   202.6420   158.9590   175.2950    24.9740     2.2420   -25.0000 
  210.5000    64.5590   220.2580   173.3570   202.5280    24.9310     2.2360   -25.1940 
  210.6250    63.7840   234.6880   185.5990   205.2790    24.7500     2.2230   -25.3220 
  210.7500    63.2190   245.4930   195.3330   202.0750    24.6570     2.2100   -25.3340 
  210.8750    63.1520   252.7860   202.6200   204.7860    24.6360     2.2000   -25.2730 
  211.0000    64.0290   257.3400   207.9350   210.7880    24.6570     2.1950   -25.1390 
  211.1250    64.7160   260.1030   211.9050   207.8980    24.7160     2.1950   -24.9420 
  211.2500    64.6970   262.1570   215.3070   203.6090    24.7980     2.1950   -24.7820 
  211.3750    64.2610   263.5940   218.2320   210.2460    24.9100     2.1960   -24.6680 
  211.5000    63.9510   264.3540   220.5520   227.4820    25.0580     2.1990   -24.6690 
  211.6250    65.0490   264.4950   222.1980   237.6110    25.2120     2.2070   -24.7260 
  211.7500    65.7380   264.9050   223.8170   233.3650    25.3390     2.2170   -24.9160 
  211.8750    65.2210   266.5740   226.1650   220.4260    25.3840     2.2270   -25.1480 
  212.0000    64.7890   270.2610   229.9980   204.8760    25.2940     2.2330   -25.3890 
  212.1250    67.0920   276.7540   236.1200   201.5790    24.8850     2.2320   -25.6060 
  212.2500    70.8250   285.5580   244.1680   211.8610    24.7140     2.2240   -25.7770 
  212.3750    71.8480   296.0120   253.6600   232.1130    24.7670     2.2100   -25.8610 
  212.5000    69.2420   306.7040   263.4170   252.9330    24.9470     2.1940   -25.8410 
  212.6250    66.6170   315.2610   271.4350   258.3410    25.1710     2.1880   -25.7520 
  212.7500    66.1460   320.2700   276.4090   257.2210    25.2470     2.1990   -25.5570 
  212.8750    67.1000   320.8030   277.5040   261.4430    24.9710     2.2310   -25.2980 
  213.0000    67.3130   316.7750   274.5900   282.1820    24.4170     2.2750   -25.0350 
  213.1250    66.3240   308.9640   268.1030   295.8060    23.7520     2.3110   -24.7480 
  213.2500    65.7560   299.9060   260.1850   272.1850    23.3250     2.3230   -24.4860 
  213.3750    66.2840   291.3750   252.3150   247.1060    23.1890     2.3140   -24.2650 
  213.5000    68.0460   284.7730   245.8030   225.1630    23.2680     2.2920   -24.1200 
  213.6250    69.4930   281.0990   241.7760   210.5140    23.5110     2.2700   -23.9260 
  213.7500    69.1870   279.0360   239.3330   208.9590    23.9000     2.2510   -23.7750 
  213.8750    66.7700   276.9130   237.2150   219.4870    24.3760     2.2300   -23.5870 
  214.0000    63.9100   272.8990   233.9260   234.4750    24.7640     2.2090   -23.4120 
  214.1250    62.7550   265.0430   227.7480   238.5830    24.9720     2.1910   -23.2380 
  214.2500    62.9490   253.9770   218.8300   233.8990    24.9090     2.1810   -23.0970 
  214.3750    65.0630   241.1590   208.0800   221.9680    24.8450     2.1810   -22.9660 
  214.5000    67.2900   228.5090   196.9330   203.7760    24.7390     2.1880   -22.8010 
  214.6250    66.9740   218.3400   187.3490   183.9460    24.6340     2.1990   -22.7280 
  214.7500    64.1870   211.3970   180.3490   170.1700    24.5130     2.2060   -22.6370 
  214.8750    61.4940   207.6920   176.1840   166.5690    24.4070     2.2100   -22.6230 
  215.0000    60.4310   206.3900   174.3000   170.0560    24.3280     2.2110   -22.6120 
  215.1250    60.5710   205.8060   173.4300   177.0990    24.3040     2.2090   -22.6290 
  215.2500    63.0200   203.9980   171.9080   180.3100    24.2970     2.2060   -22.5700 
  215.3750    66.5330   199.8400   168.7730   170.6160    24.2970     2.2040   -22.4320 
  215.5000    68.8180   192.8880   163.5470   161.6260    24.2890     2.2040   -22.2770 
  215.6250    69.1040   183.1820   156.0710   160.9640    24.2700     2.2040   -22.0540 
  215.7500    67.2450   172.2510   147.3940   163.2280    24.2300     2.2060   -21.8370 
  215.8750    62.4260   161.2290   138.3690   154.1080    24.1760     2.2080   -21.6070 
  216.0000    56.1820   150.9260   129.7170   136.8420    24.1420     2.2120   -21.3670 
  216.1250    55.1070   141.7160   121.9320   122.4020    24.1330     2.2160   -21.1340 
  216.2500    59.5980   132.9720   114.6470   111.3750    24.1330     2.2180   -20.9280 
  216.3750    64.6540   124.1890   107.4870   105.2050    24.1320     2.2170   -20.7720 
  216.5000    65.3750   115.1390   100.2310   101.7860    24.1290     2.2120   -20.5980 
  216.6250    60.9390   105.9300    92.8650    99.9770    24.1140     2.2070   -20.5140 
  216.7500    57.9580    97.0280    85.6000    93.6140    24.0770     2.2050   -20.3840 
  216.8750    59.7490    88.9690    78.8050    81.7390    24.0070     2.2090   -20.3010 
  217.0000    64.5100    82.1630    72.8710    65.8530    23.9020     2.2180   -20.2140 
  217.1250    67.8390    76.9230    68.2650    57.1130    23.7700     2.2260   -20.1600 
  217.2500    68.2850    72.8520    64.7800    54.9280    23.6530     2.2290   -20.1160 
  217.3750    66.5440    69.6730    62.1960    54.5590    23.5690     2.2260   -20.0900 
