~V
VERS. 2.00: Ver 2.00
~W
STRT.M 61.0000:
STOP.M 279.0000:
STEP.M 0.1250:
NULL. -999.2500:
UWI. DF3040:
~C
DEPT.M :
GR.API :
CALI.CM :
RXO.OHMM :
RI. :
RML.OHMM :
DEN.GM/CC :
SP.MV :
~A
   61.0000    43.9120    25.2070     2.2320     1.3330 610489.6880  -999.2500  -999.2500 
   61.1250    44.7330    25.2070     2.0610     1.3030 610489.6880  -999.2500  -999.2500 
   61.2500    44.2400    25.2070     2.3000     1.3030 610489.6880  -999.2500  -999.2500 
   61.3750    44.5600    25.2070     2.3070     1.3170 610489.6880  -999.2500  -999.2500 
   61.5000    47.6920    25.2070     1.7110     1.3350 610489.6880  -999.2500  -999.2500 
   61.6250    51.2120    25.2070     1.2120     1.3430 610489.6880  -999.2500  -999.2500 
   61.7500    51.1680    25.2070     1.0300     1.3580 610489.6880  -999.2500  -999.2500 
   61.8750    48.2840    25.2070     1.1980     1.3710 610489.6880  -999.2500  -999.2500 
   62.0000    45.5600    25.2070     1.6250     1.3670 610489.6880  -999.2500     1.8600 
   62.1250    44.9870    25.2070     1.7730     1.3350 610489.6880  -999.2500     1.8600 
   62.2500    46.3270    25.2070     1.8190     1.3020 610489.6880  -999.2500     1.7480 
   62.3750    48.8610    25.2070     2.1680     1.2840 610489.6880  -999.2500     1.4790 
   62.5000    50.5880    25.2070     2.4050     1.3000 610489.6880  -999.2500     1.2080 
   62.6250    49.2060    25.2070     5.6090     1.3290 610489.6880  -999.2500     0.8920 
   62.7500    45.1570    25.2070    25.8510     1.3580 610489.6880  -999.2500     0.5120 
   62.8750    40.6160    25.2070   542.2060     1.3850 610489.6880  -999.2500     0.0460 
   63.0000    39.0540    25.2070   748.9920     1.4300 610489.6880  -999.2500    -0.5670 
   63.1250    41.6510    25.2070   567.1670     1.4630 610489.6880  -999.2500    -1.3050 
   63.2500    44.4240    25.2070    64.9200     1.4940 610489.6880  -999.2500    -2.0770 
   63.3750    44.0080    25.2070    66.5480     1.5110 610489.6880  -999.2500    -2.8620 
   63.5000    40.7190    25.2070   724.3220     1.5100 610489.6880  -999.2500    -3.6540 
   63.6250    39.6210    25.2070  1529.0520     1.4880 610489.6880  -999.2500    -4.4840 
   63.7500    41.8200    25.2070  1978.5510     1.4790 610489.6880  -999.2500    -5.3530 
   63.8750    44.2680    25.2070  1480.0100     1.4680 610489.6880  -999.2500    -6.2360 
   64.0000    43.6740    25.2070   666.6930     1.4500 610489.6880  -999.2500    -7.0820 
   64.1250    40.6190    25.1870    49.8780     1.4280 610489.6880  -999.2500    -7.8890 
   64.2500    39.9960    25.1900    30.9540     1.3790 305317.5310  -999.2500    -8.6380 
   64.3750    41.1620    25.1240    50.8530     1.2430    58.9430  -999.2500    -9.3270 
   64.5000    40.3390    24.9300    56.1260     1.0150    10.6600  -999.2500    -9.9920 
   64.6250    38.0640    24.8440    45.2470     0.7660     4.3850  -999.2500   -10.6840 
   64.7500    39.4380    24.7960    16.1070     0.5580     2.1620  -999.2500   -11.4250 
   64.8750    44.2820    24.9350    13.2100     0.4060     1.2200  -999.2500   -12.2760 
   65.0000    48.5620    25.2230     8.7780     0.3170     0.7790  -999.2500   -13.3160 
   65.1250    49.9250    25.2710     8.1190     0.3080     0.6840  -999.2500   -14.6990 
   65.2500    51.7030    25.2540     5.2940     0.3820     0.8180  -999.2500   -16.4180 
   65.3750    55.0480    25.0800     5.3440     0.5680     1.1730  -999.2500   -18.3980 
   65.5000    57.8720    24.9780     7.2200     0.9220     1.8060  -999.2500   -20.4720 
   65.6250    58.0630    24.8720     9.4600     1.5410     2.8060  -999.2500   -22.5350 
   65.7500    57.6480    24.6400    10.9750     2.3800     4.0080  -999.2500   -24.4640 
   65.8750    59.6070    24.4560    12.3830     3.3330     5.1510  -999.2500   -26.2010 
   66.0000    62.1670    24.3410    13.1090     4.2470     5.9680  -999.2500   -27.6820 
   66.1250    61.7290    24.3020    12.9460     4.9420     6.2830  -999.2500   -28.7420 
   66.2500    60.2000    24.1860    12.6510     5.4200     6.3010  -999.2500   -29.4510 
   66.3750    59.5040    24.0790    12.4500     5.7520     6.3280  -999.2500   -29.9040 
   66.5000    59.6570    24.0670    12.3860     6.0120     6.4860  -999.2500   -30.2130 
   66.6250    60.4080    24.1040    12.7140     6.2180     6.7460  -999.2500   -30.3870 
   66.7500    61.6200    24.1090    12.9880     6.3900     7.0210  -999.2500   -30.5150 
   66.8750    63.1820    24.0780    13.1380     6.5380     7.2690  -999.2500   -30.6110 
   67.0000    65.2140    24.0620    13.0880     6.6720     7.4890  -999.2500   -30.6770 
   67.1250    66.6260    24.0570    12.9070     6.7800     7.6510  -999.2500   -30.6890 
   67.2500    64.4290    24.0610    12.6360     6.8640     7.7770  -999.2500   -30.6340 
   67.3750    60.0950    24.0880    12.2840     6.9200     7.8710  -999.2500   -30.4970 
   67.5000    58.3950    24.2810    11.3290     6.9610     7.9580  -999.2500   -30.2680 
   67.6250    62.0100    24.3380    10.2680     6.9930     8.0010  -999.2500   -29.9920 
   67.7500    65.9980    24.4390    10.1500     7.0280     8.0050  -999.2500   -29.7070 
   67.8750    66.9800    24.7670    11.1970     7.0630     7.9580  -999.2500   -29.4220 
   68.0000    65.0100    25.1240    12.4100     7.1010     7.8260  -999.2500   -29.1580 
   68.1250    63.9640    25.2970    12.7330     7.1330     7.6310  -999.2500   -28.9080 
   68.2500    65.5470    24.9130    12.2080     7.1540     7.4020  -999.2500   -28.6640 
   68.3750    66.8430    24.6520    10.7420     7.1580     7.1890  -999.2500   -28.4380 
   68.5000    64.5040    24.9860     9.2380     7.1470     7.0150  -999.2500   -28.2610 
   68.6250    61.9230    25.6820     8.8250     7.1260     6.9160  -999.2500   -28.0580 
   68.7500    63.3020    25.8180     8.8230     7.1160     6.8950  -999.2500   -27.7860 
   68.8750    65.9620    25.7010     8.7850     7.1110     6.9170  -999.2500   -27.4350 
   69.0000    66.9180    25.6230     8.7570     7.0950     6.9730  -999.2500   -26.9680 
   69.1250    67.3390    25.5550     8.7760     7.0810     7.0760  -999.2500   -26.4190 
   69.2500    70.9180    25.4510     8.9080     7.0950     7.2360  -999.2500   -25.8240 
   69.3750    78.2720    25.6040     9.5410     7.1370     7.4370  -999.2500   -25.1930 
   69.5000    86.1650    25.4960    10.0760     7.1910     7.6480  -999.2500   -24.5590 
   69.6250    87.6510    25.5660    10.3290     7.2380     7.8540  -999.2500   -23.9710 
   69.7500    83.7360    25.7790     9.9660     7.2520     7.9670  -999.2500   -23.4820 
   69.8750    81.3250    25.8110    11.5990     7.1990     7.9400  -999.2500   -23.0930 
   70.0000    84.5620    25.7080    13.7860     7.0890     7.7700  -999.2500   -22.8200 
   70.1250    91.2600    25.5270    12.9110     6.9250     7.4780  -999.2500   -22.6650 
   70.2500    97.1790    25.0430    10.2230     6.7320     7.1520  -999.2500   -22.5820 
   70.3750    99.9960    24.7100     8.8710     6.5700     6.8860  -999.2500   -22.5550 
   70.5000    97.7660    24.5700     8.3840     6.4900     6.7400  -999.2500   -22.5390 
   70.6250    95.4390    24.5880     8.8950     6.5280     6.7250  -999.2500   -22.5590 
   70.7500    95.0460    24.7250     9.1550     6.6500     6.8240  -999.2500   -22.6100 
   70.8750    94.7870    24.7940     8.7900     6.8310     6.9890  -999.2500   -22.7100 
   71.0000    93.1310    24.8110     8.1220     7.0040     7.1240  -999.2500   -22.8810 
   71.1250    92.2290    24.8410     8.6530     7.0740     7.1470  -999.2500   -23.1330 
   71.2500    93.0230    24.8290     9.0780     7.0530     7.0790  -999.2500   -23.4270 
   71.3750    94.6250    24.7860     9.6810     6.9750     6.9840  -999.2500   -23.7580 
   71.5000    97.1440    24.5410     9.7290     6.8800     6.9180  -999.2500   -24.1010 
   71.6250    96.9880    24.4420     8.8650     6.8440     6.9550  -999.2500   -24.4780 
   71.7500    91.8770    24.4590     8.3100     6.9000     7.1230  -999.2500   -24.8580 
   71.8750    85.6800    24.5280     8.2510     7.0670     7.3990  -999.2500   -25.2190 
   72.0000    81.6180    24.5270     8.2210     7.3050     7.7580  -999.2500   -25.5220 
   72.1250    79.6130    24.5630     8.4560     7.5740     8.1270  -999.2500   -25.7440 
