~V
VERS. 2.00: Ver 2.00
~W
STRT.M 61.0000:
STOP.M 276.0000:
STEP.M 0.1250:
NULL. -999.2500:
UWI. DF3051:
~C
DEPT.M :
SP.MV :
GR.API :
CALI.CM :
RXO.OHMM :
RI. :
RML.OHMM :
DEN.GM/CC :
~A
# ...
  196.0000   -38.4560    54.6680    27.0270   216.8080   213.7690   255.9480     2.2060 
  196.1250   -37.9250    50.2980    27.1360   259.5710   245.1450   295.6310     2.2160 
  196.2500   -37.4460    49.7420    27.1840   274.6880   276.8600   336.9080     2.2250 
  196.3750   -36.9230    52.1790    27.1440   270.5320   297.1540   362.7700     2.2250 
  196.5000   -36.3330    53.8460    27.0540   258.3080   298.9220   362.6930     2.2220 
  196.6250   -35.5990    53.4110    27.0010   236.4370   285.0070   343.3630     2.2250 
  196.7500   -34.8290    53.1500    27.0460   213.1500   269.6160   324.6230     2.2270 
  196.8750   -34.1010    53.8280    27.1780   196.3770   258.7750   312.4450     2.2320 
  197.0000   -33.3980    52.8470    27.3230   186.2470   250.4300   302.1300     2.2580 
  197.1250   -32.5550    49.0140    27.3660   191.8430   234.8530   279.8060     2.3330 
  197.2500   -31.5830    46.5020    27.2760   218.2190   206.1220   239.3320     2.4410 
  197.3750   -30.5580    46.9740    27.0890   225.4680   165.0190   184.4340     2.5510 
  197.5000   -29.4630    48.4610    26.8840   182.4390   118.2690   126.6680     2.6290 
  197.6250   -28.3100    50.7430    26.7620   120.7110    76.8200    80.3900     2.6550 
  197.7500   -27.1380    53.8450    26.7340    81.4750    46.4120    48.3560     2.6420 
  197.8750   -26.0040    56.6180    26.7370    51.0500    27.0020    28.2910     2.6050 
  198.0000   -24.9540    58.2640    26.6760    25.1500    15.7560    16.5470     2.5570 
  198.1250   -24.0610    59.8180    26.5000    11.6820    10.1740    10.5900     2.5100 
  198.2500   -23.2470    61.0180    26.2920     6.5050     7.1900     7.4250     2.4710 
  198.3750   -22.4710    61.1780    26.1290     5.0180     5.6890     5.9580     2.4510 
  198.5000   -21.7850    61.9900    26.0440     4.8900     5.0670     5.5220     2.4550 
  198.6250   -21.3000    64.3400    26.0230     5.1920     5.0400     5.7320     2.4840 
  198.7500   -20.9720    64.6060    26.0210     5.5080     5.2760     6.1440     2.5130 
  198.8750   -20.7960    60.6160    26.0210     5.6950     5.5950     6.5270     2.5220 
  199.0000   -20.7670    54.8520    26.0240     5.6830     5.8570     6.7430     2.5090 
  199.1250   -20.8510    51.3130    26.0380     5.5120     5.9610     6.7390     2.4910 
  199.2500   -20.9230    49.8210    26.0690     5.3360     5.9370     6.6080     2.4790 
  199.3750   -20.9480    48.5300    26.1180     5.2050     5.8270     6.4180     2.4630 
  199.5000   -20.9800    46.3990    26.1750     5.0910     5.6770     6.2210     2.4390 
  199.6250   -21.0840    42.4630    26.2200     4.9870     5.5190     6.0620     2.4130 
  199.7500   -21.3220    39.1370    26.2520     4.9310     5.3640     5.9520     2.3950 
  199.8750   -21.6530    38.8560    26.2740     4.9490     5.2090     5.8860     2.3900 
  200.0000   -22.0040    42.7910    26.2910     5.0440     5.0580     5.8590     2.4040 
  200.1250   -22.3290    49.1240    26.3020     5.1980     4.9470     5.9050     2.4330 
  200.2500   -22.6080    53.2610    26.3100     5.3810     4.9310     6.0980     2.4570 
  200.3750   -22.8680    55.3590    26.3250     5.6970     5.0690     6.5370     2.4700 
  200.5000   -23.0910    59.4390    26.3680     6.4610     5.4030     7.3070     2.4830 
  200.6250   -23.2440    67.9460    26.4560     8.1930     5.9830     8.4760     2.5000 
  200.7500   -23.3020    77.2940    26.5720    10.4770     6.7210     9.8620     2.5130 
  200.8750   -23.3180    83.8510    26.6870    12.1980     7.4940    11.2210     2.5150 
  201.0000   -23.3480    87.3670    26.7770    12.4210     8.1360    12.2680     2.5090 
  201.1250   -23.3730    88.4020    26.8220    11.4790     8.4750    12.7630     2.5040 
  201.2500   -23.4120    89.9270    26.8310    10.7600     8.5790    12.8970     2.4950 
  201.3750   -23.4470    93.4730    26.8170    10.6280     8.5490    12.8720     2.4790 
  201.5000   -23.4790    94.9130    26.7950    10.8350     8.4880    12.8490     2.4570 
  201.6250   -23.5170    91.0260    26.7740    11.0130     8.4600    12.8980     2.4360 
  201.7500   -23.6280    88.9120    26.7560    10.8690     8.4700    13.0000     2.4270 
  201.8750   -23.8010    91.9520    26.7210    10.4100     8.5140    13.1560     2.4340 
  202.0000   -23.9990    95.5080    26.6310    10.0960     8.6080    13.4100     2.4500 
  202.1250   -24.3090    94.1730    26.4340    10.5760     8.7900    13.8360     2.4610 
  202.2500   -24.7510    90.9150    26.1730    11.4660     9.0520    14.3780     2.4590 
  202.3750   -25.2950    87.4950    25.9190    12.1740     9.3670    14.9390     2.4480 
  202.5000   -25.8800    84.3800    25.7320    12.5800     9.6970    15.4320     2.4370 
  202.6250   -26.4790    84.3340    25.6310    12.9960    10.0290    15.8910     2.4340 
  202.7500   -26.9970    86.3210    25.5750    13.3900    10.4090    16.5040     2.4420 
  202.8750   -27.4160    86.3020    25.5450    13.6510    10.9010    17.4220     2.4600 
  203.0000   -27.7540    82.6080    25.5520    14.2530    11.5030    18.6090     2.4820 
  203.1250   -27.8790    80.1230    25.6280    16.3300    12.0740    19.6930     2.4970 
  203.2500   -27.8110    82.0810    25.7590    18.9120    12.4020    20.1720     2.5030 
  203.3750   -27.6440    87.1090    25.9250    19.3200    12.3560    19.8030     2.5020 
  203.5000   -27.4580    89.7660    26.1220    16.6250    11.9670    18.7790     2.4950 
  203.6250   -27.2870    87.8420    26.3450    13.6820    11.4490    17.7050     2.4810 
  203.7500   -27.1870    84.6990    26.5440    12.8830    11.0760    17.1180     2.4650 
  203.8750   -27.1010    82.3090    26.6680    13.4180    10.9730    17.1680     2.4580 
  204.0000   -26.9270    82.0290    26.6960    14.1770    11.1570    17.7270     2.4660 
  204.1250   -26.6720    84.5460    26.6420    15.0050    11.5440    18.3970     2.4850 
  204.2500   -26.3730    88.3290    26.5700    15.7860    11.8750    18.6560     2.5020 
  204.3750   -26.0680    90.2250    26.5210    15.9280    11.9740    18.3120     2.5060 
  204.5000   -25.8140    87.9100    26.5130    15.2660    11.8390    17.6230     2.4960 
  204.6250   -25.6270    85.3090    26.5060    14.4630    11.7010    17.2690     2.4840 
  204.7500   -25.4500    86.1220    26.4330    14.1750    11.8490    17.7400     2.4880 
  204.8750   -25.2270    87.9560    26.2810    14.6370    12.4340    19.1730     2.5100 
  205.0000   -24.9250    84.4320    26.1270    16.0220    13.3830    21.2310     2.5380 
  205.1250   -24.5650    74.4350    26.0980    18.2310    14.1480    22.6210     2.5510 
  205.2500   -24.1890    65.9990    26.1830    19.2400    13.9710    21.8950     2.5430 
  205.3750   -23.7910    61.9350    26.2840    16.9610    12.5820    18.8170     2.5140 
  205.5000   -23.3620    59.4660    26.2980    11.9800    10.4550    14.6660     2.4700 
  205.6250   -22.8940    56.3610    26.2090     7.7750     8.4410    11.1960     2.4280 
  205.7500   -22.3450    54.7690    26.1190     5.8500     6.9710     8.9420     2.4020 
  205.8750   -21.7410    55.2910    26.0760     5.4190     6.0840     7.7870     2.3950 
  206.0000   -21.2170    57.6370    26.0650     5.5080     5.6870     7.4370     2.3970 
  206.1250   -20.8210    60.9300    26.0620     5.6560     5.6860     7.6200     2.4010 
  206.2500   -20.5660    65.4640    26.0820     5.7640     5.8730     7.9560     2.4090 
  206.3750   -20.4810    72.0780    26.1510     5.8220     6.1340     8.2720     2.4260 
  206.5000   -20.5330    77.7710    26.2740     5.9210     6.3980     8.5040     2.4500 
  206.6250   -20.7200    78.4310    26.4240     6.2360     6.6240     8.6430     2.4610 
  206.7500   -20.9740    74.5130    26.5380     6.6680     6.7870     8.6890     2.4560 
  206.8750   -21.2450    71.8440    26.5750     6.9550     6.8540     8.6090     2.4470 
  207.0000   -21.4520    75.1790    26.5520     6.9160     6.8070     8.4070     2.4420 
  207.1250   -21.5870    80.6630    26.5470     6.6170     6.6620     8.1620     2.4440 
