~V
VERS. 2.00: Ver 2.00
~W
STRT.M 125.0000:
STOP.M 265.0000:
STEP.M 0.1250:
NULL. -999.2500:
UWI. DF3008:
~C
DEPT.M :
DEN.GM/CC :
GR.API :
CALI.CM :
RXO.OHMM :
RI. :
RML.OHMM :
SP.MV :
~A
# ...
  237.5000     2.2860    66.3050    24.5560    15.0290    13.8060    14.5680   -14.2660 
  237.6250     2.2890    65.8580    24.5550    15.2620    13.7790    14.5190   -14.1250 
  237.7500     2.2940    66.3380    24.5570    15.1230    13.7280    14.4530   -13.9670 
  237.8750     2.2970    74.0860    24.5580    14.8540    13.6550    14.3940   -13.7900 
  238.0000     2.3020    86.7390    24.5580    14.7070    13.5890    14.3780   -13.6070 
  238.1250     2.3140    90.4130    24.5580    14.7400    13.5710    14.4430   -13.4320 
  238.2500     2.3310    81.8180    24.5580    14.8040    13.5700    14.5520   -13.2620 
  238.3750     2.3480    72.4840    24.5580    14.7410    13.4860    14.6020   -13.1070 
  238.5000     2.3610    72.5270    24.5580    14.4810    13.1910    14.4210   -12.9730 
  238.6250     2.3640    75.8680    24.5580    14.1180    12.5610    13.7970   -12.8890 
  238.7500     2.3560    77.6540    24.5580    13.4360    11.7200    12.8580   -12.8440 
  238.8750     2.3400    77.5000    24.5580    12.1310    10.8650    11.8700   -12.8180 
  239.0000     2.3230    75.2450    24.5580    10.6130    10.2150    11.1550   -12.8260 
  239.1250     2.3110    73.2020    24.5580     9.8680     9.9970    11.0390   -12.8920 
  239.2500     2.3060    72.8920    24.5570    10.4530    10.2070    11.4850   -12.9820 
  239.3750     2.3120    71.2680    24.5480    12.3080    10.8090    12.3930   -13.0900 
  239.5000     2.3240    66.7490    24.5150    15.1090    11.6850    13.5610   -13.2100 
  239.6250     2.3290    64.3830    24.4530    17.7700    12.6070    14.6570   -13.3060 
  239.7500     2.3200    66.0590    24.3990    18.6300    13.3210    15.3920   -13.3990 
  239.8750     2.3040    69.2500    24.3620    17.8000    13.7270    15.6880   -13.5060 
  240.0000     2.2930    71.2520    24.3300    16.5340    13.8530    15.6550   -13.5890 
  240.1250     2.2910    72.7360    24.3160    15.8070    13.7990    15.4920   -13.6280 
  240.2500     2.2900    71.4290    24.3120    15.1350    13.7330    15.3820   -13.6370 
  240.3750     2.2920    67.6380    24.3090    14.7760    13.7440    15.4000   -13.6330 
  240.5000     2.3030    65.8720    24.3170    14.6200    13.8680    15.5580   -13.6250 
  240.6250     2.3230    66.8830    24.3550    14.5050    14.0940    15.8560   -13.6240 
  240.7500     2.3370    69.2250    24.4300    14.4550    14.3290    16.2120   -13.6130 
  240.8750     2.3320    70.6190    24.5000    14.5270    14.4810    16.5160   -13.6070 
  241.0000     2.3080    70.9750    24.5340    14.4940    14.4790    16.6440   -13.6250 
  241.1250     2.2830    70.6770    24.5400    14.2740    14.3080    16.5130   -13.6770 
  241.2500     2.2720    69.0810    24.5420    14.0560    14.0720    16.2620   -13.7620 
  241.3750     2.2740    66.2830    24.5420    13.9910    13.8360    16.0240   -13.8750 
  241.5000     2.2780    65.6240    24.5420    14.0700    13.6400    15.8870   -13.9970 
  241.6250     2.2820    67.9040    24.5430    14.3700    13.5210    15.8920   -14.1100 
  241.7500     2.2950    67.8890    24.5410    14.6940    13.4840    15.9910   -14.2050 
  241.8750     2.3300    64.5470    24.5430    14.9520    13.5540    16.1660   -14.2670 
  242.0000     2.3930    69.0620    24.5670    15.5020    13.7950    16.4670   -14.2900 
  242.1250     2.4690    77.2610    24.6300    17.1250    14.4020    17.1280   -14.2520 
  242.2500     2.5250    77.9560    24.7190    19.5480    15.5570    18.4020   -14.1680 
  242.3750     2.5530    70.1610    24.8090    22.0040    17.5480    20.6500   -14.0430 
  242.5000     2.5720    64.1380    24.8600    24.8590    20.6510    24.2500   -13.8940 
  242.6250     2.5980    62.2520    24.8620    32.1410    24.8610    29.4010   -13.7320 
  242.7500     2.6060    59.7150    24.8350    45.5330    28.5140    34.1250   -13.5640 
  242.8750     2.5760    56.3460    24.8120    58.3290    29.0130    34.7100   -13.3920 
  243.0000     2.5180    53.9050    24.8030    54.9950    25.0260    29.0580   -13.2170 
  243.1250     2.4570    52.8150    24.8020    32.4640    18.6100    20.5710   -13.0500 
  243.2500     2.4060    51.9610    24.7980    14.9030    13.0900    13.8420   -12.8960 
  243.3750     2.3690    51.1220    24.7950     7.7460     9.2690     9.5640   -12.7700 
  243.5000     2.3520    52.9000    24.7940     5.9870     6.9500     7.2300   -12.6860 
  243.6250     2.3600    56.8170    24.7940     5.6610     5.8550     6.3840   -12.6460 
  243.7500     2.3760    60.0750    24.7940     5.4400     5.4630     6.3380   -12.6430 
  243.8750     2.3890    60.1220    24.7940     5.3850     5.5480     6.7700   -12.6810 
  244.0000     2.3990    58.5270    24.7940     5.6020     5.9090     7.3840   -12.7770 
  244.1250     2.4090    57.1460    24.7940     5.9540     6.3550     7.9090   -12.9470 
  244.2500     2.4110    56.6540    24.7940     6.3300     6.7540     8.2650   -13.1650 
  244.3750     2.4040    57.9460    24.7940     6.7980     7.0780     8.5120   -13.3920 
  244.5000     2.3940    58.5870    24.7980     7.4450     7.3330     8.7320   -13.5830 
  244.6250     2.3890    56.8360    24.8130     8.1440     7.5070     8.9590   -13.7210 
  244.7500     2.3840    53.6310    24.8310     8.6590     7.5800     9.1370   -13.8230 
  244.8750     2.3810    52.5680    24.8400     9.0010     7.5170     9.1830   -13.8800 
  245.0000     2.3850    54.1490    24.8410     9.1970     7.3230     9.0630   -13.8750 
  245.1250     2.3970    54.1450    24.8410     9.0110     7.0660     8.8490   -13.7980 
  245.2500     2.4130    50.7940    24.8410     8.9590     6.8620     8.7080   -13.6770 
  245.3750     2.4290    45.9580    24.8410    10.3250     6.7770     8.7380   -13.5570 
  245.5000     2.4490    43.0860    24.8410    14.6060     6.8330     8.9730   -13.4420 
  245.6250     2.4700    42.4060    24.8400    19.5950     7.0220     9.4090   -13.3390 
  245.7500     2.4860    42.3070    24.8290    21.9040     7.2750     9.9390   -13.2560 
  245.8750     2.4890    41.6470    24.7950    21.4740     7.5470    10.4830   -13.2010 
  246.0000     2.4770    41.8160    24.7410    20.2610     7.7980    10.9550   -13.1680 
  246.1250     2.4550    43.5440    24.7160    18.9060     7.9630    11.2280   -13.1650 
  246.2500     2.4310    45.4060    24.7090    17.4580     7.9970    11.2370   -13.1800 
  246.3750     2.4110    47.5170    24.7090    16.1080     7.8570    10.9380   -13.1770 
  246.5000     2.4030    53.3650    24.7090    14.2110     7.5410    10.3660   -13.1740 
  246.6250     2.4140    59.9930    24.7090    11.5910     7.0970     9.6500   -13.1970 
  246.7500     2.4300    61.2360    24.7090     9.1470     6.6570     9.0090   -13.2260 
  246.8750     2.4340    56.3930    24.7080     7.6140     6.3220     8.5890   -13.2640 
  247.0000     2.4280    53.1940    24.7060     6.9880     6.1660     8.4650   -13.3020 
  247.1250     2.4250    54.4510    24.7030     6.8850     6.2460     8.6760   -13.3460 
  247.2500     2.4280    55.6950    24.7050     7.2870     6.5030     9.0980   -13.3840 
  247.3750     2.4270    55.1620    24.7070     8.3780     6.8700     9.6200   -13.4270 
  247.5000     2.4200    54.0090    24.7080     9.6610     7.2490    10.0880   -13.4670 
  247.6250     2.4150    53.7250    24.7040     9.8530     7.5090    10.3100   -13.5120 
  247.7500     2.4110    54.7230    24.7000     9.2880     7.6070    10.2710   -13.5490 
  247.8750     2.4080    56.6510    24.7030     8.7450     7.5630    10.0470   -13.5760 
  248.0000     2.4130    57.3080    24.7070     8.3440     7.4400     9.7650   -13.6010 
  248.1250     2.4280    56.6610    24.7060     7.9600     7.3250     9.5770   -13.6180 
  248.2500     2.4420    56.2980    24.7000     7.6580     7.2740     9.5300   -13.6400 
  248.3750     2.4470    56.4370    24.6950     7.4810     7.2920     9.5950   -13.6770 
  248.5000     2.4490    56.1340    24.6960     7.3640     7.3600     9.7190   -13.7290 
  248.6250     2.4550    55.3130    24.6950     7.3400     7.4570     9.8670   -13.7780 
