~V
VERS. 2.00: Ver 2.00
~W
STRT.M 63.0000:
STOP.M 272.0000:
STEP.M 0.1250:
NULL. -999.2500:
UWI. DF3013:
~C
DEPT.M :
DEN.GM/CC :
SP.MV :
AC.US/MT :
GR.API :
CALI.CM :
RXO.OHMM :
RI. :
RML.OHMM :
~A
# ...
  113.0000     2.1880   -18.6800   439.9230    74.8420    23.3690     9.0360     7.2680     9.4030 
  113.1250     2.2040   -18.5350   435.2180    79.0880    23.5430    10.7350     7.3350     9.5920 
  113.2500     2.2230   -18.3310   429.4150    79.6310    23.6860    10.8850     7.3780     9.7080 
  113.3750     2.2340   -18.0770   426.1730    76.0660    23.7190     9.3770     7.3600     9.6900 
  113.5000     2.2320   -17.7950   427.4700    72.5950    23.6900     7.9770     7.2710     9.5400 
  113.6250     2.2210   -17.5160   431.8630    71.1430    23.6680     7.4910     7.1350     9.3210 
  113.7500     2.2110   -17.2550   435.7830    69.8260    23.6720     7.3940     7.0170     9.1450 
  113.8750     2.2030   -17.0140   437.7310    68.1190    23.6960     7.6430     6.9670     9.0830 
  114.0000     2.1980   -16.7870   436.9760    67.4370    23.7240     7.8760     7.0140     9.1690 
  114.1250     2.1970   -16.5540   433.5750    69.9430    23.7380     7.9480     7.1520     9.3810 
  114.2500     2.1970   -16.2950   430.2500    73.3480    23.7410     8.2260     7.2800     9.5690 
  114.3750     2.1970   -15.9910   430.3820    75.4420    23.7410     8.4940     7.2700     9.5540 
  114.5000     2.1920   -15.6290   434.9850    75.1010    23.7500     8.5900     7.0080     9.1710 
  114.6250     2.1960   -15.2130   441.4560    76.0140    23.7750     8.0750     6.4320     8.3450 
  114.7500     2.2250   -14.7830   446.2840    80.5250    23.8650     6.7590     5.7150     7.3570 
  114.8750     2.2720   -14.3770   448.2850    87.3100    24.1160     5.3120     5.0260     6.4830 
  115.0000     2.3090   -14.0270   447.5360    93.0100    24.5120     4.4700     4.5060     5.9230 
  115.1250     2.3060   -13.7550   443.8160    96.4820    24.8340     4.4220     4.2820     5.8160 
  115.2500     2.2790   -13.5530   437.9830    97.7980    24.9020     4.8640     4.3380     6.0520 
  115.3750     2.2500   -13.4130   431.6460    95.3290    24.7230     5.6830     4.6590     6.5430 
  115.5000     2.2330   -13.3280   427.2910    89.0700    24.4120     6.3910     5.2020     7.1820 
  115.6250     2.2270   -13.2860   427.5900    82.2550    24.1020     6.7850     5.8650     7.8200 
  115.7500     2.2220   -13.2480   431.0370    78.4860    23.8750     7.0320     6.4280     8.2550 
  115.8750     2.2160   -13.1840   435.4110    77.1150    23.7210     7.1040     6.6830     8.3040 
  116.0000     2.2130   -13.0740   439.5780    75.8570    23.6200     6.9750     6.5090     7.8890 
  116.1250     2.2230   -12.9090   444.4640    75.5580    23.6110     6.2580     5.9300     7.1050 
  116.2500     2.2470   -12.7060   450.2770    78.9460    23.7500     5.2370     5.2330     6.2810 
  116.3750     2.2760   -12.4800   454.6380    87.2130    24.0540     4.2650     4.6070     5.6150 
  116.5000     2.2980   -12.2390   454.9230    98.0230    24.3940     3.7420     4.1600     5.1960 
  116.6250     2.3040   -11.9910   450.8950   103.7000    24.5110     3.7420     3.9550     5.0590 
  116.7500     2.3010   -11.7660   446.2790   102.6700    24.3880     3.8990     3.9260     5.0920 
  116.8750     2.2970   -11.6010   442.8700    99.7390    24.1800     4.0870     4.0190     5.2020 
  117.0000     2.2930   -11.5270   440.5170    99.0470    24.0290     4.2840     4.1630     5.3020 
  117.1250     2.2880   -11.5670   439.5600   100.7690    23.9630     4.3620     4.2800     5.3290 
  117.2500     2.2860   -11.6780   440.6930   101.3210    23.9420     4.3620     4.3360     5.3090 
  117.3750     2.2910   -11.8220   442.9450   101.6170    23.9400     4.2780     4.3370     5.2820 
  117.5000     2.3020   -11.9720   444.2440   102.1400    23.9450     4.1060     4.2990     5.2640 
  117.6250     2.3100   -12.1140   443.8390   101.1530    23.9760     4.0410     4.2260     5.2290 
  117.7500     2.3120   -12.2590   443.0600    99.9800    24.0600     4.2240     4.1180     5.1370 
  117.8750     2.3150   -12.4180   443.9280    99.9660    24.2120     4.3380     3.9700     4.9730 
  118.0000     2.3250   -12.6040   447.6900   100.6660    24.4410     4.1930     3.7830     4.7540 
  118.1250     2.3390   -12.8260   453.7450   100.6670    24.7460     3.9420     3.5690     4.5180 
  118.2500     2.3520   -13.0640   457.4740   100.2060    25.0290     3.8270     3.3630     4.3170 
  118.3750     2.3660   -13.3070   456.3870   100.7190    25.2600     3.6730     3.2140     4.2240 
  118.5000     2.3770   -13.5540   452.4910   100.6210    25.3980     3.7220     3.2010     4.3400 
  118.6250     2.3810   -13.8260   442.8050    98.3400    25.3450     4.0550     3.4820     4.8630 
  118.7500     2.3890   -14.1460   416.2690    96.1960    25.1570     4.7680     4.1310     5.8560 
  118.8750     2.4120   -14.5170   365.8090    93.9520    24.9620     6.6690     5.2410     7.3810 
  119.0000     2.4360   -14.9220   306.1170    88.2810    24.8630    13.4430     6.8290     9.3870 
  119.1250     2.4450   -15.3260   280.3500    77.2150    24.8200    25.9790     8.6650    11.4620 
  119.2500     2.4470   -15.6980   301.0450    66.9610    24.7250    26.8520    10.0610    12.7490 
  119.3750     2.4610   -16.0250   342.9240    64.5150    24.5040    16.5270    10.4800    12.6990 
  119.5000     2.4830   -16.3040   373.5130    71.5160    24.1350     8.6430     9.9290    11.5630 
  119.6250     2.4800   -16.5260   386.1670    82.8880    23.7260     7.6160     8.8710    10.1270 
  119.7500     2.4350   -16.7010   397.5740    89.0460    23.4220     7.0180     7.8730     8.9870 
  119.8750     2.3620   -16.8350   410.2080    86.8410    23.2530     6.6720     7.1270     8.2630 
  120.0000     2.2910   -16.9320   418.1940    80.8330    23.1830     6.6220     6.6710     7.9040 
  120.1250     2.2490   -16.9860   421.4510    77.8990    23.1690     6.8040     6.5150     7.8650 
  120.2500     2.2280   -17.0090   424.5170    77.2360    23.1670     7.0590     6.5820     8.0260 
  120.3750     2.2190   -17.0130   427.6100    74.4140    23.1670     7.3890     6.8360     8.3230 
  120.5000     2.2200   -17.0070   430.3330    69.4060    23.1680     7.7570     7.2120     8.6760 
  120.6250     2.2290   -17.0030   431.3780    67.7270    23.1680     8.1070     7.6110     9.0070 
  120.7500     2.2360   -17.0030   431.3300    69.4540    23.1570     8.4190     7.9430     9.2760 
  120.8750     2.2350   -17.0010   431.9890    70.4480    23.1400     8.5110     8.1720     9.4680 
  121.0000     2.2340   -16.9870   434.1300    68.6910    23.1680     8.3810     8.2760     9.5420 
  121.1250     2.2400   -16.9440   435.1250    68.1870    23.2910     8.3030     8.1550     9.3510 
  121.2500     2.2440   -16.8680   433.0280    70.7900    23.4260     8.2610     7.7600     8.8260 
  121.3750     2.2400   -16.7550   431.5090    74.1790    23.4720     8.1880     7.0920     8.0020 
  121.5000     2.2410   -16.6080   435.7690    75.6590    23.4970     7.8260     6.2530     7.0380 
  121.6250     2.2610   -16.4360   444.1930    76.2770    23.7580     6.5180     5.4180     6.1800 
  121.7500     2.2780   -16.2650   448.8060    79.7770    24.1860     4.9690     4.7480     5.5840 
  121.8750     2.2760   -16.1180   448.2190    84.8790    24.4790     4.6470     4.3280     5.3210 
  122.0000     2.2640   -16.0210   445.8500    87.4970    24.5070     5.2760     4.1850     5.3940 
  122.1250     2.2640   -16.0150   442.6910    86.3670    24.4320     5.1720     4.3480     5.7960 
  122.2500     2.2710   -16.0880   435.6390    84.4600    24.3340     5.6040     4.7300     6.3780 
  122.3750     2.2670   -16.2240   424.3300    82.9450    24.1270     6.6370     5.2610     7.0230 
  122.5000     2.2510   -16.3960   411.8470    81.0740    23.8680     7.0590     5.8510     7.6270 
  122.6250     2.2370   -16.5750   400.5440    79.1750    23.7430     6.8490     6.4120     8.1310 
  122.7500     2.2300   -16.7410   392.2870    78.2800    23.7330     6.6970     6.8930     8.5480 
  122.8750     2.2240   -16.8840   390.3160    78.9880    23.7400     6.6740     7.2490     8.8560 
