~V
VERS. 2.00: Ver 2.00
~W
STRT.M 63.0000:
STOP.M 272.0000:
STEP.M 0.1250:
NULL. -999.2500:
UWI. DF3013:
~C
DEPT.M :
DEN.GM/CC :
SP.MV :
AC.US/MT :
GR.API :
CALI.CM :
RXO.OHMM :
RI. :
RML.OHMM :
~A
   63.0000     2.0510    19.9120   366.8050    53.9710    25.5540     1.0910     0.0250     0.3880 
   63.1250     2.0320    17.7600   477.4620    55.7400    25.3340     1.4570     0.0290     0.3170 
   63.2500     1.9790    15.3600   575.3790    57.3390    24.8290     3.0890     0.0520     0.3680 
   63.3750     1.9500    12.6160   618.9210    59.7480    24.1730     5.1940     0.1130     0.5390 
   63.5000     1.9840     9.4520   621.1430    62.9210    23.7090     6.2970     0.2420     0.8810 
   63.6250     2.0250     5.8580   580.6630    66.1860    23.9900     6.0490     0.5210     1.5600 
   63.7500     1.9900     2.0980   496.5180    70.3940    25.4410     5.6010     0.9950     2.6060 
   63.8750     1.8930    -1.6100   407.6250    73.6090    28.2020     5.5230     1.6960     3.8690 
   64.0000     1.7890    -5.0930   365.7920    73.4740    31.3720     5.5450     2.5780     4.9730 
   64.1250     1.7150    -8.1620   384.4330    71.4430    33.1600     5.7980     3.4990     5.6060 
   64.2500     1.6580   -10.8070   417.3430    70.0650    33.4480     6.2110     4.3120     5.9810 
   64.3750     1.6200   -13.0040   446.0310    69.0500    33.1500     6.3790     4.9640     6.2700 
   64.5000     1.6220   -14.7470   459.6110    67.2070    32.6980     6.1940     5.4550     6.5180 
   64.6250     1.6990   -16.0020   457.6060    66.5650    31.3030     6.1120     5.7920     6.6640 
   64.7500     1.8300   -16.9380   453.6770    68.6100    28.9690     6.2980     6.0290     6.6930 
   64.8750     1.9720   -17.6470   450.0930    70.8480    26.4920     6.6560     6.1970     6.6430 
   65.0000     2.0810   -18.2050   447.8980    71.8320    24.6960     7.2470     6.3220     6.5920 
   65.1250     2.1350   -18.6560   448.5910    72.8190    23.9160     7.7220     6.4150     6.6190 
   65.2500     2.1610   -19.0630   450.1670    75.4620    23.6410     8.0330     6.4920     6.7200 
   65.3750     2.1720   -19.4540   451.3540    78.4000    23.5320     8.1910     6.5610     6.8520 
   65.5000     2.1750   -19.8610   452.0890    80.6350    23.3900     8.3760     6.6300     6.9780 
   65.6250     2.1730   -20.3240   452.5570    80.2760    23.2850     8.2530     6.6960     7.1100 
   65.7500     2.1740   -20.8440   453.5910    77.6910    23.2720     8.1020     6.7440     7.2890 
   65.8750     2.1750   -21.3960   456.9430    75.8230    23.2980     7.8920     6.7610     7.5350 
   66.0000     2.1680   -21.9430   462.8640    76.3870    23.3090     7.6970     6.7380     7.8300 
   66.1250     2.1540   -22.4300   467.7300    76.9260    23.3080     7.5730     6.6880     8.1010 
   66.2500     2.1450   -22.8380   469.3110    75.2400    23.3310     7.5610     6.6530     8.2950 
   66.3750     2.1460   -23.1530   469.4050    72.4880    23.4170     7.5970     6.6810     8.4200 
   66.5000     2.1590   -23.3640   467.9990    71.4740    23.5850     7.7050     6.8030     8.5180 
   66.6250     2.1870   -23.4510   459.8680    72.5210    23.7860     8.0120     7.0330     8.5920 
   66.7500     2.2270   -23.4330   447.3110    72.9670    23.9090     8.3430     7.3140     8.5890 
   66.8750     2.2650   -23.3220   439.1930    71.4980    23.8820     8.6000     7.5810     8.4780 
   67.0000     2.2800   -23.1350   443.4810    71.4450    23.7110     8.7630     7.7650     8.2900 
   67.1250     2.2630   -22.8810   458.0330    77.0630    23.4950     8.8120     7.8030     8.1000 
   67.2500     2.2390   -22.5940   470.4780    82.4900    23.3550     8.8260     7.7070     7.9260 
   67.3750     2.2230   -22.2910   476.0300    83.5550    23.3170     8.6990     7.4930     7.7130 
   67.5000     2.2180   -21.9940   475.7960    81.2930    23.3570     8.4620     7.1880     7.4070 
   67.6250     2.2240   -21.7380   472.0110    80.8990    23.4630     7.9580     6.8230     7.0170 
   67.7500     2.2410   -21.5410   465.4290    84.0210    23.6240     7.0640     6.4410     6.6310 
   67.8750     2.2650   -21.4150   457.1760    90.0970    23.8100     6.0950     6.0780     6.3220 
   68.0000     2.2860   -21.3610   450.2140    97.6240    23.9350     5.6080     5.7740     6.1410 
   68.1250     2.2960   -21.3950   448.5670   101.6090    23.9000     5.4940     5.5830     6.1080 
   68.2500     2.2970   -21.5050   450.7960    99.1990    23.7810     5.3310     5.4910     6.1190 
   68.3750     2.2930   -21.6920   453.2230    94.0820    23.6860     5.2770     5.4690     6.0800 
   68.5000     2.2820   -21.9480   453.3740    93.5520    23.6610     5.6820     5.4750     5.9560 
   68.6250     2.2690   -22.2730   452.4860    98.6510    23.6590     6.1980     5.4870     5.8040 
   68.7500     2.2690   -22.6480   451.5570   101.4880    23.6550     6.0860     5.5250     5.7320 
   68.8750     2.2860   -23.0730   446.3180    99.3400    23.7310     5.5830     5.6370     5.8110 
   69.0000     2.3120   -23.5500   433.9040    94.8930    23.8860     5.5140     5.8590     6.0780 
   69.1250     2.3200   -24.0810   420.1730    90.9280    23.8770     6.0630     6.2110     6.5720 
   69.2500     2.3040   -24.6390   416.1350    86.8640    23.6190     6.8920     6.6220     7.2170 
   69.3750     2.2710   -25.2030   424.0990    81.3340    23.3080     7.3300     7.0100     7.9000 
   69.5000     2.2340   -25.7490   436.8830    73.5750    23.1520     7.4900     7.2920     8.4520 
   69.6250     2.2040   -26.2370   445.0760    68.9750    23.1230     7.4970     7.3930     8.6940 
   69.7500     2.1830   -26.6450   448.2590    69.7350    23.1070     7.5190     7.3570     8.7010 
   69.8750     2.1740   -26.9590   449.9560    71.9570    23.1610     7.6090     7.2440     8.6040 
   70.0000     2.1780   -27.1720   452.0040    72.9730    23.3020     7.6960     7.1200     8.5240 
   70.1250     2.1880   -27.2740   453.7970    73.1310    23.4410     7.6490     7.0350     8.5350 
   70.2500     2.1950   -27.3020   454.4680    74.4360    23.5090     7.5510     6.9910     8.5930 
   70.3750     2.1970   -27.2820   453.1250    76.2950    23.5250     7.5780     6.9730     8.6400 
   70.5000     2.1930   -27.2390   450.2440    78.6930    23.5110     7.7980     6.9600     8.6460 
   70.6250     2.1880   -27.1960   448.4670    81.1400    23.4560     8.0820     6.9510     8.6270 
   70.7500     2.1850   -27.1680   447.8900    81.0060    23.3830     8.0450     6.9650     8.6400 
   70.8750     2.1820   -27.1510   447.0260    78.1410    23.3180     7.8330     7.0190     8.7120 
   71.0000     2.1780   -27.1210   445.3850    73.5470    23.2680     7.7540     7.1060     8.8250 
   71.1250     2.1760   -27.0520   444.3770    70.5010    23.2290     7.7330     7.1830     8.9050 
   71.2500     2.1740   -26.9390   443.4080    70.1790    23.2030     7.5800     7.1930     8.8800 
   71.3750     2.1670   -26.7940   440.8670    70.9230    23.1880     7.4700     7.1030     8.7190 
   71.5000     2.1540   -26.6390   438.1530    70.8440    23.1770     7.5890     6.9150     8.4430 
   71.6250     2.1460   -26.4910   438.7800    70.9800    23.1680     7.7470     6.6670     8.1330 
   71.7500     2.1540   -26.3510   442.1540    73.0780    23.1670     7.6850     6.4260     7.8770 
   71.8750     2.1700   -26.2190   445.8150    75.3390    23.1670     7.5980     6.2300     7.7030 
   72.0000     2.1810   -26.1080   447.7140    75.3190    23.1680     7.6010     6.0970     7.6120 
   72.1250     2.1800   -26.0380   448.0980    72.3630    23.1800     7.5520     6.0420     7.6060 
   72.2500     2.1740   -26.0080   448.7370    68.9940    23.2100     7.5320     6.0600     7.6890 
   72.3750     2.1690   -25.9940   451.6360    67.4420    23.2880     7.8220     6.1770     7.9070 
   72.5000     2.1700   -25.9560   456.8300    68.4080    23.4250     8.3010     6.4270     8.2950 
   72.6250     2.1930   -25.8440   453.4530    71.8110    23.5690     9.1150     6.8200     8.8270 
   72.7500     2.2360   -25.6440   434.4850    75.3940    23.6510     9.4270     7.2440     9.3190 
   72.8750     2.2810   -25.3570   409.8070    77.3590    23.6710     9.9340     7.5670     9.5950 
