~V
VERS. 2.00: Ver 2.00
~W
STRT.M 58.0000:
STOP.M 259.0000:
STEP.M 0.1250:
NULL. -999.2500:
UWI. DF3010:
~C
DEPT.M :
GR.API :
RML.OHMM :
RI. :
RXO.OHMM :
CALI.CM :
DEN.GM/CC :
SP.MV :
~A
# ...
  193.0000    67.1900   115.1040   104.9410    86.9940    25.0550     2.2370   -33.5450 
  193.1250    67.9250   121.1150   109.0150    90.0560    25.0550     2.2480   -33.6130 
  193.2500    66.6150   131.5390   117.0140    97.5900    25.0550     2.2510   -33.6330 
  193.3750    63.3100   143.2010   126.1150   111.7650    25.0500     2.2450   -33.6850 
  193.5000    59.9420   152.3300   133.0720   139.0600    25.0230     2.2310   -33.6420 
  193.6250    58.9090   154.7690   134.4230   169.4610    24.9080     2.2180   -33.5650 
  193.7500    59.3500   151.2570   130.7770   160.8080    24.7110     2.2130   -33.4590 
  193.8750    60.7470   144.3700   124.1670   127.0700    24.5510     2.2180   -33.2670 
  194.0000    63.9220   137.5220   117.3580   104.1680    24.6390     2.2290   -33.1480 
  194.1250    67.0480   133.7810   113.0000   101.7920    24.8390     2.2340   -32.8930 
  194.2500    67.8910   133.3040   111.4350   106.3920    24.8770     2.2310   -32.6110 
  194.3750    66.6890   135.1910   112.0330   112.7510    24.7740     2.2260   -32.3330 
  194.5000    65.5750   137.7520   113.4640   118.3880    24.6420     2.2340   -31.9520 
  194.6250    63.4910   138.2900   113.6280   123.2750    24.5870     2.2730   -31.6590 
  194.7500    60.2330   134.8820   110.9290   126.6900    24.6030     2.3390   -31.2440 
  194.8750    58.8020   126.6890   104.4940   128.1390    24.6530     2.4140   -30.7650 
  195.0000    61.2840   114.1240    94.5070   128.2730    24.7190     2.4710   -30.2670 
  195.1250    66.8340    98.8520    82.1240   114.8670    24.7890     2.4790   -29.7290 
  195.2500    71.1550    83.5050    69.6120    89.6010    24.8540     2.4470   -29.0950 
  195.3750    73.2700    69.2880    58.1350    64.6430    24.8610     2.3940   -28.4350 
  195.5000    73.7390    56.1030    48.1350    49.9040    24.7990     2.3430   -27.8440 
  195.6250    74.2740    44.8160    39.7970    42.6400    24.6480     2.3180   -27.0770 
  195.7500    75.2690    35.8030    32.7160    36.6850    24.3870     2.3230   -26.3580 
  195.8750    75.6060    29.8180    26.8310    27.4770    24.0720     2.3530   -25.7130 
  196.0000    76.2820    24.9280    22.1370    18.4490    23.8410     2.4020   -24.9760 
  196.1250    76.5900    21.3280    18.7880    14.6000    23.7810     2.4550   -24.3530 
  196.2500    73.3540    18.7690    16.4610    13.2370    23.8140     2.4970   -23.8370 
  196.3750    66.7470    17.1120    14.9870    11.7770    23.8580     2.5210   -23.3950 
  196.5000    60.5870    16.1560    14.1720    10.9010    23.9000     2.5270   -22.9490 
  196.6250    58.4970    15.7030    13.8490    10.7520    24.0000     2.5200   -22.6930 
  196.7500    57.8470    15.4390    13.7220    10.7960    24.1620     2.5100   -22.4670 
  196.8750    56.8440    15.2120    13.6290    10.6190    24.2900     2.5000   -22.2460 
  197.0000    56.9640    14.9260    13.4500    10.1810    24.3610     2.4900   -22.1620 
  197.1250    59.6940    14.4980    13.0780     9.7510    24.4300     2.4810   -22.0230 
  197.2500    64.0220    13.9300    12.5230     9.3610    24.5060     2.4760   -21.9600 
  197.3750    67.0350    13.2550    11.8230     9.1730    24.5110     2.4770   -21.8570 
  197.5000    69.7730    12.5430    11.0570     9.2420    24.4800     2.4800   -21.7160 
  197.6250    75.8320    11.9130    10.3420     9.3870    24.3780     2.4800   -21.6490 
  197.7500    83.8130    11.4570     9.7660     9.3190    24.3520     2.4760   -21.5880 
  197.8750    90.7260    11.2340     9.3840     8.7180    24.4240     2.4710   -21.6460 
  198.0000    95.5720    11.2550     9.2120     8.4540    24.5860     2.4720   -21.7280 
  198.1250    99.2100    11.5240     9.2590     8.6390    24.7340     2.4810   -21.8490 
  198.2500   101.7420    11.9460     9.4510     8.9510    24.7980     2.4930   -22.0670 
  198.3750   105.0450    12.4530     9.7370     9.3910    24.7720     2.4980   -22.3360 
  198.5000   110.0740    12.9720    10.0580    10.0370    24.7270     2.4930   -22.6990 
  198.6250   114.1680    13.4110    10.3400    10.7770    24.6710     2.4800   -23.1250 
  198.7500   112.6910    13.7250    10.5360    11.4290    24.5890     2.4670   -23.5630 
  198.8750   106.1770    13.8980    10.6250    12.0480    24.5040     2.4570   -23.9730 
  199.0000    99.6710    13.9590    10.6200    12.0640    24.4280     2.4520   -24.4450 
  199.1250    97.3200    13.9850    10.5720    11.3620    24.3910     2.4480   -24.9110 
  199.2500    97.1830    14.0830    10.5610    11.0320    24.3460     2.4420   -25.3260 
  199.3750    97.4680    14.3340    10.6490    11.1530    24.2640     2.4350   -25.7420 
  199.5000    98.5580    14.7780    10.8740    11.6420    24.1660     2.4280   -26.1110 
  199.6250   100.8100    15.4060    11.2440    12.4060    24.0570     2.4200   -26.4040 
  199.7500   100.8420    16.0530    11.6550    12.9030    23.9890     2.4140   -26.6420 
  199.8750    97.5220    16.5310    11.9810    13.1710    23.9660     2.4100   -26.8250 
  200.0000    93.4120    16.6450    12.0830    14.0850    24.0060     2.4130   -26.8070 
  200.1250    91.4100    16.1950    11.8120    14.8250    24.1280     2.4240   -26.6860 
  200.2500    89.9640    15.3310    11.2480    14.2830    24.2740     2.4360   -26.5470 
  200.3750    89.2180    14.2970    10.5330    12.7430    24.4390     2.4470   -26.3080 
  200.5000    90.8630    13.4260     9.8750    11.2420    24.6070     2.4510   -26.1350 
  200.6250    94.7220    13.1070     9.5360    10.3970    24.6540     2.4510   -25.8210 
  200.7500    96.1880    13.3510     9.5690    10.2130    24.6300     2.4540   -25.5310 
  200.8750    93.9900    14.0000     9.9260    10.5430    24.5950     2.4620   -25.3140 
  201.0000    91.0680    14.7550    10.4610    11.5030    24.5640     2.4780   -25.1100 
  201.1250    89.5260    15.2420    10.9550    13.7050    24.5620     2.4960   -25.0700 
  201.2500    88.4700    15.3430    11.2580    15.1620    24.5820     2.5100   -25.0000 
  201.3750    87.5110    15.1620    11.3640    14.1030    24.6020     2.5150   -24.8700 
  201.5000    87.9650    14.9640    11.3870    11.6940    24.5840     2.5090   -24.7250 
  201.6250    90.2340    15.1260    11.5440    11.3040    24.5090     2.4980   -24.6690 
  201.7500    92.7620    15.7580    11.9530    12.3950    24.4290     2.4930   -24.5060 
  201.8750    93.4270    16.7560    12.5980    13.9940    24.3960     2.4960   -24.2690 
  202.0000    91.5010    17.7800    13.2950    14.8550    24.3880     2.5090   -24.0480 
  202.1250    90.7250    18.1860    13.6330    14.4180    24.3790     2.5270   -23.5980 
  202.2500    93.5370    17.6250    13.3280    14.7080    24.3620     2.5460   -23.1140 
  202.3750    96.7710    16.0690    12.3130    14.9520    24.3290     2.5650   -22.6300 
  202.5000    94.0980    13.8780    10.8020    14.7880    24.2610     2.5790   -22.0400 
  202.6250    84.3840    11.7240     9.2400    11.6480    24.1820     2.5800   -21.3740 
  202.7500    74.0670    10.1360     8.0140     7.9240    24.1430     2.5670   -20.8040 
  202.8750    66.5180     9.2800     7.2700     5.9280    24.1780     2.5420   -20.3610 
  203.0000    61.0530     9.0770     7.0040     5.7060    24.2830     2.5170   -19.9340 
  203.1250    59.8970     9.3430     7.1570     6.1930    24.3350     2.4990   -19.7140 
  203.2500    62.8200     9.7310     7.4960     6.4770    24.3520     2.4880   -19.5500 
  203.3750    68.7000    10.0420     7.8550     6.4620    24.3530     2.4810   -19.4530 
  203.5000    75.8130    10.1640     8.1080     6.3690    24.3580     2.4730   -19.5190 
  203.6250    84.0530    10.0660     8.1730     6.3120    24.3870     2.4640   -19.6490 
  203.7500    90.6890     9.8630     8.1090     6.3820    24.4410     2.4540   -19.8390 
  203.8750    92.7380     9.6380     7.9760     6.5270    24.4940     2.4440   -19.9800 
  204.0000    92.1630     9.4550     7.8260     6.6300    24.5290     2.4340   -20.1050 
  204.1250    92.8720     9.3720     7.7050     6.6350    24.5270     2.4250   -20.2760 
