~V
VERS. 2.00: Ver 2.00
~W
STRT.M 66.0000:
STOP.M 262.0000:
STEP.M 0.1250:
NULL. -999.2500:
UWI. DF3009:
~C
DEPT.M :
GR.API :
RML.OHMM :
RI. :
RXO.OHMM :
CALI.CM :
DEN.GM/CC :
SP.MV :
~A
# ...
  201.0000    84.7040     8.6790     7.5570     5.7750    23.8850     2.4330   -19.7940 
  201.1250    86.4650     8.5580     7.5530     5.7640    24.0220     2.4360   -19.7570 
  201.2500    87.0220     8.4900     7.5440     5.7600    24.1410     2.4380   -19.8390 
  201.3750    86.4800     8.4760     7.5300     5.9570    24.2020     2.4360   -19.9130 
  201.5000    87.2280     8.5160     7.5010     6.2520    24.3070     2.4310   -20.0810 
  201.6250    89.7160     8.6260     7.4530     6.3220    24.2900     2.4250   -20.3260 
  201.7500    90.6020     8.7990     7.4010     6.3840    24.3530     2.4190   -20.6020 
  201.8750    89.6150     9.0210     7.3640     6.5440    24.3120     2.4140   -20.9700 
  202.0000    88.6080     9.2590     7.3570     7.0010    24.2320     2.4080   -21.2650 
  202.1250    86.7750     9.4590     7.3780     7.5790    24.1930     2.4030   -21.5500 
  202.2500    85.0730     9.6200     7.4220     8.0430    24.0930     2.4010   -21.8350 
  202.3750    85.6130     9.8160     7.5210     8.8900    24.0890     2.4030   -22.1070 
  202.5000    88.6010    10.2140     7.7630    10.3240    23.9900     2.4060   -22.4000 
  202.6250    90.2640    11.1490     8.3580    11.2180    23.7560     2.4030   -22.7220 
  202.7500    88.7180    12.7800     9.4330    12.4730    23.6220     2.3910   -23.0440 
  202.8750    85.1350    15.2060    11.1090    15.3470    23.5680     2.3710   -23.3290 
  203.0000    80.5340    18.3930    13.4460    20.2930    23.6780     2.3450   -23.5900 
  203.1250    76.4300    22.3230    16.5390    26.9550    23.7110     2.3200   -23.9700 
  203.2500    75.1810    26.8490    20.2500    31.8800    23.6720     2.2990   -24.3320 
  203.3750    75.7010    32.1220    24.5940    35.4750    23.6210     2.2870   -24.6660 
  203.5000    75.7270    38.3990    29.6310    38.6260    23.5270     2.2820   -25.0240 
  203.6250    73.3860    45.8890    35.4190    44.0980    23.6030     2.2860   -25.2970 
  203.7500    68.8240    53.7700    41.4340    54.7890    23.7110     2.2910   -25.6440 
  203.8750    64.5630    60.7970    46.8980    68.6920    23.9690     2.2940   -25.9170 
  204.0000    62.2270    65.5250    50.8800    83.3270    24.3050     2.2900   -26.2630 
  204.1250    64.0720    66.5190    52.3640    89.5320    24.3900     2.2760   -26.5690 
  204.2500    68.5500    64.8990    51.9310    81.4020    24.5250     2.2600   -26.8040 
  204.3750    72.7100    62.2610    50.4890    65.4620    24.5820     2.2460   -27.1030 
  204.5000    74.1620    60.2750    49.1360    55.1480    24.5330     2.2410   -27.3070 
  204.6250    72.9960    60.3710    48.9800    52.6190    24.4620     2.2440   -27.5700 
  204.7500    72.1750    62.5750    50.3030    53.4140    24.1520     2.2510   -27.7340 
  204.8750    71.5070    66.7930    53.1830    54.8620    23.8880     2.2560   -27.9490 
  205.0000    70.7020    72.8550    57.5670    56.3280    23.6340     2.2570   -28.1620 
  205.1250    71.8190    80.9070    63.5730    62.6720    23.4690     2.2570   -28.2290 
  205.2500    73.7370    90.6140    70.8500    73.3080    23.4200     2.2570   -28.2990 
  205.3750    73.2350   102.0100    79.3090    84.9740    23.3910     2.2560   -28.4150 
  205.5000    70.5970   115.1790    88.8540    97.1040    23.5920     2.2520   -28.5160 
  205.6250    68.9020   130.3460    99.4040   108.6640    23.8860     2.2420   -28.5770 
  205.7500    69.6410   146.5620   110.2990   123.9160    24.2210     2.2300   -28.6770 
  205.8750    71.1590   162.2630   120.6600   135.5560    24.5240     2.2210   -28.7140 
  206.0000    70.3050   174.8580   129.1710   143.8580    24.6070     2.2180   -28.7540 
  206.1250    66.3870   179.7740   133.5030   154.5970    24.6670     2.2220   -28.8100 
  206.2500    64.0620   175.9210   133.0390   162.1270    24.6440     2.2290   -28.8850 
  206.3750    66.4360   164.1050   127.8810   162.1580    24.6100     2.2370   -28.8500 
  206.5000    69.8210   147.6700   119.3650   149.5220    24.5760     2.2430   -28.8700 
  206.6250    69.4470   131.4610   109.8010   123.8520    24.4870     2.2460   -28.8510 
  206.7500    68.1970   118.8430   101.6710   101.4350    24.5130     2.2460   -28.7930 
  206.8750    67.8470   111.0120    96.2780    87.5100    24.4740     2.2440   -28.7990 
  207.0000    68.2190   108.2070    94.2220    88.9870    24.4420     2.2400   -28.6620 
  207.1250    68.7550   111.0330    96.1370    93.6600    24.5220     2.2370   -28.6770 
  207.2500    68.2440   118.0710   101.0460    99.9680    24.5220     2.2340   -28.7110 
  207.3750    66.3070   128.0840   108.0770   104.9020    24.5580     2.2290   -28.7400 
  207.5000    64.9490   138.9890   115.8190   113.1290    24.5090     2.2220   -28.7780 
  207.6250    65.4940   147.5120   122.1460   125.7350    24.5350     2.2120   -28.8050 
  207.7500    65.9840   151.8620   125.8760   141.8210    24.5680     2.2060   -28.9310 
  207.8750    65.4980   152.1390   126.9800   160.3830    24.5190     2.2060   -28.9640 
  208.0000    64.5010   150.3810   126.6000   158.4150    24.5690     2.2140   -29.1260 
  208.1250    63.4820   150.2450   126.9590   126.1220    24.5660     2.2240   -29.2210 
  208.2500    64.7800   154.3210   129.8980   109.2850    24.5440     2.2280   -29.2300 
  208.3750    67.5520   163.7690   136.3240   118.6380    24.4740     2.2220   -29.3530 
  208.5000    68.8230   178.4750   146.2080   149.2600    24.3940     2.2080   -29.4070 
  208.6250    66.3680   197.3580   158.8320   172.7450    24.3620     2.1920   -29.4690 
  208.7500    63.2910   216.6860   171.8940   178.9520    24.5800     2.1790   -29.5320 
  208.8750    61.8430   232.8690   183.3690   181.2890    24.7100     2.1720   -29.5810 
  209.0000    62.5940   242.4700   191.3500   208.0090    24.7200     2.1740   -29.6140 
  209.1250    64.2080   241.7890   193.5840   218.7990    24.6080     2.1810   -29.6290 
  209.2500    65.0470   232.6330   190.6160   213.4150    24.5430     2.1900   -29.6450 
  209.3750    65.5950   217.3620   183.2970   194.3850    24.4820     2.1990   -29.6280 
  209.5000    66.3720   199.2480   173.2280   171.8530    24.5530     2.2080   -29.5900 
  209.6250    65.4550   181.7460   162.4450   153.9870    24.5860     2.2170   -29.5820 
  209.7500    63.0450   166.9680   152.8730   147.5800    24.5560     2.2270   -29.4710 
  209.8750    61.4850   155.9920   145.6570   151.0560    24.5320     2.2370   -29.4280 
  210.0000    63.1040   149.4910   141.6080   151.9960    24.4200     2.2440   -29.3460 
  210.1250    66.3700   148.6260   141.8850   148.2920    24.4220     2.2450   -29.2300 
  210.2500    68.5050   152.2950   145.8410   146.3470    24.3680     2.2400   -29.2050 
  210.3750    67.9920   159.3620   152.6770   152.7750    24.3810     2.2300   -29.0710 
  210.5000    65.2810   167.7180   160.7600   172.7770    24.4460     2.2190   -29.0470 
  210.6250    63.6640   173.2010   167.1800   189.3330    24.3820     2.2120   -28.9340 
  210.7500    64.8550   173.2440   169.4860   187.5440    24.3990     2.2090   -28.9120 
  210.8750    66.6960   166.9390   166.2640   182.5650    24.3560     2.2090   -28.8680 
  211.0000    65.3510   156.2100   157.6010   178.6440    24.3380     2.2070   -28.7660 
  211.1250    63.0570   144.4320   144.8380   166.9300    24.1900     2.2000   -28.7490 
  211.2500    64.2340   135.4750   131.2640   149.8120    23.8890     2.1910   -28.6560 
  211.3750    67.1760   130.4010   118.8480   129.1560    23.6780     2.1840   -28.6500 
  211.5000    68.7830   124.8530   108.7330   110.1960    23.5380     2.1850   -28.6010 
  211.6250    69.5300   115.9990   101.7000   102.9560    23.5710     2.1980   -28.5230 
  211.7500    71.0270   110.3240    97.0590    99.0500    23.7870     2.2160   -28.4730 
  211.8750    70.7910   107.2530    94.4260    96.2400    24.1120     2.2310   -28.4360 
  212.0000    68.9850   106.3270    93.4820    94.1110    24.4140     2.2380   -28.4000 
  212.1250    67.3680   107.4120    94.1790    94.1570    24.3880     2.2350   -28.4160 
