~V
VERS. 2.00: Ver 2.00
~W
STRT.M 60.0000:
STOP.M 264.0000:
STEP.M 0.1250:
NULL. -999.2500:
UWI. DF303:
~C
DEPT.M :
DEN.GM/CC :
SP.MV :
AC.US/MT :
GR.API :
CALI.CM :
RXO.OHMM :
RI. :
RML.OHMM :
~A
# ...
   80.0000  -999.2500   -35.0140  -999.2500    67.3910    24.1990     7.4120     6.5700     7.6760 
   80.1250  -999.2500   -34.9210  -999.2500    65.6900    24.2090     7.3990     6.6940     7.7220 
   80.2500  -999.2500   -34.7430  -999.2500    73.1440    24.2090     7.3600     6.8030     7.7680 
   80.3750  -999.2500   -34.4130  -999.2500    82.3610    24.2180     7.3390     6.8690     7.7930 
   80.5000  -999.2500   -33.9220  -999.2500    85.9640    24.2140     7.2970     6.8380     7.7230 
   80.6250  -999.2500   -33.1980  -999.2500    85.8560    24.2090     7.1510     6.6040     7.4080 
   80.7500  -999.2500   -32.2690  -999.2500    87.6380    24.2100     6.8630     6.1620     6.8220 
   80.8750  -999.2500   -31.2030  -999.2500    93.5900    24.2230     6.3140     5.5620     6.0350 
   81.0000  -999.2500   -30.0610  -999.2500   102.9520    24.2410     5.4600     4.9110     5.2060 
   81.1250  -999.2500   -28.9510  -999.2500   111.4170    24.2890     4.6300     4.3440     4.5320 
   81.2500  -999.2500   -27.9350  -999.2500   112.3350    24.4120     4.1580     3.9240     4.0810 
   81.3750  -999.2500   -27.0790  -999.2500   105.5390    24.5930     4.0580     3.6730     3.8600 
   81.5000  -999.2500   -26.3830  -999.2500    98.1210    24.7140     4.1550     3.5860     3.8430 
   81.6250  -999.2500   -25.8880  -999.2500    94.5040    24.7480     4.3160     3.6630     4.0100 
   81.7500  -999.2500   -25.5900  -999.2500    93.3010    24.7470     4.4820     3.8490     4.2850 
   81.8750  -999.2500   -25.4870  -999.2500    92.8790    24.7180     4.7310     4.1170     4.6400 
   82.0000  -999.2500   -25.5470  -999.2500    89.3710    24.6640     5.0850     4.4400     5.0460 
   82.1250  -999.2500   -25.7300  -999.2500    81.9010    24.5300     5.4540     4.7840     5.4670 
   82.2500  -999.2500   -25.9770  -999.2500    75.3380    24.3450     5.7000     5.0970     5.8330 
   82.3750  -999.2500   -26.2060   424.6280    73.1850    24.1770     5.9080     5.3320     6.0770 
   82.5000  -999.2500   -26.3950   424.6280    74.6340    24.1120     6.1160     5.4680     6.1720 
   82.6250  -999.2500   -26.5370   426.2780    76.0430    24.1080     6.2460     5.5150     6.1520 
   82.7500  -999.2500   -26.5930   428.7330    77.8840    24.0940     6.1890     5.5320     6.1190 
   82.8750  -999.2500   -26.5350   428.7250    81.4820    24.0830     6.0680     5.5440     6.1250 
   83.0000  -999.2500   -26.4070   422.8670    84.8300    24.0820     6.1570     5.5480     6.1670 
   83.1250  -999.2500   -26.1800   412.9580    83.6470    24.0760     6.6320     5.5060     6.1730 
   83.2500  -999.2500   -25.8880   407.5550    80.9510    24.0550     6.6040     5.3960     6.0780 
   83.3750  -999.2500   -25.5930   410.9030    82.3910    24.0230     6.0380     5.2260     5.8770 
   83.5000  -999.2500   -25.3330   420.1070    88.0460    24.0000     5.4620     5.0270     5.6210 
   83.6250  -999.2500   -25.1410   427.5190    92.3160    23.9920     5.1480     4.8630     5.4080 
   83.7500  -999.2500   -25.0410   429.8050    93.1260    23.9860     5.0770     4.7940     5.3300 
   83.8750  -999.2500   -25.0310   428.0250    90.8020    23.9840     5.1470     4.8730     5.4530 
   84.0000  -999.2500   -25.0710   422.0890    86.1490    23.9810     5.3300     5.1200     5.8010 
   84.1250  -999.2500   -25.1880   406.4410    79.6010    23.9800     5.8130     5.5260     6.3620 
   84.2500  -999.2500   -25.3700   382.1650    74.7340    23.9580     6.8180     5.9710     6.9820 
   84.3750  -999.2500   -25.6250   360.5210    73.1040    23.8940     8.1880     6.3170     7.4650 
   84.5000  -999.2500   -25.9370   357.3360    70.8530    23.7790     9.2280     6.4280     7.6030 
   84.6250  -999.2500   -26.2890   379.6360    69.1490    23.6640     8.6110     6.2330     7.2970 
   84.7500  -999.2500   -26.6510   409.1960    73.2680    23.6170     7.3840     5.9090     6.8290 
   84.8750  -999.2500   -27.0310   434.3550    82.8120    23.6060     6.3480     5.6210     6.4520 
   85.0000  -999.2500   -27.4440   454.7720    89.0050    23.6070     5.8610     5.5010     6.3410 
   85.1250  -999.2500   -27.8860   473.5950    84.2230    23.6160     6.0690     5.6510     6.6250 
   85.2500  -999.2500   -28.3160   486.2460    76.0500    23.6350     6.8040     5.9990     7.1930 
   85.3750  -999.2500   -28.7140   484.7420    70.8980    23.6580     7.6060     6.4530     7.8980 
   85.5000     2.3040   -29.1030   470.1050    71.1610    23.6540     8.0950     6.8970     8.5480 
   85.6250     2.3040   -29.4630   457.4460    71.6330    23.5660     8.1440     7.2000     8.9300 
   85.7500     2.2980   -29.8320   457.4190    69.5840    23.4980     8.2000     7.3490     9.0430 
   85.8750     2.2720   -30.1740   461.7870    67.4150    23.5110     8.2620     7.3860     8.9850 
   86.0000     2.2350   -30.4510   455.9100    67.0950    23.5690     8.3060     7.3790     8.8860 
   86.1250     2.2120   -30.6750   436.0460    68.0680    23.6370     8.2500     7.3780     8.8360 
   86.2500     2.2090   -30.8690   416.8300    68.4420    23.7060     8.1370     7.3890     8.8270 
   86.3750     2.2170   -31.0220   406.9400    69.0880    23.7250     8.0440     7.4010     8.8260 
   86.5000     2.2250   -31.1470   407.0820    68.5830    23.7420     8.0210     7.3970     8.8050 
   86.6250     2.2270   -31.2550   413.5990    67.4810    23.8530     8.0990     7.3670     8.7500 
   86.7500     2.2250   -31.3270   420.5380    67.8600    24.0020     8.2150     7.3140     8.6790 
   86.8750     2.2220   -31.3800   425.0690    67.2240    24.1200     8.2870     7.2460     8.5970 
   87.0000     2.2180   -31.4460   426.9710    64.5700    24.1650     8.2670     7.1660     8.5030 
   87.1250     2.2190   -31.5100   427.4310    64.5390    24.1610     8.1590     7.0810     8.3940 
   87.2500     2.2230   -31.5550   427.9050    68.1210    24.1920     8.0930     6.9930     8.2770 
   87.3750     2.2290   -31.6100   429.5340    77.7490    24.3360     8.0840     6.9050     8.1590 
   87.5000     2.2280   -31.6650   433.1940    89.2380    24.5880     8.0730     6.8220     8.0520 
   87.6250     2.2170   -31.7000   438.5120    89.5570    24.7410     8.0590     6.7550     7.9730 
   87.7500     2.2080   -31.7260   443.3460    78.8290    24.7990     8.0300     6.7210     7.9310 
   87.8750     2.2110   -31.7610   446.5070    69.3420    24.8390     7.9950     6.7400     7.9500 
   88.0000     2.2210   -31.7630   447.5500    68.9810    24.8730     7.9810     6.8270     8.0490 
   88.1250     2.2300   -31.6940   444.1920    70.8540    24.8030     8.2790     6.9810     8.2380 
   88.2500     2.2410   -31.6250   434.8680    70.1210    24.7450     9.5580     7.1550     8.4620 
   88.3750     2.2580   -31.5290   421.3870    69.1140    24.7380    12.5500     7.3050     8.6590 
   88.5000     2.2790   -31.3910   410.5940    67.5420    24.7300    14.8920     7.3880     8.7720 
   88.6250     2.2850   -31.2560   411.4350    67.8800    24.5700    13.5800     7.3750     8.7600 
   88.7500     2.2710   -31.1310   420.9580    68.2030    24.4380    10.4270     7.3080     8.6830 
   88.8750     2.2450   -31.0060   431.7450    64.7490    24.3820     8.7090     7.2280     8.6030 
   89.0000     2.2210   -30.9150   437.7250    59.6060    24.3730     8.2990     7.1720     8.5720 
   89.1250     2.2110   -30.8600   437.2320    60.2270    24.4080     8.3170     7.1600     8.6120 
   89.2500     2.2130   -30.8020   433.9490    64.5340    24.5050     8.3240     7.1730     8.6840 
   89.3750     2.2200   -30.7670   430.4200    67.6780    24.6310     8.2550     7.1920     8.7460 
   89.5000     2.2240   -30.7500   428.6460    69.8760    24.6290     8.0110     7.2020     8.7700 
   89.6250     2.2230   -30.7550   429.6070    72.6760    24.4940     7.6560     7.2010     8.7560 
   89.7500     2.2200   -30.7780   430.5490    74.0860    24.4410     7.4560     7.1950     8.7290 
   89.8750     2.2130   -30.8000   428.4500    74.6130    24.4890     7.5160     7.1840     8.6930 
