~V
VERS. 2.00: Ver 2.00
~W
STRT.M 59.0000:
STOP.M 281.0000:
STEP.M 0.1250:
NULL. -999.2500:
UWI. DF3005:
~C
DEPT.M :
DEN.GM/CC :
SP.MV :
AC.US/MT :
GR.API :
CALI.CM :
RXO.OHMM :
RI. :
RML.OHMM :
~A
# ...
  259.0000     2.4480   -10.7200   240.2940    67.4280    24.3110     8.1240    12.1400    13.3330 
  259.1250     2.4800   -10.7740   232.0560    71.4920    24.3130     7.8220    11.9770    13.2240 
  259.2500     2.5030   -10.8020   230.9520    71.5120    24.3020     8.0190    11.7070    12.9210 
  259.3750     2.5060   -10.8150   239.6200    66.1540    24.2960     8.3470    11.3870    12.5010 
  259.5000     2.4950   -10.8420   257.4540    60.3030    24.3030     9.1170    11.0620    12.0720 
  259.6250     2.4850   -10.9190   271.9080    61.8200    24.3010    10.7830    10.7690    11.7350 
  259.7500     2.4840   -11.0590   282.7750    67.7910    24.2910    14.7790    10.5320    11.5490 
  259.8750     2.4870   -11.2240   288.6880    72.3540    24.3000    19.4340    10.3800    11.5480 
  260.0000     2.4920   -11.3400   287.6420    72.0340    24.3410    21.5400    10.3470    11.7290 
  260.1250     2.5010   -11.3770   281.2120    70.6010    24.3950    18.6990    10.4720    12.0500 
  260.2500     2.5120   -11.3910   273.9700    71.4350    24.4370    18.2090    10.7100    12.4030 
  260.3750     2.5190   -11.4090   269.4090    71.7310    24.4450    17.1260    11.0140    12.7110 
  260.5000     2.5220   -11.4220   267.6030    70.4080    24.4210    14.8610    11.3220    12.9300 
  260.6250     2.5230   -11.4080   268.0110    70.9980    24.3920    14.5100    11.5570    13.0490 
  260.7500     2.5240   -11.3780   268.9860    72.3960    24.3870    15.5580    11.6990    13.1080 
  260.8750     2.5140   -11.3240   268.4970    69.8570    24.3950    16.1850    11.7630    13.1020 
  261.0000     2.4880   -11.2450   266.3380    64.7270    24.3980    15.8110    11.7790    13.0240 
  261.1250     2.4560   -11.1700   264.0500    64.2040    24.3970    15.5460    11.7550    12.8910 
  261.2500     2.4370   -11.1110   262.7650    69.2010    24.3960    16.9080    11.6930    12.7330 
  261.3750     2.4410   -11.0500   261.4350    75.4990    24.3990    19.1420    11.5990    12.5580 
  261.5000     2.4560   -10.9730   259.7270    78.6490    24.4160    21.6160    11.4850    12.3640 
  261.6250     2.4670   -10.9010   258.0910    76.4170    24.4300    22.3680    11.3660    12.1730 
  261.7500     2.4650   -10.8470   255.6000    71.7150    24.4120    22.1770    11.2540    12.0230 
  261.8750     2.4600   -10.8220   250.4150    68.4460    24.3670    21.3500    11.1500    11.9300 
  262.0000     2.4600   -10.8450   242.8680    67.8670    24.3230    20.0460    11.0580    11.8820 
  262.1250     2.4610   -10.9140   235.6120    67.9270    24.3110    16.7400    10.9840    11.8240 
  262.2500     2.4500   -10.9540   232.3680    66.9180    24.3280    14.0910    10.9180    11.6940 
  262.3750     2.4330   -10.9180   233.0160    65.9750    24.3610    12.7310    10.8380    11.4780 
  262.5000     2.4230   -10.8200   236.0900    66.6520    24.3970    12.7830    10.7130    11.2080 
  262.6250     2.4270   -10.7090   240.3480    67.3820    24.4270    13.6160    10.5290    10.9340 
  262.7500     2.4410   -10.6230   245.3920    67.1030    24.4470    14.1220    10.3170    10.6830 
  262.8750     2.4540   -10.5830   250.2770    67.1330    24.4440    12.5560    10.1010    10.4660 
  263.0000     2.4560   -10.5870   254.0440    67.4430    24.4080     9.9350     9.9090    10.3050 
  263.1250     2.4490   -10.5910   257.3990    67.9930    24.3650     9.4040     9.7640    10.2370 
  263.2500     2.4420   -10.5570   263.2100    67.4860    24.3590    10.2060     9.6650    10.2730 
  263.3750     2.4430   -10.4750   271.8430    66.1050    24.3970    11.7790     9.6000    10.4000 
  263.5000     2.4480   -10.3660   280.4590    64.5390    24.4480    12.8510     9.5500    10.5520 
  263.6250     2.4500   -10.2750   285.8770    64.5710    24.4690    12.6370     9.5070    10.6220 
  263.7500     2.4480   -10.2220   287.3530    65.9610    24.4720    12.4900     9.4610    10.5600 
  263.8750     2.4470   -10.2060   287.8290    66.5970    24.4790    13.1820     9.4050    10.3640 
  264.0000     2.4470   -10.2130   288.5200    66.1400    24.4890    13.7600     9.3370    10.0810 
  264.1250     2.4450   -10.2130   288.9730    66.1260    24.5000    12.8990     9.2470     9.7900 
  264.2500     2.4340   -10.1920   289.6110    66.2230    24.5130    11.8970     9.1320     9.5460 
  264.3750     2.4110   -10.1440   292.7540    65.6110    24.5240    10.6690     8.9910     9.3540 
  264.5000     2.3900   -10.0880   299.2210    64.7030    24.5170     9.3480     8.8450     9.2110 
  264.6250     2.3910   -10.0390   306.9220    64.9860    24.5030     8.5060     8.7340     9.1370 
  264.7500     2.4200   -10.0000   312.4040    65.7500    24.5040     8.5990     8.6880     9.1270 
  264.8750     2.4460    -9.9800   315.9780    65.1890    24.5190     8.6050     8.7160     9.1840 
  265.0000     2.4530    -9.9800   319.4540    63.5430    24.5300     8.4440     8.7980     9.3090 
  265.1250     2.4500   -10.0030   323.2090    63.2800    24.5200     8.4460     8.8870     9.4830 
  265.2500     2.4560   -10.0340   326.0150    63.6480    24.4990     8.4710     8.9390     9.6460 
  265.3750     2.4680   -10.0390   327.7370    63.2810    24.4790     8.4130     8.9410     9.7560 
  265.5000     2.4770    -9.9830   329.0150    62.7800    24.4640     8.9700     8.8920     9.7860 
  265.6250     2.4790    -9.8840   330.5250    63.9210    24.4460     9.4230     8.7890     9.7000 
  265.7500     2.4730    -9.8260   332.3320    65.7740    24.4120     8.7580     8.6540     9.5280 
  265.8750     2.4620    -9.8440   333.5750    65.6530    24.3810     7.9480     8.5060     9.3220 
  266.0000     2.4510    -9.9130   333.4030    63.1800    24.3850     7.9370     8.3750     9.1430 
  266.1250     2.4430    -9.9830   331.8250    62.0840    24.4300     8.2510     8.3070     9.0550 
  266.2500     2.4400   -10.0590   327.6530    64.5740    24.4820     8.5240     8.3140     9.0890 
  266.3750     2.4380   -10.1860   320.2530    67.4830    24.5100     8.2740     8.3800     9.2400 
  266.5000     2.4370   -10.3660   311.4940    67.7600    24.5030     7.4920     8.4650     9.4350 
  266.6250     2.4430   -10.5090   304.5330    68.0860    24.4760     7.3190     8.5160     9.5530 
  266.7500     2.4540   -10.5200   300.8920    70.0800    24.4600     7.1870     8.5060     9.5650 
  266.8750     2.4640   -10.4080   298.6340    72.2180    24.4690     7.4350     8.4500     9.5140 
  267.0000     2.4660   -10.2790   297.0710    73.1690    24.4920     7.7350     8.3930     9.4840 
  267.1250     2.4660   -10.2640   295.3450    73.4640    24.5160     8.0730     8.3980     9.5630 
  267.2500     2.4720   -10.3650   291.4420    72.2370    24.5330     8.8130     8.4970     9.7390 
  267.3750     2.4830   -10.5270   285.8510    68.8670    24.5320     9.8760     8.6960     9.9590 
  267.5000     2.4910   -10.6770   280.2140    65.5590    24.5140    10.7680     8.9650    10.1860 
  267.6250     2.4930   -10.7620   275.6200    65.3870    24.4870    11.7690     9.2520    10.4260 
  267.7500     2.4940   -10.8030   272.5290    66.6490    24.4690    14.6860     9.5150    10.6920 
  267.8750     2.4990   -10.8250   271.3010    67.3490    24.4630    17.1790     9.7550    10.9720 
  268.0000     2.5060   -10.8290   272.4710    66.5900    24.4620    17.1170     9.9840    11.2290 
  268.1250     2.5110   -10.7740   275.4520    65.9420    24.4630    15.2770    10.2050    11.3980 
  268.2500     2.5080   -10.6320   279.7810    66.5100    24.4760    14.0040    10.3870    11.4650 
  268.3750     2.4940   -10.4170   285.1700    67.5550    24.5020    12.7830    10.4680    11.4260 
  268.5000     2.4750   -10.1980   291.4030    69.1410    24.5280    11.1990    10.3970    11.2920 
  268.6250     2.4580   -10.0820   297.2880    69.8840    24.5440     9.4330    10.1370    11.0540 
  268.7500     2.4490   -10.0620   301.4710    70.1420    24.5510     8.7660     9.7710    10.7320 
  268.8750     2.4390   -10.0810   304.2100    70.9840    24.5480     8.4400     9.3840    10.3600 
