~V
VERS. 2.00: Ver 2.00
~W
STRT.M 60.0000:
STOP.M 277.0000:
STEP.M 0.1250:
NULL. -999.2500:
UWI. DF3044:
~C
DEPT.M :
GR.API :
CALI.CM :
RXO.OHMM :
RI. :
RML.OHMM :
DEN.GM/CC :
SP.MV :
~A
# ...
  105.0000    68.1150    23.0900     6.9640     5.8640     7.0860     2.2350   -24.3330 
  105.1250    71.2800    23.0370     6.2040     5.4350     6.5290     2.2570   -23.8110 
  105.2500    73.4240    22.9560     5.6520     5.1500     6.2180     2.2600   -23.3600 
  105.3750    78.2580    22.9220     5.5200     5.0110     6.1410     2.2550   -22.9950 
  105.5000    87.0550    22.9170     5.8540     4.9740     6.2030     2.2650   -22.7590 
  105.6250    92.3630    22.9480     6.1840     4.9550     6.2480     2.2910   -22.7090 
  105.7500    88.5130    23.0190     6.1200     4.8840     6.1670     2.3020   -22.8480 
  105.8750    80.9240    23.1050     5.7330     4.7550     5.9700     2.2890   -23.1280 
  106.0000    76.0040    23.1870     5.4840     4.6110     5.7500     2.2640   -23.5220 
  106.1250    72.4380    23.2440     5.4150     4.5270     5.6510     2.2470   -23.9760 
  106.2500    68.8900    23.2880     5.5390     4.5660     5.7500     2.2360   -24.4700 
  106.3750    67.4790    23.2960     5.8640     4.8000     6.1140     2.2340   -24.9920 
  106.5000    66.8560    23.2500     6.4180     5.2920     6.8130     2.2560   -25.4860 
  106.6250    64.9390    23.1290     7.3430     6.1180     7.9600     2.3160   -25.9250 
  106.7500    62.9600    23.0640     8.8280     7.1740     9.4230     2.3880   -26.2640 
  106.8750    62.3770    23.1250    11.4100     8.2660    10.9210     2.4340   -26.5330 
  107.0000    62.9560    23.2150    14.4070     9.0790    11.9550     2.4270   -26.7120 
  107.1250    66.1590    23.1720    14.7260     9.2960    11.9860     2.3760   -26.8320 
  107.2500    68.9740    23.0030    12.2540     9.2120    11.5280     2.3420   -26.9350 
  107.3750    69.2170    22.7990     9.9720     9.2830    11.3540     2.3670   -27.0320 
  107.5000    67.5210    22.6670    10.0380     9.9150    12.0790     2.4450   -27.1690 
  107.6250    63.9030    22.7430    13.5280    11.4700    14.2330     2.5260   -27.3720 
  107.7500    59.4850    22.9990    20.6840    13.6380    17.4110     2.5520   -27.6390 
  107.8750    57.7530    23.3360    29.9520    15.5840    20.3550     2.5040   -27.9470 
  108.0000    63.9210    23.4810    33.8600    15.9990    20.7770     2.3980   -28.2860 
  108.1250    71.3680    23.3610    26.2300    14.1490    17.5160     2.2790   -28.6110 
  108.2500    70.7850    23.2440    16.2650    11.5690    13.5380     2.1890   -28.9230 
  108.3750    64.2590    23.3110    10.4210     9.3140    10.5140     2.1420   -29.2220 
  108.5000    59.5010    23.5770     8.4260     7.7680     8.7370     2.1300   -29.5060 
  108.6250    60.9520    23.5820     8.0510     7.0120     8.0690     2.1340   -29.7440 
  108.7500    63.1990    23.3410     7.9660     6.7470     7.9930     2.1370   -29.9510 
  108.8750    64.3630    23.0860     7.8790     6.7800     8.2320     2.1450   -30.1170 
  109.0000    64.9600    22.9710     7.8210     6.9380     8.5590     2.1610   -30.2440 
  109.1250    62.6420    22.9580     7.8660     7.0920     8.8020     2.1730   -30.3700 
  109.2500    57.7220    22.9540     7.9940     7.1780     8.9180     2.1710   -30.4760 
  109.3750    55.0180    22.9550     8.1110     7.1870     8.9060     2.1650   -30.5530 
  109.5000    58.8920    22.9590     8.1360     7.1380     8.7990     2.1650   -30.5850 
  109.6250    64.2760    23.0230     7.9980     7.0630     8.6530     2.1640   -30.5980 
  109.7500    64.8930    23.2230     7.8070     6.9900     8.5420     2.1560   -30.5820 
  109.8750    62.6380    23.5240     7.6820     6.9440     8.5010     2.1470   -30.5350 
  110.0000    60.4220    23.7020     7.6900     6.9510     8.5460     2.1450   -30.4570 
  110.1250    59.7710    23.7180     7.8130     7.0370     8.6890     2.1610   -30.3320 
  110.2500    58.4140    23.7020     8.0190     7.1690     8.8900     2.2040   -30.1890 
  110.3750    56.2970    23.6930     8.2350     7.3080     9.1050     2.2680   -30.0410 
  110.5000    54.9720    23.6260     8.2730     7.4140     9.2830     2.3150   -29.9020 
  110.6250    56.7440    23.4260     8.0770     7.4410     9.3500     2.2940   -29.7440 
  110.7500    60.2220    23.1610     7.8560     7.3770     9.2840     2.2310   -29.5940 
  110.8750    61.9230    23.0300     7.7260     7.2170     9.0900     2.1770   -29.4540 
  111.0000    60.4800    23.0310     7.6730     6.9730     8.7990     2.1660   -29.3530 
  111.1250    58.8440    23.1590     7.6760     6.6580     8.4210     2.1890   -29.2970 
  111.2500    60.1280    23.3890     7.6980     6.3140     7.9830     2.2080   -29.2830 
  111.3750    65.2260    23.6140     7.5130     5.9620     7.5190     2.2140   -29.3330 
  111.5000    70.1350    23.7350     6.9590     5.6320     7.0980     2.2120   -29.4450 
  111.6250    69.7990    23.7910     6.2230     5.4070     6.8550     2.2020   -29.6480 
  111.7500    65.1800    23.8460     6.0430     5.3550     6.8640     2.1830   -29.8720 
  111.8750    60.2140    23.8610     6.5030     5.5020     7.1480     2.1640   -30.1050 
  112.0000    58.6180    23.8440     7.1100     5.8110     7.6480     2.1530   -30.3230 
  112.1250    59.6800    23.7990     7.3800     6.1880     8.2230     2.1570   -30.5110 
  112.2500    61.6120    23.7610     7.4720     6.5200     8.6870     2.1650   -30.6620 
  112.3750    64.4120    23.7190     7.5750     6.7540     8.9450     2.1670   -30.7300 
  112.5000    65.7880    23.6730     7.6550     6.8760     9.0040     2.1570   -30.7140 
  112.6250    64.8420    23.6070     7.5990     6.8930     8.9350     2.1290   -30.5930 
  112.7500    63.4020    23.5220     7.4440     6.8540     8.8390     2.0970   -30.3990 
  112.8750    62.6230    23.4290     7.3230     6.7920     8.7450     2.0770   -30.1460 
  113.0000    61.6130    23.3310     7.2880     6.7360     8.6620     2.0830   -29.8170 
  113.1250    61.7870    23.2250     7.2680     6.6980     8.5950     2.1150   -29.4080 
  113.2500    65.4670    23.1400     7.2380     6.6630     8.5420     2.1490   -28.9320 
  113.3750    69.3090    23.0830     7.2400     6.6220     8.5030     2.1680   -28.4150 
  113.5000    71.3110    23.0450     7.2430     6.5820     8.4790     2.1700   -27.8590 
  113.6250    71.3790    23.0110     7.1760     6.5660     8.4680     2.1650   -27.2210 
  113.7500    71.4960    22.9620     7.0920     6.5750     8.4510     2.1660   -26.5530 
  113.8750    73.4590    22.9110     7.0840     6.5730     8.3870     2.1750   -25.8400 
  114.0000    78.4380    22.8670     7.1030     6.5000     8.2250     2.1880   -25.1140 
  114.1250    84.3210    22.8390     7.0000     6.2800     7.8950     2.2140   -24.3970 
  114.2500    86.1330    22.8130     6.6400     5.9400     7.4280     2.2530   -23.6920 
  114.3750    84.0390    22.8140     6.1020     5.5430     6.8890     2.2950   -23.0150 
  114.5000    82.9870    22.9240     5.6030     5.1600     6.3660     2.3240   -22.3750 
  114.6250    85.9970    23.2100     5.2840     4.8390     5.9530     2.3340   -21.8330 
  114.7500    91.6710    23.5550     5.0860     4.5760     5.6520     2.3340   -21.3500 
  114.8750    97.3270    23.7670     4.9500     4.3790     5.4460     2.3340   -20.9670 
  115.0000   101.3090    23.8320     4.8640     4.2570     5.3090     2.3370   -20.6790 
  115.1250   100.5690    23.8320     4.7900     4.2130     5.2380     2.3380   -20.5050 
  115.2500    96.0210    23.8320     4.7370     4.2160     5.2360     2.3370   -20.4110 
  115.3750    90.8480    23.8320     4.7920     4.2520     5.3110     2.3380   -20.3660 
  115.5000    87.3350    23.8320     4.9630     4.3210     5.4480     2.3430   -20.3800 
  115.6250    85.4820    23.8320     5.2460     4.4220     5.5990     2.3420   -20.4240 
  115.7500    83.6880    23.8320     5.6340     4.5270     5.7140     2.3280   -20.4930 
  115.8750    81.2270    23.8320     5.9150     4.5990     5.7700     2.3030   -20.5620 
  116.0000    80.5460    23.8320     5.7960     4.6060     5.7730     2.2780   -20.6240 
  116.1250    89.0270    23.8320     5.4800     4.5570     5.7410     2.2640   -20.6560 
