~V
VERS. 2.00: Ver 2.00
~W
STRT.M 56.0000:
STOP.M 263.0000:
STEP.M 0.1250:
NULL. -999.2500:
UWI. DF3034:
~C
DEPT.M :
DEN.GM/CC :
GR.API :
RML.OHMM :
RI. :
RXO.OHMM :
CALI.CM :
SP.MV :
~A
# ...
  202.2500     2.3530    53.0020     6.2400     5.7330     5.4050    23.3530   -11.1140 
  202.3750     2.3630    54.6300     6.3720     5.7130     5.4380    23.3690   -11.4870 
  202.5000     2.3780    59.9220     6.5800     5.7700     5.6910    23.3880   -11.8840 
  202.6250     2.3930    68.4870     6.9080     5.9350     6.0140    23.4130   -12.3580 
  202.7500     2.4050    77.2570     7.3640     6.2110     6.4310    23.4550   -12.8810 
  202.8750     2.4100    85.5940     7.9530     6.6060     7.0450    23.5610   -13.4320 
  203.0000     2.4070    90.6520     8.6570     7.1080     7.8920    23.7810   -13.9950 
  203.1250     2.4010    92.0100     9.4230     7.6800     9.0530    24.1490   -14.5280 
  203.2500     2.3980    94.2780    10.1330     8.2280    10.2610    24.4780   -15.0210 
  203.3750     2.4040   100.4590    10.6710     8.6560    11.1830    24.6630   -15.4720 
  203.5000     2.4140   108.1430    10.9310     8.8770    11.6450    24.7400   -15.9180 
  203.6250     2.4220   111.2720    10.8200     8.8100    11.7980    24.7080   -16.3040 
  203.7500     2.4220   111.5190    10.4660     8.5390    11.6100    24.7590   -16.6720 
  203.8750     2.4150   110.9580    10.0190     8.1680    10.9140    24.8060   -17.0440 
  204.0000     2.4110   111.0260     9.6440     7.8170     9.9730    24.7190   -17.4990 
  204.1250     2.4110   111.9890     9.5040     7.6100     9.1890    24.4860   -18.0430 
  204.2500     2.4130   111.9290     9.6100     7.5810     8.8890    24.3080   -18.6920 
  204.3750     2.4100   108.3640     9.9320     7.7310     9.2200    24.2230   -19.4410 
  204.5000     2.4020   101.4670    10.4050     8.0290     9.9740    24.0630   -20.2940 
  204.6250     2.3940    97.2520    10.9370     8.4270    10.7900    23.8590   -21.2130 
  204.7500     2.3910    97.5760    11.4170     8.8340    11.6510    23.6960   -22.1740 
  204.8750     2.3950    99.2800    11.7680     9.1820    12.4240    23.6330   -23.1080 
  205.0000     2.4020   100.7130    11.9450     9.4230    13.0180    23.6210   -23.9380 
  205.1250     2.4060   102.0730    11.9440     9.5270    13.6770    23.6210   -24.6170 
  205.2500     2.4060   102.6510    11.9070     9.5720    14.1810    23.6210   -25.1340 
  205.3750     2.4030   100.5940    11.9960     9.6560    14.2320    23.6230   -25.4730 
  205.5000     2.3990    95.0030    12.3560     9.8840    14.1860    23.6330   -25.5920 
  205.6250     2.3970    89.7910    13.0400    10.3150    14.5980    23.7570   -25.4940 
  205.7500     2.3990    87.4010    13.7860    10.8040    15.5780    23.9340   -25.2010 
  205.8750     2.4030    87.6750    14.2760    11.1490    17.3490    23.9390   -24.6800 
  206.0000     2.4050    88.6180    14.2180    11.1480    19.7810    23.7920   -23.9870 
  206.1250     2.4020    89.8870    13.4310    10.6390    21.3720    23.7300   -23.0900 
  206.2500     2.3980    92.6870    12.2780     9.8270    19.0940    23.8460   -22.1500 
  206.3750     2.4020    94.9740    11.1460     8.9630    14.2160    24.0860   -21.2230 
  206.5000     2.4150    95.0260    10.3680     8.2960    10.5920    24.3590   -20.3670 
  206.6250     2.4320    94.0470    10.2540     8.0880    10.2370    24.5310   -19.6530 
  206.7500     2.4430    92.9980    10.7800     8.3740    10.6750    24.6260   -19.0610 
  206.8750     2.4440    92.2450    11.8870     9.1450    11.2660    24.5990   -18.6520 
  207.0000     2.4420    91.5900    13.3670    10.2740    12.2830    24.3260   -18.3290 
  207.1250     2.4430    92.9070    14.7580    11.4410    13.8240    24.0330   -18.0740 
  207.2500     2.4490    94.7720    15.5120    12.2020    16.0550    23.8710   -17.7120 
  207.3750     2.4520    95.1050    15.2570    12.2340    18.3040    23.8300   -17.1910 
  207.5000     2.4460    92.5130    13.9670    11.4440    17.9370    23.8260   -16.5160 
  207.6250     2.4280    87.8200    12.0220    10.0240    16.0190    23.8240   -15.6390 
  207.7500     2.4040    82.7380    10.1800     8.5420    12.5160    23.8200   -14.6820 
  207.8750     2.3820    78.2720     8.8240     7.3240     8.7230    23.8210   -13.6660 
  208.0000     2.3680    73.8470     8.0520     6.5090     6.4930    23.8240   -12.7080 
  208.1250     2.3630    70.3900     7.8260     6.1410     6.1140    23.8260   -11.8530 
  208.2500     2.3640    72.5220     7.8820     6.0630     6.2690    23.8260   -11.2090 
  208.3750     2.3700    79.3720     8.0840     6.1900     6.3660    23.8260   -10.7850 
  208.5000     2.3780    86.1390     8.3560     6.4580     6.3500    23.8260   -10.5830 
  208.6250     2.3880    88.6910     8.6830     6.8370     6.4820    23.8420   -10.5590 
  208.7500     2.3980    89.3820     9.0390     7.2660     6.7480    23.9020   -10.6930 
  208.8750     2.4030    88.8150     9.3680     7.6850     7.1330    24.0250   -10.8690 
  209.0000     2.4010    88.2030     9.5790     8.0120     7.7210    24.1920   -11.0840 
  209.1250     2.3910    91.3740     9.5460     8.1260     8.5570    24.3120   -11.2810 
  209.2500     2.3790    96.6500     9.2980     8.0250     8.8740    24.3560   -11.4680 
  209.3750     2.3720    99.7030     8.9080     7.7510     8.2070    24.3580   -11.6380 
  209.5000     2.3740   100.7450     8.4810     7.3860     7.3710    24.3400   -11.7740 
  209.6250     2.3850   101.1760     8.1160     7.0280     7.2660    24.3050   -11.8790 
  209.7500     2.4000   100.4420     7.8460     6.7360     7.2810    24.2870   -11.9480 
  209.8750     2.4100    97.2420     7.6770     6.5350     7.1560    24.2720   -12.0570 
  210.0000     2.4130    93.3400     7.6020     6.4250     6.8500    24.2430   -12.1700 
  210.1250     2.4090    90.9990     7.6180     6.4080     6.6650    24.2430   -12.3960 
  210.2500     2.4000    91.5120     7.6900     6.4560     6.6580    24.3020   -12.6590 
  210.3750     2.3930    95.2030     7.7930     6.5550     6.9680    24.3720   -12.9670 
  210.5000     2.3890    97.4920     7.9140     6.6980     7.2830    24.4060   -13.3000 
  210.6250     2.3900    96.5260     8.0870     6.9050     7.7810    24.4180   -13.7010 
  210.7500     2.3940    97.0060     8.3770     7.2140     8.5690    24.4330   -14.0900 
  210.8750     2.3950   101.0900     8.8520     7.6760     9.3100    24.4340   -14.4880 
  211.0000     2.3900   103.9470     9.5360     8.3240     9.9530    24.4160   -14.9050 
  211.1250     2.3780   100.4030    10.4010     9.1660    11.1750    24.4060   -15.2970 
  211.2500     2.3640    94.6140    11.3180    10.1020    13.1540    24.4030   -15.6650 
  211.3750     2.3560    89.5480    12.2200    11.0640    15.6330    24.4030   -16.0050 
  211.5000     2.3590    85.3300    13.1100    12.0250    17.6440    24.4030   -16.3390 
  211.6250     2.3720    81.7890    14.0890    13.0300    17.5920    24.4030   -16.6060 
  211.7500     2.3880    80.4550    15.2270    14.1380    17.5690    24.4030   -16.9160 
  211.8750     2.3970    80.8540    16.4760    15.3390    19.3210    24.4030   -17.1890 
  212.0000     2.3980    81.0720    17.5590    16.5230    22.3160    24.4030   -17.4870 
  212.1250     2.3900    80.0470    18.3110    17.4930    25.9050    24.4000   -17.7840 
  212.2500     2.3800    78.8970    18.7470    18.2690    28.7990    24.3970   -18.0970 
  212.3750     2.3710    78.5310    19.5130    19.1490    30.7530    24.3980   -18.4460 
  212.5000     2.3670    77.8760    21.4180    20.7460    31.7560    24.4010   -18.8540 
  212.6250     2.3650    76.1180    26.5710    24.2360    36.2020    24.4010   -19.3340 
  212.7500     2.3610    72.9590    35.4980    30.0610    49.1090    24.3940   -19.8210 
  212.8750     2.3450    69.9770    47.4110    38.2620    72.4730    24.3880   -20.3540 
  213.0000     2.3180    69.7760    61.3340    48.1220    96.5960    24.3990   -20.8860 
  213.1250     2.2850    71.3090    75.6170    58.0350   102.2290    24.3620   -21.4170 
  213.2500     2.2550    70.8870    85.5330    66.3450    94.9730    24.3140   -21.9450 
  213.3750     2.2310    68.4880    92.3640    72.4550    85.9200    24.3260   -22.4460 
