~V
VERS. 2.00: Ver 2.00
~W
STRT.M 59.0000:
STOP.M 281.0000:
STEP.M 0.1250:
NULL. -999.2500:
UWI. DF3005:
~C
DEPT.M :
DEN.GM/CC :
SP.MV :
AC.US/MT :
GR.API :
CALI.CM :
RXO.OHMM :
RI. :
RML.OHMM :
~A
# ...
  189.0000     2.2440   -39.7000   416.3310    65.3310    27.2160    74.1350   108.7790   117.0000 
  189.1250     2.2270   -39.7130   416.9830    67.2530    27.2340    80.8870   109.1760   116.8870 
  189.2500     2.2140   -39.6990   416.6200    66.9890    27.2610    94.0610   110.1070   117.8390 
  189.3750     2.2130   -39.6690   416.2810    62.7000    27.3070   108.9330   109.5780   117.9380 
  189.5000     2.2240   -39.6110   416.5940    58.3010    27.3540   119.4270   106.4580   115.7740 
  189.6250     2.2420   -39.5150   416.9100    59.5310    27.3750   111.3080   101.5570   111.4720 
  189.7500     2.2500   -39.4280   417.0710    63.7310    27.3890    90.8370    97.7520   107.6610 
  189.8750     2.2430   -39.3730   418.3910    66.0410    27.4190    76.8780    96.9370   106.5140 
  190.0000     2.2270   -39.3660   421.2580    65.3040    27.4730    76.3930    99.5290   108.8350 
  190.1250     2.2170   -39.3620   423.1480    62.7650    27.5490   106.7880   103.9810   113.3330 
  190.2500     2.2110   -39.2970   423.1510    59.4970    27.6060   136.0680   106.3010   116.1880 
  190.3750     2.2040   -39.1780   422.4950    57.5680    27.6040   134.0310   103.5160   114.4940 
  190.5000     2.1990   -39.0270   422.8610    58.9910    27.5490   102.1410    95.6300   107.6390 
  190.6250     2.2030   -38.8590   424.2770    62.0120    27.4740    70.8600    86.0120    97.9040 
  190.7500     2.2150   -38.6850   425.1710    63.1100    27.3920    55.7950    78.4790    89.3490 
  190.8750     2.2260   -38.4770   424.8730    63.3500    27.3090    54.6130    74.1720    83.8270 
  191.0000     2.2340   -38.2440   423.4860    63.9340    27.2520    58.0880    72.7220    81.4670 
  191.1250     2.2380   -37.9980   422.4650    63.9960    27.2400    58.6010    72.8640    81.0980 
  191.2500     2.2410   -37.7260   422.8110    64.9550    27.2430    60.8840    72.4900    80.3190 
  191.3750     2.2420   -37.4120   424.3840    68.4270    27.2430    61.5780    70.5260    77.8080 
  191.5000     2.2420   -37.0440   425.8950    71.6880    27.2300    55.1270    67.2320    73.6160 
  191.6250     2.2450   -36.6700   426.3360    70.0590    27.2020    47.3480    64.4310    69.4650 
  191.7500     2.2470   -36.3360   426.1990    67.7550    27.1730    40.2960    64.0600    67.6680 
  191.8750     2.2390   -36.0260   425.6230    68.0690    27.1490    40.4720    67.5670    70.1560 
  192.0000     2.2170   -35.7070   423.9190    68.3110    27.1250    47.3230    76.3610    78.8460 
  192.1250     2.1820   -35.3360   421.1980    65.4380    27.1050    63.4850    94.5810    95.0260 
  192.2500     2.1570   -34.9530   419.6490    61.8490    27.0940    90.9640   124.4260   123.3790 
  192.3750     2.1570   -34.5890   420.4740    59.2900    27.0930   105.0820   161.8100   164.0220 
  192.5000     2.1760   -34.2250   422.0930    57.2860    27.1310   103.7310   203.5550   214.2000 
  192.6250     2.1830   -33.8490   420.8220    55.7620    27.2760   104.7720   239.3020   261.0610 
  192.7500     2.1650   -33.4750   417.2960    55.3480    27.4840   126.6000   263.3670   293.0180 
  192.8750     2.1360   -33.1230   413.8220    55.0010    27.6570   148.6200   277.3190   311.1260 
  193.0000     2.1190   -32.7860   414.7480    54.3410    27.7280   225.4060   285.9630   322.2050 
  193.1250     2.1210   -32.3960   425.3010    54.1130    27.7100   264.5900   289.4800   325.2160 
  193.2500     2.1250   -31.9500   432.9690    53.8710    27.6840   259.5330   281.4800   308.7210 
  193.3750     2.1260   -31.4550   427.1250    52.2250    27.6640   268.4410   254.8010   264.7980 
  193.5000     2.1360   -30.9320   411.9290    50.1830    27.6220   279.2410   211.6720   205.9280 
  193.6250     2.1760   -30.3860   402.2460    51.1030    27.5190   211.7810   165.3490   155.6140 
  193.7500     2.2340   -29.7780   398.4520    54.6020    27.3650   140.0600   127.8580   120.3980 
  193.8750     2.2810   -29.1060   390.9600    58.0660    27.1810    95.7820   101.8980    97.7730 
  194.0000     2.2980   -28.3870   380.7280    60.6580    26.9720    72.2150    85.9540    84.0180 
  194.1250     2.2790   -27.6370   377.5420    61.4450    26.7890    83.2510    78.1690    77.1580 
  194.2500     2.2460   -26.8860   387.0940    60.2250    26.7220    87.7440    75.5090    74.9640 
  194.3750     2.2240   -26.1180   407.3760    59.4430    26.8170    74.0010    77.8030    77.3600 
  194.5000     2.2400   -25.3180   425.8900    60.7630    27.0070    61.9340    84.5920    83.8380 
  194.6250     2.3120   -24.4810   416.2420    62.4690    27.0470    62.2120    91.3690    89.2260 
  194.7500     2.4170   -23.6060   368.8320    62.3530    26.8050   156.9220    88.5790    82.5700 
  194.8750     2.5240   -22.7220   298.8070    60.9460    26.3700   338.4250    71.1130    61.0590 
  195.0000     2.5930   -21.8740   246.8840    58.3760    25.9690   387.6160    46.0170    36.5170 
  195.1250     2.5940   -21.1060   259.2290    56.1320    25.7870   167.4100    26.3510    20.4960 
  195.2500     2.5580   -20.4250   317.2840    56.7310    25.7250    37.3040    14.6430    11.4980 
  195.3750     2.5190   -19.8240   381.6910    58.9950    25.6680     7.5080     8.5800     6.8650 
  195.5000     2.4950   -19.3150   421.1720    59.2270    25.5540     4.2230     5.6500     4.7020 
  195.6250     2.4840   -18.9600   428.3160    55.9970    25.4050     3.9480     4.4420     4.0360 
  195.7500     2.4750   -18.7490   422.5290    51.6060    25.2950     3.9910     3.9860     3.9950 
  195.8750     2.4650   -18.6850   416.4340    48.0270    25.2450     4.1270     3.9810     4.2300 
  196.0000     2.4540   -18.7490   415.7940    46.7930    25.2220     4.3750     4.2120     4.5220 
  196.1250     2.4310   -18.9070   420.8740    48.7180    25.1690     5.0110     4.5190     4.7680 
  196.2500     2.3930   -19.1080   423.5870    51.8650    25.1630     6.6350     4.8010     4.9690 
  196.3750     2.3430   -19.2960   417.3740    56.0080    25.3020     9.0980     5.0250     5.1250 
  196.5000     2.2900   -19.4350   404.9380    61.5490    25.6290    11.1220     5.1780     5.2210 
  196.6250     2.2400   -19.5270   399.6510    66.5960    25.9840    10.5150     5.2290     5.2200 
  196.7500     2.2040   -19.5950   409.0400    68.5240    26.1330     9.1650     5.1830     5.1320 
  196.8750     2.1980   -19.6630   426.0330    68.5300    26.0180     7.7140     5.0510     4.9930 
  197.0000     2.2200   -19.7430   436.9960    67.8440    25.7680     6.6130     4.8710     4.8620 
  197.1250     2.2450   -19.8590   434.3190    63.6370    25.6900     6.3750     4.7010     4.8060 
  197.2500     2.2490   -20.0230   426.1740    57.8540    25.8560     7.1230     4.5900     4.8490 
  197.3750     2.2360   -20.2140   419.2200    55.1320    26.1070     7.2660     4.5590     4.9880 
  197.5000     2.2220   -20.4040   414.8450    56.4030    26.1910     6.6110     4.5960     5.1840 
  197.6250     2.2290   -20.5630   412.3290    55.6030    25.9970     6.5390     4.6710     5.3750 
  197.7500     2.2600   -20.6910   410.8220    50.5920    25.7540     7.0390     4.7480     5.5250 
  197.8750     2.3040   -20.8190   408.3000    45.7450    25.5980     7.6060     4.8210     5.6380 
  198.0000     2.3500   -20.9690   403.8180    43.4690    25.5350     7.3060     4.8940     5.7240 
  198.1250     2.3900   -21.1710   398.0060    43.6720    25.4990     7.1140     4.9690     5.7870 
  198.2500     2.4150   -21.4160   391.9820    44.6670    25.4520     6.9080     5.0370     5.8440 
  198.3750     2.4150   -21.7070   387.2470    46.3430    25.3990     6.8160     5.0790     5.9170 
  198.5000     2.3970   -22.0700   385.0520    49.6640    25.3500     6.3230     5.0890     6.0270 
  198.6250     2.3870   -22.5050   385.9260    52.9990    25.3290     6.3510     5.0840     6.1780 
  198.7500     2.3860   -22.9760   389.2790    54.3380    25.3390     6.6700     5.1020     6.3340 
  198.8750     2.3780   -23.4580   395.0320    54.5590    25.3700     6.4780     5.1760     6.4850 
