~V
VERS. 2.00: Ver 2.00
~W
STRT.M 60.0000:
STOP.M 283.0000:
STEP.M 0.1250:
NULL. -999.2500:
UWI. DF3045:
~C
DEPT.M :
DEN.GM/CC :
SP.MV :
AC.US/MT :
GR.API :
CALI.CM :
RXO.OHMM :
RI. :
RML.OHMM :
~A
# ...
  120.0000     2.3070   -24.2350   429.7250    83.7980    23.3270     6.6710     6.1470     7.9340 
  120.1250     2.3010   -24.1090   433.2620    87.1550    23.1240     6.3360     6.0820     7.8820 
  120.2500     2.2830   -23.9580   435.1250    90.4060    23.2470     6.1120     6.1410     8.0270 
  120.3750     2.2770   -23.8020   436.1250    90.5400    23.3750     6.0520     6.3330     8.3670 
  120.5000     2.3010   -23.6680   437.4410    88.1310    23.3910     6.2890     6.6440     8.8660 
  120.6250     2.3580   -23.5660   427.9120    83.7200    23.0900     6.9560     6.9770     9.3490 
  120.7500     2.4130   -23.4850   399.5510    80.4550    22.8060     8.7780     7.1670     9.6100 
  120.8750     2.4360   -23.4090   362.1520    82.1700    22.5800    10.9250     7.1360     9.5500 
  121.0000     2.4230   -23.3330   342.4020    90.0750    22.5370    10.9160     6.8700     9.1500 
  121.1250     2.3930   -23.2500   364.1490    96.4970    22.2900     8.0640     6.3970     8.4690 
  121.2500     2.3740   -23.1800   403.0620    98.9780    22.1630     6.2580     5.8990     7.7850 
  121.3750     2.3760   -23.1190   432.1570   100.9040    21.9930     5.6840     5.5050     7.2760 
  121.5000     2.3940   -23.0580   440.6200   102.9550    21.8510     5.6130     5.2770     6.9960 
  121.6250     2.4150   -23.0110   435.9960   104.6340    21.7760     5.6250     5.2500     6.9870 
  121.7500     2.4240   -23.0060   431.4410   103.3570    21.7740     5.6920     5.3620     7.1390 
  121.8750     2.4170   -23.0470   427.9500   100.8570    22.0850     5.8730     5.5340     7.3330 
  122.0000     2.3960   -23.1310   425.0030    98.0500    22.4220     6.2660     5.6800     7.4600 
  122.1250     2.3700   -23.2580   422.4270    97.3060    22.5710     6.9810     5.7490     7.4490 
  122.2500     2.3590   -23.3630   421.8350   100.6340    22.4470     7.3040     5.7560     7.3600 
  122.3750     2.3770   -23.4450   426.0440   104.8080    22.6180     6.8580     5.7040     7.2310 
  122.5000     2.4130   -23.5220   433.0480   108.3240    23.2650     6.0180     5.6270     7.1000 
  122.6250     2.4370   -23.6330   435.5010   107.7940    23.9850     5.6790     5.5730     7.0180 
  122.7500     2.4300   -23.7630   430.9060   103.0070    24.4530     5.6230     5.5610     6.9960 
  122.8750     2.3970   -23.8970   424.8280    97.5000    24.4780     5.7950     5.6030     7.0640 
  123.0000     2.3530   -24.0460   423.7940    94.5260    24.4370     5.8320     5.7150     7.2590 
  123.1250     2.3140   -24.2220   427.1720    94.4320    24.2680     5.9770     5.9410     7.6180 
  123.2500     2.2860   -24.4430   428.8530    92.5530    24.2360     6.0610     6.2380     8.0580 
  123.3750     2.2720   -24.7140   426.5770    88.8920    24.1800     6.3320     6.5730     8.5080 
  123.5000     2.2670   -25.0160   420.9970    86.0760    23.9500     6.8570     6.8840     8.8800 
  123.6250     2.2620   -25.2720   414.5210    83.9140    23.5760     7.7630     7.0680     9.0430 
  123.7500     2.2510   -25.4670   410.5000    81.5640    23.3630     8.8160     7.0700     8.9390 
  123.8750     2.2440   -25.6120   411.4920    82.7980    23.3870     9.4110     6.8850     8.5860 
  124.0000     2.2620   -25.7050   417.4240    90.1360    23.4020     8.9410     6.5740     8.0810 
  124.1250     2.3100   -25.7560   426.1880    95.9470    23.3320     7.3120     6.2520     7.5940 
  124.2500     2.3550   -25.7850   434.9000    92.6880    23.3480     5.9070     6.0180     7.2810 
  124.3750     2.3680   -25.7860   440.9350    85.4190    23.2600     5.2910     5.9210     7.1850 
  124.5000     2.3450   -25.7660   441.6910    83.3890    22.9000     5.3480     5.9640     7.2950 
  124.6250     2.3070   -25.7630   436.1020    88.1050    22.3790     5.8080     6.1360     7.5380 
  124.7500     2.2820   -25.7820   428.6040    91.8490    22.1960     6.4710     6.3200     7.7470 
  124.8750     2.2770   -25.8140   423.4330    92.1970    22.2150     7.1220     6.4320     7.8280 
  125.0000     2.2880   -25.8640   422.8430    92.8080    22.2020     6.9980     6.4010     7.7060 
  125.1250     2.3100   -25.9310   426.6800    98.7540    22.1650     6.2270     6.2070     7.4020 
  125.2500     2.3350   -25.9920   431.5110   105.1360    22.1900     5.5410     5.9800     7.0780 
  125.3750     2.3570   -26.0620   434.7620   106.4200    22.2190     5.2920     5.8050     6.8610 
  125.5000     2.3720   -26.1630   435.8490   103.0080    22.2150     5.1600     5.7270     6.7970 
  125.6250     2.3790   -26.2850   436.1150   100.3130    22.1660     5.1240     5.7480     6.8620 
  125.7500     2.3690   -26.4160   435.8150    98.6450    22.1870     5.3910     5.8250     6.9840 
  125.8750     2.3360   -26.5750   433.3390    94.3100    22.2020     6.4130     5.9310     7.0990 
  126.0000     2.2890   -26.7480   428.3140    87.9930    22.0970     8.7070     6.0440     7.1780 
  126.1250     2.2650   -26.8780   424.6530    84.3720    22.1620    10.2190     6.2120     7.3300 
  126.2500     2.2880   -26.9680   425.3970    84.4840    22.2660     9.8560     6.5370     7.7520 
  126.3750     2.3640   -27.0440   424.9530    83.8640    22.3890     8.2410     7.1940     8.6890 
  126.5000     2.4860   -27.1210   407.8870    79.0640    22.5430     7.7700     8.3210    10.2480 
  126.6250     2.6170   -27.2110   366.4650    71.4480    22.9810    11.7540    10.0570    12.5080 
  126.7500     2.7090   -27.3370   331.2270    64.8950    23.5590    18.9700    12.2440    15.1210 
  126.8750     2.7410   -27.5090   320.9220    59.7730    23.9720    28.4520    14.5230    17.5750 
  127.0000     2.7150   -27.7310   328.1300    55.2620    24.0420    43.1500    16.2580    19.2030 
  127.1250     2.6230   -28.0430   333.4690    54.8990    24.1660    48.8680    16.6470    19.2610 
  127.2500     2.4790   -28.4320   334.3220    59.8670    23.9340    39.2140    15.8840    18.0660 
  127.3750     2.3240   -28.8390   344.8430    66.0230    23.7390    24.3070    14.4610    16.2090 
  127.5000     2.2140   -29.2130   371.3980    69.5330    23.6840    16.4840    12.9600    14.3910 
  127.6250     2.1810   -29.5130   403.2350    69.1480    23.5700    13.4450    11.8510    13.1800 
  127.7500     2.1910   -29.7440   419.6190    67.8310    23.2680    12.7940    11.1340    12.5050 
  127.8750     2.2160   -29.9010   418.1190    66.5330    23.1270    12.3870    10.7770    12.2720 
  128.0000     2.2410   -29.9880   412.3440    65.7710    23.0670    12.2640    10.7120    12.3410 
  128.1250     2.2500   -30.0010   409.4220    67.5890    22.9680    12.1580    10.8120    12.4880 
  128.2500     2.2460   -29.9720   406.8550    69.8110    22.7440    12.0770    10.9260    12.5890 
  128.3750     2.2430   -29.9300   404.3840    70.6150    22.7180    11.8550    11.0030    12.6210 
  128.5000     2.2530   -29.8900   401.5880    70.0600    22.7710    11.6030    11.0620    12.6150 
  128.6250     2.2670   -29.8640   397.4820    69.2950    22.8600    11.6080    11.1460    12.6690 
  128.7500     2.2630   -29.8630   393.2890    68.3790    23.0490    11.9870    11.2960    12.8280 
  128.8750     2.2410   -29.8560   392.9240    65.7040    23.3740    12.4780    11.5180    13.1160 
  129.0000     2.2310   -29.8290   395.7370    62.9650    23.7040    12.9040    11.8060    13.4990 
  129.1250     2.2830   -29.8020   385.7130    62.4920    24.0580    12.8570    12.1190    13.9100 
  129.2500     2.3870   -29.7920   350.7940    64.5320    24.2730    12.3890    12.3550    14.2150 
  129.3750     2.4980   -29.8060   295.1170    67.9140    24.2340    11.8570    12.4480    14.3450 
  129.5000     2.5590   -29.8530   245.0880    70.9360    23.7670    11.6300    12.3700    14.2700 
  129.6250     2.5360   -29.9240   239.0610    72.3670    23.5310    11.6930    12.1120    13.9730 
  129.7500     2.4670   -30.0060   275.2970    73.3430    23.1520    11.7760    11.7780    13.5670 
  129.8750     2.3920   -30.1160   330.3220    74.8540    23.0870    11.7790    11.4520    13.1760 
