~V
VERS. 2.00: Ver 2.00
~W
STRT.M 64.0000:
STOP.M 278.0000:
STEP.M 0.1250:
NULL. -999.2500:
UWI. DF3056:
~C
DEPT.M :
SP.MV :
GR.API :
CALI.CM :
RXO.OHMM :
RI. :
RML.OHMM :
DEN.GM/CC :
~A
# ...
   86.5000   -36.8810    71.2670    23.8660    11.7010     8.1230    10.1590  -999.2500 
   86.6250   -36.9420    67.5660    23.8460    12.6140     8.3740    10.5380  -999.2500 
   86.7500   -37.0480    63.2830    23.7880    12.9840     8.5990    10.8450  -999.2500 
   86.8750   -37.1920    62.4170    23.7730    13.2430     8.7640    11.0340  -999.2500 
   87.0000   -37.3140    65.7780    23.7690    13.3080     8.8380    11.0790  -999.2500 
   87.1250   -37.3520    68.4780    23.7840    13.2370     8.8070    10.9650  -999.2500 
   87.2500   -37.2950    68.2330    23.8620    13.2070     8.7450    10.7820  -999.2500 
   87.3750   -37.1520    68.4040    23.9270    13.1400     8.6850    10.6160  -999.2500 
   87.5000   -36.9360    69.7690    23.9720    12.9070     8.6410    10.4870  -999.2500 
   87.6250   -36.6370    69.9360    24.0470    12.7390     8.6040    10.3840  -999.2500 
   87.7500   -36.2920    69.2210    24.0610    13.0050     8.5780    10.2800  -999.2500 
   87.8750   -35.9290    67.8100    24.0720    13.4830     8.5480    10.1760  -999.2500 
   88.0000   -35.5510    66.1650    24.0760    13.6950     8.5060    10.0720  -999.2500 
   88.1250   -35.1770    64.0450    24.0730    13.6910     8.4560     9.9830  -999.2500 
   88.2500   -34.8430    63.5560    24.0450    13.3680     8.4110     9.9150  -999.2500 
   88.3750   -34.5280    66.3920    23.8810    12.9150     8.3920     9.8670  -999.2500 
   88.5000   -34.2030    69.8910    23.8260    12.8440     8.4080     9.8530  -999.2500 
   88.6250   -33.8260    70.8230    23.9910    13.1320     8.4550     9.8610  -999.2500 
   88.7500   -33.3760    68.8390    23.9420    13.2600     8.5040     9.8720  -999.2500 
   88.8750   -32.8490    66.5910    23.8840    13.0740     8.5340     9.8780  -999.2500 
   89.0000   -32.2930    66.1170    23.7870    12.8610     8.5410     9.8680  -999.2500 
   89.1250   -31.7280    67.4510    23.6470    12.7640     8.5050     9.8090  -999.2500 
   89.2500   -31.1650    69.4890    23.4880    12.6660     8.3890     9.6690  -999.2500 
   89.3750   -30.6300    70.6660    23.4670    12.5070     8.1830     9.4400  -999.2500 
   89.5000   -30.1280    70.4450    23.4820    12.2770     7.8860     9.1210  -999.2500 
   89.6250   -29.7310    72.5240    23.6010    11.9100     7.4870     8.6930  -999.2500 
   89.7500   -29.4660    76.6310    23.7350    11.7050     7.0220     8.1880  -999.2500 
   89.8750   -29.3200    82.2840    23.9940    11.0330     6.5360     7.6590  -999.2500 
   90.0000   -29.2800    89.6280    24.4980     9.7140     6.0820     7.1810  -999.2500 
   90.1250   -29.3530    97.1460    24.7170     8.6830     5.7470     6.8710  -999.2500 
   90.2500   -29.5360   101.2580    24.7570     8.3730     5.5730     6.7620  -999.2500 
   90.3750   -29.8060   100.3530    24.7610     8.1300     5.5610     6.8360  -999.2500 
   90.5000   -30.1640    97.5470    24.5510     7.9540     5.6830     7.0600  -999.2500 
   90.6250   -30.5780    94.7000    24.5210     8.3210     5.9070     7.3670  -999.2500 
   90.7500   -31.0180    89.5940    24.5120     8.9810     6.1360     7.6240  -999.2500 
   90.8750   -31.5460    82.8910    24.5130    10.3060     6.3020     7.7630  -999.2500 
   91.0000   -32.1900    78.9620    24.5360    10.8270     6.4070     7.8330  -999.2500 
   91.1250   -32.9570    82.3000    24.5400    10.3870     6.4930     7.9340  -999.2500 
   91.2500   -33.7820    88.2690    24.5410     9.3190     6.6420     8.1710  -999.2500 
   91.3750   -34.6110    88.2160    24.5400     9.1600     6.9330     8.6520  -999.2500 
   91.5000   -35.4040    79.8040    24.5190     9.4830     7.4110     9.3880  -999.2500 
   91.6250   -36.1320    69.7910    24.3940    10.4840     8.0830    10.3370  -999.2500 
   91.7500   -36.7710    65.1160    24.1840    11.3400     8.8460    11.3320  -999.2500 
   91.8750   -37.2680    66.2700    24.2240    11.1970     9.5770    12.2030  -999.2500 
   92.0000   -37.6070    70.1400    24.8960    11.0850    10.1150    12.7640  -999.2500 
   92.1250   -37.7640    73.1780    25.3720    11.4710    10.3160    12.8720  -999.2500 
   92.2500   -37.7930    72.0050    25.6360    12.3330    10.2580    12.6770  -999.2500 
   92.3750   -37.7800    66.0720    25.7400    12.8210    10.0080    12.3010  -999.2500 
   92.5000   -37.7710    60.8590    25.6950    13.0230     9.6690    11.9020  -999.2500 
   92.6250   -37.7930    61.9170    25.0330    12.8060     9.3650    11.6650  -999.2500 
   92.7500   -37.8410    67.1090    24.2160    12.7090     9.1450    11.6190  -999.2500 
   92.8750   -37.8950    73.1680    23.9290    12.6010     9.0290    11.7630  -999.2500 
   93.0000   -37.9420    77.0470    23.8740    12.1660     9.0120    12.0620  -999.2500 
   93.1250   -37.9620    75.6560    23.9250    12.0260     9.1020    12.4810  -999.2500 
   93.2500   -37.9540    69.9150    24.0780    12.4250     9.2460    12.9140  -999.2500 
   93.3750   -37.9010    64.2750    24.3580    12.8050     9.3880    13.2610  -999.2500 
   93.5000   -37.8320    63.9950    24.4890    12.8020     9.4760    13.4320  -999.2500 
   93.6250   -37.7770    68.6290    24.3790    12.8160     9.4700    13.3580  -999.2500 
   93.7500   -37.7680    70.9840    24.2370    12.9530     9.3900    13.1120  -999.2500 
   93.8750   -37.8050    67.0580    24.1090    13.1160     9.2590    12.7610  -999.2500 
   94.0000   -37.8570    60.8810    23.9990    13.4200     9.1260    12.3920  -999.2500 
   94.1250   -37.9190    59.5070    23.9000    13.5280     9.0470    12.0960  -999.2500 
   94.2500   -37.9880    61.4910    23.8830    13.3180     9.0370    11.9120  -999.2500 
   94.3750   -38.0430    61.8390    23.8830    13.0850     9.0920    11.8250  -999.2500 
   94.5000   -38.0520    59.1230    23.8900    12.9460     9.1890    11.7870  -999.2500 
   94.6250   -37.9800    57.6980    23.9210    12.9180     9.2610    11.7350  -999.2500 
   94.7500   -37.8570    58.8130    23.9810    12.9150     9.2550    11.6020  -999.2500 
   94.8750   -37.7190    61.1980    23.9530    12.8090     9.1630    11.3710  -999.2500 
   95.0000   -37.6000    63.5810    23.9350    12.7680     9.0170    11.1010  -999.2500 
   95.1250   -37.5560    65.8690    23.9710    12.6240     8.9340    10.9570  -999.2500 
   95.2500   -37.5580    65.6980    24.0500    12.6510     9.0040    11.0320  -999.2500 
   95.3750   -37.5910    62.3180    24.1910    12.6820     9.2350    11.3330  -999.2500 
   95.5000   -37.6610    59.6760    24.4590    12.6930     9.6260    11.8710  -999.2500 
   95.6250   -37.7730    61.2700    24.5390    12.3910    10.1450    12.5610  -999.2500 
   95.7500   -37.8930    64.7400    24.5570    12.2670    10.6060    13.1400  -999.2500 
   95.8750   -37.9630    66.0880    24.1080    13.2940    10.8270    13.4160  -999.2500 
   96.0000   -37.9720    63.2880    23.8340    14.1830    10.7400    13.3080  -999.2500 
   96.1250   -37.9210    61.0240    23.7270    14.3370    10.3270    12.7540  -999.2500 
   96.2500   -37.8510    63.6350    23.5920    13.8650     9.7580    11.9810  -999.2500 
   96.3750   -37.8080    68.0120    23.5420    13.3100     9.2030    11.2260  -999.2500 
   96.5000   -37.7710    68.5450    23.5390    12.3170     8.7610    10.6170  -999.2500 
   96.6250   -37.7470    65.8760    23.5490    11.3660     8.4860    10.2480  -999.2500 
   96.7500   -37.7590    66.4260    23.5390    10.9190     8.3760    10.1260  -999.2500 
   96.8750   -37.8170    69.9160    23.5340    10.5130     8.3930    10.1620  -999.2500 
   97.0000   -37.8990    72.2260    23.7340    10.7630     8.4450    10.2370  -999.2500 
   97.1250   -37.9390    69.9800    23.8520    11.5920     8.4750    10.2910  -999.2500 
   97.2500   -37.8900    65.5540    23.9290    12.3630     8.5090    10.3410  -999.2500 
   97.3750   -37.7410    62.0260    23.9420    12.3770     8.5340    10.3660  -999.2500 
   97.5000   -37.5210    62.6910    24.0210    11.8830     8.5330    10.3820  -999.2500 
   97.6250   -37.2240    65.5460    24.1440    11.2240     8.5210    10.4260  -999.2500 
