~V
VERS. 2.00: Ver 2.00
~W
STRT.M 60.0000:
STOP.M 254.0000:
STEP.M 0.1250:
NULL. -999.2500:
UWI. DF3029:
~C
DEPT.M :
SP.MV :
GR.API :
RML.OHMM :
RI. :
RXO.OHMM :
CALI.CM :
DEN.GM/CC :
~A
# ...
  116.2500   -35.0490    87.4090     9.2090     7.7270     8.7610    23.5320     2.2170 
  116.3750   -34.2600    87.9970     9.2870     7.7560     8.6110    23.5450     2.2420 
  116.5000   -33.4350    85.5740     9.3100     7.7670     8.7090    23.6330     2.2590 
  116.6250   -32.4970    86.2660     9.2030     7.6980     9.0700    23.8510     2.2610 
  116.7500   -31.6530    88.3560     8.9940     7.5540     9.0160    24.0430     2.2530 
  116.8750   -30.7490    88.4680     8.7420     7.3660     8.2430    24.1370     2.2370 
  117.0000   -29.9190    87.9470     8.5120     7.1800     7.3230    24.1650     2.2220 
  117.1250   -29.1690    88.7800     8.3560     7.0400     6.7240    24.1760     2.2130 
  117.2500   -28.4060    90.4340     8.2510     6.9410     6.7110    24.1430     2.2130 
  117.3750   -27.6790    90.6040     8.1620     6.8630     6.7990    24.1040     2.2210 
  117.5000   -26.9710    90.3220     8.0540     6.7810     6.6950    24.1040     2.2370 
  117.6250   -26.5030    92.4440     7.9080     6.6720     6.4270    24.1610     2.2560 
  117.7500   -26.1410    96.8170     7.7440     6.5440     6.1570    24.2140     2.2760 
  117.8750   -25.8390    99.7490     7.5840     6.4090     5.9250    24.2390     2.2910 
  118.0000   -25.6590   100.5840     7.4400     6.2780     5.8170    24.2590     2.3040 
  118.1250   -25.4900   103.0430     7.3100     6.1510     5.7060    24.2830     2.3180 
  118.2500   -25.4180   107.7990     7.1760     6.0210     5.5590    24.2610     2.3330 
  118.3750   -25.4380   110.1650     7.0430     5.8930     5.3900    24.2010     2.3510 
  118.5000   -25.5070   107.5450     6.9340     5.7900     5.4150    24.1260     2.3650 
  118.6250   -25.6300   103.9730     6.9110     5.7560     5.4910    24.1690     2.3730 
  118.7500   -25.7420   103.0730     6.9920     5.8050     5.5120    24.2680     2.3710 
  118.8750   -25.9440   103.8550     7.1700     5.9300     5.5650    24.3100     2.3620 
  119.0000   -26.1600   102.6420     7.3950     6.0990     5.8690    24.2260     2.3470 
  119.1250   -26.3560    94.5790     7.5760     6.2580     6.3680    24.0870     2.3290 
  119.2500   -26.6080    85.6570     7.6690     6.3750     6.7460    23.9750     2.3130 
  119.3750   -26.7550    80.8880     7.7030     6.4670     6.9340    23.9070     2.3000 
  119.5000   -26.9530    80.4730     7.7690     6.5940     7.0720    23.8680     2.2960 
  119.6250   -27.1470    79.4910     7.9930     6.8470     7.2610    23.8590     2.3070 
  119.7500   -27.3010    77.5580     8.3750     7.2290     7.5550    23.8810     2.3340 
  119.8750   -27.5330    76.9390     8.8320     7.6850     8.0310    23.9200     2.3670 
  120.0000   -27.7160    77.3230     9.2250     8.1080     9.0080    23.9430     2.3880 
  120.1250   -27.9280    77.1040     9.3680     8.3310    10.1560    23.9170     2.3810 
  120.2500   -28.0150    75.2570     9.2430     8.3060    10.1480    23.8510     2.3500 
  120.3750   -28.0430    73.2850     8.9100     8.0610     8.9860    23.7850     2.3110 
  120.5000   -27.9780    74.7590     8.4910     7.6860     8.0970    23.7340     2.2840 
  120.6250   -27.6960    80.3160     8.1350     7.3040     7.6410    23.6630     2.2810 
  120.7500   -27.4600    84.2670     7.9010     6.9900     6.9930    23.6040     2.2930 
  120.8750   -27.0630    85.2250     7.7640     6.7450     6.2350    23.6090     2.3090 
  121.0000   -26.5380    86.0480     7.6420     6.5220     5.7500    23.6560     2.3220 
  121.1250   -26.0530    88.5960     7.4160     6.2460     5.6580    23.6980     2.3260 
  121.2500   -25.5950    90.9950     7.0320     5.8830     5.7510    23.7640     2.3280 
  121.3750   -25.2150    92.4790     6.5110     5.4450     5.6530    23.8790     2.3330 
  121.5000   -25.0180    94.3230     5.9740     5.0090     5.2840    23.9990     2.3440 
  121.6250   -24.9800    96.7870     5.6990     4.7590     4.9310    24.0440     2.3620 
  121.7500   -25.0090    97.3230     5.8830     4.8370     4.8820    24.0490     2.3850 
  121.8750   -25.1750    93.6680     6.6110     5.3330     5.1960    24.0300     2.4130 
  122.0000   -25.5610    85.6310     7.7920     6.2350     6.0080    23.9730     2.4430 
  122.1250   -26.0990    76.7100     9.1290     7.4020     7.9980    23.8630     2.4620 
  122.2500   -26.7550    71.0380    10.1750     8.4790    11.0930    23.6630     2.4560 
  122.3750   -27.5120    68.5950    10.6420     9.1780    13.3670    23.4250     2.4200 
  122.5000   -28.1430    68.2430    10.4820     9.3460    11.9980    23.2050     2.3610 
  122.6250   -28.8480    69.0170     9.8980     9.0360     9.5470    23.0500     2.3020 
  122.7500   -29.4520    70.9200     9.3260     8.6050     8.4790    22.9330     2.2590 
  122.8750   -29.9330    73.8350     8.9740     8.2610     8.1910    22.8590     2.2360 
  123.0000   -30.3340    74.8620     8.8810     8.0850     8.2080    22.8100     2.2300 
  123.1250   -30.5070    73.7640     8.9860     8.0710     8.2210    22.7950     2.2330 
  123.2500   -30.6640    73.5750     9.1430     8.1250     8.2740    22.7900     2.2390 
  123.3750   -30.7200    74.8690     9.2890     8.1950     8.3430    22.7920     2.2490 
  123.5000   -30.8650    76.9230     9.3970     8.2570     8.3660    22.8040     2.2590 
  123.6250   -30.9660    80.0910     9.4660     8.3060     8.3680    22.8470     2.2660 
  123.7500   -31.0420    82.6250     9.5340     8.3660     8.3830    22.9000     2.2660 
  123.8750   -31.2330    81.0570     9.6590     8.4770     8.4730    22.9270     2.2620 
  124.0000   -31.3720    76.4040     9.9140     8.6950     8.4820    22.9090     2.2570 
  124.1250   -31.5600    76.6810    10.3950     9.0960     8.4070    22.8750     2.2530 
  124.2500   -31.7570    81.1390    11.0440     9.6460     8.2960    22.7400     2.2490 
  124.3750   -31.9440    83.5930    11.7350    10.2590     8.1910    22.4060     2.2430 
  124.5000   -32.1290    81.0350    12.2740    10.7890     8.0950    21.8790     2.2340 
  124.6250   -32.3670    77.3320    12.3960    11.0110     7.9700    21.4170     2.2210 
  124.7500   -32.5930    76.3890    12.0950    10.8740     7.8210    21.2690     2.2070 
  124.8750   -32.8000    78.5340    11.4830    10.4280     7.9270    21.5020     2.1920 
  125.0000   -33.0200    79.8210    10.7730     9.8230     8.3070    22.0000     2.1740 
  125.1250   -33.2550    77.7610    10.2060     9.2540     8.5650    22.4350     2.1510 
  125.2500   -33.5140    74.9470     9.8640     8.8390     8.4940    22.5860     2.1230 
  125.3750   -33.7870    74.6800     9.7320     8.6060     8.3510    22.5250     2.0960 
  125.5000   -34.0270    76.2230     9.7490     8.5370     8.4710    22.3540     2.0760 
  125.6250   -34.0640    76.2550     9.8550     8.6050     8.6850    22.0700     2.0720 
  125.7500   -34.0640    74.8640     9.9980     8.7490     8.8490    21.7180     2.0830 
  125.8750   -33.8480    74.6270    10.1640     8.9470     8.8170    21.4260     2.1040 
  126.0000   -33.4650    75.7320    10.3590     9.1930     8.6460    21.3090     2.1300 
  126.1250   -32.9190    75.6000    10.6030     9.4950     8.4350    21.3630     2.1560 
  126.2500   -32.0590    73.7240    10.8920     9.8380     8.3560    21.4970     2.1800 
  126.3750   -31.0880    73.0570    11.1810    10.1810     8.4960    21.7480     2.2060 
  126.5000   -29.9320    74.0800    11.3750    10.4470     9.0110    22.1560     2.2360 
  126.6250   -28.8150    72.4060    11.3130    10.5010    10.0020    22.6600     2.2710 
  126.7500   -27.7130    67.1530    10.9800    10.3190    11.0390    23.0090     2.3030 
  126.8750   -26.6620    62.4840    10.4850     9.9630    11.6510    23.1900     2.3300 
  127.0000   -25.7810    62.7130    10.0780     9.6180    11.6090    23.3030     2.3520 
  127.1250   -24.8960    66.7170    10.1550     9.6030    11.2110    23.4040     2.3720 
  127.2500   -24.1790    69.7350    10.7490    10.0260    10.6090    23.4540     2.3980 
  127.3750   -23.6220    70.7760    11.6600    10.7990    10.3630    23.4510     2.4310 
