~V
VERS. 2.00: Ver 2.00
~W
STRT.M 105.0000:
STOP.M 269.0000:
STEP.M 0.1250:
NULL. -999.2500:
UWI. DF304:
~C
DEPT.M :
GR.API :
CALI.CM :
RXO.OHMM :
RI. :
RML.OHMM :
SP.MV :
DEN.GM/CC :
AC.US/MT :
~A
# ...
  185.0000    53.6530    25.1570   138.3860   140.8470   158.4040   -16.2870     2.7070   212.0080 
  185.1250    60.3540    24.9830   196.0710   130.7290   144.7370   -15.9150     2.7200   209.3240 
  185.2500    68.2360    24.8930   202.8080   114.4910   124.4820   -15.5490     2.7340   214.0800 
  185.3750    68.0120    24.8390   146.7370    96.6350   103.5370   -15.2010     2.7440   218.9710 
  185.5000    59.7200    24.8130    87.3930    80.5410    85.6960   -14.8900     2.7390   220.7810 
  185.6250    54.3270    24.8050    66.8190    67.6900    72.3810   -14.6450     2.7210   219.4850 
  185.7500    56.5500    24.8050    57.5650    56.4120    61.3010   -14.4330     2.7000   218.2650 
  185.8750    60.3990    24.8050    48.8660    45.2560    50.4970   -14.2480     2.6860   222.2380 
  186.0000    61.0000    24.8050    42.2640    33.9060    39.0170   -14.0790     2.6830   237.9980 
  186.1250    58.5460    24.7840    34.0850    23.8400    27.8240   -13.9170     2.6880   270.3950 
  186.2500    56.5270    24.6950    22.6680    16.1330    18.6040   -13.7490     2.6890   309.6200 
  186.3750    55.1400    24.5190    12.1070    10.8960    12.1190   -13.5680     2.6830   344.2430 
  186.5000    54.8020    24.3550     6.6400     7.6390     8.1720   -13.3710     2.6790   366.8750 
  186.6250    55.8470    24.2690     4.9650     5.9250     6.2990   -13.1840     2.6740   376.8740 
  186.7500    56.2340    24.2380     4.5360     5.0480     5.4930   -13.0170     2.6490   381.9820 
  186.8750    53.6400    24.2120     4.5330     4.7190     5.3130   -12.8690     2.6000   385.9050 
  187.0000    51.6130    24.1680     4.6180     4.7130     5.4370   -12.7370     2.5430   390.0850 
  187.1250    55.3380    24.1450     4.5810     4.8600     5.6250   -12.6540     2.5000   395.8150 
  187.2500    57.4590    24.1370     4.4620     5.0260     5.7500   -12.6210     2.4690   403.2320 
  187.3750    53.4500    24.1370     4.4240     5.1790     5.8230   -12.6380     2.4450   410.7820 
  187.5000    47.2100    24.1390     4.5070     5.3230     5.8950   -12.7120     2.4300   416.0530 
  187.6250    45.5810    24.1370     4.6060     5.4650     6.0080   -12.8100     2.4270   417.3910 
  187.7500    46.9490    24.1410     4.7100     5.6010     6.1590   -12.8980     2.4350   416.1110 
  187.8750    47.1350    24.1760     4.8690     5.7230     6.3360   -12.9910     2.4510   412.5960 
  188.0000    46.8730    24.2650     5.0920     5.8210     6.5240   -13.0970     2.4690   406.6220 
  188.1250    46.2390    24.3780     5.2790     5.8820     6.7080   -13.2190     2.4820   398.9570 
  188.2500    42.7280    24.4560     5.3950     5.9110     6.8760   -13.3440     2.4880   392.4580 
  188.3750    38.6900    24.4980     5.5420     5.9140     7.0200   -13.4780     2.4910   388.3630 
  188.5000    39.0640    24.5110     5.7440     5.9000     7.1370   -13.6210     2.4920   385.5160 
  188.6250    43.1560    24.5110     5.8520     5.8800     7.2290   -13.8030     2.4950   382.1680 
  188.7500    43.7010    24.5110     5.8700     5.8610     7.3100   -14.0210     2.4990   379.4720 
  188.8750    41.2000    24.5110     5.8640     5.8380     7.3830   -14.2710     2.5020   379.8990 
  189.0000    40.4750    24.5110     5.8450     5.8050     7.4440   -14.5480     2.5010   384.3200 
  189.1250    41.1230    24.5110     5.7720     5.7600     7.4930   -14.8530     2.5020   390.6520 
  189.2500    40.1180    24.5110     5.6470     5.7190     7.5470   -15.2010     2.5110   394.8070 
  189.3750    40.5990    24.5090     5.5490     5.7030     7.6340   -15.5850     2.5240   394.5280 
  189.5000    46.0830    24.5070     5.5710     5.7310     7.7890   -16.0060     2.5320   390.1060 
  189.6250    54.4200    24.5090     5.7470     5.8200     8.0360   -16.4730     2.5260   384.9970 
  189.7500    61.7370    24.5110     6.0670     5.9480     8.3380   -16.9980     2.5080   383.7670 
  189.8750    69.8640    24.5110     6.5230     6.0890     8.6510   -17.5860     2.4840   388.6550 
  190.0000    80.5410    24.5100     6.9810     6.2160     8.9300   -18.2390     2.4630   399.4220 
  190.1250    88.5240    24.5070     7.2020     6.3110     9.1500   -18.9820     2.4500   412.9950 
  190.2500    91.1050    24.5030     7.2740     6.4030     9.3720   -19.7980     2.4420   423.2400 
  190.3750    90.8090    24.5030     7.4370     6.5420     9.6900   -20.7050     2.4380   425.8630 
  190.5000    90.0990    24.5080     7.6500     6.7800    10.1860   -21.6920     2.4370   420.5790 
  190.6250    88.5100    24.5230     7.8920     7.1720    10.9240   -22.7470     2.4360   412.1090 
  190.7500    85.7590    24.5550     8.5560     7.6790    11.8210   -23.8140     2.4340   406.1380 
  190.8750    83.1820    24.5850     9.9500     8.2480    12.7790   -24.8680     2.4360   402.6980 
  191.0000    79.9770    24.5980    11.6390     8.8140    13.6950   -25.8700     2.4440   398.8970 
  191.1250    78.4580    24.5980    12.6150     9.3000    14.4710   -26.7640     2.4510   393.0920 
  191.2500    79.1060    24.5980    13.0040     9.6820    15.0930   -27.5170     2.4540   388.0220 
  191.3750    80.4770    24.5980    13.5750     9.9460    15.5390   -28.0920     2.4530   386.0500 
  191.5000    80.8510    24.5980    14.6180    10.0820    15.7730   -28.4690     2.4520   386.9960 
  191.6250    80.0660    24.5980    15.1410    10.0790    15.7340   -28.6040     2.4600   387.5750 
  191.7500    78.8470    24.5980    14.9870    10.0300    15.5700   -28.5420     2.4850   382.9230 
  191.8750    79.3300    24.5980    14.5490    10.0780    15.5440   -28.2870     2.5330   368.7650 
  192.0000    81.0300    24.5980    14.2710    10.3940    15.9950   -27.8950     2.5940   343.9070 
  192.1250    81.1570    24.5980    14.5090    11.1930    17.3430   -27.3300     2.6320   314.7080 
  192.2500    79.3990    24.5980    15.7590    12.4130    19.4580   -26.6810     2.6270   295.5660 
  192.3750    79.0830    24.5980    18.8960    13.8380    21.8980   -25.9880     2.5850   296.3120 
  192.5000    82.2250    24.5980    22.2580    14.9610    23.7330   -25.2720     2.5310   317.4680 
  192.6250    86.5880    24.5950    22.4890    14.9030    23.4480   -24.5630     2.4920   350.6510 
  192.7500    89.0730    24.5660    19.7760    13.6290    21.0540   -23.8630     2.4740   381.5740 
  192.8750    89.8310    24.4660    16.4530    11.6260    17.4660   -23.1680     2.4740   402.7810 
  193.0000    87.0750    24.2910    13.5780     9.5630    13.9200   -22.3990     2.4850   411.2240 
  193.1250    80.1520    24.1310    10.8760     7.9750    11.4110   -21.5760     2.4980   407.7350 
  193.2500    73.3400    24.0480     8.3350     6.9270     9.9590   -20.6970     2.5040   401.3870 
  193.3750    72.4240    24.0240     6.6650     6.3670     9.3810   -19.7690     2.5000   397.9650 
  193.5000    76.4060    24.0220     6.3300     6.1800     9.3940   -18.8060     2.4900   398.2090 
  193.6250    76.9350    24.0090     6.7040     6.2340     9.6750   -17.8380     2.4850   398.1560 
  193.7500    71.8360    23.9850     6.8140     6.3200     9.8450   -16.9180     2.4820   395.2380 
  193.8750    65.8370    23.9920     6.4150     6.3310     9.7380   -16.0770     2.4780   390.7110 
  194.0000    62.1370    24.0910     5.9070     6.2460     9.3810   -15.3780     2.4720   386.8530 
  194.1250    59.4990    24.2500     5.7150     6.1220     8.9630   -14.8610     2.4680   385.1860 
  194.2500    54.8700    24.3610     5.8270     6.0370     8.6780   -14.4840     2.4670   385.1140 
  194.3750    47.6120    24.3980     6.0140     6.0170     8.5690   -14.2130     2.4680   385.7920 
  194.5000    40.7800    24.4030     6.1320     6.0410     8.5700   -14.0360     2.4720   386.3990 
  194.6250    39.3500    24.4030     6.0600     6.0630     8.5680   -13.9140     2.4740   386.9020 
  194.7500    42.6110    24.4030     5.9270     6.0510     8.5020   -13.7950     2.4690   388.1610 
  194.8750    48.0970    24.4030     5.8540     6.0020     8.3800   -13.6810     2.4600   390.4790 
