~V
VERS. 2.00: Ver 2.00
~W
STRT.M 60.0000:
STOP.M 250.0000:
STEP.M 0.1250:
NULL. -999.2500:
UWI. DF3018:
~C
DEPT.M :
DEN.GM/CC :
GR.API :
RML.OHMM :
RI. :
RXO.OHMM :
CALI.CM :
SP.MV :
~A
# ...
  127.5000     2.3260    87.4390     8.4890     7.3970     7.2410    24.1860   -14.4960 
  127.6250     2.3180    87.8820     8.0640     6.9210     6.6610    24.2100   -14.2530 
  127.7500     2.3170    91.1500     7.7480     6.5620     6.4860    24.1640   -14.2430 
  127.8750     2.3240    95.4300     7.5490     6.3330     6.4260    24.0120   -14.4560 
  128.0000     2.3300    97.2130     7.4830     6.2450     6.4120    23.8200   -14.8380 
  128.1250     2.3230    93.3880     7.5850     6.3300     6.4300    23.6300   -15.3210 
  128.2500     2.3030    88.8250     7.8320     6.5610     6.6520    23.4350   -15.7930 
  128.3750     2.2720    85.1240     8.2280     6.9470     7.5140    23.2240   -16.2370 
  128.5000     2.2400    80.1380     8.8090     7.5170     8.9900    23.1050   -16.6080 
  128.6250     2.2220    74.1630     9.6990     8.3630    10.0200    23.0800   -16.8230 
  128.7500     2.2280    69.8780    10.8750     9.4500    10.6420    23.0890   -16.8730 
  128.8750     2.2620    68.9860    12.2020    10.6550    11.2700    23.1300   -16.7590 
  129.0000     2.3160    70.0900    13.3670    11.7190    12.3300    23.2300   -16.5470 
  129.1250     2.3700    69.0320    13.8120    12.1810    13.8690    23.3860   -16.2630 
  129.2500     2.4030    67.5460    13.3640    11.8850    14.8650    23.4920   -16.0340 
  129.3750     2.4020    71.6930    12.1570    10.9120    13.6630    23.5280   -15.8650 
  129.5000     2.3730    82.9810    10.6440     9.6010    10.6640    23.5300   -15.7590 
  129.6250     2.3300    91.5460     9.4010     8.4210     8.0170    23.5250   -15.7410 
  129.7500     2.2890    91.6890     8.6670     7.6260     7.1260    23.4980   -15.7810 
  129.8750     2.2540    87.4980     8.4600     7.2790     7.2950    23.4350   -15.8480 
  130.0000     2.2220    82.8650     8.7020     7.3560     7.8250    23.3880   -15.8870 
  130.1250     2.1930    77.9390     9.3050     7.8230     8.5780    23.3730   -15.8770 
  130.2500     2.1760    75.1600    10.0290     8.4690     9.3270    23.3730   -15.7500 
  130.3750     2.1810    75.8780    10.6490     9.0910    10.3120    23.3810   -15.4860 
  130.5000     2.2210    77.1940    10.9200     9.4590    11.7480    23.4300   -15.1180 
  130.6250     2.2920    77.3830    10.5680     9.3070    13.8230    23.6460   -14.6770 
  130.7500     2.3650    78.0540     9.7390     8.7090    17.0050    24.0390   -14.2610 
  130.8750     2.4130    81.4320     8.7160     7.8560    19.1650    24.4610   -13.9270 
  131.0000     2.4190    87.0970     7.8530     7.0260    14.0290    24.7330   -13.7330 
  131.1250     2.3860    90.1960     7.4780     6.5100     7.6980    24.7690   -13.6950 
  131.2500     2.3400    89.3850     7.5180     6.3320     5.9990    24.6050   -13.7420 
  131.3750     2.2940    86.0260     7.7910     6.4120     6.1090    24.3040   -13.8170 
  131.5000     2.2570    81.6060     8.0560     6.5960     6.6350    23.9610   -13.8670 
  131.6250     2.2360    81.0870     8.0580     6.6860     7.1570    23.7350   -13.8400 
  131.7500     2.2350    86.0790     7.7910     6.5940     7.5190    23.7820   -13.7570 
  131.8750     2.2550    92.5950     7.3840     6.3550     7.2840    24.1810   -13.6570 
  132.0000     2.2910    95.4330     7.0270     6.0850     6.4780    24.7030   -13.5500 
  132.1250     2.3290    95.0090     6.8940     5.9240     5.9530    24.8210   -13.4310 
  132.2500     2.3550    95.9130     6.9700     5.9080     6.1690    24.6810   -13.3450 
  132.3750     2.3610    96.6710     7.1990     6.0230     6.8250    24.4530   -13.3510 
  132.5000     2.3490    95.4170     7.5040     6.2210     7.4900    24.2300   -13.4700 
  132.6250     2.3260    93.2960     7.8030     6.4410     7.6470    24.0230   -13.7390 
  132.7500     2.3060    93.2640     8.0410     6.6270     7.1040    23.8880   -14.0810 
  132.8750     2.2940    94.3480     8.1960     6.7540     6.8050    23.8210   -14.4270 
  133.0000     2.2930    94.0840     8.2480     6.8090     6.7910    23.8230   -14.7280 
  133.1250     2.2990    92.9350     8.1660     6.7700     6.9330    23.8850   -15.0160 
  133.2500     2.3060    92.0740     7.9890     6.6630     6.9800    23.9710   -15.2920 
  133.3750     2.3100    92.6890     7.7800     6.5290     6.9780    24.0310   -15.5590 
  133.5000     2.3080    96.9220     7.6310     6.4280     7.0140    24.0860   -15.8630 
  133.6250     2.2910   102.6710     7.6790     6.4630     6.9210    24.0890   -16.1560 
  133.7500     2.2590   101.6010     7.9770     6.6850     6.8830    23.9340   -16.3880 
  133.8750     2.2180    92.5310     8.5440     7.1230     7.2250    23.6240   -16.4920 
  134.0000     2.1810    84.3580     9.3270     7.7530     7.9470    23.2360   -16.4730 
  134.1250     2.1740    83.8060    10.1460     8.4500     8.7340    22.9980   -16.2950 
  134.2500     2.2080    83.5120    10.7190     8.9840     9.2310    22.9540   -16.0400 
  134.3750     2.2760    81.1660    10.8210     9.1630     9.7580    23.1110   -15.7580 
  134.5000     2.3560    80.1510    10.3680     8.8910    10.8210    23.5100   -15.4780 
  134.6250     2.4100    84.3890     9.4610     8.2070    12.2360    24.0110   -15.2910 
  134.7500     2.4210    90.7800     8.5280     7.4310    11.3550    24.3070   -15.2370 
  134.8750     2.3940    96.6650     7.8820     6.8100     8.1570    24.3160   -15.3580 
  135.0000     2.3510   100.2800     7.7040     6.5150     6.4470    24.0580   -15.6310 
  135.1250     2.3100    97.3560     8.0920     6.6810     6.3890    23.6450   -16.0600 
  135.2500     2.2780    91.7580     8.8290     7.1910     6.8020    23.2940   -16.5370 
  135.3750     2.2530    89.1140     9.6890     7.8930     7.1850    23.0570   -16.9830 
  135.5000     2.2360    90.8430    10.3990     8.5700     7.7590    22.8680   -17.3460 
  135.6250     2.2280    92.4790    10.6230     8.9260     8.3360    22.7630   -17.5750 
  135.7500     2.2320    91.8990    10.3570     8.8850     8.8300    22.7520   -17.6730 
  135.8750     2.2440    92.0820     9.7590     8.5220     8.9070    22.8040   -17.6930 
  136.0000     2.2580    94.6510     9.1220     8.0460     8.6620    22.9010   -17.7000 
  136.1250     2.2640    95.9280     8.8220     7.7580     8.1850    23.0580   -17.7540 
  136.2500     2.2580    93.2030     8.9710     7.8080     7.8740    23.1510   -17.8190 
  136.3750     2.2420    87.8730     9.5110     8.2100     8.2260    23.0820   -17.9120 
  136.5000     2.2210    82.5030    10.2390     8.8550     9.4340    22.9840   -18.0180 
  136.6250     2.2020    79.1500    10.8300     9.5260    11.1470    22.9920   -18.1010 
  136.7500     2.1880    77.6160    11.1020    10.0210    12.4360    23.0550   -18.1670 
  136.8750     2.1790    77.5880    11.1120    10.3070    12.5910    23.1480   -18.1590 
  137.0000     2.1740    78.1790    11.1360    10.5320    11.8080    23.2240   -18.0240 
  137.1250     2.1700    77.2860    11.5880    10.9910    11.2960    23.2280   -17.6800 
  137.2500     2.1660    74.8480    12.4690    11.7490    11.4170    23.1910   -17.2000 
  137.3750     2.1640    71.3290    13.4710    12.6070    12.4200    23.1800   -16.5910 
  137.5000     2.1680    69.8070    14.0680    13.1550    14.2170    23.2180   -15.8810 
  137.6250     2.1840    71.9530    13.5590    12.7830    16.3900    23.3490   -15.1410 
  137.7500     2.2110    77.6740    12.0160    11.4850    16.2360    23.5080   -14.4070 
  137.8750     2.2430    85.8940     9.9000     9.5980    13.2560    23.6730   -13.7600 
  138.0000     2.2740    93.9110     7.8900     7.6850     9.1110    23.9090   -13.2510 
  138.1250     2.2930    98.1780     6.5750     6.3040     6.6420    24.2210   -12.9210 
  138.2500     2.3030    99.5220     5.9340     5.5560     5.5150    24.4790   -12.8080 
  138.3750     2.3100   101.5320     5.9560     5.4410     5.2880    24.6090   -12.9060 
  138.5000     2.3220   103.4610     6.5420     5.9250     5.7460    24.5710   -13.2020 
  138.6250     2.3380   102.3270     8.0020     7.0690     7.2610    24.3590   -13.6250 
