~V
VERS. 2.00: Ver 2.00
~W
STRT.M 56.0000:
STOP.M 263.0000:
STEP.M 0.1250:
NULL. -999.2500:
UWI. DF3034:
~C
DEPT.M :
DEN.GM/CC :
GR.API :
RML.OHMM :
RI. :
RXO.OHMM :
CALI.CM :
SP.MV :
~A
# ...
   78.5000  -999.2500    73.2750    10.9090     8.9680    11.1170    24.2580   -31.9090 
   78.6250  -999.2500    70.5180    10.8860     8.9860    11.1930    23.9910   -31.9530 
   78.7500  -999.2500    67.6380    10.8820     8.9930    11.1840    23.8440   -31.8390 
   78.8750  -999.2500    66.2880    10.9440     9.0140    11.2040    23.8170   -31.6010 
   79.0000  -999.2500    68.3570    11.0940     9.0620    11.2860    23.8370   -31.2380 
   79.1250  -999.2500    72.7320    11.3010     9.1210    11.3430    23.8730   -30.6960 
   79.2500  -999.2500    74.9830    11.4620     9.1400    11.3590    23.9480   -30.1390 
   79.3750  -999.2500    75.7740    11.4740     9.0620    11.2980    24.1510   -29.4770 
   79.5000  -999.2500    77.4540    11.2580     8.8430    11.1840    24.4850   -28.8090 
   79.6250  -999.2500    78.7820    10.7750     8.4520    10.9200    24.7940   -27.9970 
   79.7500  -999.2500    77.8640    10.1810     7.9900    10.4870    24.7320   -27.2370 
   79.8750  -999.2500    77.3260     9.6920     7.6000    10.1830    24.4080   -26.4080 
   80.0000  -999.2500    80.4640     9.6010     7.4970    10.2800    24.0790   -25.6350 
   80.1250  -999.2500    84.6940    10.4740     8.1430    11.2910    24.0350   -24.8760 
   80.2500  -999.2500    85.9910    12.7010     9.9210    14.3150    24.1880   -24.0540 
   80.3750  -999.2500    84.2220    16.6770    13.2700    21.0430    24.4220   -23.2860 
   80.5000  -999.2500    80.7930    22.4160    18.3460    32.4220    24.6160   -22.5280 
   80.6250  -999.2500    75.7880    29.1330    24.6690    52.9040    24.7280   -21.9160 
   80.7500  -999.2500    70.6550    34.6600    30.3830    70.8620    24.7740   -21.3780 
   80.8750  -999.2500    68.4520    36.8870    33.5420    68.9900    24.7890   -20.9900 
   81.0000  -999.2500    71.4120    34.4260    32.7490    57.2440    24.7820   -20.7340 
   81.1250  -999.2500    76.8430    27.8410    27.8030    48.6100    24.7100   -20.7090 
   81.2500  -999.2500    79.9510    20.5730    21.4830    48.2300    24.6650   -20.8560 
   81.3750  -999.2500    84.2090    14.6510    15.7280    37.9460    24.6820   -21.1810 
   81.5000  -999.2500    92.3700    10.9250    11.4630    20.4730    24.8090   -21.6550 
   81.6250  -999.2500    98.0400     9.0460     8.9420     9.9140    24.8760   -22.3140 
   81.7500  -999.2500    95.4680     8.2040     7.5390     7.5940    24.7270   -22.9770 
   81.8750  -999.2500    89.9250     8.0470     6.9320     7.5030    24.3830   -23.6570 
   82.0000  -999.2500    88.8590     8.2960     6.8710     8.1100    23.9870   -24.2370 
   82.1250  -999.2500    90.4480     8.7570     7.1940     8.4730    23.8600   -24.7020 
   82.2500  -999.2500    90.6530     9.2750     7.6840     8.6410    23.8700   -25.0300 
   82.3750  -999.2500    88.3810     9.8160     8.2440     8.8040    23.8900   -25.1340 
   82.5000  -999.2500    85.4470    10.3510     8.8000     9.1380    23.8850   -25.0550 
   82.6250  -999.2500    83.5090    10.7560     9.2170     9.7090    23.8690   -24.6280 
   82.7500  -999.2500    83.4890    10.8880     9.3750    10.3840    23.9120   -24.1000 
   82.8750  -999.2500    85.6720    10.6410     9.1850    10.7870    24.0550   -23.3660 
   83.0000  -999.2500    88.9780    10.0210     8.6520    10.8820    24.3290   -22.6620 
   83.1250  -999.2500    93.6300     9.1690     7.8840    10.1070    24.4250   -21.9240 
   83.2500  -999.2500    98.7940     8.3590     7.1140     8.2570    24.4710   -21.2740 
   83.3750  -999.2500   104.0120     7.7440     6.4780     6.8210    24.4900   -20.7520 
   83.5000  -999.2500   107.1040     7.3830     6.0440     6.4300    24.5250   -20.3370 
   83.6250  -999.2500   104.0860     7.2910     5.8590     6.6520    24.6040   -20.0900 
   83.7500  -999.2500    98.8880     7.3760     5.8640     7.0850    24.6870   -19.9310 
   83.8750  -999.2500    96.8700     7.6020     6.0280     7.4310    24.6670   -19.9100 
   84.0000  -999.2500    98.3130     7.9520     6.3230     7.0460    24.7360   -19.8670 
   84.1250  -999.2500    97.6790     8.4160     6.7230     6.8760    24.7490   -19.8000 
   84.2500  -999.2500    92.9770     8.9070     7.1490     6.9990    24.5340   -19.6110 
   84.3750  -999.2500    87.5010     9.3080     7.5110     7.3170    24.2110   -19.3300 
   84.5000  -999.2500    85.0990     9.4860     7.7060     7.5980    24.0380   -18.9510 
   84.6250  -999.2500    87.2000     9.2990     7.6100     7.7100    24.0900   -18.5240 
   84.7500  -999.2500    93.6170     8.8320     7.2640     7.4340    24.3800   -18.0570 
   84.8750  -999.2500   102.7800     8.2200     6.7520     6.9380    24.7050   -17.5900 
   85.0000  -999.2500   111.1840     7.6180     6.1920     6.4620    24.8310   -17.1630 
   85.1250  -999.2500   116.2230     7.1670     5.7070     5.9230    24.8270   -16.8430 
   85.2500  -999.2500   120.2470     6.8730     5.3400     5.4210    24.8100   -16.6230 
   85.3750  -999.2500   123.7050     6.7020     5.0890     5.0770    24.7590   -16.5360 
   85.5000  -999.2500   125.2660     6.6060     4.9310     5.0360    24.6860   -16.5280 
   85.6250  -999.2500   124.1950     6.5540     4.8510     5.0990    24.6580   -16.7450 
   85.7500  -999.2500   122.3250     6.5400     4.8300     5.1900    24.6570   -17.0470 
   85.8750  -999.2500   118.3730     6.5980     4.8810     5.2840    24.6670   -17.4360 
   86.0000  -999.2500   112.7970     6.7740     5.0290     5.3840    24.6930   -17.9870 
   86.1250  -999.2500   109.9200     7.1480     5.3240     5.6360    24.7940   -18.5260 
   86.2500  -999.2500   108.0500     7.7020     5.7550     6.0510    24.7990   -19.1710 
   86.3750  -999.2500   101.9280     8.3910     6.3000     6.5710    24.4200   -19.7940 
   86.5000  -999.2500    89.6770     9.1100     6.8930     7.1630    23.9030   -20.4650 
   86.6250  -999.2500    79.5470     9.6760     7.4110     7.7070    23.6940   -20.9380 
   86.7500  -999.2500    78.4650     9.9640     7.7410     8.4160    23.6760   -21.3530 
   86.8750  -999.2500    83.8870     9.9260     7.8180     8.7340    23.7470   -21.6450 
   87.0000  -999.2500    89.2620     9.6140     7.6440     8.3860    23.8030   -21.7770 
   87.1250  -999.2500    91.3260     9.1450     7.2700     7.8410    23.8100   -21.8540 
   87.2500  -999.2500    95.2410     8.6850     6.8380     7.4030    23.8060   -21.8810 
   87.3750  -999.2500    99.2230     8.3080     6.4320     6.9430    23.8360   -21.9360 
   87.5000  -999.2500    99.4100     8.0380     6.1010     6.7870    23.9030   -22.0400 
   87.6250  -999.2500    96.8110     7.8710     5.8790     6.8350    24.0320   -22.2690 
   87.7500  -999.2500    95.9100     7.7820     5.7550     6.7390    24.1530   -22.5710 
   87.8750  -999.2500    96.6520     7.7930     5.7460     6.8900    24.2620   -22.9780 
   88.0000  -999.2500    94.3670     7.9730     5.8900     7.5160    24.2760   -23.4190 
   88.1250  -999.2500    86.4360     8.4970     6.3030     7.9800    24.2690   -23.9610 
   88.2500  -999.2500    75.9840     9.4470     7.0400     8.2830    24.3330   -24.4660 
   88.3750  -999.2500    69.0790    10.8530     8.1430     9.3770    24.5010   -24.9660 
   88.5000  -999.2500    68.4200    12.5880     9.5520    11.6390    24.7070   -25.3720 
   88.6250  -999.2500    69.6670    14.2660    11.0260    16.0020    24.8690   -25.7960 
   88.7500  -999.2500    67.6800    15.3950    12.1710    22.1800    24.8640   -26.1320 
   88.8750  -999.2500    65.2160    15.6450    12.6810    32.0410    24.6610   -26.4680 
   89.0000  -999.2500    65.6570    14.9990    12.4520    39.5820    24.3890   -26.8190 
   89.1250  -999.2500    67.4280    13.7970    11.6250    30.0420    24.4410   -27.0430 
   89.2500  -999.2500    68.9160    12.6590    10.6740    17.0270    24.5050   -27.3130 
   89.3750  -999.2500    69.7240    11.8540     9.8550    11.6740    24.3970   -27.4870 
   89.5000  -999.2500    69.7130    11.4070     9.2690    10.3560    24.5080   -27.6730 
   89.6250  -999.2500    67.6910    11.2110     8.9170    10.3250    24.6640   -27.7220 
