~V
VERS. 2.00: Ver 2.00
~W
STRT.M 120.0000:
STOP.M 271.0000:
STEP.M 0.1250:
NULL. -999.2500:
UWI. DF3037:
~C
DEPT.M :
GR.API :
RML.OHMM :
RI. :
RXO.OHMM :
CALI.CM :
SP.MV :
DEN.GM/CC :
AC.US/MT :
~A
# ...
  230.0000   105.6750    10.4680     8.7950    10.1330    24.5810   -19.8170     2.4380   389.1480 
  230.1250   109.3910    10.9520     8.9620    10.7150    24.4150   -19.6380     2.4390   388.7500 
  230.2500   110.7850    13.0520    10.1470    12.3080    24.3490   -19.4960     2.4400   385.4320 
  230.3750   106.1950    17.9180    13.2950    16.8840    24.3450   -19.3500     2.4350   379.5540 
  230.5000    96.4670    27.0730    19.6630    28.3520    24.3560   -19.2370     2.4220   372.4500 
  230.6250    85.7690    42.2540    31.2000    50.5030    24.4000   -19.1130     2.4020   366.7440 
  230.7500    77.6720    62.0380    47.1630    89.7170    24.4760   -19.0290     2.3760   364.4800 
  230.8750    71.2610    83.8570    65.8350   139.5350    24.5620   -18.9090     2.3500   366.4120 
  231.0000    65.9510   105.1290    84.1600   152.9420    24.6290   -18.7730     2.3260   371.6500 
  231.1250    62.6280   121.3580    98.0840   142.9010    24.6170   -18.5840     2.3070   377.1620 
  231.2500    61.4590   131.8720   107.0710   130.8220    24.6080   -18.3550     2.2930   381.2460 
  231.3750    62.5960   138.1930   112.3730   126.8360    24.6420   -18.1120     2.2860   383.5510 
  231.5000    64.4540   142.4700   115.7450   134.3030    24.7230   -17.8520     2.2850   384.7590 
  231.6250    65.8460   145.5720   118.0700   140.8540    24.7670   -17.5920     2.2880   385.9070 
  231.7500    68.0540   147.5490   119.6230   146.8760    24.7730   -17.3480     2.2950   387.1200 
  231.8750    71.4850   148.3600   120.4370   145.5660    24.7450   -17.1540     2.3010   388.0880 
  232.0000    73.3740   148.4390   120.8420   139.4200    24.7250   -17.0030     2.3020   388.3920 
  232.1250    71.1850   148.5600   121.4420   136.7530    24.7260   -16.8860     2.2990   388.1330 
  232.2500    69.0920   149.1080   122.5160   135.7980    24.7110   -16.7860     2.2940   387.5850 
  232.3750    68.5260   149.7060   123.7660   130.9960    24.6990   -16.7380     2.2880   387.1190 
  232.5000    67.3390   149.3770   124.3930   127.6690    24.6960   -16.6980     2.2820   387.1730 
  232.6250    65.9760   146.3370   122.9230   131.0400    24.6950   -16.7210     2.2790   387.8660 
  232.7500    66.8400   139.9340   118.7360   134.2890    24.6930   -16.7620     2.2780   389.1500 
  232.8750    69.2090   130.0370   111.6260   128.8660    24.6940   -16.8310     2.2830   390.7720 
  233.0000    69.5660   117.4460   102.0910   113.8620    24.6870   -16.8810     2.2910   392.2030 
  233.1250    68.9200   104.0840    91.4270    96.4950    24.6590   -16.9700     2.3030   392.9130 
  233.2500    68.0350    92.6030    81.7990    84.0270    24.6140   -17.0310     2.3150   392.6210 
  233.3750    67.6750    84.8310    74.8710    76.1560    24.5870   -17.0730     2.3250   391.4840 
  233.5000    68.6280    81.7810    71.7710    67.6610    24.5790   -17.0580     2.3280   390.2630 
  233.6250    69.2840    84.3570    73.5640    63.4660    24.5980   -16.9790     2.3250   389.8610 
  233.7500    68.3220    90.9020    78.9700    69.7970    24.6530   -16.7380     2.3170   390.5210 
  233.8750    67.5110    99.8940    86.7090    90.4430    24.7250   -16.3680     2.3100   391.7710 
  234.0000    68.5620   109.3100    95.0290   114.0320    24.7620   -15.9110     2.3040   392.5770 
  234.1250    67.3760   116.5520   101.6890   122.2210    24.7530   -15.2880     2.2990   392.4480 
  234.2500    63.7820   120.5710   105.6900   117.7720    24.7230   -14.6560     2.2940   391.6670 
  234.3750    62.5050   121.5090   107.0320   112.5200    24.7030   -13.9280     2.2890   390.9330 
  234.5000    63.7700   120.4310   106.5090   108.5060    24.6950   -13.2430     2.2860   390.9300 
  234.6250    63.8910   118.4530   105.0530   106.8360    24.6920   -12.5840     2.2860   391.5010 
  234.7500    63.3440   116.1640   103.3070   107.5930    24.6880   -12.0650     2.2880   392.1830 
  234.8750    64.1120   113.3230   101.1510   109.6800    24.6860   -11.6660     2.2910   392.5190 
  235.0000    63.7100   109.5640    98.2760   108.5190    24.6860   -11.3630     2.2940   392.2290 
  235.1250    59.6400   104.7010    94.4390   103.9390    24.6860   -11.2840     2.2970   391.6310 
  235.2500    58.8640    99.4430    90.1420    99.4090    24.6860   -11.2570     2.3000   391.1410 
  235.3750    64.6480    94.5010    85.9550    94.7680    24.6860   -11.3570     2.3040   391.1230 
  235.5000    70.7800    90.3160    82.3050    85.0640    24.6860   -11.4370     2.3070   391.8070 
  235.6250    70.1440    86.7600    79.2010    75.3350    24.6860   -11.5340     2.3090   392.8990 
  235.7500    67.8800    82.9940    75.9870    71.8020    24.6810   -11.6080     2.3090   394.0760 
  235.8750    68.5860    78.4720    72.1560    74.8260    24.6590   -11.6850     2.3090   395.0360 
  236.0000    70.3720    73.2990    67.6870    76.9330    24.6110   -11.7540     2.3110   395.5490 
  236.1250    71.2030    68.6330    63.4440    72.8740    24.5960   -11.8940     2.3120   395.7470 
  236.2500    72.4290    65.9160    60.7210    63.0290    24.6150   -12.0170     2.3090   395.8440 
  236.3750    73.0560    66.1910    60.5550    53.5380    24.6550   -12.1620     2.2960   396.0730 
  236.5000    71.4010    69.8400    63.4610    52.1000    24.6890   -12.3280     2.2730   396.5430 
  236.6250    68.9720    76.7630    69.5530    62.9140    24.7390   -12.5410     2.2390   396.9040 
  236.7500    67.4080    85.0580    77.1620    81.8620    24.8270   -12.7340     2.2010   396.4050 
  236.8750    66.6140    93.1470    84.8270    99.6420    24.8840   -12.9120     2.1770   393.8430 
  237.0000    67.7660    99.7380    91.2710   102.8910    24.7670   -13.0420     2.1820   387.1650 
  237.1250    72.0580   103.9260    95.5170    99.3920    24.4260   -13.1120     2.2200   376.4450 
  237.2500    74.0220   106.2050    97.9480    93.1870    24.0600   -13.1430     2.2810   362.8670 
  237.3750    71.5770   106.4850    98.5690    84.9020    23.8130   -13.1640     2.3430   349.0280 
  237.5000    69.7970   103.8430    96.7210    82.2790    23.7510   -13.1820     2.3820   338.9120 
  237.6250    73.8470    96.0740    90.5310    78.7880    23.8700   -13.2570     2.3950   334.3320 
  237.7500    78.3150    83.7480    80.2360    82.5060    24.0770   -13.3500     2.3920   335.6600 
  237.8750    78.6170    68.8660    67.2500    85.3590    24.2880   -13.4800     2.3840   341.8040 
  238.0000    79.1740    54.5930    54.1950    79.4930    24.4310   -13.6160     2.3770   350.5810 
  238.1250    83.8930    44.3300    44.2620    53.0210    24.4760   -13.7440     2.3730   358.5240 
  238.2500    88.3500    38.4960    38.2800    33.3980    24.4540   -13.8960     2.3710   362.9700 
  238.3750    89.9780    36.7540    36.1610    27.8280    24.4160   -14.0310     2.3730   362.1400 
  238.5000    89.3220    38.2310    37.2380    29.5720    24.3530   -14.1710     2.3770   355.8060 
  238.6250    88.6670    41.7550    40.5920    35.7520    24.3320   -14.2240     2.3800   348.4060 
  238.7500    88.6110    45.2110    44.2250    39.1550    24.3300   -14.2500     2.3770   344.5520 
  238.8750    88.6910    47.0350    46.5330    44.5460    24.3540   -14.2310     2.3670   347.5040 
  239.0000    86.9760    46.2560    46.3590    49.5340    24.4180   -14.2570     2.3550   357.9360 
  239.1250    81.7620    42.7570    43.3030    51.0570    24.5110   -14.2580     2.3460   370.7180 
  239.2500    78.6290    38.4460    39.1490    42.7540    24.5630   -14.2750     2.3410   381.5230 
  239.3750    78.5230    34.9630    35.5230    33.4670    24.5780   -14.2870     2.3410   387.9350 
  239.5000    79.3840    33.5090    33.6600    28.7380    24.5790   -14.3300     2.3380   389.9480 
  239.6250    78.6130    35.0170    34.5600    29.2110    24.5790   -14.3370     2.3290   390.6490 
  239.7500    75.7860    38.7920    37.7150    33.2430    24.5790   -14.3910     2.3140   391.8170 
  239.8750    71.8910    44.0090    42.4600    41.0980    24.5790   -14.4080     2.2960   393.9070 
