~V
VERS. 2.00: Ver 2.00
~W
STRT.M 125.0000:
STOP.M 269.0000:
STEP.M 0.1250:
NULL. -999.2500:
UWI. DF3004:
~C
DEPT.M :
GR.API :
RML.OHMM :
RI. :
RXO.OHMM :
CALI.CM :
DEN.GM/CC :
SP.MV :
~A
# ...
  226.2500    81.4060     9.3750     8.1440     8.9990    24.3320     2.3920   -14.1910 
  226.3750    90.3550     9.6990     8.6370     8.9450    24.3430     2.4040   -14.3940 
  226.5000    99.5330     9.8340     8.9660     8.8600    24.2860     2.4090   -14.5510 
  226.6250   104.0830     9.8360     9.1190     9.1040    24.1490     2.4120   -14.6480 
  226.7500   110.2860     9.8030     9.1790     9.5080    24.0380     2.4170   -14.7800 
  226.8750   121.7020     9.7790     9.1820     9.8220    24.0320     2.4240   -14.8060 
  227.0000   132.2270     9.7800     9.1480     9.9500    24.1290     2.4290   -14.8930 
  227.1250   133.8680     9.8130     9.0800    10.0330    24.2480     2.4290   -14.9660 
  227.2500   129.1590     9.8590     8.9870    10.0150    24.2710     2.4240   -15.0180 
  227.3750   124.1120     9.9050     8.8800    10.0260    24.2490     2.4140   -15.1020 
  227.5000   123.0320     9.9380     8.7680    10.0310    24.2180     2.4000   -15.0820 
  227.6250   125.2510     9.9540     8.6690     9.9970    24.0130     2.3860   -15.1760 
  227.7500   127.0180     9.9680     8.5940     9.9460    23.6840     2.3730   -15.1950 
  227.8750   126.8160     9.9950     8.5570     9.8970    23.5400     2.3650   -15.2590 
  228.0000   128.6900    10.0460     8.5620     9.9400    23.5870     2.3610   -15.3080 
  228.1250   133.6410    10.1280     8.6150    10.0520    23.7300     2.3630   -15.3300 
  228.2500   134.8650    10.2260     8.6970    10.3750    23.8440     2.3670   -15.4050 
  228.3750   131.1170    10.3260     8.7960    10.8020    23.8900     2.3710   -15.4020 
  228.5000   126.0160    10.4110     8.8960    11.0660    23.9130     2.3730   -15.4420 
  228.6250   125.4110    10.4690     8.9880    11.0900    23.9060     2.3730   -15.4720 
  228.7500   124.6900    10.5100     9.0730    11.0790    23.8130     2.3720   -15.5030 
  228.8750   123.6910    10.5470     9.1550    11.1360    23.7520     2.3740   -15.5240 
  229.0000   124.2890    10.6020     9.2440    11.0120    23.7640     2.3810   -15.5580 
  229.1250   123.5040    10.7060     9.3590    10.7520    23.8010     2.3930   -15.5490 
  229.2500   120.8150    10.8710     9.5100    10.6860    23.8050     2.4050   -15.5430 
  229.3750   118.3170    11.1010     9.7010    11.1920    23.8120     2.4120   -15.5360 
  229.5000   116.6430    11.3780     9.9280    11.9030    23.8520     2.4100   -15.5400 
  229.6250   114.7100    11.6490    10.1540    12.4360    23.8120     2.4030   -15.5120 
  229.7500   116.3280    11.8340    10.3200    12.9730    23.9690     2.3950   -15.5000 
  229.8750   121.5090    11.8670    10.3710    13.5310    24.1980     2.3910   -15.5150 
  230.0000   125.1740    11.7400    10.2910    13.8310    24.2660     2.3890   -15.4720 
  230.1250   122.7410    11.5700    10.1440    13.7500    24.0940     2.3900   -15.5490 
  230.2500   116.9710    11.6380    10.1290    13.8570    23.8420     2.3900   -15.5700 
  230.3750   111.4540    12.2590    10.4860    14.0430    23.7630     2.3940   -15.6510 
  230.5000   106.4190    13.7060    11.4620    15.6640    23.9040     2.4020   -15.7650 
  230.6250   100.9080    16.2430    13.3770    18.8890    24.1600     2.4090   -15.8260 
  230.7500    94.6130    19.5460    16.0840    24.3890    24.2480     2.4080   -16.0090 
  230.8750    89.3480    23.0980    19.3610    32.9470    24.1740     2.3890   -16.1560 
  231.0000    85.0110    26.5110    22.8640    40.9260    23.9490     2.3580   -16.3880 
  231.1250    80.7760    29.7970    26.3420    39.3400    23.9150     2.3250   -16.5790 
  231.2500    79.2330    33.8700    30.0620    38.2980    24.0130     2.3000   -16.8060 
  231.3750    79.3150    40.0590    34.7980    40.5930    24.1380     2.2920   -17.0790 
  231.5000    78.4680    50.0770    41.5210    46.5260    24.2070     2.2940   -17.2480 
  231.6250    75.8550    64.5930    51.2810    58.3190    24.2930     2.2980   -17.5610 
  231.7500    71.8230    81.2330    63.1310    76.7780    24.3940     2.2950   -17.8220 
  231.8750    67.0400    96.6260    75.5000   104.1530    24.3940     2.2840   -18.0140 
  232.0000    62.0270   109.6240    86.2950   130.8370    24.2260     2.2710   -18.2370 
  232.1250    59.6490   117.3220    93.1480   134.5930    23.9610     2.2640   -18.4330 
  232.2500    61.1890   120.5230    96.4250   123.4980    23.9760     2.2700   -18.5670 
  232.3750    65.2030   120.8540    97.2450   112.7710    24.1260     2.2860   -18.6970 
  232.5000    68.8160   119.8630    96.8940   109.3930    24.2190     2.2990   -18.8290 
  232.6250    69.4700   117.7820    95.8410   109.6930    24.1970     2.3020   -18.8720 
  232.7500    67.8220   114.1540    93.8510   111.4170    24.0760     2.2930   -18.8750 
  232.8750    64.8700   108.5980    90.5150   113.0630    23.9510     2.2790   -18.9190 
  233.0000    61.2290   101.5730    85.9280   109.5460    23.7910     2.2700   -18.9210 
  233.1250    61.0970    94.4760    80.8610    99.6830    23.7540     2.2680   -18.8870 
  233.2500    65.2320    88.6000    76.3780    86.9950    23.7450     2.2730   -18.9360 
  233.3750    70.5580    84.2140    72.8710    77.3810    23.7690     2.2800   -18.8890 
  233.5000    73.7770    80.8350    70.1440    72.9110    23.8200     2.2840   -18.9270 
  233.6250    73.6820    77.7120    67.6830    73.8040    23.8020     2.2860   -18.9280 
  233.7500    71.7250    74.5630    65.2030    80.0860    23.8120     2.2860   -18.9360 
  233.8750    70.3380    71.9910    63.1350    80.0930    23.9120     2.2890   -18.9800 
  234.0000    70.2040    71.2080    62.4900    69.8760    24.0270     2.2930   -18.9570 
  234.1250    71.0210    74.3740    65.1870    60.6760    24.1200     2.2960   -19.0350 
  234.2500    70.5740    81.9490    71.7540    61.9100    24.1080     2.2930   -19.0490 
  234.3750    68.3920    93.3250    81.9970    74.5430    23.9840     2.2810   -19.2000 
  234.5000    66.1310   106.6510    94.3190    96.9410    23.9230     2.2640   -19.3600 
  234.6250    64.1640   117.8660   105.0000   123.3820    23.9920     2.2470   -19.6350 
  234.7500    62.9190   123.4420   110.4210   135.9120    24.1330     2.2360   -19.9680 
  234.8750    62.2640   121.7620   108.7890   134.9490    24.1970     2.2330   -20.2130 
  235.0000    61.6230   115.1120   101.0180   129.5650    24.2080     2.2390   -20.5690 
  235.1250    63.8910   106.5280    90.4260   116.3340    24.2000     2.2550   -20.8430 
  235.2500    69.1920    98.8720    81.2230    93.5190    24.1740     2.2830   -21.1030 
  235.3750    74.3170    92.0340    75.1430    69.4600    24.1880     2.3210   -21.3300 
  235.5000    75.7710    89.2150    72.4100    56.3410    24.1620     2.3590   -21.4720 
  235.6250    75.5690    89.6250    72.6020    62.7530    24.0730     2.3870   -21.5770 
  235.7500    77.8840    91.3520    74.1450    68.5390    23.8320     2.4000   -21.5760 
  235.8750    80.4400    93.3610    76.1490    74.0450    23.6800     2.3950   -21.6110 
  236.0000    81.9880    95.0310    78.0070    77.9630    23.6060     2.3810   -21.5820 
  236.1250    83.2260    96.1730    79.4170    76.0970    23.5820     2.3670   -21.5240 
  236.2500    83.9100    97.1240    80.5660    76.7710    23.5780     2.3580   -21.5150 
  236.3750    83.2100    98.0900    81.6180    78.1410    23.5790     2.3550   -21.3550 
  236.5000    84.6120    99.0730    82.6110    81.0350    23.5980     2.3530   -21.2460 
  236.6250    87.5270    99.8550    83.3990    87.5710    23.5980     2.3410   -21.0340 
  236.7500    86.2580   100.2470    83.8390    90.7680    23.6670     2.3130   -20.8370 
  236.8750    82.4370   100.1320    83.8300    87.1480    23.9140     2.2760   -20.6860 
  237.0000    81.4510    99.5050    83.3660    74.3020    24.1500     2.2480   -20.4890 
  237.1250    83.8470    98.4090    82.4950    67.4040    24.2290     2.2400   -20.3780 
  237.2500    81.8370    97.0550    81.4290    69.5690    24.2140     2.2510   -20.1810 
  237.3750    74.5350    95.5670    80.3090    73.8080    24.1850     2.2700   -20.0990 
