~V
VERS. 2.00: Ver 2.00
~W
STRT.M 54.0000:
STOP.M 250.0000:
STEP.M 0.1250:
NULL. -999.2500:
UWI. DF3016:
~C
DEPT.M :
GR.API :
RML.OHMM :
RI. :
RXO.OHMM :
CALI.CM :
DEN.GM/CC :
SP.MV :
~A
# ...
  155.2500    78.4380    84.1390    72.8930    73.1240    24.6930     2.3090   -20.5080 
  155.3750    76.6530    84.0880    72.6710    70.4900    24.7230     2.3200   -20.3520 
  155.5000    73.6340    85.7320    73.4480    69.1450    24.7680     2.3200   -20.1960 
  155.6250    72.9200    91.2220    77.0860    68.8730    24.7870     2.3060   -20.0360 
  155.7500    73.6480   100.9700    84.0860    75.7100    24.7990     2.2850   -19.9220 
  155.8750    74.9830   115.1040    94.6280    88.9670    24.8070     2.2630   -19.8620 
  156.0000    76.1810   132.9920   108.2460   104.2360    24.8230     2.2440   -19.9280 
  156.1250    75.1080   153.4910   124.0460   127.2520    24.8570     2.2330   -20.1460 
  156.2500    71.3770   174.5430   140.3670   154.3590    24.8730     2.2280   -20.5660 
  156.3750    67.5840   195.3080   156.4980   174.0690    24.8770     2.2250   -21.0630 
  156.5000    66.7330   215.8660   172.4050   183.4060    24.8770     2.2240   -21.6670 
  156.6250    67.7470   236.7860   188.3900   189.5790    24.8750     2.2210   -22.3190 
  156.7500    67.1960   257.3440   203.9640   197.8970    24.8620     2.2160   -22.9640 
  156.8750    64.4270   274.8640   217.2790   214.1820    24.8320     2.2100   -23.5820 
  157.0000    62.9700   285.1790   225.4170   243.9320    24.8200     2.2040   -24.0660 
  157.1250    64.2780   282.2150   224.0030   257.9200    24.8660     2.1970   -24.4080 
  157.2500    64.6740   267.2850   213.8140   246.1150    24.9610     2.1900   -24.5570 
  157.3750    63.2160   244.0480   197.2710   221.8960    25.0600     2.1850   -24.6200 
  157.5000    63.6570   218.2640   178.4790   198.3150    25.1010     2.1830   -24.5850 
  157.6250    68.3550   196.0630   162.1700   174.5490    25.0580     2.1870   -24.4450 
  157.7500    73.4240   179.6540   150.4220   151.7780    24.9540     2.1940   -24.2100 
  157.8750    75.9200   169.1260   143.5540   135.5890    24.8830     2.2030   -23.8970 
  158.0000    75.0060   163.3360   140.7870   131.2810    24.8500     2.2120   -23.5840 
  158.1250    72.7130   160.5230   140.7500   134.1140    24.8580     2.2200   -23.2020 
  158.2500    71.5610   157.6370   140.7690   134.7690    24.8460     2.2280   -22.8520 
  158.3750    71.3730   152.4430   138.7460   131.8890    24.8200     2.2380   -22.4820 
  158.5000    73.2920   143.2750   132.9780   126.6290    24.8030     2.2500   -22.0950 
  158.6250    75.2250   128.8440   121.9160   115.8790    24.7950     2.2640   -21.7280 
  158.7500    77.2340   111.1040   107.1070   103.3220    24.7650     2.2790   -21.4050 
  158.8750    78.5030    92.4750    90.6100    90.0740    24.6790     2.2940   -21.1180 
  159.0000    79.9090    75.7540    75.0470    78.1290    24.5390     2.3090   -20.7700 
  159.1250    81.7680    63.8870    63.3490    65.8570    24.4040     2.3260   -20.5930 
  159.2500    81.9680    56.9920    56.0570    54.1520    24.3170     2.3440   -20.4250 
  159.3750    79.8050    54.8930    53.2200    43.7360    24.3010     2.3590   -20.3220 
  159.5000    76.4450    57.0430    54.4700    39.2670    24.3080     2.3690   -20.2090 
  159.6250    73.9250    63.0280    59.5870    45.0710    24.2610     2.3640   -20.1280 
  159.7500    72.8900    71.0310    66.8870    56.1950    24.1800     2.3420   -20.0500 
  159.8750    69.9200    79.8330    75.1650    64.2130    24.1820     2.3070   -20.0320 
  160.0000    65.1070    88.4310    83.3110    76.8010    24.3110     2.2680   -20.1350 
  160.1250    62.7510    96.4040    90.6350   116.1450    24.4850     2.2410   -20.1890 
  160.2500    65.2270   104.8150    97.9210   148.9660    24.5250     2.2320   -20.2790 
  160.3750    69.8110   115.7160   106.9280   129.2240    24.5180     2.2390   -20.4010 
  160.5000    71.8460   131.7250   119.9440    99.5940    24.5310     2.2540   -20.5990 
  160.6250    70.0020   156.6600   140.0820   117.9950    24.5840     2.2650   -20.8450 
  160.7500    67.4800   190.1950   166.8520   144.1600    24.6140     2.2690   -21.1240 
  160.8750    64.7510   231.0080   198.8330   172.8950    24.6370     2.2670   -21.4130 
  161.0000    62.7620   275.7630   233.0850   212.8170    24.6760     2.2650   -21.6860 
  161.1250    63.7070   319.2420   265.4380   255.5710    24.7210     2.2650   -21.9730 
  161.2500    68.1930   357.7450   293.5970   273.2620    24.7680     2.2650   -22.1650 
  161.3750    73.7940   389.9460   317.0240   274.1800    24.7860     2.2630   -22.3070 
  161.5000    76.3940   415.3310   335.7570   277.2340    24.7890     2.2610   -22.3750 
  161.6250    74.5340   431.0730   348.2820   290.2930    24.7940     2.2590   -22.3940 
  161.7500    71.8050   435.7240   353.6520   310.5290    24.8120     2.2590   -22.3540 
  161.8750    69.9570   426.1180   349.3840   305.8970    24.8470     2.2580   -22.2410 
  162.0000    69.0050   400.0190   333.2100   266.0150    24.8510     2.2520   -22.1010 
  162.1250    68.8090   356.3210   302.9960   236.1140    24.8150     2.2380   -21.8750 
  162.2500    69.4420   303.6920   264.2120   226.2820    24.7670     2.2240   -21.6980 
  162.3750    70.0040   249.5200   222.0570   228.9260    24.7230     2.2200   -21.5160 
  162.5000    70.2930   200.1330   181.7180   211.1270    24.6070     2.2290   -21.3740 
  162.6250    72.5110   161.1210   148.3190   153.4690    24.4100     2.2510   -21.2510 
  162.7500    77.2210   132.1570   122.7180   112.7850    24.2450     2.2740   -21.2040 
  162.8750    81.3360   112.4570   104.8380   100.5680    24.1540     2.2910   -21.1840 
  163.0000    80.9970   100.3650    93.6240    92.3910    24.1990     2.2970   -21.2340 
  163.1250    75.3370    94.4190    88.0390    75.7460    24.2030     2.2940   -21.3700 
  163.2500    70.5730    91.4160    85.2770    70.1580    24.2210     2.2870   -21.5970 
  163.3750    70.6680    89.7310    83.8280    76.8570    24.2160     2.2800   -21.8110 
  163.5000    73.1980    88.4090    82.7220    82.9490    24.1870     2.2780   -22.0030 
  163.6250    73.5310    87.4080    81.7520    80.0450    24.1910     2.2820   -22.1430 
  163.7500    72.9340    87.3890    81.4190    73.6390    24.2540     2.2910   -22.2380 
  163.8750    73.0210    89.1990    82.4700    69.9080    24.3720     2.2980   -22.3280 
  164.0000    72.6760    93.3650    85.4450    71.3200    24.4540     2.2980   -22.3510 
  164.1250    71.4930    99.9640    90.5450    79.0200    24.4580     2.2880   -22.3480 
  164.2500    71.6030   107.5770    96.6170    91.6290    24.4320     2.2730   -22.2530 
  164.3750    71.5480   115.0550   102.6650   107.1650    24.4140     2.2590   -22.1860 
  164.5000    69.1860   121.6600   107.9910   119.2970    24.4110     2.2510   -22.1370 
  164.6250    66.9710   127.4560   112.5400   121.7280    24.4500     2.2510   -22.1280 
  164.7500    68.4180   133.5740   117.2410   116.6910    24.5740     2.2540   -22.1560 
  164.8750    70.4240   140.8470   122.8590   117.9650    24.7060     2.2550   -22.2200 
  165.0000    69.5730   149.2000   129.4750   128.9280    24.7850     2.2530   -22.3140 
  165.1250    67.6900   156.8470   135.8130   148.7800    24.8140     2.2470   -22.4400 
  165.2500    68.1820   161.1630   139.7080   160.3070    24.8160     2.2410   -22.5520 
  165.3750    70.9360   159.9980   139.2920   162.7520    24.7890     2.2370   -22.6470 
  165.5000    71.7660   152.5380   133.6850   155.8960    24.7490     2.2360   -22.6930 
  165.6250    69.7160   139.3180   123.0060   142.2860    24.7050     2.2380   -22.6940 
  165.7500    68.2190   124.1600   110.2840   123.7480    24.6860     2.2460   -22.6560 
  165.8750    68.6520   109.9680    97.9450   106.5160    24.6820     2.2620   -22.5770 
  166.0000    69.9210    99.0870    88.0640    89.8220    24.6720     2.2840   -22.4910 
  166.1250    69.7410    93.9520    82.8470    75.9620    24.6290     2.3040   -22.3740 
  166.2500    70.3220    94.2640    82.2610    66.0100    24.5540     2.3150   -22.3420 
  166.3750    72.0510    99.5110    86.0360    65.7880    24.4880     2.3140   -22.2960 
