~V
VERS. 2.00: Ver 2.00
~W
STRT.M 64.0000:
STOP.M 262.0000:
STEP.M 0.1250:
NULL. -999.2500:
UWI. DF3019:
~C
DEPT.M :
GR.API :
RML.OHMM :
RI. :
RXO.OHMM :
CALI.CM :
DEN.GM/CC :
SP.MV :
~A
# ...
  244.0000    76.9030    13.6390    11.4450    13.6090    23.9710     2.4600   -15.4270 
  244.1250    80.4470    13.5320    11.3530    12.9180    24.0320     2.4490   -15.4110 
  244.2500    83.8900    13.4190    11.2650    12.8050    24.0820     2.4390   -15.3180 
  244.3750    84.7590    13.3000    11.1830    13.3280    24.1150     2.4350   -15.2750 
  244.5000    82.8960    13.1800    11.1080    14.3840    24.1270     2.4380   -15.1830 
  244.6250    79.5120    13.0860    11.0470    15.1780    24.1270     2.4410   -15.1440 
  244.7500    78.4600    13.0560    11.0140    15.3890    24.1270     2.4390   -15.1410 
  244.8750    79.4180    13.1260    11.0340    15.3450    24.1270     2.4280   -15.1150 
  245.0000    78.7080    13.3200    11.1290    14.9170    24.1270     2.4090   -15.1410 
  245.1250    75.8710    13.6510    11.3250    14.6800    24.0460     2.3910   -15.0440 
  245.2500    75.1810    14.0470    11.5840    14.8810    23.8610     2.3800   -15.0430 
  245.3750    78.3380    14.4280    11.8560    14.8010    23.6820     2.3780   -15.0230 
  245.5000    81.7570    14.7030    12.0770    13.9950    23.6500     2.3820   -15.0370 
  245.6250    81.2960    14.7630    12.1570    13.1130    23.8040     2.3910   -15.1040 
  245.7500    78.0860    14.6120    12.0790    12.6540    23.9380     2.4030   -15.1040 
  245.8750    74.4800    14.2890    11.8540    12.8050    23.8770     2.4200   -15.1090 
  246.0000    72.4350    13.8730    11.5280    13.4180    23.8860     2.4410   -15.1100 
  246.1250    72.4450    13.4590    11.1720    14.1660    24.0050     2.4630   -15.1530 
  246.2500    73.2740    13.1230    10.8650    14.2620    24.0490     2.4820   -15.1890 
  246.3750    74.0640    12.9080    10.6580    13.4780    24.0310     2.4960   -15.2080 
  246.5000    73.8090    12.8450    10.5850    12.5490    24.0020     2.5050   -15.2750 
  246.6250    72.9060    12.9700    10.6820    11.8400    24.0160     2.5090   -15.2180 
  246.7500    73.5050    13.2370    10.9110    11.5440    24.0310     2.5020   -15.2350 
  246.8750    75.9950    13.5970    11.2320    11.2720    24.0390     2.4790   -15.2020 
  247.0000    78.8710    13.9750    11.5900    10.5750    24.0480     2.4420   -15.1650 
  247.1250    80.3460    14.2690    11.9030     9.7780    24.0750     2.4070   -15.1240 
  247.2500    80.8550    14.4180    12.1110     9.4450    24.1100     2.3890   -15.0190 
  247.3750    80.4370    14.3970    12.1820     9.2700    24.1360     2.3990   -14.9730 
  247.5000    81.1170    14.2240    12.1140     9.1010    24.1760     2.4340   -14.8350 
  247.6250    81.6430    13.9450    11.9310     8.7280    24.2460     2.4750   -14.7790 
  247.7500    79.5670    13.6430    11.7010     8.3240    24.2520     2.5100   -14.6580 
  247.8750    76.4300    13.3600    11.4620     8.0660    24.1920     2.5320   -14.5790 
  248.0000    73.5470    13.1040    11.2310     8.0940    24.1430     2.5430   -14.4630 
  248.1250    73.0080    12.8630    11.0080     8.4280    24.1300     2.5480   -14.4070 
  248.2500    75.2790    12.6150    10.7840     8.8890    24.1300     2.5470   -14.3930 
  248.3750    77.1890    12.3600    10.5590     9.4530    24.1290     2.5420   -14.2740 
  248.5000    75.7200    12.1180    10.3450     9.7980    24.1460     2.5360   -14.2430 
  248.6250    73.8450    11.9400    10.1800     9.5480    24.2050     2.5300   -14.1210 
  248.7500    75.2180    11.8530    10.0960     9.0120    24.2880     2.5260   -14.0540 
  248.8750    77.9060    11.8630    10.1110     8.4990    24.3330     2.5240   -14.0240 
  249.0000    79.6560    11.9500    10.2190     8.3380    24.3330     2.5240   -13.9380 
  249.1250    81.2070    12.0680    10.3950     8.4580    24.3300     2.5260   -13.8710 
  249.2500    81.5230    12.1710    10.5830     8.7950    24.3340     2.5310   -13.7580 
  249.3750    80.8320    12.2470    10.7500     9.3680    24.3370     2.5370   -13.7000 
  249.5000    81.1440    12.3090    10.8850    10.2690    24.3300     2.5390   -13.6510 
  249.6250    81.2260    12.3880    10.9980    11.7860    24.3230     2.5350   -13.5890 
  249.7500    79.4380    12.5000    11.1110    14.0610    24.3170     2.5220   -13.5450 
  249.8750    76.6210    12.6410    11.2380    16.8680    24.3080     2.5040   -13.4130 
  250.0000    74.1130    12.7950    11.3820    20.3190    24.2880     2.4900   -13.3770 
  250.1250    73.4410    12.9520    11.5460    21.3520    24.2730     2.4840   -13.2710 
  250.2500    74.7530    13.1100    11.7300    20.3240    24.2300     2.4900   -13.1570 
  250.3750    75.9040    13.2770    11.9360    18.0540    24.1300     2.5050   -13.0560 
  250.5000    74.0160    13.4620    12.1700    16.6150    24.0580     2.5210   -12.8940 
  250.6250    70.5560    13.6900    12.4490    16.1280    24.0910     2.5310   -12.8350 
  250.7500    70.1710    13.9810    12.7780    16.5690    24.2430     2.5350   -12.7420 
  250.8750    72.3630    14.3480    13.1650    17.6100    24.3780     2.5330   -12.7040 
  251.0000    74.3240    14.7790    13.6040    18.8610    24.4280     2.5230   -12.5950 
  251.1250    74.8130    15.2110    14.0500    20.2880    24.4160     2.5000   -12.5300 
  251.2500    74.8250    15.5400    14.4180    22.3830    24.3900     2.4600   -12.4860 
  251.3750    74.6840    15.6770    14.6230    23.7740    24.3650     2.4090   -12.4870 
  251.5000    74.6140    15.5790    14.6100    24.4540    24.3280     2.3660   -12.4430 
  251.6250    74.6140    15.2420    14.3470    25.2510    24.3520     2.3520   -12.3990 
  251.7500    74.6140    14.7980    13.9510    26.0420    24.4450     2.3700   -12.3450 
  251.8750    74.6140    14.3520    13.5220    24.7780    24.5240     2.4130   -12.3150 
  252.0000    74.6140    13.9800    13.1450    22.7550    24.4740     2.4610   -12.3090 
  252.1250    74.6140    13.7340    12.8860    21.9220    24.4100     2.4950   -12.3300 
  252.2500    74.6140    13.5870    12.7360    22.8160    24.3800     2.5150   -12.3450 
  252.3750    74.6140    13.5280    12.6900    22.2340    24.3740     2.5250   -12.3150 
  252.5000    74.6140    13.5630    12.7480    17.2410    24.3720     2.5270   -12.3390 
  252.6250    74.6140    13.7430    12.9500    13.2030    24.3590     2.5250   -12.3710 
  252.7500    74.6140    14.0760    13.2960    13.6070    24.3080     2.5220   -12.4060 
  252.8750    74.6140    14.5600    13.7870    17.2430    24.2060     2.5200   -12.3960 
  253.0000    74.6140    15.1480    14.3930    21.8350    24.1290     2.5240   -12.3880 
  253.1250    74.6140    15.7560    15.0470    27.0880    24.0970     2.5320   -12.3380 
  253.2500    74.6140    16.2850    15.6510    31.2290    24.1140     2.5390   -12.3180 
  253.3750    74.6140    16.6840    16.1390    30.4250    24.1250     2.5430   -12.2840 
  253.5000    74.6140    16.9370    16.4760    27.5450    24.1270     2.5440   -12.2350 
  253.6250    74.6140    17.0580    16.6530    23.2400    24.1170     2.5460   -12.2090 
  253.7500    74.6140    17.1200    16.7420    20.9770    24.0890     2.5490   -12.1680 
  253.8750    74.6140    17.1640    16.7940    20.3740    24.0580     2.5530   -12.1860 
  254.0000    74.6140    17.2170    16.8490    20.5030    24.0420     2.5570   -12.2170 
  254.1250    74.6140    17.2850    16.9310    20.6860    24.0400     2.5600   -12.2190 
  254.2500    74.6140    17.3610    17.0380    20.9220    24.0390     2.5660   -12.2690 
  254.3750    74.6140    17.4470    17.1700    21.4150    24.0380     2.5720   -12.2830 
  254.5000    74.6140    17.5490    17.3300    22.1620    24.0290     2.5760   -12.3210 
  254.6250    74.6140    17.6890    17.5310    23.4390    24.0090     2.5730   -12.2930 
  254.7500    74.6140    17.8760    17.7720    24.5590    23.9790     2.5610   -12.2990 
  254.8750    74.6140    18.1070    18.0450    24.5730    23.9650     2.5430   -12.2600 
  255.0000    74.6140    18.3620    18.3320    23.9970    23.9660     2.5270   -12.2410 
  255.1250    74.6140    18.5980    18.6060    24.4280    24.0020     2.5190   -12.2580 
