~V
VERS. 2.00: Ver 2.00
~W
STRT.M 120.0000:
STOP.M 268.0000:
STEP.M 0.1250:
NULL. -999.2500:
UWI. DF3028:
~C
DEPT.M :
DEN.GM/CC :
GR.API :
CALI.CM :
RXO.OHMM :
RI. :
RML.OHMM :
SP.MV :
~A
# ...
  131.2500     2.4100    70.6300    27.1700    10.9420     7.5420     9.3950   -23.8780 
  131.3750     2.4170    73.3300    27.1090     9.3390     7.0650     8.5570   -23.8870 
  131.5000     2.3890    76.4700    26.8970     7.2940     6.5570     7.7290   -24.1130 
  131.6250     2.3520    81.0100    26.5940     6.4220     6.2340     7.2890   -24.5470 
  131.7500     2.3260    83.2400    26.3120     6.4820     6.1790     7.3170   -25.1080 
  131.8750     2.3110    79.9290    26.1190     6.9920     6.4080     7.7790   -25.7220 
  132.0000     2.2930    74.2760    26.0230     7.6830     6.8700     8.5270   -26.2950 
  132.1250     2.2680    72.5810    26.0020     8.2250     7.4370     9.3080   -26.7330 
  132.2500     2.2460    74.1120    26.0040     8.3900     7.9240     9.8950   -26.9970 
  132.3750     2.2370    75.2000    26.0090     8.2810     8.2370    10.2170   -27.0330 
  132.5000     2.2420    76.3350    25.9990     8.0920     8.3430    10.2870   -26.8450 
  132.6250     2.2490    79.0300    25.9810     7.8780     8.2210    10.0960   -26.4110 
  132.7500     2.2490    81.8000    25.9720     7.6130     7.9130     9.6650   -25.7840 
  132.8750     2.2440    83.2770    25.9620     7.3050     7.4250     8.9790   -25.0230 
  133.0000     2.2370    84.2410    25.9680     6.9030     6.8010     8.1040   -24.2190 
  133.1250     2.2360    84.5660    26.0810     6.2380     6.1450     7.2220   -23.4710 
  133.2500     2.2440    83.6280    26.3020     5.4890     5.6070     6.5610   -22.8300 
  133.3750     2.2580    81.3400    26.4890     5.0770     5.3160     6.3210   -22.3290 
  133.5000     2.2670    80.1340    26.4650     5.2990     5.3760     6.6430   -21.9260 
  133.6250     2.2660    81.0150    26.2320     6.1510     5.8990     7.6620   -21.6120 
  133.7500     2.2760    80.3110    26.0700     7.5440     6.7820     9.1750   -21.3860 
  133.8750     2.3180    74.7430    26.1230     9.6380     7.9130    10.9490   -21.2220 
  134.0000     2.3930    67.8400    26.3190    11.6470     9.1140    12.6390   -21.0680 
  134.1250     2.4570    66.4550    26.3890    11.7770    10.1470    13.8330   -20.8670 
  134.2500     2.4810    68.1990    26.2880    10.8720    10.9040    14.5020   -20.6200 
  134.3750     2.4790    69.9180    26.1950    11.0510    11.3220    14.6700   -20.3660 
  134.5000     2.4830    71.8200    26.2590    12.9090    11.3150    14.2860   -20.1970 
  134.6250     2.4990    72.9940    26.4150    13.9250    10.7720    13.2380   -20.1660 
  134.7500     2.5040    73.6980    26.4610    12.3210     9.9080    11.8450   -20.2330 
  134.8750     2.4820    75.7650    26.3490     9.3550     8.9590    10.4700   -20.3680 
  135.0000     2.4410    79.7600    26.1600     7.3570     8.1440     9.4390   -20.5170 
  135.1250     2.3940    81.6470    26.0160     7.6290     7.6140     8.9440   -20.6280 
  135.2500     2.3500    81.8080    25.9680     9.0860     7.2640     8.7110   -20.6520 
  135.3750     2.3200    84.5230    25.9930    10.1370     6.9260     8.3810   -20.5410 
  135.5000     2.3090    91.4410    26.0770     9.5980     6.4440     7.6680   -20.2950 
  135.6250     2.3190    99.7310    26.2190     7.8030     5.7940     6.6040   -19.9490 
  135.7500     2.3380   103.4070    26.4010     6.2760     5.1930     5.6720   -19.5570 
  135.8750     2.3600   100.6790    26.6390     5.5030     4.8500     5.2450   -19.1640 
  136.0000     2.3710    96.0960    26.9250     5.4800     4.9290     5.5510   -18.8350 
  136.1250     2.3470    93.1520    27.2310     6.4470     5.6540     6.8760   -18.6340 
  136.2500     2.2980    88.9420    27.5520     8.3950     7.0100     9.1090   -18.5740 
  136.3750     2.2480    81.8270    27.8840    11.0100     8.9040    12.0000   -18.6360 
  136.5000     2.2100    75.7100    28.1660    13.5390    10.8920    14.7310   -18.7620 
  136.6250     2.1930    76.9970    28.2840    14.8920    11.8680    15.5170   -18.8800 
  136.7500     2.2000    83.7000    28.2660    14.4860    11.3590    14.0060   -18.9550 
  136.8750     2.2350    90.0330    28.1250    12.2460     9.7720    11.1980   -18.9720 
  137.0000     2.2840    93.0010    27.8770     9.1740     7.9240     8.4250   -18.9460 
  137.1250     2.3200    97.0390    27.5820     6.8550     6.4660     6.5340   -18.8740 
  137.2500     2.3370   103.1050    27.3640     5.6020     5.4940     5.4360   -18.7690 
  137.3750     2.3430   104.7700    27.2680     5.0040     4.9540     4.9530   -18.6730 
  137.5000     2.3450    99.8040    27.2520     4.7720     4.7480     4.8870   -18.6090 
  137.6250     2.3360    97.0700    27.2310     4.8260     4.7910     5.0620   -18.5740 
  137.7500     2.3260    99.9610    27.1750     4.9550     4.9300     5.2800   -18.5620 
  137.8750     2.3310   102.2610    27.1100     5.0020     5.0850     5.4530   -18.5620 
  138.0000     2.3560   100.4750    27.0720     4.9570     5.2000     5.5420   -18.5530 
  138.1250     2.3740   100.1400    27.0650     4.9020     5.2250     5.5090   -18.5400 
  138.2500     2.3710   103.8500    27.0670     4.8860     5.1630     5.3740   -18.5100 
  138.3750     2.3510   105.8300    27.0670     4.8780     5.0330     5.1800   -18.4390 
  138.5000     2.3320   102.2640    27.0670     4.7890     4.8810     5.0020   -18.3100 
  138.6250     2.3290    96.9020    27.0620     4.6550     4.7760     4.9430   -18.1670 
  138.7500     2.3410    94.0980    27.0620     4.7200     4.7400     4.9940   -18.0300 
  138.8750     2.3620    91.7080    27.1120     5.2850     4.7540     5.1040   -17.9030 
  139.0000     2.3850    89.7890    27.2660     6.4480     4.7990     5.2280   -17.7890 
  139.1250     2.4040    89.3880    27.5330     7.5150     4.9100     5.4210   -17.6800 
  139.2500     2.4210    88.3290    27.8080     7.5450     5.1640     5.8400   -17.5990 
  139.3750     2.4400    82.6470    27.9870     6.9110     5.6900     6.7220   -17.5720 
  139.5000     2.4670    71.2090    27.9590     7.1600     6.6610     8.3360   -17.6090 
  139.6250     2.5050    60.7630    27.6610     9.8870     8.4030    11.1040   -17.6870 
  139.7500     2.5520    56.1890    27.3090    13.7200    10.9150    14.9040   -17.7820 
  139.8750     2.5970    55.8600    27.1030    16.8920    13.9650    19.2640   -17.8930 
  140.0000     2.6260    55.0010    27.1300    18.9950    16.8150    22.9690   -18.0190 
  140.1250     2.6290    54.0710    27.3480    20.5090    18.1850    24.1280   -18.1440 
  140.2500     2.6180    55.6460    27.6010    20.8950    18.0590    23.1620   -18.2460 
  140.3750     2.5970    57.9440    27.7890    19.5180    17.1560    21.4450   -18.3090 
  140.5000     2.5670    58.4770    27.8700    17.2510    16.2750    20.1580   -18.3230 
  140.6250     2.5370    56.8670    27.8630    16.0910    15.9930    20.0200   -18.2910 
  140.7500     2.5220    54.0260    27.8340    16.9820    16.3820    20.9560   -18.2370 
  140.8750     2.5270    51.5840    27.7850    19.7130    17.4080    22.7950   -18.1770 
  141.0000     2.5400    50.5950    27.7170    22.8540    18.8700    25.1280   -18.1010 
  141.1250     2.5550    50.8920    27.6480    24.3350    20.3310    27.1770   -18.0360 
  141.2500     2.5700    50.7720    27.6030    24.1830    21.2670    28.2120   -18.0020 
  141.3750     2.5770    51.0920    27.5840    23.2920    21.3650    27.8970   -17.9870 
  141.5000     2.5670    52.9390    27.5720    22.1070    20.6230    26.4070   -17.9900 
  141.6250     2.5480    55.3740    27.5750    20.4580    19.3080    24.2970   -18.0160 
  141.7500     2.5440    56.3680    27.5860    18.4040    17.9500    22.3160   -18.0660 
  141.8750     2.5540    56.5750    27.5930    16.4560    16.8550    20.8700   -18.1290 
  142.0000     2.5590    59.3830    27.5940    15.4110    16.2140    20.1900   -18.2240 
  142.1250     2.5450    63.6570    27.5860    15.9140    16.1900    20.4480   -18.3310 
  142.2500     2.5250    65.6670    27.5800    17.1000    16.6550    21.3440   -18.4360 
  142.3750     2.5110    65.2600    27.5820    18.2560    17.4920    22.6110   -18.5440 
