~V
VERS. 2.00: Ver 2.00
~W
STRT.M 105.0000:
STOP.M 279.0000:
STEP.M 0.1250:
NULL. -999.2500:
UWI. DF3027:
~C
DEPT.M :
DEN.GM/CC :
AC.US/MT :
GR.API :
CALI.CM :
RXO.OHMM :
RI. :
RML.OHMM :
SP.MV :
~A
# ...
  215.0000     2.2720   350.5180    65.9630    24.0420    97.3210   107.0090   116.9670   -22.3590 
  215.1250     2.2710   352.8020    64.7230    23.9330    83.9440    99.8590   108.3400   -21.7600 
  215.2500     2.2660   355.4850    64.8250    23.8810    73.3660    93.2850   100.3490   -21.1710 
  215.3750     2.2670   358.1610    65.3490    23.8560    67.2590    87.2900    93.0130   -20.6080 
  215.5000     2.2840   359.7350    66.2440    23.8380    64.0070    81.9890    86.5260   -20.0640 
  215.6250     2.3070   357.6200    66.9440    23.8470    61.4920    78.1910    81.9800   -19.5480 
  215.7500     2.3190   349.9140    67.3800    23.8740    58.2310    76.8440    80.5280   -19.0630 
  215.8750     2.3240   334.7910    68.5070    23.8850    55.2990    79.3930    83.6430   -18.5970 
  216.0000     2.3460   311.6530    70.9310    23.8850    57.2240    87.2640    92.4020   -18.1430 
  216.1250     2.4160   282.1920    71.7990    23.9130    77.4160   100.6720   106.1610   -17.6980 
  216.2500     2.5130   254.0810    69.4880    23.9670   126.2250   111.8800   115.8110   -17.2110 
  216.3750     2.5980   236.1560    66.8220    24.0660   196.7960   107.9820   107.6330   -16.6780 
  216.5000     2.6330   235.2540    65.5080    24.2660   236.2180    82.8870    78.5520   -16.1190 
  216.6250     2.6060   250.4650    65.8640    24.5520   178.8530    51.2280    46.8620   -15.5720 
  216.7500     2.5500   271.2890    66.8760    24.7690    88.2550    28.8270    25.7500   -15.0790 
  216.8750     2.4900   294.1320    70.2230    24.8250    30.9770    16.3170    14.2450   -14.6820 
  217.0000     2.4440   317.9470    77.5380    24.7450    11.2660    10.2880     8.7810   -14.4240 
  217.1250     2.4310   337.3620    84.7950    24.6350     7.6670     8.0310     6.9300   -14.3380 
  217.2500     2.4460   348.1240    87.9640    24.5870     8.0350     7.2960     6.5930   -14.3930 
  217.3750     2.4660   352.5410    90.1010    24.5570     8.9810     7.4590     7.0720   -14.5800 
  217.5000     2.4670   355.3490    93.1750    24.4530     9.3510     8.1490     7.9040   -14.8740 
  217.6250     2.4510   359.6420    95.6280    24.2900     9.3660     8.9610     8.6380   -15.2400 
  217.7500     2.4440   364.5140    96.9280    24.1830     9.2820     9.5220     9.0180   -15.6300 
  217.8750     2.4450   368.3330    98.5850    24.1510     9.0950     9.7280     9.0460   -16.0200 
  218.0000     2.4390   370.2080   100.0790    24.1280     8.9360     9.6500     8.8510   -16.3780 
  218.1250     2.4220   370.3680   100.0120    24.0660     8.8870     9.3880     8.5560   -16.6900 
  218.2500     2.4130   370.2240    98.6660    23.9790     8.8310     9.0610     8.2590   -16.9790 
  218.3750     2.4190   370.0900    98.1550    23.8780     8.7630     8.7290     8.0150   -17.2600 
  218.5000     2.4280   369.1940    98.0400    23.7920     8.7700     8.4510     7.8890   -17.5420 
  218.6250     2.4240   365.7430    96.7160    23.7800     8.8820     8.3330     8.0150   -17.8330 
  218.7500     2.4120   359.5240    94.8080    23.8100     9.1400     8.4470     8.4750   -18.1080 
  218.8750     2.4030   351.4840    94.6580    23.8140     9.7520     8.8780     9.3630   -18.3660 
  219.0000     2.4060   343.5430    95.1290    23.7570    10.9540     9.7030    10.7470   -18.6180 
  219.1250     2.4210   338.1060    93.1650    23.6510    12.9000    11.0170    12.6800   -18.8620 
  219.2500     2.4340   335.5830    90.8030    23.5340    15.2940    12.6580    14.8970   -19.1110 
  219.3750     2.4360   335.4780    90.5040    23.4230    17.7380    14.4020    17.0880   -19.3510 
  219.5000     2.4300   336.8980    89.4760    23.3590    19.7010    15.9420    18.8910   -19.5660 
  219.6250     2.4240   339.1920    87.3040    23.3650    20.6330    16.9230    19.9520   -19.7490 
  219.7500     2.4180   341.8010    86.3790    23.3920    20.8280    17.4070    20.4450   -19.9090 
  219.8750     2.4120   344.3980    85.6500    23.4150    20.7560    17.5800    20.6510   -20.0490 
  220.0000     2.4030   346.5300    83.7220    23.4360    20.8310    17.6690    20.8670   -20.1630 
  220.1250     2.3940   347.4280    83.8220    23.4500    21.2230    17.8440    21.2860   -20.2490 
  220.2500     2.3900   346.9830    87.8770    23.4470    21.6930    18.1170    21.8500   -20.2970 
  220.3750     2.3930   345.5180    89.4500    23.4430    22.0880    18.4050    22.3990   -20.3000 
  220.5000     2.4010   343.8880    86.2340    23.4560    22.3410    18.5740    22.7180   -20.2760 
  220.6250     2.4120   343.5500    83.6560    23.4860    22.0850    18.4580    22.5710   -20.2260 
  220.7500     2.4210   345.1210    85.2380    23.5170    20.9550    18.0880    22.0450   -20.1760 
  220.8750     2.4180   348.1950    86.1200    23.5340    19.1030    17.5680    21.3210   -20.1120 
  221.0000     2.3980   351.4100    85.8550    23.5520    17.2910    17.0470    20.6410   -20.0200 
  221.1250     2.3720   353.0650    85.8290    23.6040    16.4220    16.6970    20.2780   -19.8970 
  221.2500     2.3600   353.2450    82.8490    23.6650    16.4130    16.5690    20.2710   -19.7510 
  221.3750     2.3630   352.8120    77.3170    23.6960    16.8730    16.6550    20.5640   -19.6000 
  221.5000     2.3720   352.3710    73.0900    23.6790    17.3350    16.9020    21.0320   -19.4310 
  221.6250     2.3780   351.2490    74.0320    23.6530    17.4090    17.2420    21.5450   -19.2320 
  221.7500     2.3890   348.2950    79.5390    23.6530    17.2120    17.6080    22.0290   -18.9920 
  221.8750     2.4090   343.0590    84.5600    23.6620    17.0500    17.9890    22.5020   -18.7130 
  222.0000     2.4360   336.1730    85.3580    23.6440    17.2140    18.3990    22.9960   -18.4020 
  222.1250     2.4570   328.8560    82.4410    23.5830    17.8890    18.8470    23.5160   -18.0510 
  222.2500     2.4700   321.9310    80.9270    23.5340    18.7980    19.2990    24.0050   -17.6780 
  222.3750     2.4770   315.4670    80.9040    23.4670    19.5520    19.7020    24.4060   -17.2740 
  222.5000     2.4810   309.4860    79.3980    23.3350    19.8660    20.0090    24.6900   -16.8430 
  222.6250     2.4780   304.5690    77.1660    23.1840    19.8120    20.1630    24.8280   -16.3930 
  222.7500     2.4770   301.1450    76.9590    23.1140    19.6900    20.1320    24.7720   -15.9370 
  222.8750     2.4810   299.3280    78.0860    23.1270    19.4320    19.8210    24.3630   -15.4870 
  223.0000     2.4870   298.6820    79.0170    23.1600    18.8940    19.1200    23.4140   -15.0500 
  223.1250     2.4930   298.4630    80.0150    23.1730    17.9400    17.9130    21.7570   -14.6460 
  223.2500     2.5010   298.1670    81.0670    23.1860    16.5900    16.3970    19.6890   -14.2700 
  223.3750     2.5110   298.1340    81.7220    23.2660    15.0130    14.8060    17.5620   -13.9440 
  223.5000     2.5130   299.3470    82.2260    23.4740    13.6140    13.3900    15.7420   -13.6770 
  223.6250     2.4960   303.4620    82.0290    23.7540    12.7610    12.3940    14.5640   -13.4800 
  223.7500     2.4680   310.4030    81.1480    23.9410    12.3140    11.8130    13.9710   -13.3240 
  223.8750     2.4460   319.1930    80.9960    23.9580    12.2160    11.6060    13.8630   -13.1990 
  224.0000     2.4420   327.9530    82.4950    23.8760    12.4570    11.6700    14.0490   -13.0950 
  224.1250     2.4520   334.0420    83.7940    23.8100    12.8110    11.8300    14.2570   -12.9940 
  224.2500     2.4590   336.7760    83.4830    23.7780    12.9060    11.8860    14.2520   -12.8760 
  224.3750     2.4530   336.8750    83.7790    23.7840    12.6670    11.7430    13.9550   -12.7170 
  224.5000     2.4340   335.9680    85.5230    23.8550    12.1860    11.4060    13.4130   -12.5170 
  224.6250     2.4200   335.6140    87.3160    23.9750    11.5530    10.9400    12.7550   -12.2900 
  224.7500     2.4230   336.1210    87.0040    24.0540    10.9370    10.4570    12.1260   -12.0830 
  224.8750     2.4420   337.3510    84.9390    24.0920    10.5480     9.9970    11.5680   -11.9100 
