~V
VERS. 2.00: Ver 2.00
~W
STRT.M 60.0000:
STOP.M 273.0000:
STEP.M 0.1250:
NULL. -999.2500:
UWI. DF3001:
~C
DEPT.M :
DEN.GM/CC :
SP.MV :
AC.US/MT :
GR.API :
RML.OHMM :
RI. :
RXO.OHMM :
CALI.CM :
~A
# ...
  140.0000     2.1970   -11.3750   408.4140   107.7380     5.4780     4.4380     4.7220    25.3920 
  140.1250     2.1720   -11.3400   403.4600   105.1170     5.0890     4.0960     4.3430    25.5760 
  140.2500     2.1700   -11.3780   392.5260    99.3700     4.7670     3.8050     4.1150    25.6800 
  140.3750     2.1890   -11.5310   380.5450    98.9080     4.5670     3.6100     3.9940    25.5800 
  140.5000     2.2230   -11.7290   375.0470   106.4030     4.5330     3.5540     4.0180    25.4610 
  140.6250     2.2620   -11.9820   380.7740   113.5040     4.8140     3.7130     4.2390    25.4020 
  140.7500     2.2960   -12.3110   390.8700   113.8210     5.3990     4.0890     4.6820    25.2990 
  140.8750     2.3190   -12.7190   396.5840   107.6070     6.2950     4.6800     5.4210    25.0350 
  141.0000     2.3240   -13.2110   392.7920    97.2300     7.3910     5.4280     6.3560    24.6800 
  141.1250     2.3030   -13.7560   381.4910    88.2420     8.2660     6.1860     7.4060    24.1900 
  141.2500     2.2720   -14.2760   374.0760    84.9060     8.7920     6.7550     8.2210    23.7440 
  141.3750     2.2430   -14.7140   376.1880    87.8200     8.8050     6.9910     8.4620    23.5390 
  141.5000     2.2260   -15.0600   385.6370    93.7410     8.3370     6.8600     8.1710    23.5040 
  141.6250     2.2260   -15.2110   396.4120    95.1740     7.6420     6.4630     7.6180    23.5210 
  141.7500     2.2360   -15.1270   402.9530    92.7080     7.1310     6.0970     7.1920    23.5560 
  141.8750     2.2590   -14.9100   404.3850    89.9000     7.0740     5.9980     6.9850    23.6220 
  142.0000     2.2980   -14.6500   401.6520    90.1740     7.6140     6.3330     7.0760    23.6970 
  142.1250     2.3540   -14.3020   391.7530    91.9200     8.7830     7.1930     7.9200    23.7960 
  142.2500     2.4090   -13.8690   371.5030    90.2890    10.1620     8.3050     9.1960    23.8780 
  142.3750     2.4430   -13.3850   340.3020    85.1210    11.2670     9.3210    10.4480    23.9290 
  142.5000     2.4390   -12.9710   305.1160    79.4130    11.5960     9.8480    11.2850    23.9470 
  142.6250     2.3990   -12.7390   284.4140    79.2190    10.7600     9.5020    10.2760    23.9500 
  142.7500     2.3520   -12.6380   290.0980    82.6430     9.3190     8.5460     8.2270    23.9530 
  142.8750     2.3160   -12.5920   321.0030    87.1860     7.8960     7.3790     6.3490    23.9550 
  143.0000     2.2960   -12.5130   362.4900    93.8080     6.8960     6.3730     5.5370    23.9700 
  143.1250     2.2890   -12.4170   393.3560   103.1870     6.4730     5.7720     5.4470    24.0450 
  143.2500     2.2870   -12.3780   407.2760   108.7810     6.4160     5.5110     5.5980    24.2250 
  143.3750     2.2910   -12.4040   408.7030   105.8670     6.5670     5.5070     5.8210    24.4650 
  143.5000     2.3040   -12.3900   404.2510    98.2290     6.7830     5.6570     6.1930    24.6190 
  143.6250     2.3320   -12.2730   395.7910    92.3540     6.9750     5.8820     6.8840    24.6690 
  143.7500     2.3680   -12.1300   382.8120    89.1830     7.1940     6.1620     7.6550    24.6850 
  143.8750     2.4030   -11.9980   366.6140    86.8560     7.5670     6.5570     8.3250    24.7160 
  144.0000     2.4340   -11.8950   351.2870    83.3990     8.2010     7.1400     9.1090    24.7390 
  144.1250     2.4530   -11.8450   340.7930    77.2270     9.0950     7.9290    10.5590    24.7460 
  144.2500     2.4590   -11.7640   334.1040    69.7850     9.9820     8.7450    12.7320    24.7440 
  144.3750     2.4510   -11.6050   329.4620    62.7780    10.5700     9.3740    15.6820    24.7440 
  144.5000     2.4300   -11.4730   324.2820    56.9010    10.6200     9.6360    17.4630    24.7460 
  144.6250     2.4100   -11.4180   323.2510    57.7410    10.1640     9.4910    15.5150    24.7470 
  144.7500     2.4040   -11.3170   330.1170    66.3940     9.7580     9.3020    12.0080    24.7460 
  144.8750     2.4200   -11.1480   321.6450    76.3910     9.9570     9.4470    10.6640    24.7420 
  145.0000     2.4520   -10.9840   293.5880    76.4130    11.0530    10.2240    12.5480    24.7320 
  145.1250     2.4880   -10.8700   262.0730    63.4950    13.3790    11.8690    16.3600    24.7170 
  145.2500     2.5150   -10.7950   241.6590    52.0440    16.3890    14.1060    19.9940    24.7100 
  145.3750     2.5310   -10.7700   233.8000    47.9690    19.3850    16.5860    22.1910    24.7090 
  145.5000     2.5390   -10.7400   233.0100    47.7570    21.7830    18.8680    22.7750    24.7090 
  145.6250     2.5430   -10.7320   233.1370    47.0340    23.1780    20.4920    22.7230    24.7090 
  145.7500     2.5440   -10.8310   232.3900    46.2250    23.8300    21.5020    23.2450    24.7090 
  145.8750     2.5390   -10.9620   232.2540    47.6090    24.0790    22.0640    24.6860    24.7090 
  146.0000     2.5290   -11.0440   233.7630    51.1050    24.1590    22.3520    25.4210    24.7090 
  146.1250     2.5170   -11.0670   235.8730    53.9960    24.1650    22.4600    24.2740    24.7100 
  146.2500     2.5090   -11.0870   236.8500    53.9700    24.1720    22.5020    23.4310    24.7160 
  146.3750     2.5070   -11.1430   236.3620    52.6270    24.2460    22.5530    23.4040    24.7290 
  146.5000     2.5100   -11.1960   234.9940    52.2040    24.4410    22.6810    23.7450    24.7290 
  146.6250     2.5140   -11.1650   233.6750    51.6000    24.7680    22.9280    24.3850    24.7050 
  146.7500     2.5140   -11.0980   233.3060    49.8970    25.1210    23.2370    24.9860    24.6810 
  146.8750     2.5090   -11.0720   234.2010    49.1390    25.4060    23.5390    25.1970    24.6670 
  147.0000     2.5020   -11.0860   235.8340    50.4440    25.5710    23.7820    25.2750    24.6530 
  147.1250     2.4980   -11.0840   237.0520    54.1900    25.5960    23.9230    24.8960    24.5810 
  147.2500     2.5010   -11.0520   237.3280    56.8500    25.5090    23.9600    24.4630    24.4400 
  147.3750     2.5090   -10.9970   237.1270    55.0730    25.2890    23.8630    24.4460    24.3190 
  147.5000     2.5200   -10.9690   237.3810    50.4280    24.8950    23.6000    24.1340    24.2730 
  147.6250     2.5270   -10.9900   239.0770    52.7810    24.2670    23.1160    23.4090    24.2770 
  147.7500     2.5250   -11.0180   241.7280    60.6390    23.4950    22.4790    22.5510    24.2900 
  147.8750     2.5130   -11.0270   244.4540    64.4560    22.7010    21.7780    22.2200    24.3410 
  148.0000     2.4920   -11.0050   246.4770    62.9070    22.0250    21.1320    21.9030    24.4710 
  148.1250     2.4690   -10.9510   247.2150    61.3370    21.6140    20.6780    21.2850    24.5930 
  148.2500     2.4530   -10.9310   246.8570    60.1110    21.4420    20.4300    20.3790    24.6260 
  148.3750     2.4480   -10.9430   245.5050    58.2490    21.4380    20.3510    19.9440    24.5170 
  148.5000     2.4530   -10.9620   243.7640    58.5710    21.4910    20.3620    20.1460    24.3050 
  148.6250     2.4620   -10.9630   243.2050    61.7950    21.4820    20.3630    20.6040    24.2710 
  148.7500     2.4700   -10.9770   244.7280    61.6190    21.3790    20.3020    20.9000    24.4080 
  148.8750     2.4740   -11.0450   247.8190    58.7260    21.2220    20.1920    20.5740    24.5310 
  149.0000     2.4780   -11.1620   250.7650    57.0420    21.1110    20.1000    19.8920    24.5880 
  149.1250     2.4840   -11.3040   251.7580    57.4550    21.2290    20.1670    19.8730    24.6170 
  149.2500     2.4920   -11.4060   251.4160    57.1140    21.6560    20.4800    20.4750    24.6400 
  149.3750     2.4990   -11.4630   250.4990    55.0460    22.3910    21.0660    21.2330    24.6500 
  149.5000     2.5030   -11.4970   248.8910    53.5550    23.3060    21.8490    21.9430    24.6520 
  149.6250     2.5010   -11.5740   245.8780    54.9140    24.0780    22.5820    22.5250    24.6520 
  149.7500     2.4970   -11.6500   242.8330    57.6660    24.3800    22.9620    23.2510    24.6520 
  149.8750     2.4930   -11.6570   241.9390    57.9150    24.0210    22.7850    23.6700    24.6520 
