~V
VERS. 2.00: Ver 2.00
~W
STRT.M 65.0000:
STOP.M 267.0000:
STEP.M 0.1250:
NULL. -999.2500:
UWI. DF3007:
~C
DEPT.M :
GR.API :
RML.OHMM :
RI. :
RXO.OHMM :
CALI.CM :
DEN.GM/CC :
SP.MV :
~A
# ...
  256.2500    66.5970    28.3170    27.0590    28.5820    24.2000     2.5130   -11.3830 
  256.3750    66.5970    28.1700    27.0090    29.5360    24.1920     2.5250   -11.3820 
  256.5000    66.5970    28.1490    27.0470    30.7020    24.2010     2.5370   -11.3650 
  256.6250    66.5970    28.3280    27.2570    31.6570    24.2520     2.5430   -11.2670 
  256.7500    66.5970    28.6220    27.5820    32.3260    24.2790     2.5410   -11.2820 
  256.8750    66.5970    28.9310    27.9340    30.8290    24.2870     2.5280   -11.2660 
  257.0000    66.5970    29.1530    28.2090    29.0110    24.2870     2.5120   -11.2370 
  257.1250    66.5970    29.1660    28.2840    28.4880    24.2870     2.5000   -11.2820 
  257.2500    66.5970    28.9640    28.1380    29.1540    24.2870     2.4970   -11.2850 
  257.3750    66.5970    28.5600    27.7790    30.1370    24.2860     2.5050   -11.3070 
  257.5000    66.5970    28.0020    27.2540    30.7850    24.2850     2.5180   -11.3830 
  257.6250    66.5970    27.3720    26.6420    30.9570    24.2820     2.5310   -11.4150 
  257.7500    66.5970    26.8000    26.0720    30.4340    24.2810     2.5430   -11.4750 
  257.8750    66.5970    26.3980    25.6510    29.1680    24.2800     2.5500   -11.5750 
  258.0000    66.5970    26.2550    25.4660    27.9770    24.2810     2.5500   -11.6880 
  258.1250    66.5970    26.4740    25.6220    27.6600    24.2800     2.5410   -11.7430 
  258.2500    66.5970    26.9830    26.0660    28.3760    24.2750     2.5240   -11.8290 
  258.3750    66.5970    27.6990    26.7400    30.5190    24.2570     2.5060   -11.8820 
  258.5000    66.5970    28.5000    27.5450    33.4760    24.2210     2.4950   -11.8960 
  258.6250    66.5970    29.2190    28.3340    35.6080    24.2020     2.4960   -12.0250 
  258.7500    66.5970    29.7470    28.9780    36.6320    24.1950     2.5050   -12.0390 
  258.8750    66.5970    30.0460    29.4090    36.5900    24.1950     2.5140   -12.0710 
  259.0000    66.5970    30.1450    29.6270    35.4870    24.1970     2.5180   -12.1090 
  259.1250    66.5970    30.1100    29.6690    34.2920    24.1980     2.5150   -12.1410 
  259.2500    66.5970    30.0450    29.6470    32.8930    24.1930     2.5100   -12.2100 
  259.3750    66.5970    29.9910    29.6120    31.6200    24.1740     2.5110   -12.3290 
  259.5000    66.5970    29.9580    29.5900    30.9710    24.1360     2.5200   -12.4510 
  259.6250    66.5970    29.9440    29.5830    30.5270    24.1170     2.5330   -12.5230 
  259.7500    66.5970    29.9410    29.5800    29.8500    24.1110     2.5460   -12.7170 
  259.8750    66.5970    29.9490    29.5750    29.3960    24.1180     2.5500   -12.8550 
  260.0000    66.5970    29.9670    29.5690    29.2230    24.1420     2.5450   -12.8910 
  260.1250    66.5970    29.9900    29.5610    28.7180    24.1970     2.5350   -13.0800 
  260.2500    66.5970    30.0080    29.5550    27.2760    24.2370     2.5250   -13.2630 
  260.3750    66.5970    30.0200    29.5510    26.5570    24.2430     2.5190   -13.3090 
  260.5000    66.5970    30.0250    29.5490    28.5770    24.2130     2.5120   -13.3670 
  260.6250    66.5970    30.0260    29.5490    30.7530    24.1930     2.5000   -13.3670 
  260.7500    66.5970    30.0260    29.5490    31.1680    24.1740     2.4830   -13.3730 
  260.8750    66.5970    30.0260    29.5490    30.2180    24.1340     2.4640   -13.4380 
  261.0000    66.5970    30.0260    29.5490    29.4490    24.0720     2.4500   -13.5190 
  261.1250    66.5970    30.0260    29.5490    28.2950    23.8080     2.4420   -13.5280 
  261.2500    66.5970    30.0260    29.5490    26.1060    23.1880     2.4400   -13.5250 
  261.3750    66.5970    30.0260    29.5490    22.3680    22.2230     2.4430   -13.5730 
  261.5000    66.5970    30.0260    29.5490    18.7400    21.1640     2.4460   -13.6230 
  261.6250    66.5970    30.0260    29.5490    16.1480    20.2340     2.4500   -13.7730 
  261.7500    66.5970    30.0260    29.5490    14.2920    19.2710     2.4560   -13.7600 
  261.8750    66.5970    30.0260    29.5490    12.8310    18.3440     2.4640   -13.7620 
  262.0000    66.5970    30.0260    29.5490    11.8280    17.6110     2.4740   -13.8240 
  262.1250    66.5970    30.0260    29.5490    11.5330    17.1700     2.4850   -13.7920 
  262.2500    66.5970    30.0260    29.5490    11.5050    16.9260     2.4960   -13.8460 
  262.3750    66.5970    30.0260    29.5490    11.6080    16.7490     2.5070   -13.8760 
  262.5000    66.5970    30.0260    29.5490    11.8600    16.6280     2.5160   -13.8980 
  262.6250    66.5970    30.0260    29.5490    12.2800    16.7560     2.5250   -13.9070 
  262.7500    66.5970    30.0260    29.5490    12.6490    17.0270     2.5310   -13.9500 
  262.8750    66.5970    30.0260    29.5490    12.8330    17.3080     2.5310   -14.0200 
  263.0000    66.5970    30.0260    29.5490    13.1490    17.4830     2.5250   -14.0560 
  263.1250    66.5970    30.0260    29.5490    13.4420    17.5360     2.5160   -14.0750 
  263.2500    66.5970    30.0260    29.5490    13.5550    17.5470     2.5070   -14.0590 
  263.3750    66.5970    30.0260    29.5490    13.2970    17.4920     2.5010   -14.0720 
  263.5000    66.5970    30.0260    29.5490    12.7190    17.3390     2.4960   -14.0500 
  263.6250    66.5970    30.0260    29.5490    12.1210    17.0780     2.4920   -14.0090 
  263.7500    66.5970    30.0260    29.5490    11.6670    16.6940     2.4880   -13.9220 
  263.8750    66.5970    30.0260    29.5490    11.2570    16.1310     2.4840   -13.7530 
  264.0000    66.5970    30.0260    29.5490    10.7180    15.3500     2.4820   -13.6600 
  264.1250    66.5970    30.0260    29.5490    10.0530    14.3610     2.4820   -13.6280 
  264.2500    66.5970    30.0260    29.5490     9.4390    13.5290     2.4840   -13.5410 
  264.3750    66.5970    30.0260    29.5490     9.1750    13.2300     2.4880   -13.4220 
  264.5000    66.5970    30.0260    29.5490     9.1160    13.1740     2.4910   -13.3610 
  264.6250    66.5970    30.0260    29.5490     9.1110    13.1740     2.4950   -13.3740 
  264.7500    66.5970    30.0260    29.5490     9.1100    13.1740     2.4980   -13.4770 
  264.8750    66.5970    30.0260    29.5490     9.1090    13.1740     2.4990   -13.5700 
  265.0000    66.5970    30.0260    29.5490     9.1080    13.1740     2.4990   -13.5620 
  265.1250    66.5970    30.0260    29.5490     9.1080    13.1740     2.4980   -13.6060 
  265.2500    66.5970    30.0260    29.5490     9.1090    13.1740     2.4970   -13.6660 
  265.3750    66.5970    30.0260    29.5490     9.1090    13.1740     2.4960   -13.7530 
  265.5000  -999.2500  -999.2500  -999.2500  -999.2500  -999.2500     2.4940   -13.8550 
  265.6250  -999.2500  -999.2500  -999.2500  -999.2500  -999.2500     2.4920   -13.8790 
  265.7500  -999.2500  -999.2500  -999.2500  -999.2500  -999.2500     2.4900   -13.9100 
  265.8750  -999.2500  -999.2500  -999.2500  -999.2500  -999.2500  -999.2500   -14.0140 
  266.0000  -999.2500  -999.2500  -999.2500  -999.2500  -999.2500  -999.2500   -14.0810 
  266.1250  -999.2500  -999.2500  -999.2500  -999.2500  -999.2500  -999.2500   -14.0900 
  266.2500  -999.2500  -999.2500  -999.2500  -999.2500  -999.2500  -999.2500   -14.1510 
  266.3750  -999.2500  -999.2500  -999.2500  -999.2500  -999.2500  -999.2500   -14.1390 
  266.5000  -999.2500  -999.2500  -999.2500  -999.2500  -999.2500  -999.2500   -14.1360 
  266.6250  -999.2500  -999.2500  -999.2500  -999.2500  -999.2500  -999.2500   -14.1660 
  266.7500  -999.2500  -999.2500  -999.2500  -999.2500  -999.2500  -999.2500   -14.1660 
  266.8750  -999.2500  -999.2500  -999.2500  -999.2500  -999.2500  -999.2500   -14.1660 
  267.0000  -999.2500  -999.2500  -999.2500  -999.2500  -999.2500  -999.2500   -14.1660 
