~V
VERS. 2.00: Ver 2.00
~W
STRT.M 60.0000:
STOP.M 251.0000:
STEP.M 0.1250:
NULL. -999.2500:
UWI. DF3020:
~C
DEPT.M :
GR.API :
RML.OHMM :
RI. :
RXO.OHMM :
CALI.CM :
DEN.GM/CC :
SP.MV :
~A
# ...
  172.5000    78.2740   184.2410   169.2970   153.4170    26.1230     2.2390   -16.9710 
  172.6250    74.9610   183.5440   168.0740   142.2410    26.1840     2.2340   -16.7420 
  172.7500    73.0820   186.9960   170.4470   136.5500    26.1770     2.2270   -16.4890 
  172.8750    71.1530   194.6770   176.7020   135.8180    26.0610     2.2210   -16.1440 
  173.0000    69.1090   204.9140   185.5460   142.1280    25.9860     2.2160   -15.7750 
  173.1250    68.4050   213.9390   193.8190   158.3730    25.8610     2.2150   -15.2940 
  173.2500    68.9570   218.1160   198.1770   173.7550    25.8030     2.2170   -14.7470 
  173.3750    68.3270   215.7270   196.8730   178.1270    25.7560     2.2220   -14.1760 
  173.5000    67.6230   207.7180   190.3840   174.1490    25.7330     2.2280   -13.5720 
  173.6250    69.7550   197.8710   181.6300   163.0290    25.7050     2.2340   -12.9800 
  173.7500    72.9070   191.1640   175.1360   147.6460    25.6330     2.2360   -12.4240 
  173.8750    74.6300   190.2730   173.5850   134.2700    25.5590     2.2360   -11.9190 
  174.0000    74.7650   195.8680   177.8700   131.7140    25.5230     2.2340   -11.4480 
  174.1250    75.4420   207.2370   187.5520   140.1310    25.4530     2.2310   -10.9780 
  174.2500    75.8590   220.4120   199.0770   156.1260    25.4070     2.2270   -10.5630 
  174.3750    74.1650   232.1360   209.5210   169.6560    25.3920     2.2250   -10.1980 
  174.5000    72.5880   239.7950   216.5030   167.6400    25.3510     2.2250    -9.8790 
  174.6250    71.6270   241.6930   218.3490   160.8590    25.4770     2.2270    -9.6960 
  174.7500    69.6810   240.2240   216.9440   157.1000    25.4790     2.2310    -9.5280 
  174.8750    67.6190   237.9950   214.4580   159.0200    25.4790     2.2360    -9.4340 
  175.0000    67.6490   237.3440   212.9870   160.9970    25.4960     2.2390    -9.3360 
  175.1250    69.0680   240.0040   214.2070   160.4350    25.5260     2.2410    -9.3820 
  175.2500    68.4630   245.2790   217.7360   157.7260    25.5410     2.2400    -9.4300 
  175.3750    66.7460   252.0430   222.7400   161.9720    25.5520     2.2390    -9.5110 
  175.5000    64.9910   258.8040   227.9990   177.3180    25.5720     2.2390    -9.6290 
  175.6250    63.0120   263.8670   232.0450   187.5610    25.5980     2.2380    -9.7230 
  175.7500    62.1830   266.9310   234.4300   189.7100    25.6090     2.2380    -9.8850 
  175.8750    63.0710   268.4560   235.3950   190.2540    25.6120     2.2370   -10.0330 
  176.0000    65.6900   269.3730   235.6560   191.4540    25.6120     2.2360   -10.2510 
  176.1250    68.2490   270.6370   236.0740   191.0340    25.6250     2.2330   -10.4560 
  176.2500    69.1050   272.4110   236.9930   189.0130    25.6560     2.2300   -10.6910 
  176.3750    67.5250   274.2860   238.2120   196.8710    25.6860     2.2270   -10.9120 
  176.5000    63.5100   275.7080   239.3260   208.7040    25.7000     2.2250   -11.1430 
  176.6250    58.4860   276.2130   239.9660   209.0520    25.7000     2.2250   -11.3670 
  176.7500    56.3370   275.8900   240.1460   203.9230    25.7000     2.2280   -11.5330 
  176.8750    59.7190   274.6250   239.7860   200.2820    25.7000     2.2320   -11.6450 
  177.0000    65.4360   271.9710   238.5420   198.6110    25.7000     2.2350   -11.7160 
  177.1250    67.1100   266.6100   235.3350   203.8500    25.7000     2.2370   -11.7470 
  177.2500    64.5000   258.0530   229.5520   208.1350    25.7000     2.2360   -11.7800 
  177.3750    62.6670   246.2560   220.9100   206.2200    25.7000     2.2350   -11.8180 
  177.5000    63.5430   232.2250   210.0210   197.6640    25.6910     2.2330   -11.8870 
  177.6250    64.6900   218.0650   198.5010   178.7770    25.6650     2.2290   -11.9820 
  177.7500    65.0080   205.9520   188.3910   159.5570    25.6290     2.2240   -12.2050 
  177.8750    63.9950   197.0950   180.9120   147.1250    25.6140     2.2200   -12.5550 
  178.0000    63.7080   191.8390   176.5140   146.8560    25.6010     2.2190   -12.9860 
  178.1250    65.7990   190.0460   175.1500   151.5580    25.5660     2.2230   -13.4950 
  178.2500    68.1600   189.8730   175.1930   154.8070    25.5150     2.2290   -14.1150 
  178.3750    69.3280   189.9100   175.3670   157.3170    25.4830     2.2330   -14.8440 
  178.5000    68.0390   188.9570   174.5710   159.4370    25.4670     2.2340   -15.5980 
  178.6250    66.3790   186.1170   171.9330   160.7750    25.4650     2.2330   -16.4240 
  178.7500    65.4600   182.0320   167.9960   155.9240    25.4640     2.2320   -17.2060 
  178.8750    65.9510   177.7820   163.7020   145.6770    25.4550     2.2340   -17.9480 
  179.0000    67.4200   174.7260   160.2840   137.6550    25.4410     2.2380   -18.6440 
  179.1250    69.2120   174.5580   159.3410   138.5820    25.4020     2.2410   -19.2740 
  179.2500    70.5500   177.4510   161.1860   139.5980    25.3470     2.2400   -19.7550 
  179.3750    70.6200   183.1760   165.7460   142.7610    25.2630     2.2330   -20.0660 
  179.5000    69.8000   190.9160   172.4090   151.0830    25.1500     2.2190   -20.2430 
  179.6250    67.8490   199.4130   180.1870   156.9920    24.9590     2.2030   -20.2120 
  179.7500    66.1810   207.1480   187.6580   160.7170    24.8380     2.1900   -20.0380 
  179.8750    65.2780   213.0620   193.8590   160.2610    24.7800     2.1860   -19.7320 
  180.0000    66.3000   215.9970   198.0180   163.3460    24.8200     2.1910   -19.3090 
  180.1250    69.8370   214.7800   198.8860   172.5240    24.9750     2.2030   -18.7280 
  180.2500    71.5860   209.3970   196.1620   179.8800    25.0710     2.2140   -18.0730 
  180.3750    69.5420   200.4800   189.3760   177.3770    25.1010     2.2220   -17.4230 
  180.5000    65.9660   188.0080   178.6260   167.4530    25.1040     2.2290   -16.8250 
  180.6250    65.2920   174.8390   164.5860   153.3260    25.1040     2.2370   -16.3090 
  180.7500    65.8330   161.4910   149.5920   130.2600    25.1040     2.2460   -15.9220 
  180.8750    64.5020   146.7600   135.3120   109.7530    25.1040     2.2550   -15.6390 
  181.0000    63.1560   132.5930   123.0220    96.4550    25.1040     2.2630   -15.4520 
  181.1250    64.2840   122.5790   113.9720    87.4220    25.1040     2.2660   -15.4320 
  181.2500    65.7970   115.9320   107.7340    81.2080    25.1040     2.2670   -15.4880 
  181.3750    67.7140   111.9080   103.7790    76.1970    25.1040     2.2670   -15.6770 
  181.5000    70.1150   109.7800   101.5020    74.0770    25.1040     2.2680   -15.9460 
  181.6250    70.4320   109.8120   101.1050    79.2170    25.1070     2.2750   -16.4160 
  181.7500    67.0630   112.7440   103.2460    93.8780    25.1220     2.2830   -16.9840 
  181.8750    64.3440   120.3320   109.5290   103.5010    25.1540     2.2880   -17.6560 
  182.0000    66.8280   134.7440   121.9010   100.4130    25.1850     2.2840   -18.4790 
  182.1250    70.0220   159.4840   143.2860   106.9770    25.2360     2.2660   -19.4300 
  182.2500    68.9220   193.3450   172.1550   145.3760    25.3130     2.2400   -20.5210 
  182.3750    67.0320   234.0280   205.9610   201.0130    25.3780     2.2140   -21.6210 
  182.5000    68.5790   276.7010   240.2700   232.4040    25.4050     2.1940   -22.7390 
  182.6250    69.9970   312.8150   268.1780   223.7830    25.4070     2.1840   -23.6290 
  182.7500    66.9360   336.4830   286.0430   226.8720    25.4100     2.1820   -24.2190 
  182.8750    62.4990   345.2120   292.7530   242.5750    25.4000     2.1850   -24.4570 
  183.0000    61.6330   339.8690   289.4210   268.0050    25.3570     2.1910   -24.2710 
  183.1250    63.0880   321.2480   276.8350   270.1620    25.2580     2.1970   -23.7230 
  183.2500    63.7180   294.2380   258.3540   251.1500    25.2710     2.2010   -22.9010 
  183.3750    63.3190   261.7070   235.7920   221.9130    25.4390     2.2010   -21.8400 
  183.5000    62.0070   226.4320   210.7700   197.9210    25.7010     2.1990   -20.6520 
  183.6250    61.3600   191.4320   184.5330   178.3100    25.8100     2.1960   -19.5270 
