~V
VERS. 2.00: Ver 2.00
~W
STRT.M 65.0000:
STOP.M 252.0000:
STEP.M 0.1250:
NULL. -999.2500:
UWI. DF3012:
~C
DEPT.M :
GR.API :
RML.OHMM :
RI. :
RXO.OHMM :
CALI.CM :
DEN.GM/CC :
SP.MV :
~A
# ...
   87.5000    97.0860    10.4020     8.3320     0.0000    22.9250  -999.2500   -23.9010 
   87.6250    93.4120    10.3880     8.4930     0.0000    22.9350  -999.2500   -24.0390 
   87.7500    91.3830    10.3100     8.5530     0.0000    23.0570  -999.2500   -24.1450 
   87.8750    87.8400    10.1900     8.5270     0.0000    23.2270  -999.2500   -24.1420 
   88.0000    84.4840    10.0240     8.4260     0.0000    23.3800  -999.2500   -23.9930 
   88.1250    85.2510     9.7980     8.2500     0.0000    23.4750  -999.2500   -23.7290 
   88.2500    88.5380     9.5470     8.0350     0.0000    23.6080  -999.2500   -23.3920 
   88.3750    91.5800     9.3150     7.8090     0.0000    23.8450  -999.2500   -22.8850 
   88.5000    94.1450     9.1340     7.5970     0.0000    24.1860  -999.2500   -22.3820 
   88.6250    98.0170     9.0130     7.4110     0.0000    24.5160  -999.2500   -22.0860 
   88.7500   100.2640     8.9060     7.2320     0.0000    24.7190  -999.2500   -21.7410 
   88.8750   100.0270     8.7810     7.0460     0.0000    24.8080  -999.2500   -21.3320 
   89.0000   100.4630     8.6200     6.8430     0.0000    24.8310  -999.2500   -21.1180 
   89.1250   103.9490     8.4210     6.6280     0.0000    24.8210  -999.2500   -21.0400 
   89.2500   107.6210     8.1920     6.4090     0.0000    24.7660  -999.2500   -20.9380 
   89.3750   107.4220     7.9310     6.1970     0.0000    24.6440  -999.2500   -21.0460 
   89.5000   102.8790     7.6650     6.0100     0.0000    24.5380  -999.2500   -21.2650 
   89.6250    96.7660     7.5680     5.9500     0.0000    24.4550  -999.2500   -21.3810 
   89.7500    94.0440     7.9680     6.2150     0.0000    24.4390  -999.2500   -21.6580 
   89.8750    93.8410     9.3340     7.1500     0.0000    24.5060  -999.2500   -22.1010 
   90.0000    91.2170    12.1150     9.1740     0.0000    24.5690  -999.2500   -22.4730 
   90.1250    85.5510    16.6240    12.7580     0.0000    24.5520  -999.2500   -22.9380 
   90.2500    79.9160    21.8650    17.3100     0.0000    24.5080  -999.2500   -23.6630 
   90.3750    74.2870    26.4580    21.7890     0.0000    24.4310  -999.2500   -24.4250 
   90.5000    69.7850    28.8110    24.7440     0.0000    24.3290  -999.2500   -25.2140 
   90.6250    69.6260    27.4030    24.4760     0.0000    24.1520  -999.2500   -26.1370 
   90.7500    72.6590    23.5780    21.7400     0.0000    23.9110  -999.2500   -27.0840 
   90.8750    75.1670    19.1990    18.0540     0.0000    23.6690  -999.2500   -27.9910 
   91.0000    76.0020    15.7730    14.8310     0.0000    23.5080  -999.2500   -28.8150 
   91.1250    78.8740    14.0020    12.8260     0.0000    23.3810  -999.2500   -29.5490 
   91.2500    81.2280    13.3340    11.7590     0.0000    23.3100  -999.2500   -30.1150 
   91.3750    79.0720    13.3230    11.3620     0.0000    23.2500  -999.2500   -30.4660 
   91.5000    74.8840    13.5750    11.3690     0.0000    23.1660  -999.2500   -30.7680 
   91.6250    73.9260    13.8000    11.5580     0.0000    23.0480  -999.2500   -31.0210 
   91.7500    76.0750    13.9160    11.7560     0.0000    22.9320  -999.2500   -31.0030 
   91.8750    78.9570    13.9810    11.9380     0.0000    22.8460  -999.2500   -30.8380 
   92.0000    83.1810    14.0880    12.1310     0.0000    22.8030  -999.2500   -30.7800 
   92.1250    90.0450    14.3100    12.3790     0.0000    22.7940  -999.2500   -30.7020 
   92.2500    96.1500    14.6000    12.6620     0.0000    22.7970  -999.2500   -30.4560 
   92.3750    96.6470    14.8830    12.9240     0.0000    22.8180  -999.2500   -30.2930 
   92.5000    90.9780    15.0720    13.0900     0.0000    22.8810  -999.2500   -30.1700 
   92.6250    86.7430    15.0680    13.0570     0.0000    22.9930  -999.2500   -29.8750 
   92.7500    88.7690    14.8500    12.8070     0.0000    23.1110  -999.2500   -29.6600 
   92.8750    90.9680    14.3860    12.3230     0.0000    23.2050  -999.2500   -29.5640 
   93.0000    86.7630    13.6580    11.6110     0.0000    23.2230  -999.2500   -29.3330 
   93.1250    80.0180    12.6780    10.7000     0.0000    23.1460  -999.2500   -29.0130 
   93.2500    78.7820    11.6370     9.7480     0.0000    23.0540  -999.2500   -28.8270 
   93.3750    83.0310    10.7350     8.9060     0.0000    23.0000  -999.2500   -28.5770 
   93.5000    89.2280    10.1590     8.3110     0.0000    22.9750  -999.2500   -28.2710 
   93.6250    93.1550    10.0860     8.1040     0.1490    22.9220  -999.2500   -28.1890 
   93.7500    91.7900    10.4050     8.2280     0.8920    22.8010  -999.2500   -28.2740 
   93.8750    85.9690    10.9770     8.6090     2.1570    22.6450  -999.2500   -28.3460 
   94.0000    80.1450    11.6120     9.1210     3.7710    22.5190  -999.2500   -28.4360 
   94.1250    79.3320    12.0880     9.5940    11.8990    22.4630  -999.2500   -28.5800 
   94.2500    81.0380    12.3170     9.9030    11.9150    22.4520  -999.2500   -28.7750 
   94.3750    82.3750    12.3110    10.0080    11.9290    22.4640  -999.2500   -29.0110 
   94.5000    83.1840    12.1540     9.9510    11.9400    22.4980  -999.2500   -29.2050 
   94.6250    84.1770    11.9660     9.8160    11.9620    22.5360  -999.2500   -29.3870 
   94.7500    84.3690    11.8470     9.7050    11.9870    22.5920  -999.2500   -29.4830 
   94.8750    82.4810    11.8340     9.6610    12.0050    22.6710  -999.2500   -29.5060 
   95.0000    79.3460    11.9290     9.6920    12.0280    22.8100  -999.2500   -29.6690 
   95.1250    78.6580    12.0970     9.7770    12.0610    22.9940  -999.2500   -29.9360 
   95.2500    80.7850    12.2580     9.8600    12.0490    23.1680  -999.2500   -30.0630 
   95.3750    83.0810    12.3500     9.8980    11.9840    23.2490  -999.2500   -30.2670 
   95.5000    81.5050    12.3340     9.8700    11.8660    23.2680  -999.2500   -30.5720 
   95.6250    75.9700    12.2030     9.7710    11.6620    23.2680  -999.2500   -30.7340 
   95.7500    71.5840    12.0160     9.6390    11.4360    23.2680  -999.2500   -30.9330 
   95.8750    70.1680    11.8150     9.5040    11.2680    23.2680  -999.2500   -31.2450 
   96.0000    71.1560    11.6250     9.3850    11.2150    23.2600  -999.2500   -31.4450 
   96.1250    71.5440    11.4540     9.2940    11.2850    23.2230  -999.2500   -31.5890 
   96.2500    71.5150    11.2970     9.2290    11.3430    23.1210  -999.2500   -31.8360 
   96.3750    72.8360    11.1650     9.1930    11.2990    22.9540  -999.2500   -31.9320 
   96.5000    75.5540    11.0910     9.2030    11.1660    22.7890  -999.2500   -31.8850 
   96.6250    78.2780    11.1460     9.3000    11.0330    22.7080  -999.2500   -31.8880 
   96.7500    80.8970    11.3360     9.4890    10.9580    22.6290  -999.2500   -31.7350 
   96.8750    82.7940    11.6180     9.7380    10.9240    22.5000  -999.2500   -31.3170 
   97.0000    82.3900    11.8700     9.9620    10.9360    22.3680  -999.2500   -30.8290 
   97.1250    79.7230    11.8590     9.9790    11.0100    22.3730  -999.2500   -30.2440 
   97.2500    77.8590    11.4660     9.6880    11.0480    22.5670  -999.2500   -29.4520 
   97.3750    76.6740    10.6810     9.0670    10.8520    22.8310  -999.2500   -28.5230 
   97.5000    76.0160     9.6310     8.2080    10.0730    23.0020  -999.2500   -27.6180 
   97.6250    78.6260     8.5730     7.3060     8.4270    23.1170  -999.2500   -26.7580 
   97.7500    83.1360     7.7590     6.5720     6.6880    23.2640  -999.2500   -25.9250 
   97.8750    88.0850     7.3210     6.1270     5.6830    23.5120  -999.2500   -25.3250 
   98.0000    91.9350     7.2930     6.0270     5.6150    23.8100  -999.2500   -25.0060 
   98.1250    94.1320     7.6750     6.3200     6.1440    23.9070  -999.2500   -24.9570 
   98.2500    94.0560     8.2970     6.8850     6.8660    23.7310  -999.2500   -25.1010 
   98.3750    90.0960     9.0460     7.6280     7.7690    23.4670  -999.2500   -25.5280 
   98.5000    85.3350     9.8210     8.4380     8.7100    23.2960  -999.2500   -26.0860 
   98.6250    84.7830    10.5240     9.1850     9.3460    23.2010  -999.2500   -26.4620 
