~V
VERS. 2.00: Ver 2.00
~W
STRT.M 125.0000:
STOP.M 276.0000:
STEP.M 0.1250:
NULL. -999.2500:
UWI. DF3039:
~C
DEPT.M :
SP.MV :
GR.API :
CALI.CM :
RXO.OHMM :
RI. :
RML.OHMM :
DEN.GM/CC :
~A
# ...
  158.7500   -17.9890    63.3310    24.5150    17.0950    16.7460    19.3790     2.5830 
  158.8750   -18.0790    62.1360    24.5270    18.3870    16.6070    19.3080     2.5770 
  159.0000   -18.1290    56.7940    24.5150    18.1050    16.5340    19.3500     2.5770 
  159.1250   -18.0620    52.3170    24.5110    17.4480    16.5330    19.4910     2.5820 
  159.2500   -17.9550    50.6880    24.4800    17.5090    16.6110    19.7010     2.5930 
  159.3750   -17.9450    51.2010    24.4430    17.2750    16.7420    19.9460     2.6140 
  159.5000   -18.0560    54.3390    24.4350    16.4020    16.8790    20.1720     2.6400 
  159.6250   -18.1700    56.8930    24.5060    16.5940    16.9750    20.3180     2.6550 
  159.7500   -18.1750    55.1030    24.5320    17.6040    17.0270    20.3760     2.6580 
  159.8750   -18.0700    51.6340    24.6120    18.0330    17.0090    20.3130     2.6480 
  160.0000   -17.9650    49.8370    24.6260    17.4210    16.9030    20.1050     2.6230 
  160.1250   -17.9890    50.5930    24.6200    16.3520    16.7500    19.8370     2.5900 
  160.2500   -18.1260    52.6620    24.5740    15.6930    16.6180    19.6370     2.5690 
  160.3750   -18.2500    57.0230    24.5880    15.5210    16.5250    19.5130     2.5690 
  160.5000   -18.2570    62.1420    24.7770    16.8490    16.4730    19.4560     2.5760 
  160.6250   -18.1690    64.2030    24.7920    18.1670    16.4990    19.5290     2.5660 
  160.7500   -18.1200    64.2290    24.6970    18.1680    16.5910    19.7080     2.5430 
  160.8750   -18.1540    65.6360    24.7390    17.1750    16.7170    19.9370     2.5230 
  161.0000   -18.2450    68.1000    24.7110    16.7990    16.8680    20.1850     2.5130 
  161.1250   -18.2920    67.3160    24.7010    17.0610    17.0320    20.4260     2.5010 
  161.2500   -18.2240    65.1360    24.6100    17.6860    17.1640    20.5840     2.4870 
  161.3750   -18.0960    64.9480    24.5550    18.1690    17.2060    20.6210     2.4840 
  161.5000   -17.9770    66.3380    24.7260    18.9530    17.1370    20.5240     2.5020 
  161.6250   -17.9780    64.4110    24.5590    18.2880    16.9130    20.2390     2.5340 
  161.7500   -18.0590    59.4380    24.5670    17.1310    16.5840    19.8290     2.5540 
  161.8750   -18.1400    56.5260    24.5860    16.1340    16.2210    19.4110     2.5520 
  162.0000   -18.1410    59.2820    24.5250    16.1160    15.8940    19.0830     2.5360 
  162.1250   -18.0530    65.5110    24.5100    15.9290    15.6770    18.9130     2.5250 
  162.2500   -18.0040    69.5410    24.5330    15.6530    15.6010    18.9310     2.5250 
  162.3750   -18.0420    70.0100    24.5260    15.6410    15.6750    19.1320     2.5280 
  162.5000   -18.1720    67.7450    24.5190    16.5060    15.8780    19.4590     2.5290 
  162.6250   -18.2850    62.9010    24.5460    17.1160    16.1580    19.8520     2.5300 
  162.7500   -18.2910    58.6930    24.5880    17.2680    16.4470    20.2420     2.5360 
  162.8750   -18.1960    56.2630    24.5790    18.1010    16.7040    20.5710     2.5470 
  163.0000   -18.1110    54.3900    24.5490    18.6800    16.8930    20.8050     2.5600 
  163.1250   -18.1460    54.0560    24.5080    17.7880    16.9490    20.8760     2.5710 
  163.2500   -18.2300    56.6110    24.4860    16.9660    16.8660    20.7810     2.5800 
  163.3750   -18.2630    60.0670    24.3080    16.8990    16.6790    20.5530     2.5910 
  163.5000   -18.1720    61.1370    24.2600    16.7670    16.4330    20.2410     2.6010 
  163.6250   -18.0000    59.1740    24.3510    16.5610    16.1670    19.8850     2.6130 
  163.7500   -17.8730    57.6100    24.1740    16.1290    15.9230    19.5630     2.6250 
  163.8750   -17.8650    57.7640    24.1420    15.5340    15.7390    19.3450     2.6330 
  164.0000   -17.9280    58.4320    24.1030    14.9240    15.6410    19.2490     2.6280 
  164.1250   -17.9540    57.7910    24.1270    14.6120    15.6330    19.2780     2.6140 
  164.2500   -17.9000    57.4310    24.1720    15.0600    15.6560    19.3600     2.6060 
  164.3750   -17.7970    58.8220    24.3030    15.3640    15.6520    19.4020     2.6100 
  164.5000   -17.7270    60.3430    24.3810    14.8420    15.5340    19.2760     2.6180 
  164.6250   -17.7220    61.0120    24.3900    14.0600    15.1880    18.8400     2.6180 
  164.7500   -17.7750    62.6060    24.3300    13.6730    14.6290    18.1420     2.6080 
  164.8750   -17.8240    63.5000    24.1950    13.0150    13.9220    17.2850     2.5980 
  165.0000   -17.7750    61.0460    24.1200    11.9530    13.1680    16.4190     2.5910 
  165.1250   -17.6430    55.6910    24.1110    11.2890    12.5400    15.7750     2.5750 
  165.2500   -17.5680    51.8150    24.0900    10.7740    12.1610    15.4880     2.5420 
  165.3750   -17.6170    50.2490    24.0870    10.1430    12.0830    15.6170     2.5030 
  165.5000   -17.7570    50.3940    24.0960    10.0100    12.3010    16.1190     2.4830 
  165.6250   -17.9000    52.6550    24.1370    11.2420    12.7980    16.8930     2.5020 
  165.7500   -17.9280    56.2160    24.1690    13.2270    13.4300    17.6980     2.5350 
  165.8750   -17.8550    58.2120    24.0850    14.5910    14.0630    18.3620     2.5580 
  166.0000   -17.8000    56.8140    23.9860    15.0130    14.5520    18.7850     2.5600 
  166.1250   -17.8530    54.5820    23.8150    14.4330    14.8530    18.9850     2.5560 
  166.2500   -17.9710    54.5640    23.8150    13.9790    15.0570    19.1210     2.5630 
  166.3750   -18.0420    55.5970    24.0000    13.8180    15.2340    19.2790     2.5740 
  166.5000   -17.9950    55.8280    24.1370    14.4300    15.4380    19.5450     2.5750 
  166.6250   -17.8780    54.4970    24.4510    15.4680    15.7080    19.9500     2.5590 
  166.7500   -17.8520    53.3370    24.5110    15.7610    15.9540    20.3310     2.5430 
  166.8750   -17.9400    53.2050    24.4890    16.5380    16.0450    20.4950     2.5400 
  167.0000   -18.0990    53.9640    24.4640    18.4870    15.9130    20.3470     2.5490 
  167.1250   -18.1960    53.7680    24.4180    18.1690    15.4700    19.7880     2.5590 
  167.2500   -18.1660    52.9380    24.4750    16.2960    14.7950    18.9540     2.5600 
  167.3750   -18.1080    52.1760    24.5390    14.6590    14.0040    18.0030     2.5540 
  167.5000   -18.1410    51.1550    24.5440    14.0900    13.2810    17.1700     2.5530 
  167.6250   -18.3090    49.9480    24.5060    13.8330    12.8470    16.7400     2.5720 
  167.7500   -18.5040    50.4650    24.4320    13.5690    12.7560    16.7770     2.6070 
  167.8750   -18.6630    52.3140    24.4280    13.3730    12.9950    17.2500     2.6360 
  168.0000   -18.7270    52.9990    24.4830    13.7150    13.5230    18.0600     2.6400 
  168.1250   -18.7590    52.2530    24.3490    15.7710    14.1960    18.8890     2.6280 
  168.2500   -18.8890    52.8010    24.2060    20.8200    14.7960    19.4520     2.6300 
  168.3750   -19.0870    55.6500    24.1930    28.4500    15.1770    19.6060     2.6510 
  168.5000   -19.2940    58.6650    24.1480    31.7530    15.2490    19.3230     2.6740 
  168.6250   -19.4000    58.5450    23.9570    23.8230    15.0330    18.7320     2.6710 
  168.7500   -19.4190    54.9920    23.8340    16.9650    14.8630    18.2640     2.6410 
  168.8750   -19.4300    51.5070    23.7410    16.3490    14.9430    18.1450     2.5990 
  169.0000   -19.5570    52.6630    23.6760    21.4530    15.3100    18.4130     2.5650 
  169.1250   -19.8330    57.8420    23.6030    25.6180    15.9250    19.0340     2.5560 
  169.2500   -20.1060    62.5720    23.5900    25.1730    16.6380    19.7230     2.5580 
  169.3750   -20.3150    64.1370    23.5620    26.3750    17.1030    20.0590     2.5470 
  169.5000   -20.4170    62.1560    23.5570    30.8650    17.0340    19.7720     2.5170 
  169.6250   -20.5340    57.5340    23.5960    30.4020    16.2580    18.7460     2.4900 
  169.7500   -20.7610    55.6400    23.6020    22.8520    15.0390    17.2900     2.4810 
  169.8750   -21.0530    57.7350    23.6030    15.5420    13.6760    15.7440     2.4780 
