~V
VERS. 2.00: Ver 2.00
~W
STRT.M 60.0000:
STOP.M 264.0000:
STEP.M 0.1250:
NULL. -999.2500:
UWI. DF303:
~C
DEPT.M :
DEN.GM/CC :
SP.MV :
AC.US/MT :
GR.API :
CALI.CM :
RXO.OHMM :
RI. :
RML.OHMM :
~A
# ...
  230.0000     2.2920   -27.7120   346.1390    72.8750    25.1150    70.0160    78.4030    68.5830 
  230.1250     2.3330   -27.5660   324.6480    63.5740    25.0920    63.7660    68.6210    60.3450 
  230.2500     2.3810   -27.4200   318.1550    64.2020    25.0030    58.7590    56.5050    50.2950 
  230.3750     2.4150   -27.2780   332.4670    69.7510    24.8210    54.0390    44.2120    39.7440 
  230.5000     2.4250   -27.1690   359.5880    77.3770    24.6680    45.0150    34.2490    30.6760 
  230.6250     2.4160   -27.1240   382.4670    83.5930    24.5920    31.5530    28.5750    25.2360 
  230.7500     2.3900   -27.1300   393.4600    83.7620    24.5600    22.3170    26.9270    23.7050 
  230.8750     2.3460   -27.1950   395.6810    76.6460    24.5620    23.5570    29.9960    26.6610 
  231.0000     2.2940   -27.3160   395.0860    65.7260    24.6630    44.2700    39.2160    35.0370 
  231.1250     2.2610   -27.5080   393.5270    59.6150    24.9370   103.7130    57.7180    51.8270 
  231.2500     2.2620   -27.7090   388.0570    61.5480    25.2390   167.4700    82.9600    76.6210 
  231.3750     2.2960   -27.9430   375.0410    68.5380    25.3730   192.4360   106.5480   103.2880 
  231.5000     2.3480   -28.1820   353.9640    77.4480    25.3950   166.9100   116.2070   116.6200 
  231.6250     2.3960   -28.3920   329.3930    82.7920    25.3760   125.6550   108.2880   107.9210 
  231.7500     2.4300   -28.5820   309.2650    82.4010    25.3110    96.9340    96.5380    94.3670 
  231.8750     2.4510   -28.7340   297.3700    77.4800    25.2080    86.3400    87.6460    84.5250 
  232.0000     2.4610   -28.8350   293.3690    71.5920    25.1680    86.0640    82.4180    79.0820 
  232.1250     2.4680   -28.9090   294.7470    73.5910    25.2320    80.6340    79.2190    76.2250 
  232.2500     2.4750   -28.9690   298.3420    79.6770    25.3430    72.5790    75.6980    73.2920 
  232.3750     2.4770   -28.9960   303.7060    81.5730    25.4000    66.7860    70.7720    68.9250 
  232.5000     2.4640   -28.9990   310.7270    78.7860    25.4280    62.9750    64.5300    63.0100 
  232.6250     2.4320   -28.9900   318.5150    79.1270    25.4620    58.2880    58.2950    56.8370 
  232.7500     2.3960   -28.9600   325.0030    82.6740    25.5160    50.8200    53.4400    51.9410 
  232.8750     2.3720   -28.8970   327.4860    81.6880    25.5600    43.8900    50.4980    48.9520 
  233.0000     2.3740   -28.8290   322.8520    77.7760    25.5540    40.6800    49.4360    47.9030 
  233.1250     2.4020   -28.7070   310.1340    77.8360    25.4850    42.7230    50.0040    48.6160 
  233.2500     2.4330   -28.5910   297.7010    80.6890    25.4310    47.1910    51.1540    50.0430 
  233.3750     2.4510   -28.4790   293.8040    83.7290    25.4030    49.7720    52.0480    51.2880 
  233.5000     2.4560   -28.3770   301.0110    85.0490    25.3950    48.2840    52.0390    51.6090 
  233.6250     2.4530   -28.2520   314.4720    83.2320    25.3950    46.0710    50.8280    50.6350 
  233.7500     2.4470   -28.1300   326.0020    80.2250    25.3950    42.4980    49.0320    49.0260 
  233.8750     2.4380   -28.0310   332.6000    77.6730    25.3950    38.5000    47.2390    47.4260 
  234.0000     2.4260   -27.9380   333.8320    75.3530    25.3950    35.0140    45.9430    46.3630 
  234.1250     2.4150   -27.8770   330.2030    73.1310    25.3950    35.2420    45.6270    46.3440 
  234.2500     2.4070   -27.8190   325.4150    73.7920    25.3950    38.0790    46.3630    47.4360 
  234.3750     2.4030   -27.7660   322.2620    76.3240    25.4020    43.2110    48.2720    49.7890 
  234.5000     2.4020   -27.7180   320.9950    80.0960    25.4210    49.4980    51.3590    53.4550 
  234.6250     2.4030   -27.6970   317.9920    85.3190    25.4620    54.4130    55.5390    58.4120 
  234.7500     2.4020   -27.6790   310.5200    88.6780    25.4810    60.7340    60.0830    63.8800 
  234.8750     2.4020   -27.6600   299.7330    87.7430    25.4840    65.4330    64.2170    68.9780 
  235.0000     2.4100   -27.6510   290.0140    84.5830    25.4720    61.9900    67.1060    72.6880 
  235.1250     2.4270   -27.6450   286.7930    83.8980    25.4430    56.1920    67.8020    73.8360 
  235.2500     2.4360   -27.6510   289.5260    87.1400    25.4110    59.5280    66.5920    72.7340 
  235.3750     2.4310   -27.6800   295.2320    92.6150    25.4040    67.7410    63.9290    69.9230 
  235.5000     2.4230   -27.7060   300.1880    94.8560    25.4210    70.2840    60.4220    66.1160 
  235.6250     2.4320   -27.7350   302.6380    89.2870    25.4540    65.7270    56.6800    62.0000 
  235.7500     2.4450   -27.7950   304.9680    81.1500    25.4490    59.5150    53.2410    58.2120 
  235.8750     2.4450   -27.8720   309.3340    76.1770    25.3880    52.6520    50.4610    55.1630 
  236.0000     2.4330   -27.9560   314.9070    79.0780    25.2720    47.0560    48.6830    53.2220 
  236.1250     2.4310   -28.0420   316.6650    88.8000    25.0880    43.6370    48.4790    52.9870 
  236.2500     2.4410   -28.1270   311.2900    97.1830    24.9820    44.1710    49.6190    54.2130 
  236.3750     2.4600   -28.1940   298.8900    96.5210    24.9230    46.7270    51.4320    56.2070 
  236.5000     2.4800   -28.2800   284.1630    90.4950    24.8830    50.9180    52.5460    57.4410 
  236.6250     2.4890   -28.3800   278.3950    88.3230    24.8480    61.1790    50.8410    55.3670 
  236.7500     2.4730   -28.4470   287.7830    94.6990    24.8330    64.2880    46.2430    49.8650 
  236.8750     2.4370   -28.5010   309.5440   107.0630    24.8300    53.6260    39.8720    42.3860 
  237.0000     2.3940   -28.5480   333.2290   114.0220    24.8300    35.9490    33.2680    34.8330 
  237.1250     2.3600   -28.5600   346.8120   111.0510    24.8300    23.6970    27.5790    28.5300 
  237.2500     2.3340   -28.5480   350.8030   105.7630    24.8250    19.7790    22.8640    23.4420 
  237.3750     2.3080   -28.4950   350.9910   102.5470    24.7970    20.0570    18.9800    19.3370 
  237.5000     2.2860   -28.3770   352.8950    99.7540    24.7310    19.7040    15.7770    15.9780 
  237.6250     2.2840   -28.1740   358.5600    99.4030    24.6730    15.9420    13.2710    13.3260 
  237.7500     2.3040   -27.9440   365.5640   105.2310    24.6500    11.9780    11.3230    11.2580 
  237.8750     2.3330   -27.6640   372.5270   109.0730    24.6550    10.1610     9.8880     9.7570 
  238.0000     2.3550   -27.3400   379.2070   105.3250    24.6880     9.8960     8.9020     8.7620 
  238.1250     2.3630   -27.0550   385.2460    97.6290    24.7860     9.5580     8.3250     8.2070 
  238.2500     2.3700   -26.8100   390.0790    91.0240    24.9130     8.6950     7.9890     7.8860 
  238.3750     2.3780   -26.6330   393.3950    83.5660    25.0170     7.7630     7.8100     7.7080 
  238.5000     2.3850   -26.5350   394.8430    74.0340    25.0630     7.1450     7.7400     7.6370 
  238.6250     2.3880   -26.5460   392.7010    69.0610    25.0690     6.9340     7.7760     7.6940 
  238.7500     2.3920   -26.6230   386.9860    70.3440    25.0710     7.0850     7.8950     7.8650 
  238.8750     2.3970   -26.7790   379.3440    74.3880    25.0770     7.6070     8.0810     8.1370 
  239.0000     2.3950   -26.9920   372.5400    76.3450    25.0820     8.2550     8.3110     8.4850 
  239.1250     2.3820   -27.2230   369.3290    75.0600    25.0870     8.7590     8.5510     8.8690 
  239.2500     2.3630   -27.4070   367.7770    78.7690    25.0850     9.0310     8.7610     9.2240 
  239.3750     2.3520   -27.5320   366.7730    88.8250    25.0820     9.2800     8.9220     9.5090 
  239.5000     2.3500   -27.5840   364.6500    97.9060    25.0800     9.6130     9.0240     9.7090 
  239.6250     2.3560   -27.5380   361.0960    97.2630    25.0830    10.1040     9.0780     9.8510 
  239.7500     2.3690   -27.4070   356.6890    93.3760    25.0890    10.8280     9.1530    10.0400 
  239.8750     2.3940   -27.2170   350.9660    91.5440    25.0950    11.8540     9.3200    10.3730 
