~V
VERS. 2.00: Ver 2.00
~W
STRT.M 125.0000:
STOP.M 269.0000:
STEP.M 0.1250:
NULL. -999.2500:
UWI. DF3036:
~C
DEPT.M :
GR.API :
RML.OHMM :
RI. :
RXO.OHMM :
CALI.CM :
DEN.GM/CC :
SP.MV :
~A
# ...
  158.7500    61.2920    21.0220    19.9870    21.9670    24.7290     2.5440   -24.7340 
  158.8750    61.0230    20.9610    19.9330    23.6650    24.7290     2.5480   -24.7990 
  159.0000    59.1550    20.5250    19.5070    24.5850    24.6990     2.5620   -24.7860 
  159.1250    57.4780    19.7110    18.7000    21.0200    24.6440     2.5770   -24.8350 
  159.2500    58.9250    18.7070    17.6960    18.8650    24.6140     2.5850   -24.8320 
  159.3750    63.3190    17.6740    16.6540    18.0420    24.6420     2.5810   -24.8700 
  159.5000    67.1820    16.7840    15.7320    17.2670    24.7030     2.5660   -24.9140 
  159.6250    69.0200    16.2540    15.1280    15.7640    24.8040     2.5470   -24.9220 
  159.7500    69.1460    16.1170    14.8860    14.6410    24.9000     2.5290   -24.9910 
  159.8750    68.9960    16.3580    15.0090    14.7240    24.9720     2.5150   -25.0230 
  160.0000    70.7830    16.8860    15.4360    15.3850    24.9990     2.5030   -25.0980 
  160.1250    72.5980    17.5520    16.0540    16.4600    24.9990     2.4890   -25.1300 
  160.2500    73.1680    18.1640    16.6700    17.4770    24.9990     2.4700   -25.1650 
  160.3750    73.9990    18.6220    17.1650    18.4250    24.9980     2.4490   -25.1860 
  160.5000    75.0210    18.8990    17.4850    18.9770    24.9840     2.4300   -25.2070 
  160.6250    75.3240    19.0220    17.6320    18.6360    24.9490     2.4200   -25.2470 
  160.7500    76.1790    19.0970    17.7030    18.2090    24.9090     2.4230   -25.2650 
  160.8750    77.0630    19.1750    17.7540    18.2270    24.8810     2.4350   -25.2930 
  161.0000    75.4280    19.2730    17.8090    18.3250    24.8500     2.4530   -25.3230 
  161.1250    73.2710    19.3740    17.8670    18.4310    24.7660     2.4640   -25.3970 
  161.2500    73.6570    19.4660    17.9180    18.2370    24.6070     2.4620   -25.4730 
  161.3750    74.0880    19.5650    17.9720    18.2620    24.3860     2.4450   -25.5770 
  161.5000    73.9320    19.7040    18.0540    18.3620    24.2380     2.4190   -25.6530 
  161.6250    77.4230    19.9120    18.1890    18.2850    24.2210     2.3950   -25.7230 
  161.7500    83.0990    20.1290    18.3350    18.2360    24.2320     2.3790   -25.8180 
  161.8750    85.5390    20.2450    18.4100    18.2940    24.2300     2.3750   -25.8900 
  162.0000    83.6570    20.1480    18.3170    18.2120    24.3190     2.3800   -25.9950 
  162.1250    80.5690    19.7400    17.9600    18.2790    24.5290     2.3940   -25.9840 
  162.2500    78.5110    19.1390    17.4210    17.8800    24.6770     2.4130   -26.0380 
  162.3750    78.6890    18.4990    16.8170    16.9200    24.7380     2.4320   -26.0450 
  162.5000    79.2860    17.9890    16.2890    15.6940    24.7860     2.4500   -26.1170 
  162.6250    78.3840    17.7730    15.9860    15.3900    24.8310     2.4590   -26.1750 
  162.7500    76.7950    17.8090    15.9050    15.8010    24.8460     2.4580   -26.2240 
  162.8750    74.8020    18.0200    16.0030    16.1880    24.8810     2.4490   -26.2820 
  163.0000    74.1730    18.3060    16.2100    16.4810    24.9350     2.4340   -26.3490 
  163.1250    74.1940    18.5840    16.4580    17.0020    24.9480     2.4220   -26.4540 
  163.2500    73.5550    18.8300    16.7010    17.2260    24.9460     2.4150   -26.5200 
  163.3750    73.2930    19.0590    16.9330    17.3000    24.9520     2.4140   -26.5850 
  163.5000    74.2690    19.2870    17.1530    17.1400    24.9700     2.4140   -26.6480 
  163.6250    75.8430    19.5080    17.3480    17.4420    24.9760     2.4110   -26.6970 
  163.7500    74.8480    19.7100    17.5080    17.9140    24.9800     2.4070   -26.7580 
  163.8750    72.1340    19.8930    17.6340    18.4150    24.9870     2.4040   -26.8140 
  164.0000    70.4190    20.0710    17.7410    18.6700    25.0090     2.4040   -26.8680 
  164.1250    70.1930    20.2740    17.8590    18.4740    25.0540     2.4040   -26.9380 
  164.2500    71.7200    20.5130    18.0070    18.4100    25.0810     2.4030   -27.0110 
  164.3750    76.6830    20.7870    18.1940    18.9060    25.1050     2.3990   -27.0800 
  164.5000    83.3410    21.0900    18.4260    19.9470    25.1420     2.3910   -27.1670 
  164.6250    85.0150    21.4370    18.7190    20.7700    25.1590     2.3840   -27.2550 
  164.7500    82.3400    21.8580    19.0900    20.6440    25.1650     2.3800   -27.3410 
  164.8750    79.1060    22.4060    19.5810    20.7320    25.1650     2.3780   -27.4310 
  165.0000    77.7270    23.1390    20.2350    21.3730    25.1650     2.3760   -27.5150 
  165.1250    77.7020    24.1150    21.1040    22.4690    25.1780     2.3690   -27.6080 
  165.2500    78.8420    25.2310    22.1030    23.5770    25.2090     2.3550   -27.6670 
  165.3750    80.6480    26.3070    23.0910    24.7430    25.2330     2.3380   -27.7590 
  165.5000    81.2200    27.0740    23.8510    25.7670    25.2270     2.3220   -27.7890 
  165.6250    79.3640    27.1180    24.0410    26.3260    25.2000     2.3150   -27.8790 
  165.7500    76.3060    26.4190    23.6170    26.2080    25.2080     2.3180   -27.9300 
  165.8750    74.3610    25.1460    22.6870    25.4740    25.2010     2.3300   -27.9980 
  166.0000    76.3600    23.6630    21.5360    23.8410    25.1340     2.3470   -28.0580 
  166.1250    79.2770    22.4640    20.5620    21.1250    25.0520     2.3620   -28.1480 
  166.2500    78.5170    21.7850    20.0020    18.9830    25.0760     2.3690   -28.2810 
  166.3750    75.8050    21.6420    19.9210    18.6150    25.1710     2.3660   -28.4090 
  166.5000    74.9410    21.8710    20.2360    20.6380    25.2280     2.3580   -28.5580 
  166.6250    75.5860    22.1840    20.7430    21.6460    25.2180     2.3510   -28.6530 
  166.7500    75.5650    22.2700    21.1290    20.9690    25.1830     2.3500   -28.8050 
  166.8750    75.7220    21.9520    21.1760    19.9440    25.1670     2.3570   -28.9490 
  167.0000    74.8190    21.1850    20.7710    20.0280    25.1560     2.3700   -29.0650 
  167.1250    71.8860    20.0380    19.9060    19.7910    25.1300     2.3880   -29.1870 
  167.2500    69.6980    18.7940    18.8390    19.1150    25.0950     2.4070   -29.3060 
  167.3750    70.1460    17.6440    17.7630    17.0960    25.0770     2.4290   -29.4620 
  167.5000    71.6210    16.7210    16.8250    15.0530    25.0710     2.4510   -29.6140 
  167.6250    71.0050    16.1190    16.1450    13.8540    25.0630     2.4680   -29.8460 
  167.7500    69.8750    15.7400    15.6760    13.7580    25.0630     2.4770   -30.0990 
  167.8750    69.1620    15.4910    15.3530    13.9920    25.0650     2.4740   -30.4400 
  168.0000    68.5080    15.3020    15.1090    13.7890    25.0730     2.4590   -30.8840 
  168.1250    68.0050    15.1530    14.9390    13.4010    25.0930     2.4370   -31.4270 
  168.2500    68.3050    15.1020    14.9200    13.4940    25.0860     2.4140   -32.0370 
  168.3750    69.9900    15.4240    15.2160    14.1140    25.0520     2.3960   -32.7670 
  168.5000    71.2190    16.3330    16.0320    15.1650    25.0310     2.3870   -33.5940 
  168.6250    70.7290    18.5270    17.6780    17.6250    25.0940     2.3800   -34.5310 
  168.7500    71.7820    21.6980    20.0720    22.8320    25.1790     2.3660   -35.4490 
  168.8750    74.2500    25.7290    23.0350    29.8600    25.2360     2.3420   -36.3360 
  169.0000    75.9160    30.1090    26.2010    36.2740    25.2480     2.3110   -37.1830 
  169.1250    74.6610    32.8550    29.0170    39.5150    25.2280     2.2810   -37.9770 
  169.2500    73.0860    34.8740    31.1970    41.7480    25.1950     2.2630   -38.7110 
  169.3750    73.7410    36.3590    32.7970    42.3100    25.1700     2.2580   -39.3360 
  169.5000    77.2670    37.8040    34.1880    41.2680    25.1480     2.2640   -39.8920 
  169.6250    80.7950    39.9450    36.0210    40.9390    25.0970     2.2740   -40.3110 
  169.7500    80.9170    43.0770    38.6870    42.7990    25.0320     2.2820   -40.7380 
  169.8750    78.5860    47.2340    42.3380    46.7070    24.9990     2.2860   -41.1240 
