~V
VERS. 2.00: Ver 2.00
~W
STRT.M 63.0000:
STOP.M 257.0000:
STEP.M 0.1250:
NULL. -999.2500:
UWI. DF3070:
~C
DEPT.M :
DEN.GM/CC :
GR.API :
RML.OHMM :
RI. :
RXO.OHMM :
CALI.CM :
SP.MV :
~A
# ...
  209.2500     2.1930    66.6020   163.0760   147.6600   158.1740    24.4850   -26.3310 
  209.3750     2.1980    67.6560   144.7060   131.3370   145.3510    24.4920   -26.2600 
  209.5000     2.2040    68.8200   129.9620   117.6010   127.5210    24.5030   -26.1900 
  209.6250     2.2110    68.6650   121.3660   108.9690   111.2300    24.5190   -26.1640 
  209.7500     2.2180    68.9180   118.6410   105.5390    99.5600    24.5280   -26.1200 
  209.8750     2.2240    70.9150   121.8650   107.4740    92.4280    24.4850   -26.1630 
  210.0000     2.2280    71.9540   130.8830   114.5710    89.4480    24.3690   -26.1350 
  210.1250     2.2260    67.4660   145.9450   126.7790    93.3360    24.2300   -26.2080 
  210.2500     2.2190    62.2240   164.9310   141.9830   104.5860    24.1460   -26.2910 
  210.3750     2.2100    61.1580   186.1170   158.5390   122.0720    24.1220   -26.4190 
  210.5000     2.2020    64.3950   207.2580   174.6070   140.0700    24.1190   -26.4830 
  210.6250     2.1970    66.8500   224.6790   187.5230   148.5200    24.1190   -26.5360 
  210.7500     2.1930    66.6490   235.3720   195.4140   150.5160    24.1070   -26.5530 
  210.8750     2.1860    65.3990   236.4210   196.2020   151.5100    24.1010   -26.5110 
  211.0000     2.1780    64.8570   225.3430   188.1700   153.7420    24.2230   -26.4650 
  211.1250     2.1720    66.3640   200.0570   169.6270   156.7100    24.4060   -26.3590 
  211.2500     2.1710    67.3030   166.9230   144.8130   155.9710    24.4840   -26.1810 
  211.3750     2.1790    66.2760   132.6370   118.2250   146.6580    24.4520   -25.9250 
  211.5000     2.1920    64.2580   102.2490    94.2990   126.9890    24.4310   -25.6470 
  211.6250     2.2080    66.7080    80.4810    76.7370    97.5160    24.4770   -25.3420 
  211.7500     2.2200    72.9940    66.6610    64.9390    71.5210    24.4850   -25.0580 
  211.8750     2.2230    77.7570    60.5010    57.9830    56.2700    24.4860   -24.7920 
  212.0000     2.2200    77.4380    57.9980    54.7690    50.4860    24.4920   -24.5910 
  212.1250     2.2110    74.0380    58.6770    54.7600    50.9010    24.4890   -24.4410 
  212.2500     2.2040    72.9010    61.4630    56.8190    53.0870    24.4860   -24.3680 
  212.3750     2.2010    73.5040    66.0050    60.5560    55.8690    24.4840   -24.3770 
  212.5000     2.2020    70.7320    72.1190    65.7510    59.4220    24.4860   -24.4570 
  212.6250     2.2060    66.4890    80.1940    72.7070    64.2960    24.4990   -24.6370 
  212.7500     2.2070    65.2950    90.4730    81.5430    70.6100    24.5200   -24.8170 
  212.8750     2.2060    66.4160   103.6380    92.6920    77.7330    24.5380   -25.0380 
  213.0000     2.2000    67.9880   120.0680   106.2840    84.5790    24.5460   -25.2260 
  213.1250     2.1920    69.2610   139.1560   121.5600    92.1350    24.5480   -25.3540 
  213.2500     2.1830    70.5540   157.3690   135.6550   104.8900    24.5620   -25.5160 
  213.3750     2.1760    70.1410   170.3910   145.2330   126.0340    24.6280   -25.6090 
  213.5000     2.1740    67.3990   174.1110   147.3330   152.7790    24.6460   -25.6710 
  213.6250     2.1760    65.6220   165.5410   139.8750   171.1760    24.4450   -25.6130 
  213.7500     2.1800    66.2920   150.1300   126.9190   179.4900    24.1790   -25.5550 
  213.8750     2.1840    69.2400   133.0850   112.3130   181.5720    24.0690   -25.3920 
  214.0000     2.1960    71.8170   118.0160    99.0970   156.9490    24.1240   -25.2200 
  214.1250     2.2210    72.5980   106.3940    88.9780   113.9960    24.1360   -25.0060 
  214.2500     2.2640    73.2190    97.0970    81.2390    91.8370    24.0680   -24.7220 
  214.3750     2.3140    73.9830    89.8050    75.4680    86.2510    24.0300   -24.4110 
  214.5000     2.3570    74.3840    85.0260    71.7650    84.0440    24.0220   -24.0290 
  214.6250     2.3800    73.2170    84.1280    70.9760    76.0670    23.9930   -23.5870 
  214.7500     2.3840    70.7910    86.1390    72.4380    68.8030    23.9490   -23.1080 
  214.8750     2.3880    69.2070    88.8310    74.5980    65.9870    23.9120   -22.5880 
  215.0000     2.4090    68.8530    88.4940    74.6970    68.3830    23.8670   -21.9910 
  215.1250     2.4550    69.3290    79.8770    68.5990    77.6150    23.8040   -21.3320 
  215.2500     2.5190    70.0420    63.7010    56.3420    87.9960    23.7480   -20.6270 
  215.3750     2.5760    70.3550    44.4200    40.7790    89.3550    23.7110   -19.9130 
  215.5000     2.6010    70.1260    27.6410    26.3970    75.8790    23.8560   -19.2260 
  215.6250     2.5840    71.6820    16.8430    16.8150    44.0570    24.3390   -18.6170 
  215.7500     2.5310    75.3550    10.6430    11.1410    19.6000    24.7740   -18.0420 
  215.8750     2.4710    77.6110     8.0630     8.1080     9.1380    24.7450   -17.5810 
  216.0000     2.4200    76.0470     7.0790     6.6390     6.0050    24.2760   -17.2670 
  216.1250     2.3870    72.5050     6.9350     6.1730     5.8080    23.8490   -17.0810 
  216.2500     2.3730    72.8200     7.1720     6.2080     5.9500    23.6760   -17.0780 
  216.3750     2.3700    80.4690     7.6090     6.5510     6.0810    23.6520   -17.1520 
  216.5000     2.3750    94.6390     8.1280     7.0540     6.4660    23.6580   -17.3640 
  216.6250     2.3830   107.0530     8.6300     7.5950     7.0220    23.7140   -17.5730 
  216.7500     2.3920   109.1560     9.0340     8.0670     7.5930    23.8470   -17.8440 
  216.8750     2.4010   103.3410     9.2830     8.4050     8.1200    23.9880   -18.0590 
  217.0000     2.4050    99.0070     9.3610     8.5710     8.4660    24.0590   -18.2490 
  217.1250     2.4040   103.7340     9.2880     8.5480     8.4570    24.0420   -18.3880 
  217.2500     2.3980   112.4650     9.1680     8.4190     8.2590    24.0060   -18.4750 
  217.3750     2.3880   119.4880     9.0720     8.2490     8.1370    23.9880   -18.5530 
  217.5000     2.3780   122.8320     9.0500     8.0980     8.0980    23.9690   -18.5490 
  217.6250     2.3720   122.9160     9.1310     8.0180     8.1650    23.9470   -18.5550 
  217.7500     2.3730   124.7350     9.2860     8.0100     8.3030    23.9580   -18.5700 
  217.8750     2.3810   130.6000     9.4850     8.0620     8.4660    23.9930   -18.6030 
  218.0000     2.3940   135.3830     9.6910     8.1470     8.6540    23.9790   -18.6340 
  218.1250     2.4080   131.7320     9.8490     8.2250     8.8610    23.8140   -18.6680 
  218.2500     2.4180   122.7310     9.9310     8.2640     9.0400    23.6690   -18.6920 
  218.3750     2.4210   114.9430     9.9250     8.2520     9.1510    23.6590   -18.6930 
  218.5000     2.4170   110.7820     9.8480     8.1900     9.1480    23.7520   -18.6950 
  218.6250     2.4070   111.3230     9.7360     8.0990     9.0020    23.8400   -18.6610 
  218.7500     2.3950   116.6210     9.6420     8.0190     8.7730    23.8810   -18.6100 
  218.8750     2.3880   124.3110     9.5960     7.9790     8.5280    23.9050   -18.5390 
  219.0000     2.3860   130.1260     9.6110     8.0010     8.3110    23.9240   -18.5060 
  219.1250     2.3900   131.7710     9.6850     8.0940     8.1810    23.9300   -18.4370 
  219.2500     2.3960   132.7680     9.7720     8.2190     8.2220    23.8970   -18.3650 
  219.3750     2.4000   133.7500     9.8310     8.3370     8.4060    23.8400   -18.2850 
  219.5000     2.4010   133.6380     9.8340     8.4150     8.6360    23.8180   -18.2190 
  219.6250     2.3980   132.1260     9.7820     8.4370     8.8790    23.8360   -18.2040 
  219.7500     2.3930   127.8360     9.7400     8.4460     9.0400    23.8500   -18.1670 
  219.8750     2.3900   118.1950     9.7740     8.4870     8.9020    23.8640   -18.1530 
  220.0000     2.3890   106.7950     9.9260     8.5950     8.4300    23.8880   -18.1030 
  220.1250     2.3890   106.0240    10.2080     8.7800     8.0110    23.8710   -18.1590 
  220.2500     2.3850   115.1010    10.5310     8.9850     7.9630    23.8210   -18.1790 
  220.3750     2.3760   122.7480    10.8010     9.1420     8.3770    23.7830   -18.2630 
