~V
VERS. 2.00: Ver 2.00
~W
STRT.M 110.0000:
STOP.M 242.0000:
STEP.M 0.1250:
NULL. -999.2500:
UWI. DF306:
~C
DEPT.M :
DEN.GM/CC :
AC.US/MT :
GR.API :
CALI.CM :
RXO.OHMM :
RI. :
RML.OHMM :
SP.MV :
~A
# ...
  220.0000     2.5660   221.4740    83.4720    24.6520    10.7020    13.5220    15.8920   -10.3720 
  220.1250     2.5620   221.6190    83.4420    24.6370    10.5610    13.3340    15.4910   -10.3500 
  220.2500     2.5400   222.6990    82.9940    24.6520    10.3520    13.0280    14.9730   -10.3100 
  220.3750     2.5150   224.9040    80.2760    24.6650    10.0840    12.6950    14.4720   -10.2650 
  220.5000     2.5010   228.1040    76.8800    24.6680    10.1250    12.4020    14.0890   -10.2040 
  220.6250     2.5030   231.3420    75.8210    24.6790    10.3990    12.2160    13.9270   -10.1520 
  220.7500     2.5120   232.3780    76.7550    24.6820    10.5550    12.1520    13.9580   -10.0890 
  220.8750     2.5220   229.9450    78.0690    24.6650    10.6730    12.2090    14.1360   -10.0260 
  221.0000     2.5320   224.2000    81.5700    24.6410    10.9950    12.3560    14.3950    -9.9770 
  221.1250     2.5400   217.0520    85.6980    24.6170    11.5100    12.5410    14.6580    -9.9470 
  221.2500     2.5460   211.9350    86.2520    24.5860    11.6900    12.7050    14.8600    -9.9240 
  221.3750     2.5400   210.5660    84.4150    24.5620    11.2150    12.8130    14.9660    -9.9150 
  221.5000     2.5200   212.5750    83.6440    24.5540    10.4270    12.8580    14.9760    -9.9300 
  221.6250     2.4960   216.0510    86.2370    24.5270    10.2050    12.8650    14.9390    -9.9640 
  221.7500     2.4920   218.3430    88.7100    24.4820    10.5790    12.8900    14.9460   -10.0320 
  221.8750     2.5050   218.2740    89.5690    24.4470    11.0070    12.9790    15.0610   -10.1110 
  222.0000     2.5200   216.0700    89.3770    24.4080    11.1460    13.1540    15.3000   -10.1930 
  222.1250     2.5330   212.9260    88.7520    24.3460    11.3690    13.4130    15.6390   -10.2590 
  222.2500     2.5490   210.8250    89.0690    24.2980    12.2580    13.6960    16.0000   -10.3360 
  222.3750     2.5600   211.0090    88.3480    24.2780    14.0020    13.9600    16.3410   -10.4100 
  222.5000     2.5570   213.6370    86.2520    24.1990    16.1390    14.1910    16.6450   -10.4680 
  222.6250     2.5460   217.8220    86.5040    23.9540    17.5550    14.3990    16.9120   -10.5040 
  222.7500     2.5460   221.9120    89.1300    23.6540    18.1010    14.6030    17.1590   -10.5150 
  222.8750     2.5560   224.5300    91.3200    23.4250    18.5290    14.7960    17.3760   -10.5120 
  223.0000     2.5600   225.1170    92.0300    23.3040    19.1800    14.9350    17.5170   -10.5150 
  223.1250     2.5480   223.7800    92.1750    23.2550    19.1370    14.9310    17.4760   -10.5220 
  223.2500     2.5290   221.0530    90.7970    23.2290    17.9770    14.7650    17.2440   -10.5190 
  223.3750     2.5260   218.0180    87.6540    23.2360    16.2170    14.4720    16.8820   -10.5100 
  223.5000     2.5380   215.1840    87.3750    23.3120    14.4400    14.1410    16.5120   -10.4930 
  223.6250     2.5510   212.7280    91.7270    23.5570    12.9160    13.9120    16.3190   -10.4700 
  223.7500     2.5510   210.6750    95.5510    23.9320    11.9310    13.8710    16.3800   -10.4490 
  223.8750     2.5430   208.9690    95.1840    24.3110    11.9420    14.0680    16.7300   -10.4340 
  224.0000     2.5400   207.7940    92.4700    24.5560    13.2190    14.5130    17.3640   -10.4160 
  224.1250     2.5480   207.3810    93.6190    24.6100    16.0520    15.1980    18.2800   -10.4140 
  224.2500     2.5640   207.8120    98.1250    24.5730    20.0960    16.0050    19.3350   -10.4180 
  224.3750     2.5700   208.5140   101.6660    24.5200    24.3580    16.8250    20.3760   -10.4280 
  224.5000     2.5550   208.9760   101.3070    24.4830    26.6760    17.5220    21.1970   -10.4530 
  224.6250     2.5340   208.9250    98.4580    24.4970    25.1160    17.8910    21.5030   -10.5000 
  224.7500     2.5360   208.6740    94.5580    24.5530    21.9560    17.8890    21.2810   -10.5520 
  224.8750     2.5540   209.3190    91.7890    24.6120    19.4840    17.5420    20.6150   -10.6040 
  225.0000     2.5640   211.9260    93.3130    24.6370    18.7880    16.9670    19.7080   -10.6470 
  225.1250     2.5560   216.7930    96.0700    24.6310    20.6540    16.3580    18.8590   -10.6890 
  225.2500     2.5500   222.7610    95.7560    24.6170    24.2000    15.9040    18.3060   -10.7330 
  225.3750     2.5570   227.3060    92.3880    24.6020    26.9170    15.6990    18.1550   -10.7630 
  225.5000     2.5610   228.6950    88.7010    24.5900    26.4260    15.7730    18.4090   -10.7790 
  225.6250     2.5540   226.4270    87.5000    24.5760    23.6630    16.1400    19.0050   -10.7720 
  225.7500     2.5510   221.1730    89.1780    24.5590    22.3860    16.6790    19.7270   -10.7590 
  225.8750     2.5580   215.3540    92.7330    24.5520    23.5310    17.2890    20.4310   -10.7500 
  226.0000     2.5590   210.6560    94.6330    24.5650    26.0000    17.8730    21.0240   -10.7460 
  226.1250     2.5370   208.2030    93.7620    24.5590    28.0080    18.3340    21.4490   -10.7210 
  226.2500     2.4860   208.6690    93.6770    24.4950    28.6940    18.6410    21.7020   -10.6910 
  226.3750     2.4220   210.9070    94.6080    24.3960    28.0690    18.7570    21.7350   -10.6690 
  226.5000     2.3620   213.8680    96.4180    24.3230    26.3990    18.6480    21.5000   -10.6620 
  226.6250     2.3320   216.7170    96.4260    24.3090    24.0470    18.2910    20.9680   -10.6620 
  226.7500     2.3590   219.0390    95.0370    24.3030    21.5460    17.7970    20.2940   -10.6650 
  226.8750     2.4130   220.9600    94.8970    24.3100    18.9100    17.2780    19.6280   -10.6630 
  227.0000     2.4560   222.5620    97.6050    24.3610    16.4260    16.8580    19.1340   -10.6470 
  227.1250     2.4680   223.9230    99.4020    24.4570    15.7180    16.6580    18.9650   -10.6490 
  227.2500     2.4570   225.3170    97.1060    24.5390    17.6120    16.6410    19.0360   -10.6560 
  227.3750     2.4520   227.1210    93.0460    24.5680    21.2920    16.7270    19.2100   -10.6580 
  227.5000     2.4610   229.3930    91.9270    24.5590    24.5830    16.8050    19.3200   -10.6510 
  227.6250     2.4790   231.7180    93.3310    24.5460    25.3760    16.7260    19.1660   -10.6340 
  227.7500     2.5080   233.2770    93.9350    24.5400    24.2770    16.4480    18.7360   -10.5980 
  227.8750     2.5450   233.7570    93.8690    24.5140    22.4340    16.0100    18.1070   -10.5500 
  228.0000     2.5800   233.1580    94.6570    24.4520    21.0000    15.5070    17.4190   -10.5150 
  228.1250     2.5940   231.6410    95.0380    24.3980    20.5900    15.0640    16.8430   -10.4830 
  228.2500     2.5770   229.2820    93.0860    24.3830    20.3900    14.7760    16.5080   -10.4530 
  228.3750     2.5580   226.3990    90.2420    24.3850    20.2140    14.7050    16.4910   -10.4230 
  228.5000     2.5550   223.1420    89.0550    24.3760    20.8710    14.8670    16.7950   -10.3910 
  228.6250     2.5700   219.5940    89.7100    24.3540    22.9100    15.2500    17.3620   -10.3720 
  228.7500     2.5880   215.7510    91.3340    24.3410    24.6120    15.7230    17.9980   -10.3780 
  228.8750     2.5990   211.8700    93.7950    24.3300    24.3540    16.1580    18.5190   -10.3920 
  229.0000     2.5970   208.5510    97.1560    24.2880    22.2700    16.4090    18.7480   -10.4020 
  229.1250     2.5830   206.7330    99.3260    24.2030    20.1740    16.3370    18.5280   -10.3930 
  229.2500     2.5720   207.7540    98.3180    24.1280    19.1230    16.0090    17.9940   -10.3580 
  229.3750     2.5760   211.3980    95.9340    24.0990    18.8910    15.5330    17.3240   -10.3150 
  229.5000     2.5820   217.0590    95.1790    24.1040    18.9040    15.0640    16.7420   -10.2740 
  229.6250     2.5680   223.6480    95.1180    24.1010    18.5040    14.8020    16.5310   -10.2340 
  229.7500     2.5220   229.4000    93.2090    24.0750    17.5580    14.8420    16.7710   -10.2040 
  229.8750     2.4790   232.7080    90.8500    24.0410    16.5340    15.2210    17.4700   -10.1740 
