~V
VERS. 2.00: Ver 2.00
~W
STRT.M 120.0000:
STOP.M 278.0000:
STEP.M 0.1250:
NULL. -999.2500:
UWI. DF3047:
~C
DEPT.M :
DEN.GM/CC :
SP.MV :
AC.US/MT :
GR.API :
CALI.CM :
RXO.OHMM :
RI. :
RML.OHMM :
~A
# ...
  140.0000     2.3090   -14.2190   413.5970    94.1380    26.2140     7.1390     4.4580     4.4650 
  140.1250     2.3380   -14.0530   419.1180    97.0810    26.3120     5.9030     4.1950     4.1230 
  140.2500     2.3520   -14.0050   423.1950    97.3840    26.4660     5.4200     4.0090     3.9040 
  140.3750     2.3530   -14.1210   423.4410    93.7320    26.5480     5.8800     3.9760     3.9410 
  140.5000     2.3460   -14.4200   417.6360    86.3490    26.5260     6.9420     4.1900     4.3880 
  140.6250     2.3470   -14.9030   404.0580    77.3020    26.3540     8.4880     4.8090     5.4820 
  140.7500     2.3670   -15.5000   386.0010    70.9070    26.1020    11.8080     5.8430     7.1980 
  140.8750     2.3920   -16.1960   367.4100    68.2340    25.9620    18.2190     7.2610     9.4190 
  141.0000     2.3900   -16.9570   352.8480    68.9000    26.0380    24.4670     8.8270    11.6820 
  141.1250     2.3440   -17.7110   347.5240    71.1520    26.1410    23.3780     9.9170    12.9130 
  141.2500     2.2890   -18.4260   350.9070    72.6900    26.0710    17.5290    10.1800    12.7470 
  141.3750     2.2530   -19.0760   360.5180    73.8530    25.9120    13.0050     9.7670    11.6770 
  141.5000     2.2370   -19.6360   372.0940    73.9160    25.8100    11.6100     9.1030    10.5030 
  141.6250     2.2270   -20.0980   380.8380    71.2850    25.7660    11.6100     8.5840     9.8190 
  141.7500     2.2160   -20.5090   385.4540    67.7150    25.7210    11.7200     8.3320     9.6360 
  141.8750     2.2120   -20.8700   386.9140    65.6490    25.6950    11.8860     8.3170     9.8000 
  142.0000     2.2130   -21.1730   387.0520    66.5230    25.7030    12.0070     8.4370    10.1030 
  142.1250     2.2100   -21.4110   387.4220    68.2880    25.7710    11.9610     8.5840    10.3570 
  142.2500     2.2030   -21.5940   388.2310    69.7860    25.8880    11.8180     8.6960    10.5050 
  142.3750     2.2040   -21.7190   388.6580    71.6180    26.0150    11.6700     8.7580    10.5460 
  142.5000     2.2160   -21.7840   387.5880    73.4880    26.0890    11.6560     8.7700    10.4920 
  142.6250     2.2270   -21.7980   384.2200    75.4220    26.0810    11.9330     8.7360    10.3530 
  142.7500     2.2290   -21.7530   379.8170    76.9160    26.0460    12.2680     8.6800    10.1800 
  142.8750     2.2280   -21.6480   375.9220    77.4590    26.0080    12.3240     8.6310    10.0390 
  143.0000     2.2310   -21.4880   373.6720    75.5440    25.9750    12.0260     8.6250    10.0160 
  143.1250     2.2380   -21.2680   373.3500    72.1690    25.9440    11.6960     8.7250    10.2320 
  143.2500     2.2430   -20.9850   373.8690    70.8770    25.8940    11.6360     8.9260    10.6460 
  143.3750     2.2450   -20.6190   374.7350    71.2240    25.8130    11.7900     9.1510    11.0870 
  143.5000     2.2530   -20.1700   376.0420    70.7740    25.7200    12.1560     9.2220    11.2240 
  143.6250     2.2750   -19.6220   378.4350    70.0310    25.6640    12.7970     8.8380    10.5560 
  143.7500     2.3040   -19.0340   382.2560    75.0140    25.6570    12.7680     8.0230     9.2020 
  143.8750     2.3230   -18.4400   387.7290    84.1890    25.6770    11.0210     6.9970     7.6080 
  144.0000     2.3180   -17.9010   394.3290    89.7660    25.7420     8.2850     6.0780     6.3200 
  144.1250     2.2940   -17.4550   399.1020    86.2900    25.9120     7.2060     5.6210     5.8820 
  144.2500     2.2820   -17.0760   397.6240    79.9460    26.1050     8.4240     5.7290     6.3460 
  144.3750     2.3080   -16.7260   386.3410    74.0900    26.1420    10.9090     6.4710     7.7340 
  144.5000     2.3830   -16.3640   365.4060    70.3450    25.9440    14.2690     7.8160     9.9010 
  144.6250     2.4780   -16.0090   341.0650    75.0380    25.6990    18.0600     9.3620    12.0520 
  144.7500     2.5340   -15.6570   324.0910    85.6300    25.6370    18.7570    10.1400    12.6910 
  144.8750     2.5250   -15.2920   321.1070    94.9810    25.7640    14.8250     9.5890    11.2280 
  145.0000     2.4710   -14.9000   332.7300    98.9530    25.9760     9.3350     8.1070     8.7010 
  145.1250     2.4140   -14.4960   353.8220    99.9320    26.2010     6.6620     6.5820     6.6020 
  145.2500     2.3750   -14.1350   374.2860   102.1840    26.3560     6.4320     5.4630     5.3020 
  145.3750     2.3530   -13.8940   389.1990   105.5500    26.3060     7.2880     4.7850     4.6830 
  145.5000     2.3440   -13.8420   397.6610   107.1290    26.0410     7.8940     4.4810     4.5510 
  145.6250     2.3440   -14.0180   400.8520   103.1410    25.8300     7.5680     4.5040     4.7910 
  145.7500     2.3440   -14.3670   401.2630    96.7570    25.8520     7.0710     4.7510     5.2860 
  145.8750     2.3470   -14.8760   399.2780    91.3270    25.9860     7.3920     5.2090     6.0540 
  146.0000     2.3550   -15.5000   395.1900    87.2450    26.0420     9.8470     5.8730     7.1120 
  146.1250     2.3600   -16.1860   390.2360    83.7740    25.9990    16.3570     6.7170     8.3970 
  146.2500     2.3460   -16.8890   386.3660    81.2490    25.9520    23.0390     7.5600     9.5920 
  146.3750     2.3100   -17.5700   384.3570    78.7220    25.8720    24.8350     8.1920    10.3540 
  146.5000     2.2590   -18.2010   383.9050    75.3560    25.7390    21.6450     8.4510    10.4810 
  146.6250     2.2150   -18.7440   384.4430    73.5160    25.6160    18.1630     8.3080    10.0580 
  146.7500     2.1910   -19.1970   385.7600    73.9830    25.5550    16.0490     8.0120     9.5380 
  146.8750     2.1900   -19.5650   388.1660    74.3370    25.5280    14.7400     7.7290     9.1650 
  147.0000     2.2040   -19.8520   391.5040    73.1530    25.5140    14.0780     7.5440     9.0150 
  147.1250     2.2190   -20.0980   394.7970    75.1140    25.5480    13.4940     7.4720     9.0440 
  147.2500     2.2280   -20.3130   397.2110    78.7050    25.6140    12.4800     7.4420     9.1040 
  147.3750     2.2300   -20.5140   398.8750    78.5980    25.6610    11.5040     7.4120     9.1180 
  147.5000     2.2280   -20.7120   400.5060    75.2570    25.6650    11.0690     7.3650     9.0680 
  147.6250     2.2220   -20.8910   402.7470    74.7590    25.6500    10.9880     7.3100     8.9780 
  147.7500     2.2130   -21.0340   405.2870    76.8940    25.6400    10.8270     7.2660     8.9000 
  147.8750     2.2020   -21.0920   407.5080    77.3890    25.6380    10.5760     7.2530     8.8810 
  148.0000     2.1910   -21.0270   408.5780    77.0960    25.6390    10.4550     7.3100     8.9850 
  148.1250     2.1940   -20.7600   406.5610    79.0980    25.6390    10.6240     7.4920     9.2800 
  148.2500     2.2230   -20.3170   400.3300    80.7700    25.6380    10.9010     7.7560     9.6750 
  148.3750     2.2740   -19.6930   389.8990    79.9440    25.6380    11.5270     8.0010     9.9940 
  148.5000     2.3330   -18.9000   377.3890    78.8560    25.6400    12.7700     8.0790    10.0140 
  148.6250     2.3820   -17.9760   366.8430    81.9040    25.6690    13.3750     7.8180     9.4930 
  148.7500     2.4160   -17.0170   360.5510    87.0220    25.7710    12.1530     7.2850     8.5880 
  148.8750     2.4260   -16.0880   358.5630    89.3760    25.9610    10.1180     6.6190     7.5710 
  149.0000     2.4080   -15.2400   359.6820    87.6190    26.1690     9.1310     5.9840     6.7000 
  149.1250     2.3670   -14.5310   363.2930    88.3380    26.2730     9.2630     5.5050     6.1360 
  149.2500     2.3310   -13.9610   369.1910    91.7180    26.2740     8.9920     5.1790     5.7970 
  149.3750     2.3170   -13.5340   377.3440    94.4170    26.2570     8.1280     4.9750     5.5910 
  149.5000     2.3250   -13.2420   386.2870    95.5420    26.3060     7.3220     4.8470     5.4390 
  149.6250     2.3390   -13.0590   392.7360    96.1310    26.4350     7.0670     4.7580     5.3130 
  149.7500     2.3420   -12.9250   395.2360    95.7250    26.5570     7.3280     4.6940     5.2340 
  149.8750     2.3340   -12.8190   394.5430    94.3030    26.5900     7.7830     4.6610     5.2150 
