~V
VERS. 2.00: Ver 2.00
~W
STRT.M 60.0000:
STOP.M 283.0000:
STEP.M 0.1250:
NULL. -999.2500:
UWI. DF3045:
~C
DEPT.M :
DEN.GM/CC :
SP.MV :
AC.US/MT :
GR.API :
CALI.CM :
RXO.OHMM :
RI. :
RML.OHMM :
~A
# ...
  210.0000     2.4760   -24.5770   375.1690    94.3620    23.1580     7.3930     8.1590     9.4180 
  210.1250     2.4750   -24.4210   377.3730    90.5140    23.4650     7.5740     8.2990     9.4800 
  210.2500     2.4670   -24.2930   383.3950    88.3910    23.8420     7.7640     8.4270     9.5870 
  210.3750     2.4590   -24.1970   388.2520    89.9490    24.1880     7.8950     8.5820     9.7900 
  210.5000     2.4530   -24.1560   390.7330    92.6010    24.3170     8.1550     8.8000    10.1160 
  210.6250     2.4530   -24.2030   391.0150    94.3400    24.3380     8.7560     9.0890    10.5510 
  210.7500     2.4610   -24.3510   390.8810    94.5650    24.3220     9.5210     9.4030    11.0080 
  210.8750     2.4710   -24.5810   391.8650    93.5120    24.3810    10.3900     9.7100    11.4210 
  211.0000     2.4770   -24.8640   394.0380    91.0430    24.3900    11.4150     9.9740    11.7570 
  211.1250     2.4830   -25.1610   396.6620    89.4950    24.3130    11.6970    10.1850    12.0230 
  211.2500     2.4860   -25.4220   398.7780    90.3730    24.3080    12.0490    10.4270    12.3470 
  211.3750     2.4800   -25.6780   399.1580    89.5790    24.3130    12.4760    10.8170    12.8860 
  211.5000     2.4640   -25.9070   397.3170    84.4910    24.3150    12.5920    11.4200    13.7190 
  211.6250     2.4520   -26.0900   393.1380    79.1350    24.3140    14.2510    12.3280    14.9390 
  211.7500     2.4550   -26.2390   386.4110    78.0050    24.3070    16.3560    13.5650    16.5160 
  211.8750     2.4710   -26.4020   376.1740    80.3050    24.3100    17.9020    15.1400    18.4230 
  212.0000     2.4880   -26.6390   363.6310    79.5400    24.3100    22.5450    17.0730    20.6850 
  212.1250     2.4910   -26.9590   355.7640    74.4820    24.2950    28.3730    19.6210    23.6910 
  212.2500     2.4780   -27.3740   354.6590    70.3430    24.2840    30.6070    23.0760    27.8000 
  212.3750     2.4570   -27.8430   355.6220    68.3330    24.3080    30.2030    28.1520    33.6560 
  212.5000     2.4360   -28.3470   353.2280    66.9700    24.3070    30.5290    35.7140    41.9770 
  212.6250     2.4190   -28.8960   346.7900    65.0640    24.2720    47.7140    47.1230    54.0850 
  212.7500     2.3970   -29.4360   343.2350    63.2860    24.2860    88.2050    62.1210    69.8550 
  212.8750     2.3630   -29.9430   346.8940    62.4040    24.2960   137.3760    80.0070    88.8410 
  213.0000     2.3260   -30.3660   358.8130    61.4880    24.3090   178.3000    98.7860   109.0540 
  213.1250     2.3030   -30.6800   376.5840    60.9540    24.3110   200.5690   113.6860   125.2690 
  213.2500     2.2870   -30.9120   391.9840    61.0480    24.3810   201.5580   121.6090   133.2650 
  213.3750     2.2700   -31.0930   400.4480    62.4840    24.4460   191.0200   122.2050   132.4060 
  213.5000     2.2530   -31.2560   401.6590    63.3960    24.3540   171.0390   117.8230   126.3020 
  213.6250     2.2450   -31.4240   399.0120    62.6950    24.4040   148.6850   111.8720   119.5020 
  213.7500     2.2460   -31.6380   396.2560    63.9910    24.5580   131.5000   107.0620   114.3470 
  213.8750     2.2520   -31.8880   394.4430    68.6570    24.4530   116.9190   104.3360   111.4950 
  214.0000     2.2610   -32.1770   393.7640    73.2190    24.5890   108.2350   104.2340   111.3000 
  214.1250     2.2700   -32.5210   393.0290    73.3420    24.5800   113.6830   107.6780   114.5890 
  214.2500     2.2730   -32.8610   391.4840    71.0260    24.4490   119.0790   114.5650   121.3060 
  214.3750     2.2680   -33.1870   389.8640    68.3600    24.4340   122.8850   125.5410   132.1830 
  214.5000     2.2560   -33.4770   388.4770    64.7400    24.4510   128.0380   141.1260   147.4870 
  214.6250     2.2450   -33.6960   383.8830    61.3290    24.4070   143.8040   159.9840   165.7030 
  214.7500     2.2540   -33.8210   371.9710    58.7380    24.2910   175.3550   176.6940   181.2250 
  214.8750     2.2910   -33.8920   351.8580    55.9830    24.4050   217.8410   187.4590   189.8870 
  215.0000     2.3530   -33.9530   324.6600    52.8430    24.4760   269.7570   189.9160   189.5200 
  215.1250     2.4240   -34.0300   299.6930    52.7050    24.2810   307.9550   182.7950   179.7440 
  215.2500     2.4780   -34.2060   290.9990    56.2500    24.2820   273.1410   170.6240   166.6670 
  215.3750     2.4890   -34.4360   306.2620    60.1210    24.2870   188.0390   158.3780   155.5740 
  215.5000     2.4470   -34.7090   339.4970    62.7380    24.4940   122.0520   149.9280   149.2350 
  215.6250     2.3750   -35.0260   370.2810    62.3120    24.4780   114.5610   147.9340   149.1070 
  215.7500     2.3120   -35.3680   386.4190    60.1730    24.3060   146.1860   151.3810   153.4530 
  215.8750     2.2730   -35.7090   390.8900    59.0010    23.8770   180.9120   157.6560   159.7560 
  216.0000     2.2580   -35.9900   391.6340    60.3690    23.7820   197.5830   163.5320   165.0910 
  216.1250     2.2640   -36.1780   393.2440    61.5910    24.1200   199.6410   166.4500   167.0800 
  216.2500     2.2700   -36.2040   394.6150    60.9400    24.2950   184.5970   165.3910   164.8240 
  216.3750     2.2630   -36.1200   396.3860    61.6030    24.3850   172.0710   159.7210   157.9130 
  216.5000     2.2430   -35.9780   398.9530    63.7630    24.3680   171.9820   150.3770   147.9580 
  216.6250     2.2280   -35.7960   400.8840    63.9280    24.3090   172.2710   145.3620   143.0270 
  216.7500     2.2270   -35.6300   401.3300    62.9380    24.2710   168.0310   138.6290   136.5530 
  216.8750     2.2270   -35.5300   401.0850    60.2310    24.3360   153.2110   129.9650   128.4830 
  217.0000     2.2240   -35.4650   401.1960    59.0090    24.3470   142.3340   122.7920   122.0250 
  217.1250     2.2260   -35.4100   401.7510    58.5580    24.2700   138.6560   117.8840   117.9530 
  217.2500     2.2410   -35.4040   402.2320    56.0140    24.3300   129.8800   115.4490   116.3840 
  217.3750     2.2580   -35.4940   402.3540    54.3090    24.4140   114.2260   115.7700   117.4950 
  217.5000     2.2610   -35.6540   401.5900    56.3760    24.3210   107.6170   118.7300   121.2520 
  217.6250     2.2500   -35.8530   398.1200    59.6360    24.2890   115.7570   124.0850   127.2860 
  217.7500     2.2460   -36.0420   392.0520    59.3680    24.1850   127.4100   130.5560   134.3660 
  217.8750     2.2590   -36.1810   386.0120    57.5400    24.0120   132.3340   137.2940   141.8170 
  218.0000     2.2840   -36.2340   384.2000    56.9560    23.8900   125.5540   143.6800   149.0980 
  218.1250     2.2950   -36.1810   389.9240    56.8900    23.3430   107.6090   148.7060   155.0440 
  218.2500     2.2820   -36.0910   399.1860    56.8450    22.5460    90.0820   152.1960   159.4560 
  218.3750     2.2550   -35.9730   407.0040    58.9010    22.2190    83.7350   154.5070   162.8500 
  218.5000     2.2320   -35.8380   410.5650    63.4940    22.3270    85.8800   156.2550   165.8480 
  218.6250     2.2230   -35.7120   408.4770    66.5590    22.5210    88.0420   157.8850   168.6990 
  218.7500     2.2190   -35.6210   400.8200    66.2950    22.7210    83.0590   159.4060   171.4980 
  218.8750     2.2210   -35.5750   390.5010    64.4430    22.7420    76.5730   161.0260   174.2690 
  219.0000     2.2380   -35.5810   390.6110    61.9870    22.7770    72.8970   162.7300   177.0580 
  219.1250     2.2690   -35.6160   404.4350    59.0440    22.9400    81.2920   164.4840   179.6820 
  219.2500     2.2900   -35.6640   413.8480    57.3480    23.6150   110.0800   166.1940   181.9810 
  219.3750     2.2830   -35.6830   411.4510    57.5030    24.4850   147.0620   167.8720   183.9340 
  219.5000     2.2480   -35.6850   406.0200    59.4920    24.8640   168.0020   169.6980   185.7920 
  219.6250     2.2030   -35.6120   406.9540    61.4860    24.9380   173.7210   171.6720   187.6320 
  219.7500     2.1760   -35.4780   407.0620    61.0800    24.9490   179.8640   173.6680   189.4460 
  219.8750     2.1830   -35.3300   404.4440    57.9780    24.5760   187.1660   175.3860   190.8800 
