~V
VERS. 2.00: Ver 2.00
~W
STRT.M 100.0000:
STOP.M 264.0000:
STEP.M 0.1250:
NULL. -999.2500:
UWI. DF3023:
~C
DEPT.M :
GR.API :
CALI.CM :
RXO.OHMM :
RI. :
RML.OHMM :
SP.MV :
DEN.GM/CC :
AC.US/MT :
~A
# ...
  180.0000    55.5960    25.0070    22.0520    19.4910    21.8060   -15.1910     2.6290   250.9090 
  180.1250    56.0720    25.0460    23.3710    18.9460    17.7450   -15.1420     2.5810   257.7190 
  180.2500    58.2640    25.0140    20.0370    14.0270    14.7700   -15.1370     2.5480   285.8220 
  180.3750    60.0030    24.7390    12.4630     9.3970    10.6680   -15.1740     2.5190   335.0760 
  180.5000    59.0490    24.2440     6.3410     5.8330     7.2960   -15.2140     2.5140   386.4120 
  180.6250    56.0660    23.9170     3.9360     3.7170     5.1280   -15.2200     2.5390   415.3480 
  180.7500    54.2480    23.9810     3.4940     2.5380     3.7900   -15.2000     2.5390   427.2060 
  180.8750    53.7340    24.2700     3.0640     2.0330     3.0570   -15.1640     2.4810   430.6760 
  181.0000    53.9700    24.4720     2.8770     2.0280     2.7720   -15.1290     2.3990   427.5000 
  181.1250    54.1380    24.4590     3.3430     2.4700     2.8860   -15.0990     2.3520   414.3750 
  181.2500    54.7510    24.3860     4.4150     3.1930     3.2840   -15.0660     2.3700   399.9380 
  181.3750    55.6120    24.3040     5.6970     4.0540     3.9100   -15.0550     2.4190   391.4650 
  181.5000    57.2430    24.1700     6.9380     4.8350     4.6360   -15.0900     2.4630   390.7390 
  181.6250    59.6290    23.9830     7.1270     5.2550     5.2200   -15.1550     2.4790   397.0170 
  181.7500    61.0140    23.8480     6.3690     5.3480     5.5560   -15.2160     2.4380   403.5790 
  181.8750    61.3050    23.8850     5.3260     5.2960     5.7150   -15.2500     2.3860   403.6790 
  182.0000    60.0260    24.1920     4.9920     5.2790     5.8250   -15.2440     2.3650   393.8960 
  182.1250    57.6700    24.6920     5.5910     5.3840     5.9540   -15.2370     2.3780   379.8660 
  182.2500    55.7040    25.0450     6.8310     5.5410     6.0790   -15.2850     2.4050   374.9890 
  182.3750    56.6820    25.1310     7.4870     5.6600     6.1380   -15.3770     2.4410   383.6890 
  182.5000    59.8940    25.1300     6.7640     5.6820     6.0840   -15.4820     2.4640   399.6990 
  182.6250    61.9570    25.3180     5.4160     5.6160     5.9250   -15.5930     2.4570   411.2910 
  182.7500    62.6310    25.6650     5.0890     5.6340     5.6860   -15.6950     2.4490   415.5300 
  182.8750    61.2920    25.9870     5.0470     5.6500     5.5980   -15.7850     2.4320   414.8850 
  183.0000    58.7930    26.1160     5.0990     5.6530     5.7550   -15.8890     2.4050   411.3950 
  183.1250    57.1290    26.0870     5.2570     5.7800     6.0270   -16.0150     2.3880   404.8270 
  183.2500    56.7170    26.1820     5.4350     5.9610     6.3240   -16.1190     2.3880   398.0710 
  183.3750    56.0970    26.2780     5.5520     6.1380     6.5800   -16.2020     2.3630   394.2360 
  183.5000    53.8680    26.0210     5.6960     6.2660     6.7570   -16.3000     2.3200   393.3880 
  183.6250    52.3280    25.4550     5.7870     6.3160     6.8300   -16.4340     2.3080   392.7670 
  183.7500    53.8850    25.1190     5.8110     6.3130     6.8450   -16.6140     2.3320   391.0360 
  183.8750    57.1180    25.1230     5.7530     6.2950     6.8560   -16.8690     2.3380   391.4230 
  184.0000    58.8970    25.1790     5.7060     6.3030     6.9210   -17.1920     2.3230   396.3710 
  184.1250    59.1520    25.1320     5.6500     6.3770     7.0950   -17.5590     2.3030   402.0830 
  184.2500    61.1050    25.1260     5.8070     6.5120     7.3640   -17.9640     2.3280   401.8540 
  184.3750    64.6270    25.1780     6.1300     6.6870     7.6870   -18.4100     2.3640   395.6750 
  184.5000    69.7410    25.2260     6.5150     6.8710     8.0000   -18.8760     2.3660   390.9110 
  184.6250    79.0030    25.2240     6.7740     7.0350     8.2550   -19.3890     2.3340   397.0330 
  184.7500    89.1490    25.1500     6.8910     7.1810     8.4770   -19.9830     2.3270   409.5490 
  184.8750    94.9300    24.9160     6.9650     7.3260     8.7140   -20.6420     2.3500   419.2870 
  185.0000    95.8710    24.5300     7.0750     7.4890     9.0120   -21.3270     2.3720   419.7410 
  185.1250    97.1610    24.2130     7.7320     7.6810     9.3820   -22.0110     2.3890   412.9920 
  185.2500   101.7260    24.1180     8.5770     7.8820     9.7580   -22.6440     2.4260   408.2280 
  185.3750   106.2220    24.1760     9.3050     8.0510    10.0620   -23.1760     2.4580   408.8790 
  185.5000   106.5630    24.3110     9.3470     8.1390    10.2290   -23.5940     2.4560   412.7030 
  185.6250   102.2210    24.5230     9.0180     8.1010    10.2140   -23.8870     2.4410   416.0840 
  185.7500    99.4820    24.7110     8.5470     7.9710    10.0940   -24.0820     2.4130   419.7260 
  185.8750   101.4450    24.7520     8.2860     7.8030     9.9470   -24.2380     2.3680   424.5500 
  186.0000   105.5500    24.6440     7.8020     7.6590     9.8490   -24.4140     2.3560   428.8260 
  186.1250   108.3580    24.5210     7.6350     7.6110     9.8940   -24.6070     2.3800   429.3790 
  186.2500   109.0960    24.4500     8.0430     7.6860    10.1150   -24.7970     2.3890   427.6390 
  186.3750   107.4660    24.3910     8.3580     7.9010    10.5320   -24.9910     2.3730   426.0290 
  186.5000   102.3450    24.2970     8.7500     8.2550    11.1300   -25.1900     2.3540   423.8260 
  186.6250    97.4860    24.1040     9.9360     8.7270    11.8530   -25.3930     2.3390   417.7470 
  186.7500    97.3300    23.8460    11.0450     9.2170    12.5350   -25.5890     2.3230   409.1250 
  186.8750    96.6720    23.5960    12.0230     9.6230    13.0140   -25.7170     2.3370   403.0380 
  187.0000    91.2650    23.4290    12.5010     9.8510    13.1750   -25.7140     2.3770   403.0820 
  187.1250    85.1040    23.3690    12.0950     9.8210    12.9580   -25.5290     2.4030   407.2330 
  187.2500    83.8780    23.3660    11.7750     9.6110    12.5420   -25.1850     2.4100   410.6180 
  187.3750    87.8450    23.4290    11.5410     9.3030    12.0800   -24.6820     2.4210   412.2140 
  187.5000    92.7320    23.5620    10.7910     8.9720    11.6790   -24.0480     2.4380   412.9930 
  187.6250    98.0460    23.6880    10.3570     8.6630    11.3440   -23.3120     2.4480   413.6320 
  187.7500   103.0930    23.7780    10.4530     8.3500    10.9610   -22.5170     2.4390   415.4230 
  187.8750   106.4910    23.9080    10.0080     8.0020    10.4580   -21.6930     2.4260   421.8830 
  188.0000   107.3480    24.1180     8.9560     7.6260     9.8660   -20.8570     2.4140   434.1860 
  188.1250   106.3800    24.3290     7.7740     7.2970     9.3600   -19.9900     2.4050   444.6460 
  188.2500   105.5690    24.4910     6.9770     7.1030     9.1110   -19.1080     2.3910   443.5280 
  188.3750   103.1360    24.6540     6.5410     7.1110     9.1980   -18.2610     2.3730   429.6370 
  188.5000    99.1560    24.8410     7.0650     7.3320     9.5740   -17.4790     2.3640   410.7110 
  188.6250    95.8220    24.9760     8.1750     7.6900    10.0120   -16.8080     2.3840   397.8610 
  188.7500    92.3920    25.0300     9.0000     7.9720    10.1720   -16.2560     2.4280   393.8360 
  188.8750    87.5600    25.0400     9.1430     8.0090     9.8610   -15.8020     2.4460   395.9260 
  189.0000    81.5070    25.0450     8.3010     7.7450     9.1310   -15.4180     2.4330   400.7010 
  189.1250    75.5800    24.9680     6.9860     7.2800     8.2730   -15.1170     2.4120   404.9310 
  189.2500    69.1500    24.7300     6.1430     6.8410     7.6040   -14.8840     2.3840   405.6150 
  189.3750    62.6940    24.4010     5.8750     6.5410     7.2290   -14.7010     2.3430   401.4030 
  189.5000    57.3880    24.1540     5.7010     6.4080     7.1170   -14.5770     2.3120   394.4450 
  189.6250    56.3540    24.0980     5.8740     6.4320     7.1780   -14.5470     2.3180   389.3780 
  189.7500    59.9710    24.1030     5.8840     6.5260     7.2740   -14.5880     2.3540   387.6520 
  189.8750    64.9950    24.0900     5.7190     6.6410     7.3540   -14.6880     2.3700   387.9380 
