~V
VERS. 2.00: Ver 2.00
~W
STRT.M 125.0000:
STOP.M 276.0000:
STEP.M 0.1250:
NULL. -999.2500:
UWI. DF3039:
~C
DEPT.M :
SP.MV :
GR.API :
CALI.CM :
RXO.OHMM :
RI. :
RML.OHMM :
DEN.GM/CC :
~A
# ...
  203.7500   -21.3900    83.1700    23.9910    16.4110     9.9350    15.0290     2.3840 
  203.8750   -21.7860    82.6110    23.7880    16.6590    10.2460    15.3540     2.3960 
  204.0000   -22.1310    80.9140    23.2740    16.0650    10.5090    15.5700     2.4050 
  204.1250   -22.4040    78.8610    22.9810    14.7160    10.7110    15.6870     2.4000 
  204.2500   -22.6190    78.5760    22.9070    14.2850    10.8820    15.7530     2.3910 
  204.3750   -22.7700    79.3760    22.7510    14.8330    11.0400    15.8170     2.3880 
  204.5000   -22.8630    79.8670    22.8130    15.7910    11.1890    15.8830     2.3920 
  204.6250   -22.8950    80.0410    22.8220    16.6640    11.2960    15.9200     2.3890 
  204.7500   -22.8990    77.1920    22.8300    16.5950    11.3590    15.9510     2.3740 
  204.8750   -22.8770    73.9680    22.8300    15.9530    11.4200    16.0170     2.3520 
  205.0000   -22.7900    74.2650    22.8350    15.4070    11.5030    16.1270     2.3350 
  205.1250   -22.5760    78.1320    22.8620    15.3480    11.5510    16.1660     2.3360 
  205.2500   -22.2280    79.9890    22.9130    15.9430    11.4990    16.0550     2.3470 
  205.3750   -21.7530    78.9690    22.9070    16.9370    11.2960    15.7360     2.3590 
  205.5000   -21.1850    78.8410    22.8760    17.4280    10.9350    15.1820     2.3680 
  205.6250   -20.5750    82.4870    22.9790    17.7270    10.4270    14.3900     2.3820 
  205.7500   -19.9780    86.6850    23.2790    17.6610     9.9000    13.5960     2.4000 
  205.8750   -19.4250    87.4110    23.8740    15.2610     9.4780    13.0300     2.4190 
  206.0000   -18.9470    82.7340    24.8860    11.6680     9.2590    12.8140     2.4330 
  206.1250   -18.5990    75.7270    25.0770    10.1120     9.3520    13.0500     2.4320 
  206.2500   -18.3460    72.3600    25.0910    11.8320     9.6870    13.5690     2.4120 
  206.3750   -18.1520    74.4380    24.9200    14.5250    10.1690    14.2000     2.3810 
  206.5000   -17.9950    81.7460    24.8590    17.0100    10.6680    14.7660     2.3590 
  206.6250   -17.8820    88.1920    24.7550    17.6850    11.0350    15.0590     2.3560 
  206.7500   -17.8270    87.2820    24.8390    16.6810    11.1850    14.9950     2.3620 
  206.8750   -17.8360    80.9800    25.0350    15.4040    11.0910    14.5890     2.3790 
  207.0000   -17.8910    76.8890    24.9920    14.8490    10.8400    14.0170     2.4050 
  207.1250   -17.9550    75.4510    24.5690    14.2600    10.5860    13.5260     2.4200 
  207.2500   -17.9830    70.8850    23.9940    14.7400    10.4780    13.3200     2.4110 
  207.3750   -17.9550    66.1460    23.3470    16.2480    10.6620    13.5950     2.3880 
  207.5000   -17.8850    65.4740    22.9450    16.8450    11.2240    14.4220     2.3690 
  207.6250   -17.7390    66.0690    22.8860    16.4400    12.1990    15.7530     2.3550 
  207.7500   -17.4980    65.2560    22.8630    16.3320    13.3670    17.1700     2.3460 
  207.8750   -17.1700    66.0620    22.8630    18.0400    14.4230    18.2360     2.3580 
  208.0000   -16.7260    68.2660    22.9320    23.1020    14.9640    18.5260     2.3950 
  208.1250   -16.1630    69.0730    23.0390    31.5970    14.4940    17.5830     2.4380 
  208.2500   -15.5370    70.8380    23.2280    34.1750    13.2570    15.7640     2.4650 
  208.3750   -14.8960    73.6240    23.4950    26.0450    11.6440    13.5270     2.4760 
  208.5000   -14.2500    74.3560    24.1100    14.2670    10.0700    11.3870     2.4810 
  208.6250   -13.6470    73.7130    24.4360     8.6510     8.9300     9.9100     2.4780 
  208.7500   -13.1460    74.8050    24.5360     8.4630     8.2600     9.1360     2.4690 
  208.8750   -12.7630    75.1500    24.5130     8.3080     8.0310     8.9760     2.4570 
  209.0000   -12.5170    73.5440    24.4760     7.8720     8.1480     9.2240     2.4450 
  209.1250   -12.4210    73.7680    24.5240     8.5010     8.4870     9.6440     2.4360 
  209.2500   -12.4350    75.8210    24.4930     9.6000     8.8080     9.9540     2.4340 
  209.3750   -12.5450    76.2040    24.4700    10.2960     8.9550    10.0310     2.4340 
  209.5000   -12.7250    74.2660    24.3760     9.9820     8.8930     9.8830     2.4280 
  209.6250   -12.9550    74.2690    24.2810     9.1750     8.6480     9.5510     2.4150 
  209.7500   -13.1760    76.8370    24.2740     8.2140     8.3290     9.1680     2.4050 
  209.8750   -13.3560    79.6030    24.3170     8.0730     8.0470     8.8910     2.4030 
  210.0000   -13.5360    81.6090    24.4990     8.8510     7.9390     8.9020     2.4100 
  210.1250   -13.7860    80.6840    24.4840    10.2150     8.1950     9.4730     2.4240 
  210.2500   -14.1120    79.5430    24.4780    11.5830     8.9300    10.7940     2.4390 
  210.3750   -14.4940    80.0790    24.5280    13.0280    10.3910    13.2280     2.4450 
  210.5000   -14.8900    80.4180    24.5940    14.9760    12.8640    17.0790     2.4420 
  210.6250   -15.2520    76.2280    24.5930    19.0370    16.8790    22.7560     2.4400 
  210.7500   -15.5890    69.1830    24.5210    28.0090    22.5150    30.0300     2.4510 
  210.8750   -15.9160    63.0390    24.4470    41.9040    29.8490    38.6780     2.4620 
  211.0000   -16.2380    58.7080    24.4260    57.5060    38.4510    48.0720     2.4470 
  211.1250   -16.5280    55.1830    24.4690    73.0930    47.2990    57.1920     2.3870 
  211.2500   -16.8180    54.4470    24.5370    81.6860    55.3480    65.3790     2.3160 
  211.3750   -17.1030    55.7720    24.6800    81.0150    62.1230    72.3500     2.2620 
  211.5000   -17.4030    56.8990    24.7620    76.7670    67.9900    78.5590     2.2380 
  211.6250   -17.7240    58.1730    24.8320    79.5610    73.8450    85.1870     2.2350 
  211.7500   -18.0290    60.8180    24.8680    93.0840    80.3550    92.9000     2.2360 
  211.8750   -18.2740    61.1260    24.8610   112.3190    87.3980   101.3600     2.2330 
  212.0000   -18.4460    58.1600    24.7680   124.6580    94.3340   109.5990     2.2230 
  212.1250   -18.5490    57.7470    24.7670   129.8790    99.8210   115.6970     2.2120 
  212.2500   -18.6390    61.1150    24.7770   138.1980   103.3200   118.9070     2.2080 
  212.3750   -18.7510    62.1250    24.8510   145.9680   104.6700   119.2640     2.2140 
  212.5000   -18.8670    58.3760    24.8740   142.8460   104.3900   117.7070     2.2220 
  212.6250   -18.9650    54.7110    24.7730   127.1850   103.6320   115.8640     2.2260 
  212.7500   -19.0590    54.6570    24.5470   104.9020   103.6950   115.2330     2.2290 
  212.8750   -19.1680    57.7550    24.1840    88.6050   105.0500   116.1540     2.2450 
  213.0000   -19.2700    60.0270    23.8440    88.9190   107.7330   118.4670     2.2800 
  213.1250   -19.3320    57.2700    23.8460   112.2130   111.5920   121.8530     2.3230 
  213.2500   -19.3520    54.1770    24.1580   130.9800   115.8630   125.2370     2.3470 
  213.3750   -19.3400    55.8510    24.7170   140.6880   119.8110   128.0210     2.3380 
  213.5000   -19.3550    60.2320    24.8930   145.2540   123.0760   129.9180     2.3080 
  213.6250   -19.4470    61.0860    24.8270   142.9640   125.0960   130.4630     2.2760 
  213.7500   -19.5660    59.9500    24.7660   135.3450   125.9170   129.8840     2.2520 
  213.8750   -19.6620    60.8560    24.7140   131.2280   125.7650   128.5580     2.2340 
  214.0000   -19.7270    62.0020    24.7210   137.2630   124.8650   126.7010     2.2160 
  214.1250   -19.7790    60.4500    24.8070   153.3820   123.1570   124.3450     2.2020 
  214.2500   -19.8310    58.2260    24.9820   161.3950   120.9720   121.8800     2.1950 
  214.3750   -19.8880    57.4540    25.0100   154.0650   118.8620   119.8140     2.1920 
  214.5000   -19.9290    58.1920    24.9990   134.5340   117.3360   118.6680     2.1900 
  214.6250   -19.9670    59.2630    24.9350   119.5900   117.0670   119.1940     2.1880 
  214.7500   -20.0140    59.4930    24.8840   118.5330   118.2510   121.3610     2.1890 
  214.8750   -20.0800    58.3360    24.9890   131.1230   120.9390   125.1540     2.1910 
