~V
VERS. 2.00: Ver 2.00
~W
STRT.M 57.0000:
STOP.M 272.0000:
STEP.M 0.1250:
NULL. -999.2500:
UWI. DF3050:
~C
DEPT.M :
SP.MV :
GR.API :
CALI.CM :
RXO.OHMM :
RI. :
RML.OHMM :
DEN.GM/CC :
~A
# ...
  214.5000   -20.1850    74.5770    24.5620    70.9200    67.9720    97.0580     2.2920 
  214.6250   -20.2950    72.1400    24.7810    81.9060    73.2410   104.1020     2.2670 
  214.7500   -20.3420    69.8000    24.8430    95.2790    77.5130   109.6530     2.2320 
  214.8750   -20.3530    71.7560    24.8430   104.2570    80.8940   113.9100     2.2050 
  215.0000   -20.3500    76.1110    24.8290   106.6400    83.3900   116.8310     2.1900 
  215.1250   -20.3560    78.2950    24.8320    97.1180    84.9730   118.4240     2.1810 
  215.2500   -20.3940    76.3970    24.7180    74.9240    85.9250   118.9520     2.1760 
  215.3750   -20.5110    73.9300    24.5740    61.0180    86.6070   119.1250     2.1780 
  215.5000   -20.6650    71.8770    24.6650    71.6430    87.5660   119.7510     2.1850 
  215.6250   -20.8070    69.3670    24.6720    94.6200    88.9970   120.8840     2.1890 
  215.7500   -20.8790    68.8050    24.4520   100.2660    90.6980   122.1990     2.1890 
  215.8750   -20.8860    68.9580    24.4450   103.3910    92.6190   123.6470     2.1890 
  216.0000   -20.8480    69.5650    24.6580   103.8140    94.7090   125.0920     2.1930 
  216.1250   -20.7890    70.0260    24.7010   103.9770    96.5440   126.0420     2.2020 
  216.2500   -20.7380    69.4460    24.5630   109.0180    97.4630   125.8290     2.2110 
  216.3750   -20.7220    67.0960    24.6310   115.3270    97.5760   124.6840     2.2150 
  216.5000   -20.7550    64.8940    24.6990   118.3050    96.7720   122.3610     2.2130 
  216.6250   -20.8380    67.1520    24.5590   116.2260    94.7340   118.4770     2.2070 
  216.7500   -20.9660    71.6960    24.5500   107.6930    91.5010   113.3320     2.2030 
  216.8750   -21.0820    74.2690    24.6390    99.7260    87.9450   108.2230     2.2040 
  217.0000   -21.1700    75.1110    24.7320    94.6010    84.8480   104.0740     2.2070 
  217.1250   -21.2100    77.7620    24.7470    91.3610    82.8640   101.6190     2.2090 
  217.2500   -21.2080    80.6340    24.7470    86.2590    82.8600   101.8380     2.2110 
  217.3750   -21.1550    78.4900    24.7490    80.8850    84.7410   104.4190     2.2130 
  217.5000   -21.1060    72.0830    24.7670    80.1110    88.2920   108.9120     2.2150 
  217.6250   -21.1120    66.4190    24.7500    92.3400    93.1040   114.8340     2.2100 
  217.7500   -21.1720    65.4840    24.7480   109.4980    98.6990   121.6200     2.2020 
  217.8750   -21.2950    66.0600    24.7510   122.1150   104.5600   128.6180     2.1990 
  218.0000   -21.4320    67.1400    24.7470   125.2970   110.5290   135.7170     2.2010 
  218.1250   -21.5700    70.5570    24.7430   122.2030   116.7550   143.2280     2.2020 
  218.2500   -21.6690    74.7590    24.6580   122.1720   123.6690   151.8210     2.2050 
  218.3750   -21.7190    74.6290    24.6440   128.3510   131.3800   161.4510     2.2100 
  218.5000   -21.6960    70.5760    24.5220   146.9700   139.9110   172.0290     2.2160 
  218.6250   -21.6120    67.2180    24.4590   173.8370   148.7540   182.6460     2.2160 
  218.7500   -21.5150    68.0250    24.6350   186.8440   156.7360   191.4070     2.2060 
  218.8750   -21.4420    70.3710    24.5510   172.7610   162.9100   197.1840     2.1910 
  219.0000   -21.4320    72.0760    24.2960   149.3960   166.5170   198.9490     2.1740 
  219.1250   -21.4960    72.7670    24.1870   129.0710   166.7310   196.0130     2.1660 
  219.2500   -21.5990    71.8580    23.8070   113.9750   163.0430   188.2610     2.1710 
  219.3750   -21.7100    70.2280    23.7480   111.3840   156.4500   177.6330     2.1860 
  219.5000   -21.7850    67.2660    23.9400   124.3890   148.0390   165.8570     2.2000 
  219.6250   -21.7890    63.9270    24.2430   138.7370   138.9260   154.0650     2.2060 
  219.7500   -21.7160    63.9970    24.3980   139.1560   130.0750   143.4400     2.2080 
  219.8750   -21.5790    67.7100    24.3680   125.8910   121.9800   134.2230     2.2100 
  220.0000   -21.4000    72.5640    24.2930   115.5170   115.3850   127.0920     2.2140 
  220.1250   -21.2040    75.2670    24.2760   112.0600   110.9450   122.7930     2.2200 
  220.2500   -21.0680    76.5760    24.5110   117.0530   109.3420   121.9390     2.2250 
  220.3750   -20.9840    77.8120    24.7190   120.4250   110.4560   124.3300     2.2250 
  220.5000   -20.9600    76.6300    24.7710   115.7850   114.8860   130.4380     2.2190 
  220.6250   -20.9540    70.9110    24.8750   107.5000   123.2190   140.8230     2.2190 
  220.7500   -20.9180    63.9490    25.0040   108.5710   136.2470   156.3320     2.2350 
  220.8750   -20.8500    59.4980    24.9170   135.1970   152.7530   175.7520     2.2630 
  221.0000   -20.7490    57.7230    24.8760   168.1990   170.8520   197.2480     2.2870 
  221.1250   -20.6180    57.8690    25.0110   190.6710   187.4120   217.1420     2.2800 
  221.2500   -20.4400    59.3460    24.9920   215.7860   197.9280   229.5160     2.2450 
  221.3750   -20.2610    60.3490    24.9030   230.6340   200.6900   232.2190     2.2070 
  221.5000   -20.1190    61.5980    24.9850   234.4330   195.6600   225.3850     2.1850 
  221.6250   -20.0320    63.1480    24.9960   221.3000   185.0440   212.5180     2.1790 
  221.7500   -19.9910    62.9050    24.8480   199.4070   172.6330   199.0330     2.1750 
  221.8750   -19.9710    62.2550    24.7630   169.4000   162.1670   188.5190     2.1690 
  222.0000   -19.9240    63.6500    24.7470   144.6600   154.9040   181.9360     2.1650 
  222.1250   -19.8250    66.5360    24.7440   138.6100   151.1000   179.1190     2.1640 
  222.2500   -19.6730    67.1090    24.7350   138.4840   150.4890   179.2020     2.1620 
  222.3750   -19.4930    64.8630    24.7300   133.1300   151.1880   180.3120     2.1630 
  222.5000   -19.3400    61.6330    24.7410   131.3000   152.3830   181.4900     2.1660 
  222.6250   -19.2150    58.5280    24.7650   142.8560   153.2420   181.8850     2.1710 
  222.7500   -19.1390    57.2480    24.8690   162.5320   152.8410   180.4820     2.1760 
  222.8750   -19.0990    58.3590    25.0200   175.6070   150.8050   177.2220     2.1810 
  223.0000   -19.0870    60.1120    25.0150   176.2300   147.3410   172.5410     2.1870 
  223.1250   -19.0990    60.8470    24.8940   165.0800   142.7120   166.6480     2.1920 
  223.2500   -19.0990    60.6240    24.9290   155.9300   136.8060   159.1320     2.1960 
  223.3750   -19.0380    62.0660    25.0100   152.1650   129.7170   150.1150     2.1990 
  223.5000   -18.9270    65.4810    24.8680   146.7370   121.6870   139.9350     2.2040 
  223.6250   -18.8310    68.9990    24.7640   133.6300   113.3610   129.6450     2.2110 
  223.7500   -18.7670    71.4180    24.7350   115.9180   105.9130   120.7770     2.2150 
  223.8750   -18.7270    71.9090    24.7250   104.3660   100.2920   114.5700     2.2120 
  224.0000   -18.6970    71.0620    24.6500    90.5170    97.4880   112.0390     2.2040 
  224.1250   -18.6540    71.4650    24.4720    73.5820    97.7080   113.0830     2.1950 
  224.2500   -18.6080    72.3690    24.5170    80.3000   100.7730   117.2330     2.1870 
  224.3750   -18.5710    71.5960    24.6550    91.9240   105.1620   122.4780     2.1830 
  224.5000   -18.5390    70.4090    24.7500   103.1730   108.7200   126.0480     2.1780 
  224.6250   -18.5140    70.4890    24.7910   120.7870   108.8570   124.9260     2.1790 
  224.7500   -18.4950    69.3810    24.9180   143.1470   103.3930   116.7780     2.1950 
  224.8750   -18.4680    65.4780    24.7090   137.2710    94.0130   104.3080     2.2240 
  225.0000   -18.4680    63.0880    24.7040   105.7370    82.5360    90.0540     2.2560 
  225.1250   -18.5070    64.4840    24.7200    74.3750    71.2440    76.8880     2.2680 
  225.2500   -18.5680    69.2550    24.4850    69.9590    62.5310    67.4090     2.2630 
  225.3750   -18.6110    73.3210    24.3390    68.9670    56.6670    61.3520     2.2470 
  225.5000   -18.5990    73.0930    24.6430    60.4840    53.4810    58.3340     2.2250 
  225.6250   -18.5320    69.7190    24.7310    52.3670    52.6200    57.8690     2.2060 
