~V
VERS. 2.00: Ver 2.00
~W
STRT.M 56.0000:
STOP.M 260.0000:
STEP.M 0.1250:
NULL. -999.2500:
UWI. DF3033:
~C
DEPT.M :
GR.API :
RML.OHMM :
RI. :
RXO.OHMM :
CALI.CM :
DEN.GM/CC :
SP.MV :
~A
# ...
  247.2500    77.1840    18.7560    17.1500    17.8500    24.3460     2.2870   -16.1900 
  247.3750    77.4360    18.6170    17.0940    17.8430    24.3490     2.2760   -16.2020 
  247.5000    77.8710    18.0650    16.6720    18.1860    24.3530     2.2690   -16.1560 
  247.6250    77.3350    17.2020    15.9620    18.1220    24.3400     2.2790   -16.1160 
  247.7500    76.3710    16.2780    15.1750    17.8980    24.3080     2.3080   -16.0710 
  247.8750    75.6300    15.5420    14.5080    17.5430    24.2780     2.3500   -16.0110 
  248.0000    76.8560    15.3330    14.2160    16.8040    24.2410     2.3940   -15.9550 
  248.1250    78.0640    16.1450    14.6740    16.8870    24.1960     2.4260   -15.8460 
  248.2500    77.0430    17.8460    15.8060    17.5350    24.1830     2.4410   -15.7290 
  248.3750    76.3520    19.9540    17.2780    18.0870    24.2020     2.4420   -15.5380 
  248.5000    76.8290    21.6020    18.4520    20.3960    24.2410     2.4330   -15.3200 
  248.6250    76.8730    21.5250    18.3410    24.8730    24.2760     2.4150   -14.9860 
  248.7500    77.2410    19.5940    16.7760    30.4180    24.2400     2.3940   -14.6480 
  248.8750    78.6770    16.4110    14.1810    28.5020    24.1130     2.3750   -14.2930 
  249.0000    78.2770    13.0900    11.4200    16.1100    23.9370     2.3660   -13.9470 
  249.1250    75.3210    10.7660     9.3800     8.3660    23.8530     2.3700   -13.6990 
  249.2500    75.3210     9.5770     8.2000     6.3590    23.8290     2.3790   -13.4730 
  249.3750    75.3210     9.3220     7.7650     6.2850    23.8350     2.3830   -13.3210 
  249.5000    75.3210     9.6470     7.8470     6.6460    23.8530     2.3740   -13.1900 
  249.6250    75.3210    10.1560     8.1870     6.7140    23.8950     2.3500   -13.1850 
  249.7500    75.3210    10.4970     8.4790     6.7670    23.9390     2.3240   -13.1530 
  249.8750    75.3210    10.5530     8.5870     6.8650    23.9610     2.3060   -13.1480 
  250.0000    75.3210    10.3750     8.4970     7.0130    23.9590     2.3000   -13.1710 
  250.1250    75.3210    10.1220     8.2820     7.2110    23.9030     2.3100   -13.1010 
  250.2500    75.3210     9.9380     8.0700     7.2200    23.8620     2.3250   -13.0610 
  250.3750    75.3210     9.8410     7.9170     6.9270    23.7970     2.3360   -12.9760 
  250.5000    75.3210     9.7860     7.8330     6.6740    23.7020     2.3390   -12.9090 
  250.6250    75.3210     9.7320     7.7960     6.4790    23.7870     2.3360   -12.8490 
  250.7500    75.3210     9.6940     7.7600     6.4190    23.9770     2.3360   -12.8140 
  250.8750    75.3210     9.7060     7.7030     6.4180    24.1600     2.3430   -12.8250 
  251.0000    75.3210     9.7720     7.6260     6.4530    24.2400     2.3600   -12.7990 
  251.1250    75.3210     9.8460     7.5470     6.5840    24.2480     2.3820   -12.7930 
  251.2500    75.3210     9.8750     7.4900     6.7000    24.2550     2.4000   -12.7960 
  251.3750    75.3210     9.8560     7.4660     6.6370    24.2690     2.4110   -12.8400 
  251.5000    75.3210     9.8270     7.4740     6.5230    24.2930     2.4120   -12.8420 
  251.6250    75.3210     9.8390     7.5000     6.3590    24.3110     2.4020   -12.9010 
  251.7500    75.3210     9.9000     7.5190     6.2850    24.2130     2.3880   -12.9760 
  251.8750    75.3210     9.9850     7.5170     6.1450    23.9880     2.3720   -12.9820 
  252.0000    75.3210    10.0550     7.4890     5.9560    23.9150     2.3610   -12.9700 
  252.1250    75.3210    10.0730     7.4450     5.9170    24.0470     2.3610   -13.0520 
  252.2500    75.3210    10.0540     7.4070     5.9520    24.2020     2.3730   -13.1100 
  252.3750    75.3210    10.0480     7.3910     6.0710    24.2720     2.3960   -13.1550 
  252.5000    75.3210    10.1200     7.4060     6.2370    24.3170     2.4230   -13.2200 
  252.6250    75.3210    10.3150     7.4510     6.3830    24.3520     2.4420   -13.2920 
  252.7500    75.3210    10.4600     7.4820     6.4600    24.3670     2.4480   -13.3420 
  252.8750    75.3210    10.7670     7.5400     6.5390    24.3760     2.4370   -13.3650 
  253.0000    75.3210    10.7650     7.5420     6.5850    24.3760     2.4170   -13.4220 
  253.1250    75.3210    10.6370     7.5300     6.6110    24.3760     2.3990   -13.3880 
  253.2500    75.3210    10.4700     7.5170     6.6690    24.3760     2.3970   -13.3640 
  253.3750    75.3210    10.3570     7.5150     6.6730    24.2880     2.4150   -13.3120 
  253.5000    75.3210    10.3470     7.5200     6.5370    24.0240     2.4480   -13.2930 
  253.6250    75.3210    10.3970     7.5250     6.4080    23.6860     2.4800   -13.2280 
  253.7500    75.3210    10.4700     7.5290     6.3450    23.6050     2.4970   -13.1290 
  253.8750    75.3210    10.5340     7.5320     6.3660    23.7370     2.4930   -13.0160 
  254.0000    75.3210    10.5750     7.5360     6.4930    23.9250     2.4720   -12.9150 
  254.1250    75.3210    10.6000     7.5350     6.6620    23.9820     2.4420   -12.9230 
  254.2500    75.3210    10.6110     7.5290     6.9050    23.8630     2.4130   -12.9180 
  254.3750    75.3210    10.5980     7.5190     7.2040    23.7670     2.3890   -12.9550 
  254.5000    75.3210    10.5480     7.5140     7.6210    23.8420     2.3720   -12.9150 
  254.6250    75.3210    10.4730     7.5160     8.0350    24.1160     2.3650   -12.8890 
  254.7500    75.3210    10.3960     7.5230     8.3700    24.1620     2.3660   -12.9520 
  254.8750    75.3210    10.3370     7.5300     8.2810    24.0050     2.3730   -13.0600 
  255.0000    75.3210    10.3130     7.5340     7.7920    24.0140     2.3830   -13.1590 
  255.1250    75.3210    10.3080     7.5350     7.5390    24.0500     2.3940   -13.1360 
  255.2500    75.3210    10.3080     7.5350     7.4540    23.8130     2.4050   -13.1680 
  255.3750    75.3210    10.3080     7.5350     7.4690    23.5690     2.4140   -13.1450 
  255.5000    75.3210    10.3080     7.5350     7.8050    23.5450     2.4220   -13.2020 
  255.6250    75.3210    10.3080     7.5350     8.1930    23.7360     2.4300   -13.2710 
  255.7500    75.3210    10.3080     7.5350     8.3880    23.9460     2.4370   -13.2350 
  255.8750    75.3210    10.3080     7.5350     8.4770    23.9700     2.4440   -13.2830 
  256.0000    75.3210    10.3080     7.5350     8.8670    24.0620     2.4490   -13.3540 
  256.1250    75.3210    10.3080     7.5350     9.4610    24.0230     2.4490   -13.3760 
  256.2500    75.3210    10.3080     7.5350    10.1690    23.7310     2.4450   -13.3610 
  256.3750    75.3210    10.3080     7.5350    10.9060    23.4740     2.4410   -13.3680 
  256.5000    75.3210    10.3080     7.5350    11.5460    23.3810     2.4400   -13.4030 
  256.6250    75.3210    10.3080     7.5350    12.2410    23.3730     2.4470   -13.4020 
  256.7500    75.3210    10.3080     7.5350    13.0330    23.3700     2.4610   -13.4460 
  256.8750    75.3210    10.3080     7.5350    14.2460    23.3690     2.4770   -13.4310 
  257.0000    75.3210    10.3080     7.5350    15.9320    23.3530     2.4850   -13.3790 
  257.1250    75.3210    10.3080     7.5350    16.8300    23.3200     2.4710   -13.3350 
  257.2500    75.3210    10.3080     7.5350    16.9440    23.2900     2.4310   -13.3610 
  257.3750    75.3210    10.3080     7.5350    17.1080    23.2770     2.3660   -13.4230 
  257.5000    75.3210    10.3080     7.5350    15.9710    23.1590     2.2860   -13.3790 
  257.6250    75.3210    10.3080     7.5350    14.4260    22.5580     2.2090   -13.4080 
  257.7500    75.3210    10.3080     7.5350    13.4950    21.2090     2.1470   -13.4220 
  257.8750    75.3210    10.3080     7.5350    12.9690    19.6400     2.1060   -13.3800 
  258.0000    75.3210    10.3080     7.5350    12.7000    18.9870     2.0840   -13.4400 
  258.1250    75.3210    10.3080     7.5350    12.5920    18.8360     2.0770   -13.5500 
  258.2500    75.3210    10.3080     7.5350    12.5780    18.8360     2.0760   -13.5500 
  258.3750    75.3210    10.3080     7.5350    12.5780    18.8360     2.0770   -13.5500 
