~V
VERS. 2.00: Ver 2.00
~W
STRT.M 60.0000:
STOP.M 266.0000:
STEP.M 0.1250:
NULL. -999.2500:
UWI. DF3052:
~C
DEPT.M :
GR.API :
CALI.CM :
RXO.OHMM :
RI. :
RML.OHMM :
DEN.GM/CC :
SP.MV :
~A
# ...
  116.2500    99.0260    23.4020     7.1290     5.2220     5.6230     2.2010   -13.6390 
  116.3750   100.8460    23.2720     6.7110     5.1750     5.6220     2.2100   -13.6090 
  116.5000   101.0790    23.1430     5.9410     5.2460     5.7180     2.2480   -13.6070 
  116.6250    98.2620    23.0820     5.5340     5.3520     5.8280     2.2800   -13.5770 
  116.7500    94.7600    23.0760     5.3960     5.4200     5.8860     2.2870   -13.5090 
  116.8750    92.7310    23.0680     5.3930     5.4250     5.8740     2.2790   -13.4120 
  117.0000    92.9800    23.0420     5.3490     5.3750     5.8110     2.2740   -13.3090 
  117.1250    94.6950    23.0730     5.2250     5.2920     5.7250     2.2810   -13.2050 
  117.2500    96.3570    23.1750     5.0860     5.2230     5.6760     2.2950   -13.0940 
  117.3750    97.5170    23.2620     5.0390     5.2530     5.7600     2.3070   -12.9920 
  117.5000    97.8820    23.2380     5.2420     5.4700     6.0250     2.3120   -12.9350 
  117.6250    97.1340    23.1230     6.0070     5.9350     6.5080     2.3160   -12.9540 
  117.7500    95.4600    23.0460     7.0710     6.5430     7.1300     2.3220   -13.0330 
  117.8750    93.4870    23.0340     8.1950     7.1980     7.7980     2.3350   -13.1510 
  118.0000    92.0730    23.0380     9.4630     7.7450     8.3290     2.3590   -13.2970 
  118.1250    92.2820    23.0260    10.8850     7.9140     8.4320     2.3990   -13.4980 
  118.2500    93.7980    22.9500    11.1450     7.6890     8.0950     2.4370   -13.7600 
  118.3750    95.5100    22.8100     9.8080     7.1480     7.4450     2.4500   -14.0590 
  118.5000    95.9260    22.7130     7.8850     6.4560     6.7080     2.4240   -14.3750 
  118.6250    94.5130    22.7860     6.6700     5.8310     6.1160     2.3690   -14.6590 
  118.7500    92.3190    22.9210     6.2440     5.3990     5.7520     2.3160   -14.8860 
  118.8750    90.5850    23.0000     6.2220     5.1920     5.6160     2.2790   -15.0600 
  119.0000    90.5170    23.0140     6.2900     5.1730     5.6660     2.2580   -15.1680 
  119.1250    92.0690    23.0180     6.1340     5.3040     5.8480     2.2480   -15.1520 
  119.2500    93.9290    23.0120     5.8840     5.4520     6.0310     2.2420   -15.0410 
  119.3750    96.4430    23.0040     5.6790     5.5380     6.1310     2.2440   -14.8400 
  119.5000   100.3930    23.0110     5.5920     5.5450     6.1300     2.2540   -14.5780 
  119.6250   103.9170    23.0390     5.4830     5.4990     6.0730     2.2680   -14.3320 
  119.7500   104.1420    23.0550     5.4050     5.4450     6.0070     2.2780   -14.1340 
  119.8750   100.7830    23.0430     5.3910     5.4090     5.9670     2.2820   -13.9980 
  120.0000    95.8260    23.0390     5.5170     5.4190     5.9780     2.2800   -13.9250 
  120.1250    92.5670    23.1030     5.9790     5.4740     6.0360     2.2720   -13.9090 
  120.2500    92.3370    23.1830     6.5150     5.5550     6.1290     2.2600   -13.9370 
  120.3750    93.8050    23.1880     6.6930     5.6570     6.2470     2.2500   -14.0040 
  120.5000    94.9170    23.1130     6.4030     5.7620     6.3610     2.2460   -14.0960 
  120.6250    94.7020    23.0830     5.9250     5.8320     6.4220     2.2450   -14.1420 
  120.7500    93.9870    23.1590     5.7320     5.8330     6.3960     2.2370   -14.1280 
  120.8750    93.8380    23.2980     5.7710     5.7420     6.2670     2.2260   -14.0470 
  121.0000    96.1040    23.4730     5.8480     5.5680     6.0620     2.2280   -13.9560 
  121.1250   102.0930    23.7360     5.6310     5.3740     5.8290     2.2580   -13.8960 
  121.2500   108.2880    24.0640     5.1840     5.1920     5.6180     2.2930   -13.8640 
  121.3750   110.6510    24.3560     4.8070     5.0570     5.4970     2.3140   -13.8800 
  121.5000   107.8340    24.5130     4.7370     5.0110     5.4960     2.3200   -13.9630 
  121.6250   102.9470    24.4890     5.2010     5.0630     5.6090     2.3330   -14.1850 
  121.7500   100.7330    24.4000     6.0140     5.1470     5.7540     2.3630   -14.5590 
  121.8750   101.6250    24.3520     6.5910     5.2590     5.9310     2.3960   -15.0900 
  122.0000   102.3220    24.3790     6.4890     5.4130     6.1570     2.4080   -15.7330 
  122.1250    98.6250    24.3720     5.9010     5.6500     6.4740     2.3820   -16.4760 
  122.2500    92.7220    24.2090     5.8280     6.0060     6.8940     2.3300   -17.2490 
  122.3750    88.4930    23.9380     6.3660     6.4740     7.3940     2.2720   -18.0260 
  122.5000    86.9650    23.7120     7.2130     7.0160     7.9550     2.2270   -18.7590 
  122.6250    84.5970    23.6480     7.9900     7.5980     8.5390     2.2080   -19.3790 
  122.7500    79.6140    23.6560     8.6220     8.1300     9.0410     2.2030   -19.8440 
  122.8750    74.3100    23.6560     8.9820     8.4750     9.3030     2.1970   -20.0940 
  123.0000    71.0640    23.6590     9.0140     8.5250     9.2240     2.1880   -20.1040 
  123.1250    70.0710    23.7110     8.7850     8.2560     8.8140     2.1840   -19.8340 
  123.2500    70.6010    23.7680     8.5850     7.8070     8.2580     2.1840   -19.3840 
  123.3750    73.3890    23.7900     8.3690     7.2810     7.6650     2.1820   -18.7810 
  123.5000    78.5980    23.8130     7.9930     6.7500     7.0930     2.1780   -18.0800 
  123.6250    84.0400    23.9280     7.2980     6.2920     6.6520     2.1840   -17.3250 
  123.7500    86.8130    24.0880     6.5680     5.9530     6.3550     2.2010   -16.5830 
  123.8750    86.7030    24.1500     6.1520     5.7460     6.2030     2.2190   -15.9070 
  124.0000    85.9300    24.0250     6.2080     5.6440     6.1480     2.2260   -15.3200 
  124.1250    87.1670    23.8170     6.5280     5.5980     6.1280     2.2190   -14.8590 
  124.2500    89.9350    23.7430     6.6110     5.5570     6.1060     2.2160   -14.4890 
  124.3750    92.9340    23.8520     6.3010     5.5030     6.0520     2.2300   -14.2430 
  124.5000    95.4560    24.0280     5.8130     5.4120     5.9440     2.2630   -14.1150 
  124.6250    97.1270    24.1140     5.4720     5.2680     5.7690     2.2980   -14.1070 
  124.7500    97.6590    24.1180     5.2920     5.0950     5.5930     2.3190   -14.1850 
  124.8750    97.2890    24.1100     5.2020     4.9580     5.4840     2.3300   -14.3390 
  125.0000    97.0690    24.1200     5.1230     4.9020     5.4810     2.3450   -14.5720 
  125.1250    97.5520    24.1010     4.9870     4.9670     5.6140     2.3670   -14.8890 
  125.2500    97.3690    24.0350     4.8580     5.1680     5.9000     2.3780   -15.2890 
  125.3750    95.0830    23.9680     4.8690     5.5030     6.3350     2.3730   -15.7220 
  125.5000    90.4820    23.9550     5.1890     5.9420     6.8630     2.3620   -16.1770 
  125.6250    84.3250    24.0070     5.9030     6.4010     7.3860     2.3570   -16.5990 
  125.7500    78.7110    24.0210     6.6170     6.8080     7.8210     2.3540   -16.9380 
  125.8750    75.7020    23.9270     7.0730     7.0960     8.1020     2.3460   -17.2060 
  126.0000    76.0830    23.7660     7.3180     7.2240     8.1880     2.3240   -17.4140 
  126.1250    78.1610    23.6660     7.5330     7.2330     8.1380     2.2910   -17.5770 
  126.2500    78.9870    23.6500     7.6320     7.2700     8.1160     2.2600   -17.7310 
  126.3750    78.3560    23.6560     7.5320     7.5050     8.3310     2.2460   -17.8940 
  126.5000    77.6030    23.6460     7.3540     8.0950     8.9630     2.2500   -18.0550 
  126.6250    76.4410    23.6270     7.7290     9.1620    10.1070     2.2630   -18.2670 
  126.7500    72.6010    23.6350     9.0780    10.5470    11.5520     2.2820   -18.5680 
  126.8750    65.6880    23.7160    11.6430    12.0220    13.0470     2.3150   -18.9600 
  127.0000    58.8620    23.8200    14.8590    13.2520    14.2540     2.3630   -19.4190 
  127.1250    56.4550    23.7660    16.9370    13.7690    14.6610     2.4030   -19.8960 
  127.2500    57.2090    23.5170    16.1960    13.5380    14.2630     2.4020   -20.3260 
  127.3750    58.2590    23.1990    13.5750    12.7070    13.2770     2.3510   -20.6890 
