~V
VERS. 2.00: Ver 2.00
~W
STRT.M 125.0000:
STOP.M 269.0000:
STEP.M 0.1250:
NULL. -999.2500:
UWI. DF3004:
~C
DEPT.M :
GR.API :
RML.OHMM :
RI. :
RXO.OHMM :
CALI.CM :
DEN.GM/CC :
SP.MV :
~A
# ...
  181.2500    71.6670   155.4070   126.8760   122.2990    24.6170     2.2360   -22.5250 
  181.3750    67.7740   154.4610   125.9850   124.9490    24.6420     2.2320   -22.5550 
  181.5000    67.3500   147.8170   120.7510   135.2480    24.6310     2.2280   -22.4300 
  181.6250    68.4520   133.6390   109.7950   134.6230    24.5650     2.2280   -22.2920 
  181.7500    69.9500   114.8150    95.1210   119.2490    24.5070     2.2320   -22.1740 
  181.8750    73.0260    95.2730    79.5110    97.7010    24.5090     2.2400   -21.9190 
  182.0000    76.6490    79.4500    66.3220    79.7860    24.5540     2.2480   -21.7770 
  182.1250    78.2650    72.1060    59.4780    59.7710    24.5620     2.2510   -21.5880 
  182.2500    74.9270    73.9790    60.0540    53.6170    24.5490     2.2470   -21.4870 
  182.3750    68.3820    86.1920    69.3260    66.7940    24.5780     2.2350   -21.4550 
  182.5000    64.6850   109.2550    87.9270   107.2740    24.6680     2.2220   -21.4230 
  182.6250    67.9650   142.8180   115.6520   158.8960    24.7530     2.2110   -21.5270 
  182.7500    70.9670   179.4050   146.1790   181.1210    24.7960     2.2030   -21.5700 
  182.8750    68.1830   210.2470   172.3250   179.8230    24.8290     2.1980   -21.7640 
  183.0000    63.3870   225.9330   186.6250   188.4560    24.8500     2.1920   -21.8750 
  183.1250    63.4740   217.6050   182.1730   203.7500    24.8560     2.1850   -21.9950 
  183.2500    65.9620   193.1150   164.6070   201.1210    24.8560     2.1790   -22.0400 
  183.3750    67.1520   162.4840   140.9850   177.3610    24.8560     2.1780   -22.0520 
  183.5000    67.6390   134.7210   118.2200   144.0550    24.8560     2.1830   -22.1130 
  183.6250    70.7000   115.6230   101.5840   107.1610    24.8560     2.1960   -21.9950 
  183.7500    73.8540   103.7450    90.9330    81.4480    24.8550     2.2100   -21.9480 
  183.8750    74.6800    97.0310    84.9590    71.8520    24.8450     2.2230   -21.8830 
  184.0000    75.4160    93.2480    81.8330    77.1660    24.8220     2.2320   -21.8020 
  184.1250    75.2220    90.5890    79.9050    84.4190    24.7970     2.2370   -21.7730 
  184.2500    72.8190    87.7680    77.8460    82.1440    24.7830     2.2400   -21.7410 
  184.3750    71.1110    84.5280    75.2770    73.5770    24.7610     2.2440   -21.6950 
  184.5000    73.7180    81.2080    72.3650    68.2120    24.7120     2.2480   -21.7160 
  184.6250    76.1780    79.0140    69.9950    67.4650    24.6800     2.2510   -21.8120 
  184.7500    75.9620    79.3200    69.4180    66.5740    24.6620     2.2520   -21.9020 
  184.8750    77.4850    83.9020    72.3050    64.9660    24.6770     2.2550   -21.9280 
  185.0000    81.0650    95.3070    81.0730    64.1940    24.7260     2.2600   -22.0400 
  185.1250    80.4880   119.8200   101.1690    71.6190    24.8000     2.2720   -22.0640 
  185.2500    74.7410   160.3250   134.5710    94.7600    24.7640     2.2930   -22.0610 
  185.3750    68.4400   218.2740   181.7020   139.1000    24.6150     2.3220   -22.0580 
  185.5000    64.9260   289.3260   238.1430   213.6360    24.4780     2.3600   -21.8690 
  185.6250    62.8930   358.8360   291.4990   325.5000    24.4620     2.3980   -21.7570 
  185.7500    60.8540   406.7390   327.1340   404.5260    24.4250     2.4260   -21.5450 
  185.8750    58.7290   419.3770   336.0910   380.3260    24.3340     2.4340   -21.3840 
  186.0000    57.3730   396.5980   318.9760   339.3270    24.2290     2.4170   -21.1670 
  186.1250    57.7580   351.1840   284.4540   296.4460    24.2210     2.3780   -20.9900 
  186.2500    59.3880   303.7030   247.4230   240.6520    24.2260     2.3300   -20.8770 
  186.3750    61.2240   262.2250   214.3530   190.4710    24.2310     2.2850   -20.7460 
  186.5000    61.7460   229.8190   188.0720   157.7520    24.2310     2.2510   -20.7820 
  186.6250    61.5910   208.8060   170.7890   133.6020    24.2200     2.2320   -20.7460 
  186.7500    61.0830   196.9760   161.0380   119.0460    24.1840     2.2240   -20.8400 
  186.8750    60.3480   192.9610   157.8960   115.3080    24.1360     2.2220   -20.9850 
  187.0000    60.2070   194.5980   159.7410   116.9040    24.1330     2.2220   -21.1240 
  187.1250    62.0920   198.8420   164.2610   131.5920    24.2690     2.2220   -21.3520 
  187.2500    65.0940   201.5710   167.9820   156.5160    24.4510     2.2210   -21.5210 
  187.3750    67.6140   200.1890   168.6150   174.3300    24.5610     2.2180   -21.6770 
  187.5000    68.4390   193.5300   164.9350   182.9580    24.5930     2.2160   -21.8260 
  187.6250    66.9380   181.6350   156.5800   171.6860    24.5950     2.2150   -21.9530 
  187.7500    66.9480   167.5640   145.8970   149.8080    24.6080     2.2150   -22.0460 
  187.8750    69.7300   153.6240   134.7860   132.0830    24.6320     2.2170   -22.0020 
  188.0000    71.1200   141.4950   124.7600   125.3940    24.6360     2.2210   -21.9970 
  188.1250    67.7900   132.3240   116.8890   114.9950    24.6230     2.2260   -21.8750 
  188.2500    65.2190   125.3860   110.7280   103.5590    24.6470     2.2300   -21.7800 
  188.3750    66.7370   119.8560   105.6380    98.7400    24.7020     2.2310   -21.7540 
  188.5000    70.5010   114.8150   100.8760   101.2450    24.7460     2.2300   -21.5700 
  188.6250    73.4480   109.5340    95.8600   103.4070    24.7660     2.2280   -21.5100 
  188.7500    75.3860   103.9360    90.5960    99.1510    24.7790     2.2280   -21.3740 
  188.8750    76.2200    98.7790    85.5110    91.3830    24.7820     2.2310   -21.3070 
  189.0000    77.0230    94.9820    81.3900    84.0370    24.7760     2.2370   -21.1910 
  189.1250    76.5850    94.1050    79.7490    80.1700    24.7830     2.2470   -21.0400 
  189.2500    73.5060    96.4110    81.3210    77.8860    24.7870     2.2590   -20.8740 
  189.3750    69.7450   102.0220    86.6200    77.7020    24.7930     2.2670   -20.6120 
  189.5000    68.6240   109.6370    95.4250    80.9540    24.8090     2.2680   -20.4530 
  189.6250    68.2160   118.7320   106.5090    92.9350    24.8340     2.2590   -20.1770 
  189.7500    65.5410   127.6040   116.7930   115.7050    24.8120     2.2440   -20.0410 
  189.8750    64.1660   135.4560   123.6050   141.1840    24.7230     2.2300   -19.8960 
  190.0000    65.3090   137.4200   125.2150   150.3070    24.5850     2.2220   -19.7630 
  190.1250    66.6440   133.1650   121.1830   135.7460    24.5220     2.2260   -19.8010 
  190.2500    66.3940   126.4810   114.6850   118.5480    24.5050     2.2420   -19.8150 
  190.3750    66.2050   120.0460   108.0910   102.4200    24.5050     2.2690   -19.8610 
  190.5000    67.5570   115.1720   102.7840    92.6770    24.5050     2.3020   -19.9710 
  190.6250    68.1150   111.9040    99.0820    92.7600    24.5220     2.3340   -20.0560 
  190.7500    66.6450   109.2660    96.1600    97.6780    24.5790     2.3520   -20.0160 
  190.8750    64.9670   106.9470    93.6630   100.7030    24.6650     2.3520   -19.9720 
  191.0000    66.3490   105.1340    91.6580    96.1690    24.7020     2.3370   -19.8970 
  191.1250    69.9290   104.5880    90.7610    88.3110    24.6480     2.3150   -19.6810 
  191.2500    72.6460   105.8380    91.4700    83.1120    24.5650     2.2910   -19.4400 
  191.3750    73.6800   109.7320    94.5300    87.3780    24.4890     2.2670   -19.2530 
  191.5000    72.0520   117.3830   100.8020    97.9080    24.3670     2.2410   -18.8840 
  191.6250    69.3850   130.3980   111.5000   108.4990    24.0790     2.2160   -18.5710 
  191.7500    68.8110   146.9030   125.1330   106.8690    23.7750     2.2010   -18.2160 
  191.8750    68.9700   163.1080   138.8470   102.8300    23.6110     2.2030   -17.8150 
  192.0000    65.3880   172.9040   147.9370   116.1890    23.5840     2.2260   -17.4500 
  192.1250    58.1650   167.0980   145.0870   144.7390    23.7330     2.2700   -17.0200 
  192.2500    53.2250   146.0990   129.8910   156.1830    24.0100     2.3260   -16.6530 
  192.3750    53.1710   116.0030   105.9270   148.9230    24.2330     2.3830   -16.1590 
