~V
VERS. 2.00: Ver 2.00
~W
STRT.M 100.0000:
STOP.M 258.0000:
STEP.M 0.1250:
NULL. -999.2500:
UWI. DF3025:
~C
DEPT.M :
AC.US/MT :
DEN.GM/CC :
GR.API :
CALI.CM :
RXO.OHMM :
RI. :
RML.OHMM :
SP.MV :
~A
# ...
  110.0000   438.5470     2.1820    77.6730    23.3200    10.2470     6.9050     8.8070   -31.7310 
  110.1250   439.3700     2.1780    76.5650    23.3060    10.7030     7.0540     9.0250   -31.5870 
  110.2500   440.5180     2.1680    76.7500    23.2780    10.9830     7.2030     9.1840   -31.4380 
  110.3750   443.0380     2.1610    77.4120    23.2780    10.8330     7.2890     9.2260   -31.2690 
  110.5000   447.3140     2.1630    76.8040    23.3500    10.5050     7.3030     9.1680   -31.0530 
  110.6250   452.7060     2.1710    74.9610    23.4940    10.5210     7.2920     9.0920   -30.7700 
  110.7500   457.2030     2.1790    73.9920    23.6220    10.6720     7.3200     9.0650   -30.4450 
  110.8750   458.8950     2.1870    73.7590    23.6980    10.5700     7.3930     9.0810   -30.0680 
  111.0000   457.2430     2.1920    73.8940    23.7410    10.7320     7.4530     9.0650   -29.6200 
  111.1250   454.2170     2.1930    72.3030    23.7810    10.8680     7.3730     8.8800   -29.0900 
  111.2500   452.5930     2.1970    70.2820    23.8300    10.3880     7.1140     8.5070   -28.4980 
  111.3750   451.9220     2.2090    70.1340    23.9090     8.3780     6.7080     8.0010   -27.8310 
  111.5000   450.8830     2.2270    72.6360    24.0040     5.9460     6.2350     7.4560   -27.0850 
  111.6250   449.1870     2.2410    76.6680    23.9880     5.0860     5.7890     6.9810   -26.2810 
  111.7500   447.4410     2.2460    79.9210    23.8000     5.5590     5.4240     6.6170   -25.4560 
  111.8750   445.3860     2.2480    82.0510    23.5140     5.9630     5.1680     6.3790   -24.6590 
  112.0000   443.1720     2.2500    84.3500    23.2820     5.8560     5.0370     6.2640   -23.9640 
  112.1250   442.1920     2.2510    88.3000    23.2410     5.4300     5.0440     6.2690   -23.4420 
  112.2500   442.0340     2.2470    92.0580    23.3010     5.4690     5.1310     6.3380   -23.0490 
  112.3750   441.4950     2.2380    91.9990    23.3600     5.9190     5.2490     6.4210   -22.7510 
  112.5000   440.5800     2.2320    89.1210    23.3820     6.2430     5.3420     6.4560   -22.5220 
  112.6250   440.9450     2.2370    89.3640    23.4040     5.9390     5.3530     6.3780   -22.3710 
  112.7500   443.1200     2.2530    92.9460    23.4340     5.7180     5.2760     6.1930   -22.3060 
  112.8750   446.7110     2.2730    96.5090    23.4910     5.6450     5.1210     5.9320   -22.3240 
  113.0000   450.5070     2.2890    96.8690    23.6520     5.2410     4.9030     5.6380   -22.3890 
  113.1250   453.6490     2.2930    96.2950    23.9830     4.7360     4.6390     5.3520   -22.4490 
  113.2500   457.7030     2.2830    99.2980    24.3480     4.6060     4.3610     5.0920   -22.5030 
  113.3750   464.1240     2.2690   104.4630    24.6210     4.4470     4.0970     4.8670   -22.5820 
  113.5000   471.2510     2.2660   105.1910    24.7740     4.1790     3.8740     4.6890   -22.7290 
  113.6250   472.1950     2.2870   101.5660    24.8840     4.0200     3.7400     4.6030   -22.9800 
  113.7500   464.2510     2.3160   101.3010    24.9360     4.1410     3.7020     4.6140   -23.2780 
  113.8750   450.8780     2.3310   103.3990    24.8120     4.4420     3.7560     4.7290   -23.5840 
  114.0000   439.9530     2.3250   101.5700    24.5180     4.6960     3.8900     4.9410   -23.9150 
  114.1250   438.2510     2.3070    93.0420    24.2500     5.1020     4.1000     5.2440   -24.3590 
  114.2500   441.4550     2.2890    84.0200    24.1050     5.8470     4.3670     5.6050   -24.9390 
  114.3750   443.8290     2.2710    78.5660    23.9480     6.3950     4.6900     6.0140   -25.6240 
  114.5000   442.5200     2.2480    77.2510    23.6660     6.9150     5.0680     6.4610   -26.3480 
  114.6250   439.5770     2.2260    77.2710    23.3430     7.6770     5.4870     6.9300   -27.0380 
  114.7500   437.8030     2.2110    75.5600    23.1370     8.5380     5.9050     7.3900   -27.6800 
  114.8750   436.8620     2.2060    72.0160    23.0670     9.2910     6.2990     7.8140   -28.2570 
  115.0000   435.3280     2.2040    69.1770    23.0510     9.8040     6.6550     8.1670   -28.7250 
  115.1250   433.3830     2.2020    67.8580    23.0190     9.7580     6.9120     8.3460   -29.0050 
  115.2500   433.3070     2.2000    68.7940    22.9830     9.7250     6.9930     8.2840   -29.1220 
  115.3750   435.6180     2.2070    70.6610    22.9580     9.7960     6.8340     7.9570   -29.1130 
  115.5000   439.1860     2.2290    71.3330    22.9640     9.4910     6.4570     7.4470   -29.0010 
  115.6250   441.7840     2.2610    72.5110    23.1080     8.3820     5.9960     6.9600   -28.7600 
  115.7500   442.4160     2.2800    75.8200    23.4060     6.7050     5.6550     6.6900   -28.4230 
  115.8750   441.3540     2.2720    79.9740    23.6830     5.9950     5.5540     6.7300   -28.0220 
  116.0000   439.6240     2.2450    83.4350    23.6920     6.8600     5.7220     7.0610   -27.6120 
  116.1250   438.3840     2.2220    83.3010    23.3970     8.3800     6.0750     7.5100   -27.2890 
  116.2500   438.3130     2.2150    78.4610    23.1100     9.1890     6.3440     7.7480   -27.0840 
  116.3750   440.9090     2.2300    72.0690    22.9740     8.9600     6.2910     7.5200   -26.9920 
  116.5000   447.9220     2.2650    70.8330    22.9510     8.0950     5.8140     6.7830   -26.9830 
  116.6250   459.0740     2.3120    77.1040    22.9990     6.6210     5.0380     5.7900   -26.9930 
  116.7500   470.3530     2.3530    83.5950    23.2120     5.2960     4.3070     4.9680   -26.9380 
  116.8750   471.9400     2.3790    88.4750    23.6580     4.4100     3.8060     4.5260   -26.7830 
  117.0000   454.9810     2.3890    90.6770    24.2350     4.2120     3.6190     4.5330   -26.5660 
  117.1250   421.8890     2.3790    88.5910    24.6620     4.6590     3.8420     5.0580   -26.4080 
  117.2500   395.9100     2.3450    83.8930    24.7400     6.8720     4.4270     5.9590   -26.4330 
  117.3750   392.8320     2.2960    78.7850    24.4700     9.6570     5.3110     7.0780   -26.7200 
  117.5000   408.9700     2.2450    73.7040    24.0390    10.9600     6.3180     8.1440   -27.2660 
  117.6250   425.0780     2.2140    68.6760    23.7140     9.7330     7.1090     8.7670   -28.0090 
  117.7500   429.9710     2.2030    66.3070    23.5520     9.4100     7.5080     8.8970   -28.7790 
  117.8750   427.1670     2.2040    66.4640    23.4590     9.2580     7.5600     8.6980   -29.4520 
  118.0000   424.3580     2.2100    67.3390    23.3820     9.1490     7.4490     8.4360   -29.9500 
  118.1250   423.5760     2.2190    67.8870    23.3340     9.0170     7.3660     8.3360   -30.2310 
  118.2500   423.9480     2.2310    67.5160    23.3170     8.9290     7.3750     8.4170   -30.3420 
  118.3750   424.6180     2.2390    67.4670    23.3180     8.9660     7.4600     8.6290   -30.3190 
  118.5000   424.4110     2.2370    68.5280    23.3170     9.0340     7.5850     8.8980   -30.2080 
  118.6250   423.0610     2.2290    71.8440    23.3000     9.0560     7.7100     9.1450   -30.0400 
  118.7500   421.8280     2.2280    75.0760    23.2690     9.0740     7.8160     9.3230   -29.8460 
  118.8750   421.4230     2.2360    76.2160    23.2290     9.1510     7.9030     9.4270   -29.6550 
  119.0000   421.4530     2.2480    75.2700    23.1810     9.3020     7.9780     9.4780   -29.5090 
  119.1250   420.8100     2.2560    73.5200    23.1390     9.3920     8.0240     9.4870   -29.4300 
  119.2500   419.1110     2.2600    72.6730    23.1380     9.4540     8.0210     9.4600   -29.3670 
  119.3750   417.2580     2.2580    72.8740    23.1830     9.4700     7.9510     9.3790   -29.2970 
  119.5000   416.6160     2.2490    74.7370    23.2350     9.3700     7.8060     9.2220   -29.2190 
  119.6250   418.6070     2.2330    76.8230    23.2530     9.1940     7.6010     8.9830   -29.1440 
  119.7500   422.1920     2.2130    74.6680    23.2530     9.1170     7.3860     8.7160   -29.0830 
  119.8750   426.0150     2.1990    69.5520    23.2590     9.0430     7.1980     8.4810   -29.0320 
