~V
VERS. 2.00: Ver 2.00
~W
STRT.M 125.0000:
STOP.M 275.0000:
STEP.M 0.1250:
NULL. -999.2500:
UWI. DF3046:
~C
DEPT.M :
GR.API :
CALI.CM :
RXO.OHMM :
RI. :
RML.OHMM :
DEN.GM/CC :
SP.MV :
~A
# ...
  181.2500    62.3990    25.0350    99.8180   137.0960   156.9850     2.2210   -25.8910 
  181.3750    65.2980    25.0060   106.7800   140.5190   161.3320     2.2170   -25.8820 
  181.5000    64.3620    24.9670   117.2450   146.0170   167.7720     2.2160   -25.8380 
  181.6250    62.5100    24.9240   128.6270   152.2920   174.8590     2.2210   -25.7500 
  181.7500    62.1530    24.8810   140.0630   157.0640   180.1580     2.2250   -25.6090 
  181.8750    61.6940    24.8550   152.3560   158.4880   181.7490     2.2220   -25.4340 
  182.0000    59.0720    24.8190   160.0060   155.5740   178.7310     2.2150   -25.2470 
  182.1250    57.2370    24.7620   156.5080   148.4900   171.4230     2.2200   -25.0840 
  182.2500    59.7520    24.6690   143.2120   140.1730   162.9800     2.2370   -24.9490 
  182.3750    63.2430    24.5290   125.5850   133.0810   156.1130     2.2510   -24.7950 
  182.5000    63.7460    24.4500   111.7160   129.2870   153.1540     2.2490   -24.6940 
  182.6250    62.8700    24.5160   112.0770   131.0010   156.5780     2.2330   -24.5830 
  182.7500    63.1700    24.6000   125.1850   137.5550   165.3880     2.2160   -24.4710 
  182.8750    63.5080    24.5980   151.3250   147.3700   177.4800     2.2070   -24.3830 
  183.0000    61.7160    24.5210   195.4680   157.1440   188.8590     2.2110   -24.3360 
  183.1250    60.1100    24.4620   240.5060   161.5120   193.4280     2.2260   -24.3350 
  183.2500    59.4900    24.4500   248.1120   158.7040   189.6000     2.2430   -24.3300 
  183.3750    59.5580    24.4650   201.2720   150.0010   178.8740     2.2540   -24.3210 
  183.5000    60.5920    24.4640   134.5850   138.7050   164.8940     2.2620   -24.2610 
  183.6250    62.3450    24.4330   109.6040   128.1930   151.4940     2.2730   -24.2090 
  183.7500    64.8700    24.4070   118.3940   119.6080   140.1930     2.2890   -24.1760 
  183.8750    66.4310    24.3840   139.0810   112.6650   130.7220     2.3010   -24.1530 
  184.0000    65.6760    24.3570   145.0310   106.5800   122.1110     2.3040   -24.1100 
  184.1250    64.4570    24.3060   129.7710   100.1790   113.1670     2.3000   -24.0060 
  184.2500    66.3600    24.2490   116.8660    92.7320   103.4350     2.2930   -23.8560 
  184.3750    69.5180    24.1960   111.9490    84.4570    93.3160     2.2860   -23.6910 
  184.5000    70.1810    24.1640   100.6780    76.2990    83.7490     2.2810   -23.5260 
  184.6250    69.2230    24.1550    76.3270    69.7280    76.1360     2.2880   -23.3860 
  184.7500    69.8900    24.1160    55.7130    65.3520    70.8450     2.3020   -23.2430 
  184.8750    71.5440    24.1030    51.3870    63.2770    67.8050     2.3100   -23.0810 
  185.0000    72.0850    24.2050    58.2170    62.9190    66.3970     2.3020   -22.9230 
  185.1250    71.4990    24.3710    63.0750    63.1840    65.6420     2.2890   -22.7560 
  185.2500    71.0210    24.5160    66.2560    62.9500    64.5270     2.2900   -22.5800 
  185.3750    69.8380    24.6230    64.2830    61.7900    62.7490     2.3030   -22.3950 
  185.5000    67.9720    24.6760    54.1490    59.8470    60.5580     2.3170   -22.2190 
  185.6250    67.4800    24.7000    43.3810    57.8600    58.6990     2.3230   -22.0150 
  185.7500    69.6500    24.7250    43.1290    56.5590    57.6200     2.3220   -21.8260 
  185.8750    72.2160    24.7520    50.5210    55.8780    57.1020     2.3210   -21.6660 
  186.0000    72.1380    24.7330    55.4280    55.0250    56.3540     2.3210   -21.5030 
  186.1250    70.3140    24.5770    51.8880    52.7900    54.2550     2.3190   -21.3610 
  186.2500    69.3080    24.3710    45.2110    49.1920    50.8790     2.3060   -21.2550 
  186.3750    69.1920    24.2410    38.2650    45.1370    47.1200     2.2840   -21.1570 
  186.5000    70.0430    24.1860    33.2590    42.0650    44.4480     2.2640   -21.0880 
  186.6250    73.6460    24.1800    31.2810    41.9590    45.0210     2.2550   -21.0800 
  186.7500    77.7090    24.1820    37.4870    45.5480    49.6120     2.2520   -21.1190 
  186.8750    78.8780    24.1640    51.1010    53.5050    58.7650     2.2510   -21.2110 
  187.0000    76.7330    24.1180    67.7930    66.0560    72.3290     2.2560   -21.3580 
  187.1250    73.1890    24.0530    86.6910    82.3840    89.0050     2.2640   -21.5880 
  187.2500    69.3630    24.0460   107.3940    98.2630   104.9100     2.2680   -21.8290 
  187.3750    66.6890    24.1260   123.0630   109.8700   116.7270     2.2680   -22.0850 
  187.5000    66.9520    24.2970   131.4710   115.2850   122.5240     2.2710   -22.3010 
  187.6250    68.9060    24.4510   128.2340   114.3590   121.7810     2.2800   -22.5140 
  187.7500    70.4900    24.5890   118.7110   109.9930   117.5700     2.2850   -22.6710 
  187.8750    70.4920    24.6490   118.9670   104.1250   112.0600     2.2810   -22.7480 
  188.0000    68.0570    24.6750   119.6770    98.5380   107.0660     2.2710   -22.7530 
  188.1250    64.9790    24.6920   104.9330    94.8910   104.3140     2.2680   -22.6650 
  188.2500    65.3450    24.7340    79.6110    93.6360   104.1460     2.2770   -22.5430 
  188.3750    67.9630    24.8140    76.3540    94.7860   106.4600     2.2960   -22.4390 
  188.5000    67.7270    24.9150    97.1140    97.7980   110.6280     2.3130   -22.3700 
  188.6250    65.1270    24.9860   112.3450   101.9690   115.7920     2.3120   -22.3190 
  188.7500    65.3970    24.9520   111.9120   106.4820   121.1240     2.2990   -22.3130 
  188.8750    67.8640    24.8870   102.6780   111.2770   126.7560     2.2850   -22.3960 
  189.0000    68.4310    24.8260    98.5250   116.9910   133.6140     2.2720   -22.5710 
  189.1250    66.3930    24.7940   110.6340   125.5300   143.8740     2.2520   -22.7720 
  189.2500    65.9020    24.7750   101.3290   137.9910   158.5540     2.2300   -22.9850 
  189.3750    67.4260    24.7950    93.2490   154.7530   177.9420     2.2180   -23.1710 
  189.5000    67.4690    24.8250   134.6630   174.7830   200.7290     2.2180   -23.3560 
  189.6250    65.0860    24.8570   235.2490   194.6530   222.8250     2.2220   -23.5380 
  189.7500    63.6430    24.8750   492.9390   209.2990   238.5600     2.2310   -23.7170 
  189.8750    63.0520    24.8820   886.1890   214.5000   243.5060     2.2470   -23.8400 
  190.0000    62.3210    24.8830  1177.0200   208.5190   236.4120     2.2630   -23.8970 
  190.1250    62.6390    24.8830  1041.9420   193.1640   219.8960     2.2720   -23.9440 
  190.2500    64.2040    24.8790   654.7450   176.4310   202.5140     2.2750   -24.0000 
  190.3750    66.1610    24.8660   307.4280   163.9120   190.1990     2.2760   -24.0850 
  190.5000    67.7420    24.8380   173.7590   159.2920   186.8630     2.2710   -24.1600 
  190.6250    67.5830    24.8360   135.8350   166.4310   196.4070     2.2520   -24.2310 
  190.7500    66.1910    24.8570   151.2430   184.0170   217.0380     2.2260   -24.3390 
  190.8750    65.9470    24.8760   415.0550   210.0960   246.3620     2.2070   -24.4430 
  191.0000    66.1870    24.8810   899.9360   239.9850   279.0000     2.2010   -24.5440 
  191.1250    63.5420    24.8680  1278.7760   265.1900   305.7200     2.1990   -24.6900 
  191.2500    59.6150    24.8490  1298.9690   280.3590   321.3940     2.1900   -24.8580 
  191.3750    58.2710    24.8450  1079.7660   285.7380   326.1320     2.1780   -25.0210 
  191.5000    58.6780    24.8640   750.7750   285.5100   323.3450     2.1760   -25.1470 
  191.6250    58.1990    24.8760   639.3920   282.2320   314.1850     2.1880   -25.2380 
  191.7500    58.2810    24.8780   832.9900   273.4100   297.1690     2.2070   -25.2380 
  191.8750    58.8920    24.8690  1066.1330   254.4600   269.7250     2.2300   -25.2330 
  192.0000    59.1530    24.8460  1141.8350   224.6760   233.2090     2.2520   -25.2100 
  192.1250    59.1420    24.8270   925.6190   189.1710   193.8970     2.2680   -25.1550 
  192.2500    59.7930    24.8270   535.7480   156.5560   159.4060     2.2750   -25.0560 
  192.3750    61.8790    24.8400   212.8480   131.0000   133.1020     2.2780   -24.9470 
