~V
VERS. 2.00: Ver 2.00
~W
STRT.M 67.0000:
STOP.M 264.0000:
STEP.M 0.1250:
NULL. -999.2500:
UWI. DF3014:
~C
DEPT.M :
GR.API :
CALI.CM :
RXO.OHMM :
RI. :
RML.OHMM :
DEN.GM/CC :
SP.MV :
~A
# ...
  123.2500    72.4340    23.3390     7.9220     6.4710     7.9660     2.2370   -30.9000 
  123.3750    70.5140    23.3400     7.9930     6.4640     7.9710     2.2320   -30.5580 
  123.5000    68.0240    23.4150     8.1190     6.7430     8.4810     2.2310   -30.2010 
  123.6250    67.8960    23.3240     8.5510     7.4950     9.7380     2.2690   -29.8430 
  123.7500    69.2950    23.3680     9.8650     8.6900    11.5330     2.3580   -29.5030 
  123.8750    68.2180    23.4840    13.2970    10.2410    13.6110     2.4890   -29.2400 
  124.0000    64.4290    23.1490    18.1690    11.9050    15.5320     2.6330   -29.1150 
  124.1250    63.8240    23.3030    23.1130    13.0860    16.5950     2.7270   -29.1640 
  124.2500    65.4850    23.4370    25.7700    13.3320    16.4680     2.7330   -29.3200 
  124.3750    66.0800    23.7090    24.8270    12.6310    15.2400     2.6500   -29.5580 
  124.5000    65.5850    23.6580    19.9070    11.3370    13.3740     2.5190   -29.8660 
  124.6250    66.8800    23.6230    13.8980     9.9370    11.5550     2.3980   -30.2500 
  124.7500    67.9610    23.4880    10.4850     8.7850    10.2240     2.3120   -30.6250 
  124.8750    66.4120    23.2770     9.2500     7.9990     9.4930     2.2570   -30.9180 
  125.0000    64.8260    23.2820     8.8250     7.5640     9.2480     2.2220   -31.1160 
  125.1250    63.8840    23.1540     8.7330     7.4550     9.3450     2.2040   -31.2290 
  125.2500    63.9240    23.2770     8.7870     7.5050     9.5140     2.1990   -31.2840 
  125.3750    66.8060    23.1530     8.9810     7.6090     9.6220     2.2010   -31.2880 
  125.5000    71.8280    22.8350     8.9750     7.6810     9.5960     2.2030   -31.2320 
  125.6250    73.3390    22.6300     8.7560     7.6950     9.4630     2.2080   -31.1130 
  125.7500    71.9160    22.6360     8.3620     7.6800     9.3130     2.2170   -31.0280 
  125.8750    71.3040    22.5530     8.2790     7.6540     9.1980     2.2240   -31.0060 
  126.0000    70.7410    22.8660     8.2920     7.6340     9.1410     2.2180   -31.0250 
  126.1250    68.6780    22.8880     7.9910     7.6460     9.1410     2.2010   -31.0250 
  126.2500    66.7970    22.8170     8.1800     7.6890     9.1850     2.1940   -30.9880 
  126.3750    65.7740    22.7350     8.7270     7.7530     9.2670     2.2080   -30.9380 
  126.5000    66.1820    22.7490     8.9120     7.8180     9.3570     2.2350   -30.9030 
  126.6250    68.1340    22.9250     8.7900     7.8790     9.4050     2.2490   -30.8800 
  126.7500    69.0610    22.9750     8.6800     7.9290     9.4500     2.2480   -30.8140 
  126.8750    67.0730    23.0060     8.6760     7.9730     9.4990     2.2470   -30.7210 
  127.0000    64.0770    23.0330     8.8170     8.0070     9.5410     2.2470   -30.6160 
  127.1250    62.8470    23.1220     8.9880     8.0150     9.5610     2.2310   -30.5590 
  127.2500    62.3460    23.3050     8.8780     7.9820     9.5660     2.2070   -30.5520 
  127.3750    62.7560    23.3760     8.7310     7.9240     9.5390     2.1970   -30.5310 
  127.5000    65.8390    23.4420     8.8070     7.8600     9.5060     2.2040   -30.4630 
  127.6250    69.3490    23.3030     8.8130     7.8020     9.4980     2.2090   -30.3490 
  127.7500    70.2000    22.9200     8.7640     7.7740     9.5340     2.2100   -30.2290 
  127.8750    69.6660    22.7750     8.5810     7.7900     9.6120     2.2140   -30.0900 
  128.0000    68.9250    22.9400     8.2740     7.8340     9.7000     2.2200   -29.9210 
  128.1250    67.2500    22.9590     8.5230     7.8740     9.7590     2.2130   -29.6550 
  128.2500    66.3950    22.8610     8.8620     7.8720     9.7410     2.1990   -29.3350 
  128.3750    67.5850    22.7440     8.9380     7.8080     9.6270     2.1990   -29.0280 
  128.5000    68.3100    22.7560     8.7440     7.6890     9.4580     2.2190   -28.7620 
  128.6250    66.8980    22.9800     8.0580     7.5980     9.3410     2.2510   -28.5390 
  128.7500    65.0750    23.1200     7.4380     7.6220     9.3850     2.2660   -28.3560 
  128.8750    66.3440    23.4200     7.4290     7.7810     9.6340     2.2570   -28.2140 
  129.0000    70.1180    23.5380     7.9450     8.1100    10.1240     2.2410   -28.1330 
  129.1250    71.5030    23.5440     8.7810     8.6570    10.8720     2.2680   -28.1520 
  129.2500    67.5140    23.5280     9.9610     9.3340    11.7230     2.3480   -28.2250 
  129.3750    61.1050    23.5410    11.0840    10.0370    12.5470     2.4450   -28.3440 
  129.5000    57.9640    23.5420    11.4180    10.6350    13.1870     2.5110   -28.5170 
  129.6250    57.8540    23.4580    11.1720    10.9820    13.4690     2.5070   -28.7520 
  129.7500    58.5060    23.2840    11.1490    11.0420    13.3870     2.4580   -29.0020 
  129.8750    60.0290    23.2200    11.8760    10.8300    12.9860     2.3910   -29.1930 
  130.0000    62.8230    23.1970    12.2590    10.4150    12.3650     2.3320   -29.2860 
  130.1250    65.7240    23.3510    10.9840     9.8850    11.6240     2.2930   -29.2890 
  130.2500    66.7180    23.5380     9.7970     9.3440    10.9120     2.2650   -29.2190 
  130.3750    64.4810    23.5420     9.2560     8.8820    10.3500     2.2430   -29.0710 
  130.5000    60.7670    23.5160     9.2020     8.6270    10.1250     2.2360   -28.8230 
  130.6250    60.9390    23.5410     9.2450     8.7270    10.4690     2.2530   -28.4470 
  130.7500    64.3100    23.5600     9.3630     9.1210    11.2180     2.2770   -27.9930 
  130.8750    65.6310    23.5970     9.6580     9.7510    12.2430     2.2990   -27.5380 
  131.0000    63.5930    23.6190    10.0180    10.4620    13.2750     2.3300   -27.1020 
  131.1250    61.9360    23.8690    11.1700    10.8380    13.7400     2.3860   -26.6510 
  131.2500    62.7460    23.9990    14.4990    10.6480    13.4110     2.4510   -26.2000 
  131.3750    65.9650    24.1120    17.1690     9.9120    12.3440     2.4920   -25.7760 
  131.5000    72.5000    24.2010    14.5330     8.8080    10.7850     2.4920   -25.4190 
  131.6250    79.3640    24.1770     9.6020     7.6410     9.1660     2.4640   -25.1610 
  131.7500    82.5590    23.9800     7.5210     6.7710     8.0480     2.4310   -24.9580 
  131.8750    81.7620    23.7910     6.5060     6.3370     7.6150     2.3930   -24.8240 
  132.0000    78.5620    23.7430     5.1220     6.3340     7.8010     2.3440   -24.7780 
  132.1250    73.5990    23.6220     6.1680     6.7850     8.5400     2.2990   -24.8420 
  132.2500    68.5890    23.6060     7.5290     7.4840     9.4640     2.2790   -24.9400 
  132.3750    66.0130    23.6160     8.4720     8.1660    10.2090     2.2810   -24.9870 
  132.5000    66.5110    23.6580     8.9730     8.5520    10.4720     2.2870   -24.9370 
  132.6250    68.9180    23.7140     9.5660     8.4520    10.1040     2.2870   -24.8030 
  132.7500    72.4940    23.8470     9.1870     7.9570     9.2940     2.2910   -24.6410 
  132.8750    79.2240    23.7070     7.4040     7.2130     8.2610     2.3080   -24.4430 
  133.0000    89.7210    23.6760     5.2920     6.4290     7.2880     2.3300   -24.2110 
  133.1250    97.8090    23.9010     4.8540     5.7710     6.5650     2.3470   -23.9620 
  133.2500    98.4570    24.2030     4.4510     5.2790     6.0930     2.3560   -23.7630 
  133.3750    95.5390    24.4420     4.2500     4.9810     5.8800     2.3620   -23.6820 
  133.5000    95.6820    24.5120     4.1650     4.8810     5.9230     2.3590   -23.7170 
  133.6250    97.4640    24.5080     4.2820     4.9710     6.1950     2.3420   -23.8250 
  133.7500    94.5480    24.5090     4.5440     5.1780     6.5740     2.3230   -23.9910 
  133.8750    87.7510    24.4410     4.8960     5.4490     6.9910     2.3100   -24.2170 
  134.0000    81.3010    23.9180     5.6170     5.7280     7.3610     2.3010   -24.4850 
  134.1250    79.2210    23.4640     6.3750     5.9710     7.6250     2.2950   -24.7660 
  134.2500    80.3800    23.0370     6.7830     6.1650     7.8110     2.3050   -25.0190 
  134.3750    83.5190    22.8820     6.8790     6.3420     7.9980     2.3300   -25.2270 
