~V
VERS. 2.00: Ver 2.00
~W
STRT.M 125.0000:
STOP.M 275.0000:
STEP.M 0.1250:
NULL. -999.2500:
UWI. DF3074:
~C
DEPT.M :
GR.API :
CALI.CM :
RXO.OHMM :
RI. :
RML.OHMM :
DEN.GM/CC :
SP.MV :
~A
# ...
  170.0000    57.2880    25.1890    11.7080    13.5270    16.2290     2.5850    -9.6840 
  170.1250    55.8100    25.2260    11.5310    13.3300    15.9780     2.5830    -9.7190 
  170.2500    53.3790    25.2680    11.5740    13.2300    15.8580     2.5850    -9.8120 
  170.3750    52.4320    25.3190    11.7600    13.2400    15.8940     2.5820    -9.9610 
  170.5000    53.4590    25.3440    11.8400    13.3490    16.0690     2.5700   -10.0940 
  170.6250    54.8560    25.3490    11.8050    13.5170    16.3210     2.5590   -10.2700 
  170.7500    55.0290    25.3580    11.8490    13.6630    16.5320     2.5550   -10.3980 
  170.8750    55.7970    25.3740    11.9550    13.7300    16.6130     2.5530   -10.5320 
  171.0000    56.9620    25.3610    11.8400    13.6780    16.5130     2.5510   -10.6950 
  171.1250    55.9800    25.3380    11.4360    13.4940    16.2200     2.5560   -10.8300 
  171.2500    55.1050    25.3000    11.1270    13.2360    15.8240     2.5670   -10.9580 
  171.3750    56.9590    25.2490    11.1390    12.9590    15.4090     2.5780   -11.0420 
  171.5000    60.2260    25.2390    11.2490    12.7280    15.0710     2.5840   -11.1190 
  171.6250    61.0950    25.2360    11.1550    12.6380    14.9350     2.5820   -11.2220 
  171.7500    60.0650    25.2320    11.0820    12.7130    15.0310     2.5740   -11.3020 
  171.8750    58.8220    25.2120    11.1670    12.9510    15.3510     2.5660   -11.4050 
  172.0000    58.1860    25.2150    11.4630    13.2960    15.8180     2.5650   -11.4780 
  172.1250    59.1810    25.2270    11.7290    13.6250    16.2660     2.5680   -11.5130 
  172.2500    59.7400    25.2390    11.8920    13.7970    16.5120     2.5620   -11.5580 
  172.3750    58.7150    25.2810    11.9020    13.7250    16.4480     2.5440   -11.6100 
  172.5000    56.6940    25.3550    11.6570    13.3890    16.0570     2.5220   -11.6970 
  172.6250    55.5110    25.3620    11.1090    12.8340    15.3920     2.5090   -11.7540 
  172.7500    55.0950    25.3140    10.5020    12.2490    14.6900     2.5090   -11.8950 
  172.8750    55.2890    25.2660    10.1090    11.8080    14.1810     2.5200   -12.0520 
  173.0000    56.2770    25.2380     9.8690    11.6860    14.1030     2.5280   -12.3120 
  173.1250    58.2180    25.2360     9.7080    12.1470    14.8310     2.5170   -12.6400 
  173.2500    60.5900    25.2610     9.7570    13.2940    16.4840     2.4800   -13.0880 
  173.3750    62.7240    25.3500    10.4940    15.2940    19.2250     2.4250   -13.6080 
  173.5000    65.0240    25.4960    12.9040    18.2840    23.1360     2.3680   -14.1640 
  173.6250    69.6960    25.6590    18.2250    22.4680    28.3550     2.3300   -14.8250 
  173.7500    74.1470    25.7590    25.2790    27.5060    34.4770     2.3130   -15.4090 
  173.8750    75.7350    25.8080    31.1030    33.0460    41.1450     2.3110   -15.9650 
  174.0000    75.5040    25.8190    35.3920    38.4940    47.7170     2.3160   -16.4410 
  174.1250    76.3800    25.8180    39.7890    42.3410    52.2260     2.3200   -16.8820 
  174.2500    76.8550    25.8210    44.2280    42.9290    52.3270     2.3220   -17.1580 
  174.3750    76.0110    25.8280    46.6940    39.2150    46.7520     2.3230   -17.3470 
  174.5000    75.4990    25.8520    43.4410    32.2810    37.3210     2.3280   -17.4440 
  174.6250    77.9930    25.8310    32.5650    25.1310    28.1660     2.3380   -17.4200 
  174.7500    81.8230    25.7210    20.1740    19.9370    21.7930     2.3510   -17.4110 
  174.8750    83.8390    25.5600    13.3700    17.1210    18.6330     2.3670   -17.4010 
  175.0000    83.8950    25.4890    11.8570    16.5130    18.4400     2.3760   -17.4220 
  175.1250    84.0800    25.5750    14.8710    18.0660    21.0080     2.3660   -17.4660 
  175.2500    84.9860    25.7090    21.1970    20.7740    24.7420     2.3430   -17.5060 
  175.3750    85.3460    25.8170    27.1250    23.2500    27.6360     2.3210   -17.5570 
  175.5000    84.1740    25.8420    27.5610    23.6980    27.5020     2.3180   -17.6340 
  175.6250    81.5010    25.7400    22.0070    21.1900    23.6200     2.3340   -17.6650 
  175.7500    79.7480    25.5560    15.9570    17.6910    18.7870     2.3530   -17.7140 
  175.8750    82.3350    25.3640    11.9600    14.6300    14.8090     2.3680   -17.7200 
  176.0000    89.2580    25.2550     9.9780    12.6050    12.3350     2.3850   -17.6700 
  176.1250    94.4660    25.2590     9.3530    11.8240    11.5240     2.4030   -17.6060 
  176.2500    95.3160    25.3360     9.7690    11.9860    11.9010     2.4090   -17.5570 
  176.3750    94.9610    25.4340    11.2770    12.9880    13.2680     2.4020   -17.5410 
  176.5000    94.4340    25.5220    13.9690    14.6420    15.3320     2.3860   -17.5310 
  176.6250    92.3160    25.6340    17.0410    16.5050    17.5000     2.3750   -17.6120 
  176.7500    89.3970    25.7070    19.7700    17.7990    18.9060     2.3730   -17.6740 
  176.8750    88.2050    25.7240    21.0310    17.9350    18.9460     2.3830   -17.7860 
  177.0000    89.2090    25.6950    19.1050    16.8470    17.6140     2.3950   -17.9490 
  177.1250    90.6710    25.6700    14.5670    15.1240    15.6360     2.4000   -18.1060 
  177.2500    91.1900    25.6390    11.0120    13.6820    14.1120     2.4040   -18.3070 
  177.3750    90.0600    25.6210     9.7390    12.9910    13.6600     2.4110   -18.5140 
  177.5000    88.0510    25.6630    10.0760    13.3510    14.6880     2.4190   -18.7390 
  177.6250    86.2880    25.7730    11.7970    15.3200    17.8610     2.4160   -18.9660 
  177.7500    84.7280    25.8950    15.3760    19.0600    23.1880     2.4020   -19.2260 
  177.8750    84.2100    25.9670    22.0190    24.8910    30.8600     2.3760   -19.5020 
  178.0000    84.4910    25.9220    32.7360    32.9080    40.8470     2.3420   -19.8080 
  178.1250    83.7360    25.8130    43.0830    42.9850    52.9570     2.3070   -20.0700 
  178.2500    80.6740    25.7250    49.7210    54.0730    66.1070     2.2760   -20.3610 
  178.3750    76.7070    25.6890    55.4410    65.7190    79.8620     2.2510   -20.6460 
  178.5000    73.4500    25.7530    72.2020    77.8000    94.2000     2.2390   -20.9640 
  178.6250    70.7030    25.8940   102.4930    89.7030   108.5950     2.2470   -21.2320 
  178.7500    67.9270    25.9910   127.6340    99.6780   120.8300     2.2610   -21.4810 
  178.8750    66.8520    25.9840   134.6510   105.5770   127.8300     2.2620   -21.6750 
  179.0000    68.9840    25.9220   125.2040   106.1220   127.6900     2.2450   -21.8210 
  179.1250    71.0140    25.9230   104.3420   101.7860   121.4010     2.2230   -22.0260 
  179.2500    70.1740    25.9740    80.9750    96.3770   114.2550     2.2150   -22.1650 
  179.3750    68.9970    26.0250    65.8090    92.5130   109.3960     2.2240   -22.2710 
  179.5000    71.7280    26.0240    62.4170    91.5790   108.1620     2.2360   -22.2970 
  179.6250    77.3550    26.0110    70.2990    93.8580   110.6120     2.2430   -22.3790 
  179.7500    79.2150    25.9730    84.9690    97.3830   114.2710     2.2520   -22.4320 
  179.8750    75.8710    25.9730    99.2010   100.2180   116.6530     2.2680   -22.4800 
  180.0000    70.5330    26.0200   100.4250   100.6460   115.6370     2.2830   -22.5380 
  180.1250    67.8270    26.0320    86.6450    97.7400   110.4910     2.2870   -22.4820 
  180.2500    68.5000    25.9210    68.8120    93.3150   104.0000     2.2880   -22.4500 
  180.3750    71.1690    25.7400    56.7210    89.1970    98.4680     2.2910   -22.4080 
  180.5000    74.0740    25.5900    51.8050    86.7490    95.2730     2.2930   -22.3850 
  180.6250    75.0330    25.5800    51.8910    86.8110    95.1120     2.2960   -22.2620 
  180.7500    74.5590    25.7080    55.6580    88.5840    96.8970     2.3030   -22.1250 
  180.8750    74.5170    25.8340    62.2350    91.1520    99.5480     2.3120   -21.9930 
  181.0000    75.6430    25.9090    68.1110    93.4310   101.8560     2.3140   -21.8580 
  181.1250    75.9870    25.9180    70.2570    94.3120   102.6480     2.3030   -21.7810 
