~V
VERS. 2.00: Ver 2.00
~W
STRT.M 67.0000:
STOP.M 279.0000:
STEP.M 0.1250:
NULL. -999.2500:
UWI. DF3057:
~C
DEPT.M :
GR.API :
CALI.CM :
RXO.OHMM :
RI. :
RML.OHMM :
DEN.GM/CC :
SP.MV :
~A
# ...
  157.0000    52.9590    24.6370    19.2250    22.8810    27.5350     2.6160   -22.1250 
  157.1250    55.4400    24.7890    19.1380    23.3610    28.0360     2.6120   -22.0710 
  157.2500    59.7540    24.6430    21.0560    23.6910    28.4450     2.6110   -22.0000 
  157.3750    61.7780    24.5150    22.8850    23.8110    28.6480     2.6120   -22.0060 
  157.5000    59.0320    24.4750    23.0050    23.6620    28.5440     2.6110   -22.1310 
  157.6250    57.1340    24.5510    21.7890    23.2290    28.1060     2.6150   -22.2710 
  157.7500    59.7230    24.5930    20.3310    22.6180    27.4470     2.6310   -22.2920 
  157.8750    64.2770    24.5070    18.3160    21.9450    26.7210     2.6480   -22.2410 
  158.0000    65.9950    24.5070    17.6030    21.3860    26.1670     2.6440   -22.2350 
  158.1250    63.5500    24.5990    18.0190    21.0690    25.9050     2.6190   -22.3490 
  158.2500    59.8590    24.6300    18.4440    20.9300    25.8420     2.6000   -22.5430 
  158.3750    57.1400    24.4920    18.0600    20.9430    25.9310     2.5990   -22.7320 
  158.5000    57.2770    24.2410    17.4840    21.0320    26.0480     2.6090   -22.7960 
  158.6250    60.0790    24.2390    18.3300    21.0670    26.0410     2.6210   -22.7440 
  158.7500    61.7730    24.2790    18.9850    20.9520    25.8220     2.6340   -22.7710 
  158.8750    61.1750    24.1850    18.5050    20.6850    25.4280     2.6410   -22.9040 
  159.0000    59.1180    23.9470    17.4930    20.2930    24.9170     2.6370   -23.0520 
  159.1250    57.5660    23.9560    17.0100    19.8550    24.3790     2.6270   -23.1360 
  159.2500    58.4360    24.0800    16.7590    19.4070    23.8230     2.6210   -23.1160 
  159.3750    61.8990    24.1360    16.5180    18.8940    23.1890     2.6130   -23.0230 
  159.5000    65.0680    23.9320    16.1190    18.3020    22.4500     2.5980   -22.9970 
  159.6250    63.9480    23.9640    15.8650    17.6320    21.5930     2.5820   -23.1160 
  159.7500    61.9650    24.0210    15.4480    16.9220    20.6570     2.5740   -23.2170 
  159.8750    60.7740    24.0960    15.2650    16.2250    19.7640     2.5680   -23.1980 
  160.0000    58.4470    23.9080    14.6690    15.6760    19.0790     2.5620   -23.1010 
  160.1250    57.0440    23.8780    13.3450    15.4180    18.8080     2.5680   -23.0180 
  160.2500    60.1530    23.9560    12.4960    15.4280    18.9320     2.5950   -23.0520 
  160.3750    64.4160    24.1340    12.8840    15.7090    19.4000     2.6320   -23.1860 
  160.5000    63.5730    24.1660    13.8440    16.1880    20.0810     2.6560   -23.2960 
  160.6250    60.5260    24.0520    14.8850    16.7100    20.7630     2.6600   -23.2560 
  160.7500    59.8860    23.9460    16.1220    17.1310    21.2760     2.6630   -23.1710 
  160.8750    59.4480    24.1570    16.7110    17.3460    21.5320     2.6740   -23.1950 
  161.0000    60.3140    24.5130    16.1420    17.3010    21.4920     2.6770   -23.3390 
  161.1250    61.7000    24.8530    15.4910    17.0160    21.2050     2.6550   -23.4790 
  161.2500    59.5970    24.6720    14.7530    16.6420    20.7910     2.6220   -23.5000 
  161.3750    54.9430    24.5350    14.6090    16.2030    20.2900     2.5960   -23.4480 
  161.5000    54.1640    24.5890    14.7050    15.7150    19.7420     2.5910   -23.4240 
  161.6250    56.6460    24.3660    14.5080    15.2070    19.1260     2.6080   -23.5480 
  161.7500    56.7040    24.0600    13.7540    14.7240    18.5160     2.6290   -23.7810 
  161.8750    56.8190    23.9230    13.0890    14.3420    18.0310     2.6380   -23.9910 
  162.0000    59.6460    24.0740    12.7270    14.1440    17.8130     2.6260   -24.0770 
  162.1250    61.6530    24.4450    12.2680    14.1920    17.9640     2.6060   -24.0800 
  162.2500    60.7890    24.5270    12.2700    14.4740    18.4340     2.6010   -24.1560 
  162.3750    59.2810    24.5370    12.8350    14.9670    19.1510     2.6110   -24.3240 
  162.5000    58.7740    24.6700    14.0910    15.5870    19.9320     2.6280   -24.5520 
  162.6250    60.4210    24.8540    16.1870    16.1740    20.5990     2.6400   -24.7030 
  162.7500    64.0870    24.9780    17.1870    16.6160    21.0310     2.6420   -24.7230 
  162.8750    67.5120    24.7060    16.2170    16.8400    21.1530     2.6310   -24.6930 
  163.0000    68.3790    24.5830    14.5480    16.8200    20.9520     2.6090   -24.7540 
  163.1250    66.5040    24.7710    13.6570    16.5920    20.5010     2.5900   -24.9830 
  163.2500    64.2940    24.9120    13.8140    16.2750    19.9640     2.5900   -25.2300 
  163.3750    61.7080    24.8090    14.5840    15.9130    19.3930     2.6000   -25.3990 
  163.5000    58.7910    24.5600    15.3550    15.5630    18.8380     2.6030   -25.4550 
  163.6250    57.5370    24.6110    14.5650    15.2690    18.3480     2.5930   -25.4890 
  163.7500    58.5800    24.8250    13.0200    15.0140    17.8990     2.5860   -25.6110 
  163.8750    60.6810    24.7970    12.1710    14.8080    17.5030     2.5840   -25.8560 
  164.0000    62.6280    24.5770    12.0100    14.7100    17.2310     2.5780   -26.1320 
  164.1250    62.5280    24.6290    12.0880    14.7560    17.1380     2.5620   -26.3290 
  164.2500    62.9700    24.8330    12.2760    14.8920    17.1580     2.5510   -26.4470 
  164.3750    65.0930    24.7930    12.2130    15.0970    17.2740     2.5500   -26.6010 
  164.5000    68.4880    24.5830    12.1490    15.3480    17.4630     2.5530   -26.8950 
  164.6250    68.6840    24.7530    12.1710    15.5670    17.6360     2.5530   -27.3100 
  164.7500    64.7430    24.9580    12.7180    15.7040    17.7260     2.5520   -27.7030 
  164.8750    60.7030    25.0720    12.8050    15.7150    17.6850     2.5520   -27.9870 
  165.0000    60.3600    25.0670    12.0290    15.5130    17.4130     2.5430   -28.1940 
  165.1250    64.9990    24.9290    11.5810    15.0350    16.8440     2.5180   -28.4350 
  165.2500    69.4910    25.1390    11.7700    14.4980    16.2220     2.4900   -28.8440 
  165.3750    71.1810    25.2670    11.7360    14.0420    15.7390     2.4710   -29.3530 
  165.5000    69.9720    25.0840    11.1400    13.8060    15.6050     2.4590   -29.8290 
  165.6250    66.9880    24.7780    10.7370    14.0900    16.3100     2.4510   -30.2040 
  165.7500    65.3380    24.5800    10.6020    15.0840    18.1080     2.4460   -30.5790 
  165.8750    66.8480    24.5020    11.6080    16.9800    21.1680     2.4370   -31.0410 
  166.0000    70.3210    24.4920    16.7650    19.9330    25.5640     2.4150   -31.6100 
  166.1250    72.2040    24.4310    23.4610    24.3560    31.5580     2.3840   -32.2570 
  166.2500    75.0070    24.2840    27.5020    29.9280    38.5570     2.3590   -32.8120 
  166.3750    79.3240    24.4450    32.4980    36.1960    45.9180     2.3450   -33.2110 
  166.5000    80.8240    24.7050    41.9310    42.5440    52.9790     2.3370   -33.5380 
  166.6250    78.4780    24.8290    49.6720    48.0300    58.8920     2.3300   -33.9740 
  166.7500    77.3990    24.7280    50.3200    52.1700    63.3150     2.3250   -34.4620 
  166.8750    78.0540    24.5780    48.4920    55.0090    66.2890     2.3210   -34.8770 
  167.0000    76.6830    24.7180    46.2830    57.0790    68.4750     2.3160   -35.1420 
  167.1250    73.0820    24.8570    42.8650    58.8100    70.3840     2.3100   -35.2230 
  167.2500    70.3130    24.7800    44.2660    60.5750    72.3900     2.3070   -35.2730 
  167.3750    69.2760    24.5330    49.8950    62.6480    74.8570     2.3120   -35.4060 
  167.5000    69.4930    24.4240    54.6410    65.1850    77.8990     2.3240   -35.6240 
  167.6250    70.3550    24.3190    54.0840    68.1350    81.2730     2.3390   -35.7220 
  167.7500    70.3070    24.2920    53.7420    71.0130    84.4190     2.3460   -35.7030 
  167.8750    68.2560    24.1680    63.7270    73.5340    87.0310     2.3450   -35.6670 
  168.0000    66.3970    24.1380    72.9370    75.3910    88.7370     2.3370   -35.7220 
  168.1250    67.4760    24.1980    70.5070    76.0610    88.8950     2.3260   -35.9050 
