~V
VERS. 2.00: Ver 2.00
~W
STRT.M 110.0000:
STOP.M 242.0000:
STEP.M 0.1250:
NULL. -999.2500:
UWI. DF306:
~C
DEPT.M :
DEN.GM/CC :
AC.US/MT :
GR.API :
CALI.CM :
RXO.OHMM :
RI. :
RML.OHMM :
SP.MV :
~A
# ...
  190.0000     2.2170   390.8250    64.4850    25.0770   177.3670   159.6280   182.5360   -34.6970 
  190.1250     2.2240   388.7420    65.6420    25.0990   195.3360   165.3140   189.2900   -34.5140 
  190.2500     2.2170   386.2940    62.4580    25.0500   204.9310   170.8620   195.7860   -34.1530 
  190.3750     2.1990   383.9730    57.6390    24.9460   202.1190   175.3160   200.8750   -33.6580 
  190.5000     2.1810   381.7410    56.0350    24.8870   194.5410   178.3320   204.1500   -33.0460 
  190.6250     2.1750   379.5910    58.9800    24.9820   193.1810   180.2560   206.0770   -32.3370 
  190.7500     2.1780   377.9060    61.8110    25.1400   200.2940   181.9270   207.6710   -31.5600 
  190.8750     2.1870   376.6950    61.5350    25.2450   212.9960   183.1630   208.6440   -30.7670 
  191.0000     2.1930   375.3500    59.0310    25.2790   225.8680   182.8510   207.5730   -30.0010 
  191.1250     2.1910   373.1320    56.5550    25.2890   231.0650   178.7740   201.6440   -29.2710 
  191.2500     2.1890   370.0710    55.4630    25.2710   224.3490   170.4050   190.4080   -28.5810 
  191.3750     2.1970   367.6260    56.2700    25.1930   207.7220   158.2080   175.0810   -27.9350 
  191.5000     2.2170   366.9800    60.5950    25.0630   189.6480   144.2900   158.9670   -27.3290 
  191.6250     2.2390   368.0600    67.1550    24.9490   172.4750   132.4890   146.7400   -26.7300 
  191.7500     2.2540   368.3410    69.7520    24.9040   151.1100   125.1820   140.0360   -26.1540 
  191.8750     2.2690   364.0060    68.4380    24.9200   131.7720   122.7380   138.5100   -25.5870 
  192.0000     2.2970   352.0300    68.4580    24.9570   132.9880   123.5280   139.7750   -25.0050 
  192.1250     2.3600   331.4270    73.2550    24.9760   179.3310   123.4610   138.2820   -24.4210 
  192.2500     2.4460   303.5250    79.5300    24.9240   223.7970   118.5770   129.7300   -23.8650 
  192.3750     2.5210   274.4150    86.4580    24.7640   207.4180   108.0240   114.8030   -23.3060 
  192.5000     2.5350   248.8620    93.5310    24.5870   139.6120    94.3040    98.2730   -22.7430 
  192.6250     2.5580   229.8910    97.6570    24.5830    93.8500    81.4710    84.8190   -22.1850 
  192.7500     2.5630   218.8460    95.7960    24.7140    79.1540    70.8610    73.9910   -21.6030 
  192.8750     2.5800   213.0260    91.1670    24.8320    81.7480    61.1290    63.3930   -21.0210 
  193.0000     2.5910   211.9860    87.0590    24.8600    89.4500    50.1930    50.9230   -20.4590 
  193.1250     2.5810   217.3520    82.9230    24.8510    80.1930    37.6460    37.1640   -19.9200 
  193.2500     2.5460   233.5260    77.2870    24.8480    53.5060    26.1450    25.1770   -19.4460 
  193.3750     2.4990   259.3960    71.0700    24.8470    26.4050    17.5240    16.4590   -19.0560 
  193.5000     2.4480   291.4340    65.4340    24.8460    11.7400    11.9990    10.9280   -18.7680 
  193.6250     2.3990   323.7020    60.8270    24.8510     7.4660     9.0730     8.0620   -18.5860 
  193.7500     2.3640   349.1220    58.2660    24.8410     6.5560     7.4830     6.6400   -18.5090 
  193.8750     2.3470   366.0650    59.0960    24.8230     6.5120     6.7400     6.1500   -18.5020 
  194.0000     2.3470   375.3710    61.1120    24.8540     6.4750     6.5400     6.2240   -18.5600 
  194.1250     2.3560   379.2190    61.0320    24.9600     6.6930     6.6930     6.5800   -18.6800 
  194.2500     2.3590   379.8100    58.0770    25.0570     7.3680     6.9440     6.9320   -18.7940 
  194.3750     2.3560   379.9970    54.1430    25.0980     8.2370     7.1560     7.1460   -18.8700 
  194.5000     2.3560   381.4080    51.6570    25.0980     8.7640     7.2390     7.1520   -18.8970 
  194.6250     2.3600   384.6740    52.1310    25.0960     8.4430     7.1340     6.9260   -18.8940 
  194.7500     2.3620   388.8090    53.2600    25.0940     7.7900     6.9130     6.6020   -18.8780 
  194.8750     2.3590   391.4230    52.4060    25.0940     7.3500     6.6590     6.3090   -18.8490 
  195.0000     2.3550   390.9920    50.2840    25.0950     7.1270     6.4440     6.1470   -18.7900 
  195.1250     2.3520   387.4560    51.7190    25.0950     6.7860     6.3190     6.1750   -18.7040 
  195.2500     2.3420   382.1390    57.1680    25.0910     6.4550     6.2590     6.3160   -18.5980 
  195.3750     2.3270   377.2350    61.7750    25.0750     6.3850     6.2300     6.4650   -18.4840 
  195.5000     2.3200   373.7570    61.4650    25.0540     6.5150     6.1880     6.5230   -18.3810 
  195.6250     2.3300   371.9330    56.1100    25.0520     6.6040     6.1000     6.4330   -18.3040 
  195.7500     2.3520   371.7410    52.4440    25.0690     6.5930     5.9820     6.2820   -18.2630 
  195.8750     2.3700   372.4310    53.2730    25.0810     6.5320     5.8760     6.1730   -18.2750 
  196.0000     2.3750   373.2020    55.5260    25.0730     6.4810     5.8290     6.1980   -18.3550 
  196.1250     2.3660   373.0210    56.6910    25.0530     6.5580     5.8880     6.4100   -18.4800 
  196.2500     2.3480   370.9120    57.8910    25.0200     6.9750     6.0240     6.7210   -18.6200 
  196.3750     2.3340   367.7860    61.1560    24.9680     7.8960     6.1870     7.0360   -18.7710 
  196.5000     2.3360   365.3360    63.9810    24.9070     8.9320     6.3150     7.2580   -18.9080 
  196.6250     2.3630   365.3230    63.4280    24.8910     9.0130     6.3470     7.3100   -19.0390 
  196.7500     2.4030   368.8520    61.5680    24.9560     8.1490     6.2970     7.2410   -19.1580 
  196.8750     2.4250   374.1750    58.8730    25.0430     7.2180     6.2010     7.1250   -19.2500 
  197.0000     2.4100   379.4520    56.0720    25.0560     6.8690     6.1010     7.0290   -19.3100 
  197.1250     2.3680   383.3420    53.2430    24.9940     6.9420     6.0280     6.9900   -19.3330 
  197.2500     2.3280   385.3000    52.2550    24.9700     6.9730     5.9890     6.9880   -19.3610 
  197.3750     2.3100   386.0900    54.0600    25.0070     6.8920     5.9820     7.0090   -19.4090 
  197.5000     2.3130   386.0080    57.1660    25.0490     6.7090     6.0050     7.0550   -19.4900 
  197.6250     2.3260   384.9780    59.9930    25.0710     6.6000     6.0640     7.1450   -19.5780 
  197.7500     2.3290   382.8430    61.0820    25.0790     6.8020     6.1430     7.2690   -19.6180 
  197.8750     2.3160   380.3630    60.4540    25.0440     7.2290     6.2180     7.3890   -19.5910 
  198.0000     2.2950   378.4710    59.2620    24.9650     7.4540     6.2610     7.4520   -19.5000 
  198.1250     2.2820   377.9160    57.8160    24.8910     7.0930     6.2430     7.4150   -19.4120 
  198.2500     2.2860   379.0700    57.1520    24.8660     6.5340     6.1800     7.3070   -19.3340 
  198.3750     2.2940   381.3180    57.2120    24.8570     6.2590     6.0930     7.1680   -19.2590 
  198.5000     2.2920   384.6180    58.3780    24.7870     6.4100     5.9970     7.0260   -19.1670 
  198.6250     2.2850   389.7610    60.1920    24.6250     6.6510     5.8940     6.8720   -19.0290 
  198.7500     2.2880   399.0050    60.7360    24.4700     6.6070     5.7700     6.6700   -18.8930 
  198.8750     2.3030   412.5940    59.7350    24.4340     6.3220     5.6150     6.3940   -18.7810 
  199.0000     2.3170   428.8170    57.6310    24.5540     6.0320     5.4430     6.0850   -18.7100 
  199.1250     2.3210   443.4800    57.2600    24.7560     5.8810     5.3230     5.8930   -18.6510 
  199.2500     2.3180   449.9330    58.0100    24.9480     5.7960     5.3210     5.9550   -18.6040 
  199.3750     2.3180   446.7600    57.3930    25.0890     5.8970     5.4850     6.3480   -18.5700 
  199.5000     2.3200   435.8460    54.7690    25.1680     6.4910     5.8240     7.0540   -18.5380 
  199.6250     2.3230   421.7270    50.9620    25.1810     7.6450     6.2970     7.9300   -18.4960 
  199.7500     2.3290   409.8940    49.8130    25.1750     8.5230     6.7400     8.6350   -18.4300 
  199.8750     2.3370   402.5540    53.7370    25.1720     8.4830     6.9960     8.8900   -18.3500 
