~V
VERS. 2.00: Ver 2.00
~W
STRT.M 57.0000:
STOP.M 272.0000:
STEP.M 0.1250:
NULL. -999.2500:
UWI. DF3050:
~C
DEPT.M :
SP.MV :
GR.API :
CALI.CM :
RXO.OHMM :
RI. :
RML.OHMM :
DEN.GM/CC :
~A
   57.0000    -3.5670  -999.2500  -999.2500  -999.2500  -999.2500  -999.2500  -999.2500 
   57.1250    -4.6060  -999.2500  -999.2500  -999.2500  -999.2500  -999.2500  -999.2500 
   57.2500    -5.3950  -999.2500  -999.2500  -999.2500  -999.2500  -999.2500  -999.2500 
   57.3750    -5.9750  -999.2500  -999.2500  -999.2500  -999.2500  -999.2500  -999.2500 
   57.5000    -6.2710  -999.2500  -999.2500  -999.2500  -999.2500  -999.2500  -999.2500 
   57.6250    -6.3930  -999.2500  -999.2500  -999.2500  -999.2500  -999.2500  -999.2500 
   57.7500    -6.2980  -999.2500  -999.2500  -999.2500  -999.2500  -999.2500  -999.2500 
   57.8750    -6.0600  -999.2500  -999.2500  -999.2500  -999.2500  -999.2500  -999.2500 
   58.0000    -5.8590  -999.2500  -999.2500  -999.2500  -999.2500  -999.2500  -999.2500 
   58.1250    -5.5270  -999.2500  -999.2500  -999.2500  -999.2500  -999.2500  -999.2500 
   58.2500    -5.1330  -999.2500  -999.2500  -999.2500  -999.2500  -999.2500  -999.2500 
   58.3750    -4.6240  -999.2500  -999.2500  -999.2500  -999.2500  -999.2500  -999.2500 
   58.5000    -4.0320  -999.2500  -999.2500  -999.2500  -999.2500  -999.2500  -999.2500 
   58.6250    -3.3980  -999.2500  -999.2500  -999.2500  -999.2500  -999.2500  -999.2500 
   58.7500    -2.8120  -999.2500  -999.2500  -999.2500  -999.2500  -999.2500  -999.2500 
   58.8750    -2.5410    51.0860    25.5550   144.9520     0.1660     3.7290  -999.2500 
   59.0000    -2.4160    51.0860    25.5550   144.9520     0.1660     3.7290  -999.2500 
   59.1250    -2.5620    48.8920    25.6780    81.4220     0.1670     3.7500  -999.2500 
   59.2500    -2.9100    46.2600    25.6440   113.0590     0.1560     3.7430  -999.2500 
   59.3750    -3.4500    46.4990    25.5370   189.9140     0.1400     3.6550  -999.2500 
   59.5000    -4.1860    48.3080    25.5390   162.8670     0.1260     3.5130  -999.2500 
   59.6250    -5.0080    48.6350    25.6670    64.7860     0.1220     3.3830  -999.2500 
   59.7500    -5.8960    47.7460    25.6560    27.8550     0.1240     3.2490  -999.2500 
   59.8750    -6.5150    48.8320    25.5540    32.7110     0.1370     3.1480  -999.2500 
   60.0000    -6.9970    50.8490    25.6420    34.1640     0.1540     3.1090  -999.2500 
   60.1250    -7.2350    51.3110    25.6470    36.5530     0.1680     3.1280  -999.2500 
   60.2500    -7.3400    50.5800    25.5270    41.3920     0.1820     3.1520  -999.2500 
   60.3750    -7.3510    50.7450    25.5960    47.6540     0.1940     3.1820  -999.2500 
   60.5000    -7.2190    51.5230    25.6670    89.4320     0.2020     3.2000  -999.2500 
   60.6250    -7.0460    51.8620    25.5200   137.8890     0.2040     3.1920  -999.2500 
   60.7500    -6.6700    52.8220    25.5220   120.9230     0.2000     3.1810  -999.2500 
   60.8750    -6.3170    53.9710    25.5180    55.2100     0.1980     3.1660  -999.2500 
   61.0000    -5.9170    52.9890    25.4290    56.5400     0.1990     3.1270  -999.2500 
   61.1250    -5.6670    48.1240    25.3890   100.4810     0.1990     3.0990  -999.2500 
   61.2500    -5.5660    43.3190    25.3880    93.3910     0.1990     3.0950  -999.2500 
   61.3750    -5.4870    42.3710    25.3960    67.4540     0.1980     3.0900  -999.2500 
   61.5000    -5.4900    44.2830    25.3910    85.6070     0.1930     3.0590  -999.2500 
   61.6250    -5.4350    46.3900    25.3850    88.7290     0.1810     3.0270  -999.2500 
   61.7500    -5.4780    46.5910    25.3830    47.1420     0.1740     3.0030  -999.2500 
   61.8750    -5.4560    46.3790    25.3800    19.0420     0.1680     2.9800  -999.2500 
   62.0000    -5.4580    46.4070    25.3800    11.6770     0.1610     2.9520  -999.2500 
   62.1250    -5.3920    47.3450    25.3770     6.8700     0.1580     2.8950  -999.2500 
   62.2500    -5.2570    49.6760    25.3800    13.5720     0.1620     2.7910  -999.2500 
   62.3750    -5.1420    51.2370    25.3600    57.3130     0.1610     2.7110  -999.2500 
   62.5000    -4.9960    50.7070    25.3230   119.0520     0.1640     2.6320  -999.2500 
   62.6250    -5.0140    48.3760    25.3090   118.1540     0.1740     2.5280  -999.2500 
   62.7500    -5.0780    48.1670    25.3290    47.7380     0.1810     2.3950  -999.2500 
   62.8750    -5.2950    49.8480    25.2270     9.4570     0.1860     2.2330  -999.2500 
   63.0000    -5.5340    51.1350    25.0890     2.6770     0.1950     2.0340  -999.2500 
   63.1250    -5.8190    52.5180    25.0890     0.6940     0.2020     1.8080  -999.2500 
   63.2500    -6.1990    53.6320    25.0190     0.2560     0.2040     1.6100  -999.2500 
   63.3750    -6.6180    51.9620    24.9450     0.1670     0.2080     1.4000  -999.2500 
   63.5000    -7.2070    49.0210    25.0130     0.1720     0.2070     1.2250  -999.2500 
   63.6250    -7.8260    49.3670    24.9960     0.1730     0.1990     1.1280  -999.2500 
   63.7500    -8.6280    52.5620    24.7480     0.1520     0.1880     1.0650  -999.2500 
   63.8750    -9.4610    52.4480    24.7220     0.1490     0.1810     1.0610  -999.2500 
   64.0000   -10.3990    50.3870    24.7030     0.1890     0.1750     1.1200  -999.2500 
   64.1250   -11.4680    50.6200    24.5100     0.3120     0.1710     1.1630  -999.2500 
   64.2500   -12.5710    51.8520    24.1460     0.5670     0.1620     1.0270  -999.2500 
   64.3750   -13.8770    51.4820    23.7160     0.7740     0.1490     0.6720  -999.2500 
   64.5000   -15.2300    50.7050    23.4770     0.8480     0.1350     0.1260  -999.2500 
   64.6250   -16.7020    51.8960    23.4110     0.8030     0.1200    -0.4090  -999.2500 
   64.7500   -18.2890    54.0450    23.3560     0.6460     0.1050    -0.7950  -999.2500 
   64.8750   -20.0600    54.0600    23.1900     0.5040     0.0910    -1.0350  -999.2500 
   65.0000   -22.1230    52.1080    23.1380     0.4500     0.0890    -1.1380  -999.2500 
   65.1250   -24.3940    51.0600    23.1300     0.5180     0.1240    -1.0840  -999.2500 
   65.2500   -27.0370    55.4240    23.1630     0.8720     0.2440    -0.8340  -999.2500 
   65.3750   -29.6950    61.1900    23.2020     1.8890     0.4870    -0.3880  -999.2500 
   65.5000   -32.3440    63.6100    23.4030     3.5550     0.9120     0.3670  -999.2500 
   65.6250   -34.9100    63.1910    23.7140     5.3640     1.5610     1.5000  -999.2500 
   65.7500   -37.2510    65.5600    23.5000     6.5930     2.4360     2.9480  -999.2500 
   65.8750   -39.3940    69.4730    23.2250     7.0910     3.3920     4.3350  -999.2500 
   66.0000   -41.1250    70.3720    23.1460     6.7610     4.2930     5.3480  -999.2500 
   66.1250   -42.5230    67.9570    23.5640     6.3090     5.0100     5.8990  -999.2500 
   66.2500   -43.3920    66.2830    24.0090     6.1860     5.4840     6.1250  -999.2500 
   66.3750   -44.0570    67.4460    24.4650     6.3520     5.8340     6.3680  -999.2500 
   66.5000   -44.5480    68.2150    24.5730     6.5580     6.1060     6.6470  -999.2500 
   66.6250   -44.9080    67.5520    24.7080     6.6750     6.3120     6.9230  -999.2500 
   66.7500   -45.1980    66.5900    24.6820     6.6940     6.4740     7.1730  -999.2500 
   66.8750   -45.3960    66.0010    24.5910     6.6840     6.6020     7.3650  -999.2500 
   67.0000   -45.6310    65.6810    24.6820     6.6470     6.6990     7.5070  -999.2500 
   67.1250   -45.7440    65.8830    24.7300     6.6450     6.7720     7.6550  -999.2500 
   67.2500   -45.8890    67.3540    24.6260     6.6160     6.8150     7.8150  -999.2500 
   67.3750   -45.9850    67.6050    24.6060     6.6370     6.8220     7.9790  -999.2500 
   67.5000   -46.0630    66.4310    24.4760     6.7250     6.7940     8.1020  -999.2500 
   67.6250   -46.1530    64.8730    24.4160     6.8440     6.7450     8.1710  -999.2500 
   67.7500   -46.1940    63.2240    24.4730     6.8440     6.6850     8.1850  -999.2500 
   67.8750   -46.2810    62.1940    24.4290     6.6470     6.6250     8.1550  -999.2500 
   68.0000   -46.2670    63.3620    24.2420     6.3250     6.5800     8.1050  -999.2500 
   68.1250   -46.2690    67.2410    24.3090     6.0660     6.5590     8.0600  -999.2500 
