~V
VERS. 2.00: Ver 2.00
~W
STRT.M 64.0000:
STOP.M 268.0000:
STEP.M 0.1250:
NULL. -999.2500:
UWI. DF3073:
~C
DEPT.M :
SP.MV :
GR.API :
CALI.CM :
RXO.OHMM :
RI. :
RML.OHMM :
DEN.GM/CC :
~A
# ...
   97.7500   -29.3960    72.5840    23.4180     6.0450     5.0760     6.5080  -999.2500 
   97.8750   -29.7860    68.2270    23.4450     6.5520     5.4490     6.9430  -999.2500 
   98.0000   -30.1830    62.9330    23.4660     7.2820     5.8930     7.4130  -999.2500 
   98.1250   -30.5640    60.5120    23.7070     7.7650     6.3240     7.8030  -999.2500 
   98.2500   -30.9060    62.9600    23.7980     7.8920     6.7170     8.1120  -999.2500 
   98.3750   -31.2150    67.9430    23.7870     8.0180     7.0990     8.4260  -999.2500 
   98.5000   -31.4580    70.9960    24.0050     8.1310     7.4920     8.7990  -999.2500 
   98.6250   -31.5740    70.3120    24.2290     8.2080     7.9210     9.2620  -999.2500 
   98.7500   -31.5770    69.7180    24.3450     8.2080     8.3820     9.8070  -999.2500 
   98.8750   -31.5340    70.6550    24.2910     8.2310     8.8250    10.3740  -999.2500 
   99.0000   -31.4580    72.5600    24.2730     8.3540     9.1640    10.8470  -999.2500 
   99.1250   -31.3430    74.0060    24.3900     8.4450     9.2980    11.0900  -999.2500 
   99.2500   -31.2200    75.2640    24.4260     8.5600     9.2170    11.1010  -999.2500 
   99.3750   -31.0830    74.8110    24.3170     8.8710     8.9460    10.8860  -999.2500 
   99.5000   -30.9390    71.5930    24.2710     9.2820     8.5790    10.5520  -999.2500 
   99.6250   -30.8100    68.9100    24.3450     9.2290     8.2170    10.2270  -999.2500 
   99.7500   -30.6800    68.5670    24.3020     8.8580     7.9310    10.0010  -999.2500 
   99.8750   -30.5550    68.9100    24.2560     8.6120     7.7570     9.9060  -999.2500 
  100.0000   -30.4450    67.9950    24.2720     8.5530     7.6920     9.9210  -999.2500 
  100.1250   -30.3670    68.1030    24.4260     8.6580     7.7070    10.0070  -999.2500 
  100.2500   -30.2740    71.0360    24.4380     8.7660     7.7420    10.0740  -999.2500 
  100.3750   -30.1810    73.4760    24.3200     8.8660     7.7690    10.0970  -999.2500 
  100.5000   -30.1280    72.6830    24.2690     8.9050     7.7630    10.0400  -999.2500 
  100.6250   -30.0500    69.7960    24.3120     8.8660     7.7250     9.9070  -999.2500 
  100.7500   -29.9780    67.2840    24.1110     8.7630     7.6610     9.7360  -999.2500 
  100.8750   -29.9300    66.5170    23.9210     8.6250     7.5870     9.5550  -999.2500 
  101.0000   -29.8840    68.0310    23.6850     8.4720     7.5260     9.4100  -999.2500 
  101.1250   -29.8320    71.9100    23.7170     8.3950     7.4890     9.3220  -999.2500 
  101.2500   -29.7920    75.9190    23.6800     8.4240     7.4760     9.2820  -999.2500 
  101.3750   -29.7390    77.9730    23.6340     8.5730     7.4950     9.2880  -999.2500 
  101.5000   -29.6520    78.3640    23.6410     8.6940     7.5330     9.3390  -999.2500 
  101.6250   -29.5940    77.4620    23.7340     8.7070     7.5790     9.3880  -999.2500 
  101.7500   -29.5450    76.3440    23.7320     8.7800     7.6070     9.3940  -999.2500 
  101.8750   -29.4920    76.3220    23.7170     9.2420     7.5950     9.3230  -999.2500 
  102.0000   -29.4390    76.8380    23.7140    10.0470     7.5260     9.1420  -999.2500 
  102.1250   -29.3720    77.3810    23.7510     9.8370     7.4000     8.8590  -999.2500 
  102.2500   -29.2680    78.0480    24.0290     9.0770     7.2920     8.6080  -999.2500 
  102.3750   -29.1460    78.3340    24.2790     8.6130     7.2830     8.5370  -999.2500 
  102.5000   -28.9990    78.5200    24.3040     8.5550     7.4270     8.6880  -999.2500 
  102.6250   -28.8040    78.9710    24.3170     8.6290     7.6810     8.9800  -999.2500 
  102.7500   -28.5790    79.5610    24.3310     8.7560     7.9470     9.2790  -999.2500 
  102.8750   -28.3160    79.7300    24.3340     9.2160     8.1200     9.4610  -999.2500 
  103.0000   -28.0300    79.1910    24.3180    11.1430     8.0650     9.3940  -999.2500 
  103.1250   -27.7720    79.7210    24.3120    14.2920     7.6310     8.8960  -999.2500 
  103.2500   -27.5690    83.8550    24.3340    14.0710     6.9450     8.0920  -999.2500 
  103.3750   -27.4260    90.8980    24.3510     9.9000     6.1490     7.1540  -999.2500 
  103.5000   -27.3520    97.4060    24.4390     6.0670     5.4140     6.2970  -999.2500 
  103.6250   -27.3770    97.7840    24.3570     5.5600     4.9090     5.7790  -999.2500 
  103.7500   -27.4930    94.7750    23.9990     5.8360     4.6270     5.5500  -999.2500 
  103.8750   -27.6860    93.3690    23.5590     6.1420     4.5470     5.5590  -999.2500 
  104.0000   -27.9690    93.4230    23.5380     6.1980     4.6490     5.7540  -999.2500 
  104.1250   -28.3010    90.4780    23.7270     6.1670     4.9050     6.0480  -999.2500 
  104.2500   -28.6550    83.3540    23.9630     6.5610     5.2380     6.3610  -999.2500 
  104.3750   -28.9950    76.7930    24.0450     7.1420     5.6360     6.6810  -999.2500 
  104.5000   -29.2980    73.9400    24.0670     7.6700     6.1310     7.0670  -999.2500 
  104.6250   -29.5580    70.3870    24.0210     7.9460     6.7730     7.6240  -999.2500 
  104.7500   -29.7770    65.1540    24.0200     8.1200     7.5200     8.2980  -999.2500 
  104.8750   -29.9600    61.0380    24.0330     8.4220     8.3070     9.0290  -999.2500 
  105.0000   -30.1340    59.9270    24.0510     9.4210     9.0380     9.7170  -999.2500 
  105.1250   -30.3230    60.1810    24.0190    12.2340     9.5270    10.1990  -999.2500 
  105.2500   -30.4600    61.7790    24.0280    14.1060     9.6870    10.4160  -999.2500 
  105.3750   -30.5790    66.6530    24.0450    13.0930     9.5430    10.3950  -999.2500 
  105.5000   -30.6950    72.0050    24.0270    10.6240     9.1810    10.1850  -999.2500 
  105.6250   -30.7670    71.6910    24.0210     8.9770     8.7120     9.8740  -999.2500 
  105.7500   -30.8320    68.9140    24.0640     8.6190     8.2760     9.5860  -999.2500 
  105.8750   -30.9350    68.8580    24.2760     8.4230     7.9330     9.3930  -999.2500 
  106.0000   -31.0000    71.5460    24.4180     8.2780     7.6840     9.2830  -999.2500 
  106.1250   -31.0020    71.9430    24.3510     8.2720     7.5160     9.2290  -999.2500 
  106.2500   -31.0120    72.2020    24.3480     8.3410     7.3990     9.1890  -999.2500 
  106.3750   -31.0180    74.8460    24.3950     8.3300     7.2960     9.1380  -999.2500 
  106.5000   -31.0250    74.9930    24.2890     8.2360     7.2080     9.0930  -999.2500 
  106.6250   -31.0700    69.7940    24.0880     8.1440     7.1720     9.1090  -999.2500 
  106.7500   -31.0800    66.2760    24.0880     8.1540     7.1740     9.1420  -999.2500 
  106.8750   -30.9930    66.0600    24.1100     8.1910     7.1870     9.1520  -999.2500 
  107.0000   -30.8840    66.4400    24.0680     8.1680     7.2010     9.1410  -999.2500 
  107.1250   -30.7210    66.1510    24.0300     8.1250     7.2170     9.1060  -999.2500 
  107.2500   -30.5090    66.5740    24.0150     8.1180     7.2140     9.0550  -999.2500 
  107.3750   -30.3020    67.5730    24.0390     8.1400     7.1900     8.9950  -999.2500 
  107.5000   -30.1040    69.4340    24.0510     8.1260     7.1620     8.9380  -999.2500 
  107.6250   -29.9130    71.9180    24.0370     8.0060     7.1260     8.8990  -999.2500 
  107.7500   -29.7440    73.7840    24.1660     7.9160     7.0920     8.8770  -999.2500 
  107.8750   -29.6520    76.3130    24.3610     7.9750     7.0540     8.8710  -999.2500 
  108.0000   -29.5910    79.1120    24.5300     8.1300     6.9940     8.8510  -999.2500 
  108.1250   -29.5210    79.0510    24.6100     8.2110     6.9120     8.8050  -999.2500 
  108.2500   -29.4570    77.4750    24.6120     8.1660     6.8230     8.7720  -999.2500 
  108.3750   -29.4070    78.1510    24.3880     8.0060     6.7230     8.7350  -999.2500 
  108.5000   -29.3590    79.3220    23.7740     7.8970     6.6050     8.6730  -999.2500 
  108.6250   -29.2970    77.1310    23.3660     7.8050     6.4940     8.6140  -999.2500 
  108.7500   -29.2250    74.3190    23.1060     7.7830     6.4080     8.5820  -999.2500 
  108.8750   -29.1260    73.6760    23.0360     7.8020     6.3520     8.5660  -999.2500 
