~V
VERS. 2.00: Ver 2.00
~W
STRT.M 130.0000:
STOP.M 271.0000:
STEP.M 0.1250:
NULL. -999.2500:
UWI. DF3076:
~C
DEPT.M :
DEN.GM/CC :
GR.API :
CALI.CM :
RXO.OHMM :
RI. :
RML.OHMM :
SP.MV :
~A
# ...
  175.0000     2.2650    62.4200    24.2310   101.3510   153.6110   148.0870   -33.5680 
  175.1250     2.2700    65.1550    24.2520    99.7450   143.2660   134.2620   -33.8660 
  175.2500     2.2630    67.5640    24.2010    86.3180   128.0530   117.7700   -34.1630 
  175.3750     2.2530    69.9940    24.0870    68.5250   112.6230   103.3220   -34.4600 
  175.5000     2.2520    73.3570    23.9320    55.1610   100.7410    93.6850   -34.7580 
  175.6250     2.2630    76.8110    23.6610    47.6460    95.5020    90.8430   -35.0630 
  175.7500     2.2730    76.2390    23.2960    44.5160    96.7210    93.9890   -35.3650 
  175.8750     2.2760    72.4890    22.9950    44.7910   102.8390   104.7930   -35.6530 
  176.0000     2.2710    69.8610    22.8910    49.5080   116.7340   119.6640   -35.9170 
  176.1250     2.2630    70.6300    23.0100    56.5170   136.3490   138.9930   -36.1530 
  176.2500     2.2600    70.5380    23.2510    60.8360   156.8610   159.2530   -36.3350 
  176.3750     2.2640    67.2920    23.4180    63.7890   173.8310   176.2960   -36.4470 
  176.5000     2.2740    63.4890    23.4030    69.8920   183.6970   186.8770   -36.4840 
  176.6250     2.2840    63.3280    23.3060    78.5740   185.1410   189.3970   -36.4410 
  176.7500     2.2800    65.9360    23.4060    87.0550   182.4450   187.4420   -36.3260 
  176.8750     2.2590    69.7680    23.6040    94.7570   178.5470   183.7450   -36.1360 
  177.0000     2.2380    72.0870    23.7840   100.8750   175.2040   180.1980   -35.8860 
  177.1250     2.2400    71.9580    23.8490   101.7110   172.7740   177.4990   -35.5610 
  177.2500     2.2630    70.0380    23.8690    97.6570   170.0610   174.8320   -35.2120 
  177.3750     2.2860    67.6510    23.8680    91.2750   165.7600   171.0830   -34.8450 
  177.5000     2.2930    66.8450    23.8630    85.8210   158.9320   165.2460   -34.4770 
  177.6250     2.2800    68.9070    23.8490    83.7240   149.3220   156.6520   -34.1040 
  177.7500     2.2720    71.9110    23.8150    82.4770   138.6550   146.5790   -33.7330 
  177.8750     2.2830    73.7880    23.7600    79.9460   128.4190   136.3860   -33.3760 
  178.0000     2.3090    74.2430    23.6760    75.9080   119.8060   127.3730   -33.0320 
  178.1250     2.3260    74.4440    23.5650    74.6110   114.0160   120.9490   -32.7100 
  178.2500     2.3210    74.8050    23.4150    79.0530   110.8480   117.1860   -32.3820 
  178.3750     2.3080    74.5040    23.1980    86.5300   109.8580   115.7940   -32.0590 
  178.5000     2.3010    72.3990    22.9800    92.3540   110.1680   115.9180   -31.7380 
  178.6250     2.3080    69.2750    22.8480    94.2410   110.8210   116.5150   -31.4180 
  178.7500     2.3120    67.3570    22.7860    94.1910   111.3310   116.9660   -31.0980 
  178.8750     2.3070    66.2990    22.7800    93.9960   111.9180   117.4790   -30.7820 
  179.0000     2.2930    65.3160    22.7980    95.5410   112.9520   118.5070   -30.4760 
  179.1250     2.2790    65.1900    22.8080   101.3720   114.6390   120.4260   -30.1870 
  179.2500     2.2700    67.0700    22.8010   106.2000   116.4530   122.7640   -29.9080 
  179.3750     2.2630    69.2740    22.7800   103.5560   117.7710   124.8870   -29.6340 
  179.5000     2.2590    69.2090    22.7890    94.4310   118.1740   126.3250   -29.3650 
  179.6250     2.2560    67.9860    22.9260    85.6930   117.5590   126.9140   -29.1090 
  179.7500     2.2560    68.4470    23.1860    86.8110   116.3370   126.9550   -28.8710 
  179.8750     2.2570    70.1420    23.4970    97.0410   114.5020   126.4310   -28.6560 
  180.0000     2.2590    70.2600    23.7880   106.4110   111.5590   124.9790   -28.4630 
  180.1250     2.2620    69.3730    23.9870   106.1090   105.8540   121.1360   -28.3010 
  180.2500     2.2640    71.4150    24.0880    96.8080    96.3720   113.3510   -28.1730 
  180.3750     2.2640    74.2070    24.1200    86.7620    83.2160   100.7100   -28.0720 
  180.5000     2.2650    73.9650    24.1280    80.1970    68.5310    84.6930   -27.9930 
  180.6250     2.2780    71.7770    24.1400    68.1090    55.9620    69.2440   -27.9460 
  180.7500     2.3060    71.1080    24.1080    50.4600    47.3510    57.4940   -27.9380 
  180.8750     2.3410    71.0180    24.0300    36.5930    43.2560    50.6150   -27.9670 
  181.0000     2.3680    70.5490    23.9600    36.5010    43.5960    48.8440   -28.0290 
  181.1250     2.3670    71.7050    23.9770    52.4520    48.4400    52.6580   -28.1190 
  181.2500     2.3440    74.2060    24.0710    70.1130    55.9930    60.3340   -28.2460 
  181.3750     2.3160    75.8020    24.1990    79.4450    64.4760    70.1280   -28.4050 
  181.5000     2.3000    75.9000    24.2780    81.7070    71.5020    79.2980   -28.5970 
  181.6250     2.3000    73.8830    24.2990    82.7190    74.5630    84.3870   -28.8180 
  181.7500     2.3090    69.2340    24.2980    80.2420    74.8740    85.7940   -29.0360 
  181.8750     2.3180    64.7670    24.2970    75.7770    74.7450    85.7870   -29.2400 
  182.0000     2.3200    65.4200    24.2960    75.7570    76.1610    86.8710   -29.4260 
  182.1250     2.3080    70.9680    24.2950    83.1760    80.0100    90.7740   -29.5820 
  182.2500     2.2910    75.3170    24.2910    95.8690    84.5730    96.3290   -29.7130 
  182.3750     2.2780    75.7340    24.2830   108.1760    86.9350   100.5570   -29.8350 
  182.5000     2.2740    74.5550    24.2670   116.1030    83.6400    99.1120   -29.9390 
  182.6250     2.2790    73.6140    24.2600   113.9860    72.9480    88.5040   -30.0300 
  182.7500     2.2900    74.7830    24.2600    97.8810    60.1200    73.7440   -30.1250 
  182.8750     2.3070    79.3750    24.2620    70.7910    49.7050    60.1930   -30.2330 
  183.0000     2.3280    84.0360    24.2610    47.5730    44.2080    51.3740   -30.3660 
  183.1250     2.3420    81.5940    24.2790    44.5230    45.2040    49.6770   -30.5380 
  183.2500     2.3340    75.1670    24.3460    63.5350    51.4880    54.2070   -30.7380 
  183.3750     2.3060    70.5850    24.4860    91.7000    62.4370    64.6040   -30.9610 
  183.5000     2.2790    70.4790    24.6400   107.7820    76.6810    79.6640   -31.2140 
  183.6250     2.2770    72.5760    24.6370   105.8790    90.8920    96.0250   -31.4930 
  183.7500     2.2920    72.2160    24.5150   100.0930   100.9990   108.6670   -31.7960 
  183.8750     2.3030    69.2650    24.4040    98.3430   105.7070   115.4270   -32.1230 
  184.0000     2.2990    67.5190    24.3590   100.2970   106.8670   117.6040   -32.4700 
  184.1250     2.2830    69.6910    24.3520   105.6240   107.2970   117.9170   -32.8390 
  184.2500     2.2690    71.4020    24.3690   111.7350   108.4000   118.3020   -33.2240 
  184.3750     2.2610    70.5850    24.4290   117.0750   110.3740   119.1790   -33.6130 
  184.5000     2.2560    69.7790    24.5250   120.1850   113.3990   120.8660   -34.0140 
  184.6250     2.2560    69.2570    24.6070   120.3740   117.9190   123.9740   -34.4250 
  184.7500     2.2610    67.2310    24.6750   121.3020   123.7950   128.5590   -34.8340 
  184.8750     2.2690    65.6480    24.7340   127.6520   130.8600   134.6100   -35.2290 
  185.0000     2.2750    65.8240    24.7720   142.4310   138.6870   141.8910   -35.5870 
  185.1250     2.2730    65.7250    24.8090   160.6460   146.3160   149.7800   -35.8910 
  185.2500     2.2660    66.3560    24.8570   170.1990   152.4580   156.9600   -36.1420 
  185.3750     2.2600    69.6960    24.8920   168.9550   156.0620   162.2730   -36.3480 
  185.5000     2.2570    73.0300    24.8980   163.5870   156.6600   165.0430   -36.4900 
  185.6250     2.2580    73.1470    24.8580   158.3760   153.8590   164.6680   -36.5570 
  185.7500     2.2630    71.1850    24.7600   149.4020   148.2210   161.4170   -36.5760 
  185.8750     2.2680    71.0580    24.6330   141.6290   139.7550   154.9870   -36.5570 
  186.0000     2.2710    72.3830    24.5530   139.6100   128.9250   145.4310   -36.5210 
  186.1250     2.2720    73.4310    24.5240   135.1200   117.1230   133.6350   -36.4840 
