~V
VERS. 2.00: Ver 2.00
~W
STRT.M 60.0000:
STOP.M 254.0000:
STEP.M 0.1250:
NULL. -999.2500:
UWI. DF3029:
~C
DEPT.M :
SP.MV :
GR.API :
RML.OHMM :
RI. :
RXO.OHMM :
CALI.CM :
DEN.GM/CC :
~A
# ...
  240.0000    -8.4410    61.8290     9.5910     9.2190     6.3910    24.0840     2.4970 
  240.1250    -8.5080    59.1530     9.3620     8.9760     6.2290    24.0440     2.5030 
  240.2500    -8.6150    58.9480     8.9880     8.6120     5.8930    23.9570     2.5070 
  240.3750    -8.6940    62.3920     8.5240     8.1610     5.6230    23.8550     2.4940 
  240.5000    -8.7710    68.5700     8.1190     7.7270     5.4770    23.7220     2.4640 
  240.6250    -8.8090    72.4170     7.9880     7.4740     5.4730    23.5030     2.4280 
  240.7500    -8.8710    70.7020     8.1480     7.4450     5.5870    23.2910     2.4000 
  240.8750    -8.9110    65.9430     8.5060     7.6030     5.9190    23.2800     2.3860 
  241.0000    -8.9110    63.2850     8.8890     7.8380     6.7570    23.4930     2.3820 
  241.1250    -8.9080    64.9330     9.0770     7.9840     8.0350    23.6460     2.3840 
  241.2500    -8.9140    66.8650     9.0150     7.9450     8.9800    23.7530     2.3910 
  241.3750    -8.8930    68.1850     8.7550     7.7240     8.7760    23.8660     2.3970 
  241.5000    -8.8870    69.3060     8.4200     7.3970     8.1540    23.9670     2.4020 
  241.6250    -8.9080    70.6790     8.1600     7.0910     7.0290    24.0020     2.4020 
  241.7500    -8.9320    70.8850     8.0420     6.8920     6.2070    24.0080     2.3990 
  241.8750    -8.9200    69.4870     8.0710     6.8250     5.9710    24.0120     2.3960 
  242.0000    -8.9170    68.2070     8.2070     6.8710     5.9940    24.0390     2.3940 
  242.1250    -8.9260    67.4160     8.3910     6.9960     6.0000    24.1070     2.3940 
  242.2500    -8.8810    66.0150     8.5590     7.1400     6.0580    24.2220     2.3960 
  242.3750    -8.8670    64.9070     8.6880     7.2690     6.1570    24.3200     2.3960 
  242.5000    -8.8260    66.0280     8.7780     7.3640     6.2690    24.3480     2.3960 
  242.6250    -8.8640    68.9760     8.8360     7.4130     6.4030    24.3230     2.4000 
  242.7500    -8.8380    70.9030     8.8740     7.4310     6.4710    24.3200     2.4120 
  242.8750    -8.8530    70.6250     8.8910     7.4310     6.4010    24.3480     2.4310 
  243.0000    -8.8620    68.5500     8.8820     7.4230     6.3310    24.3810     2.4480 
  243.1250    -8.8640    67.0470     8.8500     7.4160     6.3750    24.4210     2.4600 
  243.2500    -8.8900    68.5430     8.8200     7.4130     6.5380    24.4530     2.4580 
  243.3750    -8.9520    72.1940     8.8120     7.4160     6.7380    24.4240     2.4480 
  243.5000    -8.9970    74.5910     8.8450     7.4310     6.9040    24.3710     2.4330 
  243.6250    -8.9780    73.2330     8.9300     7.4630     7.0300    24.3160     2.4160 
  243.7500    -9.0030    71.7490     9.0460     7.5090     6.9870    24.2940     2.4020 
  243.8750    -8.9900    71.3080     9.1730     7.5640     6.8220    24.2840     2.3910 
  244.0000    -9.0030    71.2690     9.2910     7.6210     6.6300    24.2970     2.3870 
  244.1250    -8.9980    71.2690     9.3740     7.6690     6.6950    24.2920     2.3880 
  244.2500    -8.9720    71.2690     9.4190     7.7030     6.6370    24.2410     2.3920 
  244.3750    -8.8820    71.2690     9.4280     7.7220     6.5020    24.1630     2.3930 
  244.5000    -8.8380    71.2690     9.4140     7.7290     6.4600    24.1320     2.3870 
  244.6250    -8.7810    71.2690     9.3960     7.7340     6.4070    24.1770     2.3770 
  244.7500    -8.7070    71.2690     9.4000     7.7530     6.4300    24.2110     2.3660 
  244.8750    -8.6870    71.2690     9.4460     7.7980     6.4980    24.2310     2.3620 
  245.0000    -8.6360    71.2690     9.5430     7.8730     6.5490    24.2420     2.3640 
  245.1250    -8.5770    71.2690     9.6890     7.9710     6.5020    24.2560     2.3700 
  245.2500    -8.4900    71.2690     9.8430     8.0750     6.4810    24.2920     2.3770 
  245.3750    -8.4720    71.2690     9.9700     8.1710     6.5800    24.3420     2.3830 
  245.5000    -8.4050    71.2690    10.0530     8.2550     6.7330    24.3730     2.3880 
  245.6250    -8.3400    71.2690    10.1220     8.3420     6.7960    24.3820     2.3960 
  245.7500    -8.2640    71.2690    10.2440     8.4590     6.8770    24.3880     2.4090 
  245.8750    -8.2020    71.2690    10.4710     8.6340     7.0900    24.4050     2.4300 
  246.0000    -8.1120    71.2690    10.8210     8.8890     7.4260    24.4390     2.4560 
  246.1250    -8.0780    71.2690    11.2820     9.2360     7.8820    24.4530     2.4850 
  246.2500    -8.0810    71.2690    11.7620     9.6310     8.4090    24.4490     2.5090 
  246.3750    -8.0750    71.2690    12.1760    10.0130     8.9100    24.4330     2.5240 
  246.5000    -8.0750    71.2690    12.4360    10.3120     9.5010    24.4450     2.5240 
  246.6250    -8.0960    71.2690    12.4430    10.4360    10.0630    24.4430     2.5080 
  246.7500    -8.1390    71.2690    12.2440    10.3920    10.6400    24.4210     2.4810 
  246.8750    -8.1680    71.2690    11.9130    10.2130    10.6990    24.3850     2.4520 
  247.0000    -8.2400    71.2690    11.5510     9.9600     9.9230    24.3370     2.4310 
  247.1250    -8.3070    71.2690    11.2720     9.7110     8.7350    24.2280     2.4220 
  247.2500    -8.3070    71.2690    11.1140     9.5230     7.9590    24.0920     2.4260 
  247.3750    -8.3110    71.2690    11.0660     9.4170     7.6420    23.9820     2.4360 
  247.5000    -8.3130    71.2690    11.0920     9.3900     7.6580    23.9400     2.4460 
  247.6250    -8.3560    71.2690    11.1410     9.4230     7.7990    23.9420     2.4550 
  247.7500    -8.3590    71.2690    11.1720     9.4740     7.7800    23.9070     2.4640 
  247.8750    -8.3570    71.2690    11.1720     9.5220     7.8280    23.8510     2.4710 
  248.0000    -8.3620    71.2690    11.1520     9.5580     7.9160    23.7920     2.4790 
  248.1250    -8.3330    71.2690    11.1260     9.5830     8.0410    23.7470     2.4850 
  248.2500    -8.3310    71.2690    11.1050     9.6010     8.0640    23.6980     2.4890 
  248.3750    -8.3710    71.2690    11.0850     9.6150     7.9330    23.6490     2.4890 
  248.5000    -8.4290    71.2690    11.0650     9.6250     7.7770    23.6110     2.4830 
  248.6250    -8.4240    71.2690    11.0420     9.6290     7.6240    23.5680     2.4740 
  248.7500    -8.4660    71.2690    11.0210     9.6270     7.4880    23.5160     2.4630 
  248.8750    -8.4840    71.2690    11.0020     9.6220     7.4370    23.4690     2.4570 
  249.0000    -8.4230    71.2690    10.9890     9.6160     7.6930    23.4320     2.4580 
  249.1250    -8.4460    71.2690    10.9830     9.6120     8.0400    23.3830     2.4630 
  249.2500    -8.5270    71.2690    10.9840     9.6120     8.2620    23.3320     2.4700 
  249.3750    -8.5530    71.2690    10.9910     9.6150     8.5590    23.2820     2.4770 
  249.5000    -8.5450    71.2690    11.0020     9.6200     8.8220    23.2260     2.4830 
  249.6250    -8.5830    71.2690    11.0110     9.6250     8.7990    23.1750     2.4900 
  249.7500    -8.6400    71.2690    11.0160     9.6290     8.4980    23.1060     2.4970 
  249.8750    -8.7140    71.2690    11.0170     9.6300     7.9770    23.0470     2.5000 
  250.0000    -8.8620    71.2690    11.0180     9.6310     7.7480    23.0190     2.4970 
  250.1250    -8.9520    71.2690    11.0180     9.6310     7.7500    23.0140     2.4880 
  250.2500    -9.0060    71.2690    11.0180     9.6310     7.8070    23.0140     2.4770 
  250.3750    -9.0270    71.2690    11.0180     9.6310     7.8220    23.0220     2.4710 
  250.5000    -9.1130    71.2690    11.0180     9.6310     7.9010    23.0470     2.4710 
  250.6250    -9.1800    71.2690    11.0180     9.6310     8.0160    23.0950     2.4750 
  250.7500    -9.2250    71.2690    11.0180     9.6310     8.0300    23.1130     2.4790 
  250.8750    -9.2620    71.2690    11.0180     9.6310     7.8990    23.1030     2.4830 
  251.0000    -9.2960    71.2690    11.0180     9.6310     7.7200    23.0770     2.4860 
  251.1250    -9.2540    71.2690    11.0180     9.6310     7.5070    23.0740     2.4900 
