~V
VERS. 2.00: Ver 2.00
~W
STRT.M 62.0000:
STOP.M 265.0000:
STEP.M 0.1250:
NULL. -999.2500:
UWI. DF3071:
~C
DEPT.M :
GR.API :
CALI.CM :
RXO.OHMM :
RI. :
RML.OHMM :
DEN.GM/CC :
SP.MV :
~A
# ...
  219.5000    71.3180    24.6520    66.3150    48.7080    51.7400     2.4760   -21.5460 
  219.6250    73.7430    24.7040    52.9720    30.2380    31.1940     2.5460   -20.7620 
  219.7500    75.4050    24.6550    29.4100    18.2010    18.4750     2.5760   -19.9560 
  219.8750    74.9090    24.5460    12.5430    11.4540    11.7010     2.5520   -19.2040 
  220.0000    73.8880    24.4660     6.8640     7.9790     8.2530     2.4920   -18.5730 
  220.1250    72.8190    24.4450     5.9430     6.3860     6.8170     2.4290   -18.0940 
  220.2500    70.4710    24.4450     5.6840     5.5970     6.1810     2.3930   -17.7980 
  220.3750    67.6800    24.4480     5.5930     5.2940     5.9990     2.3810   -17.7040 
  220.5000    65.0400    24.4470     5.5620     5.2800     6.0650     2.3790   -17.8220 
  220.6250    65.2370    24.4120     5.5000     5.4920     6.3660     2.3740   -18.1090 
  220.7500    70.4560    24.3120     5.5880     5.9020     6.9070     2.3650   -18.4830 
  220.8750    80.5910    24.1560     6.2980     6.5270     7.6880     2.3680   -18.8570 
  221.0000    92.2590    24.0860     8.1790     7.3260     8.6110     2.3870   -19.1570 
  221.1250   101.1580    24.3150    10.3740     8.1230     9.4390     2.4070   -19.3470 
  221.2500   106.1480    24.7310    11.3250     8.6650     9.9610     2.4100   -19.4090 
  221.3750   105.8800    25.1190    10.7460     8.8040    10.0920     2.4000   -19.3450 
  221.5000   101.8940    25.3250     9.6440     8.5660     9.9010     2.3890   -19.1910 
  221.6250   100.5740    25.3290     8.9230     8.1250     9.5700     2.3880   -18.9740 
  221.7500   101.8810    25.2590     8.4640     7.7180     9.3120     2.3980   -18.7540 
  221.8750   102.6050    25.1550     8.2090     7.4330     9.1970     2.4090   -18.5350 
  222.0000   102.0940    24.9920     8.1160     7.2720     9.2090     2.4160   -18.3990 
  222.1250   104.4590    24.7640     8.1190     7.1970     9.2830     2.4200   -18.2860 
  222.2500   109.2430    24.6150     8.2300     7.1430     9.3480     2.4240   -18.2440 
  222.3750   113.8110    24.6710     8.4270     7.0870     9.3900     2.4270   -18.2080 
  222.5000   117.5200    24.9610     8.5620     7.0350     9.4220     2.4270   -18.2040 
  222.6250   119.8250    25.3870     8.5320     7.0120     9.4750     2.4200   -18.2060 
  222.7500   119.7010    25.7370     8.4630     7.0300     9.5550     2.4060   -18.1980 
  222.8750   120.3510    25.8990     8.5100     7.0830     9.6510     2.3920   -18.1990 
  223.0000   123.3860    25.8990     8.6860     7.1540     9.7400     2.3860   -18.1710 
  223.1250   123.1980    25.8600     8.8390     7.2170     9.7900     2.3900   -18.1890 
  223.2500   117.4790    25.8250     8.8940     7.2480     9.7840     2.4050   -18.2310 
  223.3750   111.0480    25.7610     8.8800     7.2370     9.7170     2.4170   -18.3130 
  223.5000   109.5370    25.6960     8.8560     7.1890     9.6110     2.4160   -18.4060 
  223.6250   111.3090    25.7020     8.8830     7.1530     9.5410     2.4060   -18.5050 
  223.7500   111.8650    25.7430     8.9240     7.2020     9.5990     2.4000   -18.5970 
  223.8750   111.5730    25.7550     8.9510     7.3970     9.8460     2.4090   -18.6840 
  224.0000   110.7600    25.7050     9.2100     7.7550    10.2660     2.4310   -18.7680 
  224.1250   109.4160    25.6520    10.1420     8.2280    10.7280     2.4560   -18.8320 
  224.2500   108.6390    25.6820    11.3150     8.6510    11.0200     2.4740   -18.8720 
  224.3750   108.0670    25.8020    11.8880     8.8720    11.0060     2.4780   -18.8820 
  224.5000   105.6020    25.9180    11.2440     8.8080    10.6750     2.4680   -18.8750 
  224.6250   102.3540    25.9160     9.9000     8.4940    10.1520     2.4480   -18.8570 
  224.7500   104.4000    25.8240     8.8010     8.1350     9.6820     2.4240   -18.8380 
  224.8750   110.6710    25.7010     8.2370     7.8610     9.4000     2.4070   -18.8450 
  225.0000   115.1120    25.6230     8.0400     7.7290     9.3370     2.4030   -18.8220 
  225.1250   113.9510    25.6700     8.0960     7.7250     9.4440     2.4030   -18.8030 
  225.2500   113.5190    25.7870     8.2140     7.7450     9.5650     2.3970   -18.8010 
  225.3750   115.0770    25.8790     8.2610     7.6990     9.5770     2.3900   -18.8000 
  225.5000   114.0170    25.8950     8.1770     7.5080     9.3890     2.3900   -18.7810 
  225.6250   110.8730    25.8580     8.0480     7.1370     8.9870     2.3960   -18.7360 
  225.7500   109.2950    25.8220     8.1300     6.7450     8.6030     2.3940   -18.7410 
  225.8750   109.9050    25.8200     8.3120     6.5560     8.5460     2.3800   -18.7460 
  226.0000   110.3710    25.8700     8.3960     6.8310     9.2800     2.3630   -18.8480 
  226.1250   108.8730    25.9570     9.1010     8.1870    12.0620     2.3460   -19.0180 
  226.2500   105.2760    26.0200    12.8640    11.4320    17.7050     2.3330   -19.2680 
  226.3750    97.4280    26.0240    25.5720    18.1460    27.2520     2.3210   -19.6030 
  226.5000    85.8960    26.0060    51.9400    30.5340    42.1460     2.3070   -20.0090 
  226.6250    75.8910    26.0330    78.9860    51.7600    64.8590     2.2880   -20.4710 
  226.7500    70.2730    26.0400    97.5340    78.5410    92.5330     2.2690   -20.9390 
  226.8750    68.1300    25.9510   115.2510   104.5200   119.8640     2.2550   -21.4170 
  227.0000    67.2630    25.8120   134.3970   123.9260   141.2550     2.2480   -21.8950 
  227.1250    66.6870    25.7600   138.8160   135.0560   153.4650     2.2470   -22.3440 
  227.2500    65.6170    25.7960   132.9740   141.7390   160.3190     2.2530   -22.7130 
  227.3750    63.0490    25.8420   126.7270   145.9300   164.6480     2.2600   -22.9970 
  227.5000    60.5410    25.8680   125.5290   148.8680   167.7610     2.2630   -23.1960 
  227.6250    61.2380    25.8900   129.1280   150.8410   168.7570     2.2600   -23.2870 
  227.7500    63.5220    25.8980   133.2180   150.7780   165.6310     2.2520   -23.3270 
  227.8750    64.5540    25.8730   134.9640   146.6230   158.7220     2.2430   -23.3220 
  228.0000    65.1300    25.8060   131.9820   137.0940   149.8930     2.2360   -23.2430 
  228.1250    67.1200    25.7120   123.2290   122.5700   138.5480     2.2340   -23.1280 
  228.2500    70.0610    25.6460   109.2950   106.8610   123.8110     2.2400   -22.9450 
  228.3750    71.3480    25.6510    91.8660    92.7250   107.9110     2.2520   -22.7620 
  228.5000    71.3170    25.6780    74.4730    81.8140    95.1070     2.2640   -22.5590 
  228.6250    72.2760    25.6030    65.3560    75.0410    87.5750     2.2680   -22.3710 
  228.7500    73.1180    25.4470    63.1050    70.9920    82.7490     2.2650   -22.1030 
  228.8750    71.8280    25.3210    63.6030    68.4310    79.3600     2.2650   -21.8290 
  229.0000    69.4370    25.2810    63.3510    66.2360    76.4050     2.2700   -21.5790 
  229.1250    69.1910    25.2710    60.5040    63.9350    73.7180     2.2740   -21.3040 
  229.2500    69.9490    25.2480    54.9470    62.1310    72.0160     2.2660   -21.1060 
  229.3750    70.0110    25.2620    48.1050    61.9350    72.4170     2.2550   -20.9340 
  229.5000    70.8340    25.3650    45.2320    64.6070    76.0340     2.2550   -20.8280 
  229.6250    71.0880    25.5210    54.8150    71.8660    84.4420     2.2660   -20.7620 
  229.7500    69.6500    25.6270    71.7730    83.1400    97.1250     2.2740   -20.7880 
  229.8750    67.9970    25.6530    86.3810    97.2920   113.1510     2.2690   -20.8280 
  230.0000    68.9040    25.6430    92.9970   112.1360   130.3100     2.2570   -20.9020 
  230.1250    71.6530    25.6440    94.7700   124.1580   144.6510     2.2490   -21.0190 
  230.2500    72.9120    25.6450    96.1170   131.5090   153.6880     2.2470   -21.1400 
  230.3750    71.3180    25.6430    97.6630   133.9290   156.7260     2.2420   -21.2760 
  230.5000    67.4430    25.6290    99.6160   132.3300   154.6350     2.2310   -21.4180 
  230.6250    65.7630    25.6020   100.0160   127.5670   148.6800     2.2240   -21.5660 
