~V
VERS. 2.00: Ver 2.00
~W
STRT.M 58.0000:
STOP.M 259.0000:
STEP.M 0.1250:
NULL. -999.2500:
UWI. DF3010:
~C
DEPT.M :
GR.API :
RML.OHMM :
RI. :
RXO.OHMM :
CALI.CM :
DEN.GM/CC :
SP.MV :
~A
# ...
  159.2500    61.4830    12.9530    12.6540    10.4480    23.1010     2.5170   -18.9970 
  159.3750    60.1260    13.1840    12.8070    10.5470    23.1310     2.5040   -19.1090 
  159.5000    58.7480    13.4540    13.0450    10.6360    23.0940     2.4980   -19.3420 
  159.6250    58.3140    13.5860    13.1990    10.8250    23.0530     2.4970   -19.5680 
  159.7500    57.4560    13.4600    13.1660    11.1520    23.0450     2.4940   -19.8640 
  159.8750    56.9500    13.0940    12.9450    11.4850    23.0580     2.4830   -20.2240 
  160.0000    58.8860    12.7510    12.6710    11.8480    23.0710     2.4670   -20.6360 
  160.1250    63.6240    12.9730    12.7140    12.0710    23.0480     2.4490   -21.0310 
  160.2500    67.1580    14.4490    13.4590    12.9490    22.9920     2.4340   -21.5270 
  160.3750    68.2200    17.6470    15.2950    14.9830    22.9380     2.4190   -22.0460 
  160.5000    70.0110    22.7280    18.4860    18.8710    22.9840     2.4000   -22.5220 
  160.6250    74.3340    29.4630    23.1230    26.3160    23.2710     2.3730   -23.0480 
  160.7500    77.4860    35.5840    28.2540    36.3110    23.7850     2.3430   -23.5320 
  160.8750    76.7820    40.5020    32.7590    43.0750    24.3330     2.3150   -23.9650 
  161.0000    75.2140    42.9890    35.4820    44.9450    24.6910     2.2950   -24.3410 
  161.1250    75.5720    42.2780    35.4830    45.2780    24.7950     2.2830   -24.7010 
  161.2500    75.8820    40.0750    33.9000    44.3810    24.8080     2.2780   -24.9660 
  161.3750    76.8280    38.4310    32.3280    44.5390    24.7960     2.2790   -25.2000 
  161.5000    80.9710    39.6150    32.7790    45.8750    24.7760     2.2840   -25.4390 
  161.6250    83.6540    47.5860    39.0230    47.0210    24.7860     2.2880   -25.6040 
  161.7500    79.1530    65.0830    53.8550    59.5330    24.8000     2.2860   -25.8090 
  161.8750    71.7340    95.1280    79.9820    93.9010    24.8010     2.2760   -25.9580 
  162.0000    67.7610   138.6570   117.8890   148.5860    24.7810     2.2580   -26.1780 
  162.1250    67.2760   192.7910   164.4020   215.1770    24.7630     2.2370   -26.4340 
  162.2500    64.4970   245.3610   208.9860   243.1370    24.7490     2.2200   -26.6140 
  162.3750    60.5450   284.4930   242.3570   251.7810    24.7440     2.2080   -26.8720 
  162.5000    60.1830   302.6600   259.2100   252.5460    24.7430     2.2020   -27.0510 
  162.6250    63.0020   300.0400   259.4270   248.9320    24.7220     2.2010   -27.3010 
  162.7500    64.4910   288.9370   251.9630   237.7960    24.6300     2.2030   -27.5540 
  162.8750    65.1780   275.2150   241.5070   221.4440    24.4390     2.2050   -27.7300 
  163.0000    66.4360   261.4850   230.5550   207.8120    24.2420     2.2070   -27.9300 
  163.1250    67.2480   248.1240   219.8080   201.8610    24.1270     2.2090   -28.1340 
  163.2500    67.4760   234.0840   208.6080   195.4000    24.0750     2.2110   -28.3230 
  163.3750    68.6950   218.6120   196.2550   184.3840    24.0490     2.2150   -28.4120 
  163.5000    70.6750   201.9770   182.7490   171.9980    24.0400     2.2190   -28.5950 
  163.6250    72.0070   186.0030   169.3300   160.2700    24.0400     2.2230   -28.7180 
  163.7500    73.7730   172.7680   157.8270   150.9910    24.0400     2.2280   -28.7540 
  163.8750    75.1340   163.5160   149.5120   145.4460    24.0400     2.2360   -28.9310 
  164.0000    74.1930   158.5150   144.8640   143.6910    24.0400     2.2490   -28.9980 
  164.1250    71.5190   157.6880   144.0130   143.9020    24.0470     2.2660   -28.9920 
  164.2500    69.8200   159.3560   145.5080   146.7360    24.0810     2.2810   -29.0160 
  164.3750    70.7440   162.7030   148.5950   147.6850    24.1970     2.2840   -29.0720 
  164.5000    73.8330   167.3030   152.8470   143.1460    24.4450     2.2730   -29.1080 
  164.6250    76.1920   173.3750   158.4100   141.8700    24.7430     2.2490   -29.0790 
  164.7500    73.9910   180.8830   165.2430   150.3510    24.9100     2.2220   -29.1230 
  164.8750    68.8300   189.6630   173.2150   164.0010    24.9700     2.2010   -29.0480 
  165.0000    65.1530   198.7430   181.5480   177.4420    24.9840     2.1890   -28.9920 
  165.1250    66.6140   205.2350   188.1040   185.8540    24.9850     2.1890   -28.9920 
  165.2500    69.9480   207.1010   190.7570   190.1790    24.9840     2.1980   -28.9370 
  165.3750    71.4440   202.4880   187.8350   192.1360    24.9830     2.2110   -28.9050 
  165.5000    71.5030   192.1110   178.7570   190.7970    24.9810     2.2240   -28.8390 
  165.6250    70.9740   176.1480   163.9190   177.9430    24.9820     2.2350   -28.7520 
  165.7500    68.4620   160.1250   147.0230   155.9920    24.9810     2.2440   -28.6740 
  165.8750    65.6960   146.2840   131.0940   131.7110    24.9830     2.2500   -28.5870 
  166.0000    65.6570   132.8850   118.5110   111.4400    24.9840     2.2570   -28.5340 
  166.1250    68.5910   124.5720   111.1280    96.5760    24.9830     2.2640   -28.5080 
  166.2500    68.6180   120.6240   107.7720    93.7270    24.9830     2.2690   -28.4940 
  166.3750    66.2330   119.3980   107.1330   106.4180    24.9720     2.2680   -28.4580 
  166.5000    65.4540   119.0470   107.5580   121.7350    24.9450     2.2610   -28.4850 
  166.6250    68.4660   117.6850   107.2420   123.2300    24.9040     2.2520   -28.5250 
  166.7500    72.3720   114.5470   105.2770   109.1630    24.8890     2.2440   -28.5130 
  166.8750    74.3250   109.7260   101.5800    99.4880    24.8900     2.2410   -28.6190 
  167.0000    73.9480   103.9430    96.6850    94.2800    24.8950     2.2440   -28.6800 
  167.1250    72.1930    98.4210    91.6040    87.5750    24.8960     2.2520   -28.6590 
  167.2500    69.8810    94.2170    87.4010    81.5590    24.9020     2.2610   -28.7440 
  167.3750    69.0660    91.9360    84.7220    75.3360    24.9250     2.2700   -28.7930 
  167.5000    71.6300    91.8020    83.9000    66.8750    24.9510     2.2760   -28.8330 
  167.6250    77.7800    93.9970    85.2620    64.3910    24.9560     2.2780   -28.9050 
  167.7500    81.2330    97.7930    88.2400    68.3180    24.9600     2.2760   -28.9550 
  167.8750    79.6860   102.8690    92.5400    83.4720    24.9740     2.2700   -28.9780 
  168.0000    75.3950   109.1690    98.0150    98.1870    24.9710     2.2610   -29.0280 
  168.1250    72.3630   117.2870   105.0300    99.1380    24.9200     2.2500   -29.1240 
  168.2500    74.2140   127.3140   113.5760   100.7290    24.8860     2.2390   -29.1080 
  168.3750    77.4750   138.9760   123.4250   116.3430    24.8710     2.2300   -29.1140 
  168.5000    75.4180   151.0250   133.5670   137.8480    24.9050     2.2220   -29.0470 
  168.6250    67.7120   160.4980   141.5340   153.0180    24.9560     2.2180   -28.9780 
  168.7500    64.2110   164.9950   145.2790   160.2540    24.9800     2.2160   -29.0100 
  168.8750    66.9740   163.3240   143.7330   160.1440    24.9600     2.2170   -28.9600 
  169.0000    69.2470   156.2980   137.4880   153.5140    24.8580     2.2170   -28.9240 
  169.1250    67.4130   146.5370   128.6430   132.8970    24.7640     2.2180   -28.9170 
  169.2500    66.3080   137.8010   120.4640   111.3120    24.6630     2.2220   -28.9210 
  169.3750    67.4780   132.0150   114.7300    98.0610    24.5470     2.2320   -28.9400 
  169.5000    69.3250   129.8710   112.1970    88.2620    24.4650     2.2450   -29.0340 
  169.6250    69.9070   131.5500   113.1960    81.0900    24.4000     2.2550   -29.1730 
  169.7500    69.0960   135.5190   116.4410    75.5940    24.2000     2.2590   -29.1630 
  169.8750    68.9440   140.7250   121.0280    72.5310    23.8540     2.2560   -29.2530 
  170.0000    70.7000   146.1780   126.0620    72.1010    23.5700     2.2500   -29.3210 
  170.1250    71.6870   150.8870   130.6320    78.5190    23.4720     2.2430   -29.2240 
  170.2500    70.4050   154.3710   134.1790    88.6200    23.5710     2.2390   -29.2510 
  170.3750    67.1090   156.3460   136.3450    97.3630    23.8880     2.2340   -29.2560 
