~V
VERS. 2.00: Ver 2.00
~W
STRT.M 67.0000:
STOP.M 264.0000:
STEP.M 0.1250:
NULL. -999.2500:
UWI. DF3014:
~C
DEPT.M :
GR.API :
CALI.CM :
RXO.OHMM :
RI. :
RML.OHMM :
DEN.GM/CC :
SP.MV :
~A
# ...
  134.5000    87.5960    23.0050     6.4770     6.5430     8.2630     2.3460   -25.4550 
  134.6250    87.4910    23.1720     6.0340     6.8000     8.6470     2.3250   -25.7310 
  134.7500    82.7180    23.2740     6.1870     7.0840     9.0790     2.2850   -25.9980 
  134.8750    77.0900    23.2690     7.1910     7.3480     9.4720     2.2540   -26.2010 
  135.0000    73.8100    23.0610     8.2930     7.4970     9.6960     2.2450   -26.3150 
  135.1250    72.5550    23.0810     8.3640     7.4050     9.5390     2.2580   -26.3290 
  135.2500    73.0200    23.0740     7.6490     7.1030     9.0620     2.2790   -26.3030 
  135.3750    77.2690    23.1710     6.5640     6.6720     8.4040     2.3040   -26.2360 
  135.5000    85.5160    23.0790     5.5660     6.2310     7.7650     2.3260   -26.0900 
  135.6250    92.5200    23.1940     5.2670     5.9510     7.4040     2.3400   -25.9160 
  135.7500    94.7180    23.1060     5.2320     5.8810     7.4130     2.3490   -25.7720 
  135.8750    92.4390    23.1040     5.3130     6.0470     7.7810     2.3480   -25.7160 
  136.0000    86.5390    23.2410     5.5580     6.3950     8.3740     2.3280   -25.7600 
  136.1250    76.8250    23.1170     6.2670     6.8160     8.9960     2.2870   -25.9280 
  136.2500    68.0420    23.1390     7.3020     7.1630     9.4410     2.2430   -26.1780 
  136.3750    67.0760    23.0760     8.1240     7.3550     9.5880     2.2190   -26.4970 
  136.5000    76.5710    23.1600     8.5940     7.3670     9.4660     2.2270   -26.8580 
  136.6250    87.6390    23.4500     8.2140     7.2690     9.2280     2.2540   -27.1790 
  136.7500    90.8840    23.8090     7.1870     7.1800     9.0560     2.2720   -27.4500 
  136.8750    89.0280    23.8340     5.9920     7.1850     9.0640     2.2710   -27.6760 
  137.0000    86.1970    23.7140     5.8500     7.3400     9.3140     2.2650   -27.8710 
  137.1250    83.0430    23.3030     6.7170     7.6670     9.7980     2.2710   -27.9970 
  137.2500    79.9880    23.2070     7.8810     8.0820    10.3580     2.2830   -28.0750 
  137.3750    78.8080    23.2370     8.7190     8.5100    10.8900     2.2880   -28.1710 
  137.5000    77.7960    23.2200     8.8570     8.8810    11.3030     2.2740   -28.3160 
  137.6250    73.2790    23.0790     8.7630     9.1160    11.5090     2.2510   -28.4750 
  137.7500    70.1800    23.0820     9.0000     9.2380    11.5520     2.2430   -28.6150 
  137.8750    72.1910    23.1860     9.1880     9.2890    11.5150     2.2550   -28.7000 
  138.0000    77.0090    23.2380     8.9650     9.3070    11.4510     2.2640   -28.7130 
  138.1250    78.2120    23.1430     8.9390     9.3200    11.3880     2.2450   -28.6550 
  138.2500    73.9780    22.8990     9.2350     9.3380    11.3200     2.2150   -28.5820 
  138.3750    67.5200    22.8240     9.4070     9.3490    11.2340     2.2010   -28.4490 
  138.5000    63.4820    22.7930     9.2760     9.3690    11.1400     2.2160   -28.1880 
  138.6250    64.7080    22.9160     9.2110     9.4240    11.0770     2.2420   -27.8220 
  138.7500    66.2690    22.8080     9.3200     9.5280    11.0900     2.2500   -27.3710 
  138.8750    65.8720    22.6730     9.6670     9.6870    11.1930     2.2360   -26.8460 
  139.0000    64.7780    22.7000     9.9980     9.9090    11.3940     2.2160   -26.2540 
  139.1250    62.7920    22.7760    10.1990    10.1590    11.6250     2.2090   -25.6460 
  139.2500    60.5860    22.7880    10.4260    10.3430    11.7730     2.2160   -24.9700 
  139.3750    59.1790    22.6800    10.7230    10.3700    11.7320     2.2320   -24.2170 
  139.5000    60.6730    22.6570    11.3910    10.1680    11.4420     2.2500   -23.4480 
  139.6250    65.7020    22.9410    11.2840     9.6770    10.8200     2.2690   -22.6420 
  139.7500    74.2230    23.3300    10.5290     8.9680     9.9400     2.2880   -21.8140 
  139.8750    85.4740    23.5890     8.9080     8.1290     8.9150     2.3090   -21.0360 
  140.0000    94.6890    23.8160     6.9600     7.3180     7.9290     2.3310   -20.3560 
  140.1250    95.0700    23.7380     5.3110     6.7330     7.2430     2.3390   -19.7350 
  140.2500    88.7320    23.7870     5.2150     6.4520     6.9640     2.3310   -19.1570 
  140.3750    82.0260    23.7940     5.4630     6.5310     7.1760     2.3240   -18.6570 
  140.5000    80.7810    23.8580     5.7420     7.0190     7.9320     2.3440   -18.2450 
  140.6250    81.1660    23.8500     6.7200     7.9980     9.2760     2.3960   -17.9750 
  140.7500    78.2920    23.7070    10.3160     9.3790    11.0340     2.4540   -17.7970 
  140.8750    71.6280    23.4810    14.0840    11.0880    13.0480     2.5030   -17.6230 
  141.0000    65.8570    23.1910    14.6660    12.9560    15.1150     2.5460   -17.4220 
  141.1250    64.2690    23.0160    13.1890    14.7270    16.9840     2.5890   -17.2510 
  141.2500    65.3730    23.0880    13.6800    16.2280    18.5480     2.6270   -17.1320 
  141.3750    66.8640    23.1250    15.7580    17.3820    19.7650     2.6570   -17.0040 
  141.5000    66.2090    23.1680    17.3170    18.1710    20.6500     2.6830   -16.8480 
  141.6250    62.7440    23.2250    18.7940    18.6310    21.2770     2.7090   -16.6410 
  141.7500    57.6930    23.1170    20.1900    18.9420    21.7870     2.7300   -16.3850 
  141.8750    53.0690    23.0270    21.3790    19.1180    22.1400     2.7350   -16.1150 
  142.0000    50.6810    23.0550    22.3070    19.1310    22.2760     2.7170   -15.8910 
  142.1250    50.1330    23.2540    21.5200    18.9990    22.1940     2.6840   -15.7430 
  142.2500    49.7820    23.3780    20.3140    18.8120    22.0240     2.6550   -15.6220 
  142.3750    50.2710    23.5620    18.8840    18.6450    21.8500     2.6400   -15.5250 
  142.5000    51.1850    23.6000    18.4570    18.5580    21.7580     2.6440   -15.4330 
  142.6250    51.1520    23.5540    17.5200    18.6120    21.8280     2.6620   -15.3430 
  142.7500    50.6040    23.5460    17.6610    18.7950    22.0610     2.6820   -15.2740 
  142.8750    49.9270    23.6040    18.0750    19.1140    22.4600     2.6950   -15.2330 
  143.0000    50.2310    23.6020    18.8260    19.5440    22.9600     2.6990   -15.1520 
  143.1250    51.8260    23.6000    18.1580    19.9610    23.3860     2.7010   -15.0040 
  143.2500    53.6570    23.6040    17.8890    20.2390    23.5770     2.7100   -14.8500 
  143.3750    54.4750    23.6340    17.6290    20.2900    23.4510     2.7190   -14.7190 
  143.5000    53.5220    23.6360    18.2400    20.0550    22.9790     2.7170   -14.6520 
  143.6250    52.2890    23.6930    19.6620    19.5240    22.1650     2.7040   -14.6950 
  143.7500    52.9880    23.7170    19.8320    18.8640    21.2340     2.6890   -14.7960 
  143.8750    56.8760    23.7570    18.2190    18.2380    20.4060     2.6760   -14.9010 
  144.0000    59.5740    23.6520    15.5460    17.7920    19.8650     2.6660   -14.9940 
  144.1250    57.1170    23.6210    14.5190    17.6840    19.7690     2.6610   -15.0640 
  144.2500    54.3640    23.6700    15.2470    17.8100    19.9630     2.6600   -15.1040 
  144.3750    55.0740    23.7970    16.1930    18.0210    20.2260     2.6590   -15.1300 
  144.5000    57.9890    23.6410    16.8350    18.1230    20.3090     2.6660   -15.1220 
  144.6250    59.5340    23.6330    17.9340    17.9150    20.0040     2.6800   -15.0900 
  144.7500    60.4880    23.7570    18.7650    17.3750    19.3170     2.6810   -15.1040 
  144.8750    62.9980    23.8610    18.2260    16.5770    18.3640     2.6560   -15.1910 
  145.0000    66.5930    23.9150    16.1650    15.7030    17.3710     2.6220   -15.3480 
  145.1250    66.8340    23.8940    13.4420    15.0140    16.6490     2.6110   -15.5290 
  145.2500    62.7150    23.7990    12.6080    14.5890    16.2810     2.6200   -15.6800 
  145.3750    58.5140    23.6050    14.1350    14.4600    16.2810     2.6280   -15.7620 
  145.5000    57.1640    23.4070    15.3600    14.5820    16.5570     2.6260   -15.8170 
  145.6250    57.0450    23.2990    14.8160    14.8530    16.9300     2.6200   -15.8250 
