~V
VERS. 2.00: Ver 2.00
~W
STRT.M 60.0000:
STOP.M 266.0000:
STEP.M 0.1250:
NULL. -999.2500:
UWI. DF3052:
~C
DEPT.M :
GR.API :
CALI.CM :
RXO.OHMM :
RI. :
RML.OHMM :
DEN.GM/CC :
SP.MV :
~A
# ...
  127.5000    58.0110    22.9530    11.5170    11.5530    12.0200     2.2740   -20.9850 
  127.6250    57.4020    22.8150    11.2150    10.4500    10.9240     2.2140   -21.1690 
  127.7500    58.7470    22.7600    11.3420     9.6180    10.1860     2.1850   -21.2680 
  127.8750    62.6060    22.8030    11.0050     9.1390     9.8320     2.1770   -21.2710 
  128.0000    66.7350    22.8970    10.2180     9.0160     9.8170     2.1740   -21.2010 
  128.1250    67.4070    22.9160     9.5740     9.1700    10.0290     2.1690   -21.0980 
  128.2500    65.3190    22.8390     9.3330     9.4010    10.2820     2.1610   -21.0050 
  128.3750    62.7220    22.7560     9.3910     9.6340    10.5260     2.1540   -20.9350 
  128.5000    60.8150    22.7560     9.5800     9.8540    10.7500     2.1560   -20.8710 
  128.6250    60.2230    22.8100     9.8540    10.0320    10.9200     2.1700   -20.8430 
  128.7500    61.7120    22.8420    10.1760    10.1410    11.0110     2.1890   -20.8270 
  128.8750    65.2350    22.8660    10.3790    10.1710    11.0350     2.2030   -20.8440 
  129.0000    68.6240    22.9210    10.3180    10.1310    10.9960     2.2070   -20.9160 
  129.1250    69.2230    23.0210    10.0460    10.0400    10.9070     2.2000   -20.9950 
  129.2500    68.2890    23.1220     9.6670     9.9440    10.8070     2.1940   -21.0620 
  129.3750    68.4330    23.1760     9.3870     9.8840    10.7450     2.1940   -21.0950 
  129.5000    71.1350    23.1570     9.2800     9.9010    10.7760     2.2030   -21.1120 
  129.6250    74.4960    23.0760     9.3300    10.0500    10.9520     2.2110   -21.0850 
  129.7500    75.0710    22.9960     9.5030    10.2950    11.2070     2.2130   -21.0360 
  129.8750    72.3930    22.9430     9.7310    10.5970    11.5150     2.2170   -20.9250 
  130.0000    69.1520    22.9400     9.8620    10.8980    11.8220     2.2380   -20.7320 
  130.1250    68.4870    23.0220     9.8920    11.0870    11.9750     2.2840   -20.4870 
  130.2500    69.8040    23.1420     9.8970    11.1230    11.9600     2.3250   -20.2150 
  130.3750    71.1260    23.2340     9.8740    11.0160    11.7910     2.3320   -19.9320 
  130.5000    70.8420    23.2780     9.8110    10.8130    11.5270     2.3020   -19.6220 
  130.6250    68.4870    23.2890     9.9620    10.6020    11.2780     2.2680   -19.2920 
  130.7500    65.9240    23.2850    10.5730    10.5000    11.1430     2.2560   -18.9430 
  130.8750    64.3820    23.2490    11.5540    10.6180    11.2490     2.2600   -18.5990 
  131.0000    63.4270    23.2030    12.5140    11.0570    11.7160     2.2590   -18.2450 
  131.1250    61.8940    23.2080    13.2450    12.1010    12.8780     2.2480   -17.8960 
  131.2500    60.4800    23.2520    13.8830    13.7460    14.5910     2.2400   -17.5470 
  131.3750    60.3670    23.2900    14.7160    15.7160    16.5010     2.2570   -17.1980 
  131.5000    61.1110    23.3290    16.3800    17.4950    18.1140     2.3130   -16.8680 
  131.6250    61.3840    23.4700    19.8890    18.3660    18.6990     2.4170   -16.5780 
  131.7500    61.6990    23.7350    24.5340    18.0300    17.9510     2.5370   -16.3640 
  131.8750    63.6580    24.0550    27.6790    16.4240    15.8450     2.6260   -16.2450 
  132.0000    67.8890    24.3230    26.1070    13.8570    12.8680     2.6440   -16.2270 
  132.1250    73.6280    24.4600    18.8220    10.9390     9.9020     2.5800   -16.3020 
  132.2500    78.9460    24.5060    11.2460     8.3740     7.6080     2.4910   -16.4400 
  132.3750    82.0020    24.4860     6.8070     6.5730     6.2260     2.4160   -16.6450 
  132.5000    81.7490    24.3450     5.5060     5.6660     5.6740     2.3650   -16.9190 
  132.6250    78.9810    24.0150     6.0450     5.6280     5.8600     2.3260   -17.2330 
  132.7500    76.4190    23.6520     7.2330     6.0710     6.4630     2.2860   -17.5120 
  132.8750    75.1420    23.4120     8.6700     6.7650     7.2900     2.2490   -17.7440 
  133.0000    74.7920    23.3210     9.8100     7.4940     8.1330     2.2240   -17.9400 
  133.1250    74.6190    23.2880    10.2830     8.0110     8.6850     2.2140   -18.0720 
  133.2500    74.2660    23.2470    10.4370     8.2550     8.8640     2.2110   -18.1780 
  133.3750    73.6140    23.2180    10.4860     8.2580     8.7510     2.2120   -18.2130 
  133.5000    72.8160    23.2170    10.4490     8.0940     8.4790     2.2170   -18.1430 
  133.6250    72.5780    23.2180    10.3210     7.8210     8.1320     2.2230   -17.9740 
  133.7500    73.8200    23.1850    10.2400     7.5130     7.7600     2.2230   -17.7310 
  133.8750    77.0310    23.1520    10.1820     7.1770     7.3730     2.2190   -17.3930 
  134.0000    81.5140    23.1660     9.9270     6.7790     6.9270     2.2170   -16.9700 
  134.1250    84.6590    23.2200     9.1100     6.3090     6.4440     2.2230   -16.4650 
  134.2500    84.7330    23.2580     7.8680     5.8480     6.0030     2.2340   -15.9010 
  134.3750    82.7170    23.2770     6.6560     5.4570     5.6540     2.2520   -15.3270 
  134.5000    81.4630    23.2830     5.9460     5.1670     5.4190     2.2740   -14.7810 
  134.6250    83.8350    23.2870     5.8730     4.9990     5.3030     2.2870   -14.3080 
  134.7500    87.8510    23.3030     5.9830     4.9100     5.2720     2.2870   -13.9150 
  134.8750    90.2080    23.3510     5.8950     4.8770     5.2950     2.2840   -13.6310 
  135.0000    89.0610    23.4400     5.5810     4.8650     5.3160     2.2930   -13.4620 
  135.1250    86.0560    23.5600     5.2620     4.8310     5.3070     2.3090   -13.4660 
  135.2500    84.9750    23.6580     5.0570     4.7790     5.2720     2.3110   -13.5850 
  135.3750    86.8350    23.6890     4.8860     4.7830     5.3110     2.3020   -13.8180 
  135.5000    90.0580    23.6580     4.7210     4.9550     5.5640     2.3020   -14.1530 
  135.6250    91.4230    23.6090     4.6760     5.4830     6.2500     2.3290   -14.5720 
  135.7500    89.5190    23.5550     5.1880     6.5340     7.5850     2.3730   -15.0670 
  135.8750    84.7690    23.4760     7.3510     8.2410     9.6500     2.4260   -15.6090 
  136.0000    79.0520    23.3850    12.4070    10.5770    12.3500     2.4850   -16.1770 
  136.1250    75.8880    23.3550    18.6940    13.3290    15.3750     2.5480   -16.7220 
  136.2500    76.3300    23.3780    22.7520    15.8640    18.0230     2.6080   -17.2550 
  136.3750    78.3880    23.3960    24.0990    17.5510    19.5720     2.6620   -17.7550 
  136.5000    79.6100    23.4000    25.0680    17.8610    19.4310     2.6970   -18.2320 
  136.6250    79.9390    23.4270    25.8790    16.5830    17.5430     2.6720   -18.6670 
  136.7500    81.0200    23.4190    23.5690    14.5390    14.9860     2.5910   -19.0540 
  136.8750    82.2040    23.3150    18.1060    12.4260    12.6180     2.4830   -19.4070 
  137.0000    81.7260    23.1610    12.6460    10.7670    10.9630     2.3830   -19.7100 
  137.1250    78.9620    23.0710    10.1490     9.8040    10.1340     2.3160   -19.9660 
  137.2500    76.4620    23.0410     9.6240     9.3210     9.7970     2.2710   -20.1960 
  137.3750    75.6310    23.0140     9.8970     9.2020     9.8210     2.2450   -20.4300 
  137.5000    75.4820    22.9650    10.3370     9.3740    10.1480     2.2340   -20.6430 
  137.6250    74.1080    22.8890    10.6980     9.7850    10.6880     2.2300   -20.8480 
  137.7500    71.9750    22.8160    10.9020    10.2890    11.2760     2.2230   -21.0330 
  137.8750    70.3780    22.7900    10.8670    10.7920    11.8270     2.2140   -21.1900 
  138.0000    69.9350    22.8280    10.6870    11.2510    12.3130     2.2130   -21.3410 
  138.1250    70.5540    22.9150    11.2580    11.6990    12.7860     2.2340   -21.5010 
  138.2500    71.2010    23.0210    13.5000    12.0920    13.1740     2.2850   -21.6550 
  138.3750    71.1080    23.1020    17.0280    12.3030    13.3340     2.3600   -21.7710 
  138.5000    70.3770    23.0870    19.1610    12.2490    13.2130     2.4330   -21.8670 
  138.6250    70.4240    22.9590    17.0530    11.9300    12.8340     2.4470   -21.8830 
