~V
VERS. 2.00: Ver 2.00
~W
STRT.M 60.0000:
STOP.M 280.0000:
STEP.M 0.1250:
NULL. -999.2500:
UWI. DF3041:
~C
DEPT.M :
SP.MV :
GR.API :
RML.OHMM :
RI. :
RXO.OHMM :
CALI.CM :
DEN.GM/CC :
~A
# ...
  206.2500   -19.2260    99.7530    13.1740    10.6460    16.6140    22.8400     2.4180 
  206.3750   -18.8980   104.0270    12.3730    10.0120    15.4900    23.2310     2.4160 
  206.5000   -18.6460   108.0790    11.9250     9.5580    12.9920    23.5680     2.4120 
  206.6250   -18.4880   106.4870    12.0850     9.4930    11.4050    23.6640     2.4050 
  206.7500   -18.4260    99.7710    12.7270     9.8150    12.8680    23.6960     2.3990 
  206.8750   -18.4300    92.3210    13.6970    10.4840    15.9710    23.6380     2.3960 
  207.0000   -18.4810    88.7950    14.8270    11.4230    18.8240    23.5510     2.3990 
  207.1250   -18.5780    88.7440    16.0350    12.5830    20.3830    23.4800     2.4060 
  207.2500   -18.6890    88.5830    17.3580    13.9000    21.1490    23.4280     2.4130 
  207.3750   -18.7000    88.9590    18.8460    15.3430    21.2310    23.3770     2.4150 
  207.5000   -18.5180    90.8740    20.3740    16.7890    21.8160    23.3230     2.4080 
  207.6250   -18.0160    93.0240    21.3750    17.8190    24.8210    23.2200     2.3960 
  207.7500   -17.2420    92.6600    21.2700    18.0030    27.8700    23.3520     2.3860 
  207.8750   -16.2630    92.8770    19.7360    17.0540    28.8270    23.5610     2.3810 
  208.0000   -15.0760    96.5390    16.9940    15.0570    26.0490    23.5720     2.3800 
  208.1250   -13.7340    97.0990    13.8440    12.5140    19.0870    23.6210     2.3790 
  208.2500   -12.3080    92.3820    11.2150    10.1800    12.5290    23.8460     2.3740 
  208.3750   -10.8810    85.6320     9.4490     8.3930     8.8370    24.2520     2.3640 
  208.5000    -9.5210    78.9700     8.5260     7.2260     7.7040    24.5200     2.3490 
  208.6250    -8.3570    71.2370     8.3020     6.6730     7.5580    25.1390     2.3290 
  208.7500    -7.4250    65.5670     8.4000     6.5080     7.2130    25.9110     2.3080 
  208.8750    -6.7310    65.3660     8.6340     6.6210     6.8000    26.8500     2.2920 
  209.0000    -6.2930    68.8430     8.9090     6.9330     6.5770    27.1950     2.2860 
  209.1250    -6.0710    73.6870     9.2210     7.4030     6.4410    26.4240     2.2960 
  209.2500    -5.9840    78.3790     9.5700     7.9390     6.7290    25.2380     2.3200 
  209.3750    -5.9300    81.6330     9.9000     8.4400     7.3690    24.3860     2.3540 
  209.5000    -5.8470    83.2830    10.0930     8.7810     8.3890    23.8590     2.3890 
  209.6250    -5.7250    85.2220     9.9830     8.8050     9.1690    23.2960     2.4160 
  209.7500    -5.5360    87.6710     9.6060     8.5430     9.1980    23.2440     2.4300 
  209.8750    -5.3150    88.7020     9.0850     8.0920     8.2670    23.5010     2.4300 
  210.0000    -5.0660    89.6200     8.5970     7.5960     7.1580    23.8330     2.4230 
  210.1250    -4.7940    92.4320     8.3210     7.2090     6.6350    23.9660     2.4110 
  210.2500    -4.5290    94.4910     8.2560     6.9720     6.4870    23.8160     2.4030 
  210.3750    -4.3270    94.7290     8.3470     6.8770     6.6650    23.7100     2.4000 
  210.5000    -4.2480    95.0170     8.5250     6.9020     6.9990    23.6740     2.4020 
  210.6250    -4.3040    98.4870     8.7600     7.0540     7.3990    23.6400     2.4060 
  210.7500    -4.4740    99.5250     9.0720     7.3320     7.7470    23.6240     2.4100 
  210.8750    -4.6980    96.2380     9.5120     7.7550     8.2930    23.6180     2.4140 
  211.0000    -4.9560    93.0300    10.0930     8.3120     9.1190    23.6150     2.4190 
  211.1250    -5.2280    91.6590    10.7510     8.9380    10.4490    23.6230     2.4240 
  211.2500    -5.5240    88.8790    11.3310     9.5020    12.4000    23.6320     2.4270 
  211.3750    -5.8520    82.7610    11.7360     9.9200    14.7440    23.6470     2.4270 
  211.5000    -6.1520    77.9800    12.0090    10.1930    16.6780    23.6680     2.4260 
  211.6250    -6.5080    80.1180    12.3520    10.4970    16.8790    23.6940     2.4250 
  211.7500    -6.9060    84.8950    13.0530    11.1940    15.3440    23.7070     2.4270 
  211.8750    -7.3500    86.6720    14.7490    12.7490    16.3300    23.7110     2.4290 
  212.0000    -7.8550    82.3140    17.9650    15.7190    21.0780    23.7120     2.4260 
  212.1250    -8.4170    75.7730    24.4600    21.0180    30.3840    23.7100     2.3990 
  212.2500    -9.0090    72.6570    33.8160    28.5470    42.1870    23.7030     2.3470 
  212.3750    -9.6150    70.8870    45.9170    37.9070    54.4440    23.6800     2.2820 
  212.5000   -10.2480    67.6050    59.4640    48.0600    67.6840    23.6210     2.2280 
  212.6250   -10.8180    65.3140    69.3870    57.2230    80.0510    23.5240     2.2120 
  212.7500   -11.3560    65.7290    76.4230    64.2130    91.2480    23.4350     2.2300 
  212.8750   -11.8420    68.0310    80.4680    68.7180   100.0620    23.4080     2.2660 
  213.0000   -12.2500    70.5610    82.4540    71.2160   100.0170    23.4670     2.2950 
  213.1250   -12.5790    72.9110    83.7880    72.6130    96.0590    23.6120     2.3010 
  213.2500   -12.8390    74.9820    85.6780    74.0810    94.0510    23.8070     2.2940 
  213.3750   -13.0610    74.9280    88.3460    76.0660    94.1340    23.9930     2.2830 
  213.5000   -13.2450    73.4320    91.0110    78.4100    96.4960    24.0670     2.2730 
  213.6250   -13.3880    72.0810    92.3030    80.1200    98.2230    24.0370     2.2610 
  213.7500   -13.4800    71.1740    91.0050    80.0440    98.1760    23.9960     2.2420 
  213.8750   -13.5570    70.3350    87.0860    77.3550    95.9510    24.0010     2.2190 
  214.0000   -13.6470    69.9000    80.5090    71.9410    93.8790    23.9740     2.1980 
  214.1250   -13.7600    71.3110    73.9580    64.4680    88.5730    23.9360     2.1880 
  214.2500   -13.9250    73.1660    68.6790    57.2160    77.2930    23.8740     2.1910 
  214.3750   -14.0950    73.3450    64.3150    51.9590    62.6730    23.7880     2.2050 
  214.5000   -14.3000    72.9360    62.1270    49.7260    52.2280    23.6900     2.2230 
  214.6250   -14.5630    71.6470    64.9620    51.7800    49.7440    23.6620     2.2390 
  214.7500   -14.8620    69.2970    70.5060    56.5960    52.8890    23.6350     2.2490 
  214.8750   -15.1700    67.8330    77.9260    63.3620    63.7160    23.6100     2.2530 
  215.0000   -15.4780    71.1790    86.1330    70.8910    84.6410    23.6270     2.2510 
  215.1250   -15.8030    70.4600    93.0260    77.3190    85.0740    23.3110     2.2420 
  215.2500   -16.1190    72.4640   101.9090    84.4530   106.6370    23.4580     2.2300 
  215.3750   -16.4350    73.9740   104.1890    87.1580   120.7280    23.5310     2.2180 
  215.5000   -16.7360    71.9940    99.6120    85.0770   117.8510    23.4850     2.2110 
  215.6250   -17.0070    68.7130    90.7160    79.4220   101.3680    23.4840     2.2120 
  215.7500   -17.2850    67.8590    82.0450    73.2760    84.8520    23.5490     2.2190 
  215.8750   -17.5490    69.1310    75.6770    68.3940    72.7890    23.5510     2.2290 
  216.0000   -17.8040    70.0630    72.4550    65.7440    65.3920    23.5720     2.2410 
  216.1250   -18.0570    70.1740    73.1270    66.1210    60.1340    23.4880     2.2460 
  216.2500   -18.2650    69.2050    76.8530    68.8810    58.2640    23.4010     2.2390 
  216.3750   -18.4860    66.1680    82.8840    73.3340    61.9940    23.3930     2.2160 
  216.5000   -18.6830    63.0470    89.9930    78.4130    70.9840    23.7480     2.1880 
  216.6250   -18.8610    61.2180    96.4380    82.7050    83.6700    23.9760     2.1690 
  216.7500   -18.9760    61.7990   101.1830    85.5800    91.1420    23.9140     2.1680 
  216.8750   -19.0950    65.5660   104.3380    87.3180    89.4990    23.7530     2.1830 
  217.0000   -19.2570    70.9960   107.0260    89.0040    80.6680    23.7200     2.2030 
  217.1250   -19.4290    73.2370   111.1430    92.4550    77.1560    23.8330     2.2100 
  217.2500   -19.6320    69.9090   117.5220    98.4140    83.3720    23.9410     2.2040 
  217.3750   -19.7840    64.6300   126.0360   106.7650    97.3550    24.0280     2.1910 
