~V
VERS. 2.00: Ver 2.00
~W
STRT.M 125.0000:
STOP.M 276.0000:
STEP.M 0.1250:
NULL. -999.2500:
UWI. DF3039:
~C
DEPT.M :
SP.MV :
GR.API :
CALI.CM :
RXO.OHMM :
RI. :
RML.OHMM :
DEN.GM/CC :
~A
# ...
  170.0000   -21.2830    59.6910    23.6040    11.5920    12.4960    14.4610     2.4670 
  170.1250   -21.3900    58.7980    23.6080    10.5680    11.7880    13.8370     2.4490 
  170.2500   -21.4630    58.0450    23.6110     9.7050    11.6480    14.0490     2.4380 
  170.3750   -21.5910    58.3870    23.6050     9.2970    12.2070    15.2510     2.4340 
  170.5000   -21.8870    58.4460    23.6130    10.0020    13.5470    17.4650     2.4280 
  170.6250   -22.3090    59.2430    23.6660    15.7540    15.8550    20.8110     2.4050 
  170.7500   -22.6770    60.8220    23.7530    30.7510    19.0720    25.0880     2.3690 
  170.8750   -22.9660    61.4090    23.7780    48.3330    23.2240    30.1740     2.3360 
  171.0000   -23.2470    60.6670    23.8020    57.0810    28.1480    35.8210     2.3120 
  171.1250   -23.5630    61.1380    23.9340    55.2840    33.5810    41.8100     2.2970 
  171.2500   -23.9520    63.1530    24.1110    53.3340    39.1590    47.9940     2.2850 
  171.3750   -24.3910    65.8800    24.2260    56.0470    44.8110    54.4630     2.2790 
  171.5000   -24.7720    68.0650    24.5150    62.0520    50.7820    61.5610     2.2740 
  171.6250   -25.0210    67.5730    24.7350    65.9740    57.8420    70.2010     2.2670 
  171.7500   -25.1870    65.2590    24.8260    72.5680    66.3660    80.7020     2.2640 
  171.8750   -25.3620    62.9970    24.8420    87.6060    76.6400    93.2250     2.2700 
  172.0000   -25.6140    62.2120    24.8640   116.0220    88.6710   107.6060     2.2850 
  172.1250   -25.9370    63.0920    24.8240   147.0280   101.9110   123.1010     2.2970 
  172.2500   -26.2030    63.1800    24.8030   165.9800   114.8890   137.8730     2.2930 
  172.3750   -26.3540    61.4900    24.7900   168.1470   126.6570   150.7440     2.2740 
  172.5000   -26.4190    59.5860    24.8020   161.3190   136.5280   160.8040     2.2530 
  172.6250   -26.4740    60.5900    24.8830   154.4050   143.6210   166.8790     2.2460 
  172.7500   -26.6360    61.9010    24.8660   151.6030   148.5420   170.0600     2.2510 
  172.8750   -26.8700    61.4300    24.7960   155.7780   152.0320   171.4640     2.2590 
  173.0000   -27.0530    62.2050    24.7760   167.9170   154.4440   171.6700     2.2580 
  173.1250   -27.0820    66.3210    24.8130   174.9810   154.8410   169.4230     2.2420 
  173.2500   -27.0440    67.4240    24.8190   173.5260   152.6340   164.0550     2.2240 
  173.3750   -27.0520    63.3890    24.8180   160.1220   147.4030   155.3480     2.2140 
  173.5000   -27.1820    59.8110    24.7990   139.1010   139.5230   144.0670     2.2150 
  173.6250   -27.3810    62.0070    24.8380   119.5830   129.8260   131.6260     2.2240 
  173.7500   -27.4740    66.7910    24.8310    99.5390   120.0760   119.8830     2.2330 
  173.8750   -27.4300    70.8880    24.7470    81.6770   111.3280   109.8450     2.2420 
  174.0000   -27.3400    73.5390    24.5650    74.9360   104.3610   102.0560     2.2540 
  174.1250   -27.3630    72.5240    24.4920    79.7410   100.1330    97.3120     2.2700 
  174.2500   -27.5050    68.0860    24.3570    81.4700    98.3160    95.2640     2.2780 
  174.3750   -27.6650    63.6000    24.2130    78.5120    98.7240    95.7840     2.2710 
  174.5000   -27.7180    62.0390    24.1660    77.2580   101.4780    99.0920     2.2580 
  174.6250   -27.6540    62.6570    23.9500    81.2100   107.5040   106.1080     2.2610 
  174.7500   -27.6030    62.2880    24.0050    89.2660   116.4940   116.3860     2.2730 
  174.8750   -27.6470    60.5480    24.1570   109.9920   128.5960   130.0290     2.2740 
  175.0000   -27.7980    59.5560    24.3990   140.2420   143.9730   147.4060     2.2500 
  175.1250   -27.9440    61.1020    24.4910   162.0100   162.9490   169.1320     2.2180 
  175.2500   -27.9500    63.9500    24.5160   176.1810   185.0420   194.4890     2.2040 
  175.3750   -27.8420    65.3590    24.5410   180.9870   209.7080   222.9800     2.2090 
  175.5000   -27.7550    64.6250    24.7690   194.7840   235.8430   253.3990     2.2170 
  175.6250   -27.7820    61.3460    24.8040   227.1880   261.2330   283.2870     2.2100 
  175.7500   -27.9170    57.2920    24.8280   264.6720   283.9560   310.5700     2.1940 
  175.8750   -28.0690    53.9310    24.7830   275.0830   302.2220   332.8380     2.1820 
  176.0000   -28.1210    52.1840    24.6900   273.7200   313.7730   346.5020     2.1830 
  176.1250   -28.0710    52.9950    24.6320   275.9150   314.4090   345.8900     2.1930 
  176.2500   -28.0170    54.4710    24.7520   301.5840   304.5080   332.5110     2.2000 
  176.3750   -28.0280    54.7400    24.8240   322.3060   285.8170   309.1000     2.2010 
  176.5000   -28.0970    55.9280    24.8410   309.4140   261.6470   279.9710     2.2010 
  176.6250   -28.1730    61.2470    24.8430   281.2210   235.0970   249.3640     2.2050 
  176.7500   -28.1210    65.4120    24.8100   259.3130   209.2230   220.5250     2.2160 
  176.8750   -27.9140    64.0430    24.7780   227.7730   185.6520   195.1230     2.2290 
  177.0000   -27.7000    61.5120    24.7100   187.4630   165.4760   174.0260     2.2400 
  177.1250   -27.6120    62.7480    24.7380   157.2450   150.1970   158.2550     2.2470 
  177.2500   -27.6510    63.0580    24.8070   138.6030   139.4570   147.1490     2.2510 
  177.3750   -27.7050    60.9760    24.8150   129.5630   133.3010   140.8050     2.2530 
  177.5000   -27.6640    59.7050    24.8030   124.9820   131.7600   139.2830     2.2510 
  177.6250   -27.4840    60.8250    24.7060   120.2090   135.3020   142.7990     2.2450 
  177.7500   -27.3130    62.2890    24.5240   119.1050   142.4960   149.9200     2.2350 
  177.8750   -27.2330    64.9200    24.4420   128.1980   152.3420   159.5550     2.2250 
  178.0000   -27.2360    67.3270    24.3980   158.7590   162.9120   169.7820     2.2200 
  178.1250   -27.2430    66.1970    24.4010   197.8830   170.5430   176.6470     2.2240 
  178.2500   -27.1390    64.7200    24.5800   218.1020   171.6580   176.4180     2.2290 
  178.3750   -26.9250    66.8150    24.7650   210.4930   164.4440   167.5870     2.2290 
  178.5000   -26.6880    70.7710    24.8030   181.3970   150.1540   151.9490     2.2210 
  178.6250   -26.5810    69.8180    24.8210   145.0090   132.4380   133.8940     2.2100 
  178.7500   -26.5930    65.6870    24.8490   108.1580   116.0750   118.2150     2.2020 
  178.8750   -26.6370    64.6600    24.7830    68.3930   103.8080   107.5510     2.2020 
  179.0000   -26.5590    68.2990    24.4220    35.0120    97.7540   103.6700     2.2080 
  179.1250   -26.3230    71.8480    24.0790    31.7070    99.9450   108.0850     2.2140 
  179.2500   -26.1200    72.1660    23.9450    60.0250   108.9230   119.2460     2.2140 
  179.3750   -26.0450    70.4460    23.9190   128.6510   123.8020   136.3020     2.2140 
  179.5000   -26.1020    67.1000    23.9250   194.7170   143.0510   158.0900     2.2230 
  179.6250   -26.1740    63.8430    24.0180   221.1690   164.5470   182.8850     2.2390 
  179.7500   -26.1600    61.8370    24.3350   217.6700   184.8960   206.6760     2.2500 
  179.8750   -26.0410    59.6880    24.6830   203.5710   200.9970   225.6410     2.2550 
  180.0000   -25.9190    55.3660    24.8200   186.6740   210.8610   237.4470     2.2560 
  180.1250   -25.9370    51.1410    24.8380   191.2050   214.6840   242.6390     2.2530 
  180.2500   -26.0440    51.6800    24.8300   200.7060   216.6290   246.4100     2.2470 
  180.3750   -26.1320    57.0050    24.8150   210.1590   218.2150   250.0370     2.2440 
  180.5000   -26.0840    62.4640    24.8310   209.4620   219.4450   253.0540     2.2550 
  180.6250   -25.8870    63.2420    24.7940   199.9940   219.2530   253.5250     2.2790 
  180.7500   -25.6930    61.7600    24.6350   195.6480   216.7950   250.4830     2.2960 
  180.8750   -25.6230    60.4810    24.4330   214.7530   211.4590   243.3270     2.2930 
  181.0000   -25.6810    58.6380    24.1670   238.0580   203.6630   232.7060     2.2720 
  181.1250   -25.7360    55.9740    24.1440   222.3070   193.9480   219.9790     2.2460 
