~V
VERS. 2.00: Ver 2.00
~W
STRT.M 55.0000:
STOP.M 272.0000:
STEP.M 0.1250:
NULL. -999.2500:
UWI. DF3078:
~C
DEPT.M :
GR.API :
CALI.CM :
RXO.OHMM :
RI. :
RML.OHMM :
DEN.GM/CC :
SP.MV :
~A
# ...
  122.5000   102.8300    22.5030     6.8920     4.9930     6.8870     2.3040    -2.3060 
  122.6250   103.6680    22.3890     7.5890     5.3610     7.3670     2.3320    -2.2970 
  122.7500    99.8950    22.2660     7.9400     5.7000     7.7170     2.3660    -2.2810 
  122.8750    95.3190    22.1150     8.0860     5.9050     7.8340     2.3860    -2.2620 
  123.0000    94.7930    21.9780     8.0870     5.9100     7.6960     2.3730    -2.2510 
  123.1250    97.0330    21.8060     7.6530     5.7210     7.3770     2.3290    -2.2370 
  123.2500    95.9340    21.6070     7.1720     5.4710     7.0580     2.2850    -2.2050 
  123.3750    92.9390    21.3870     6.9210     5.2490     6.8240     2.2590    -2.1870 
  123.5000    92.4100    21.1810     6.8180     5.1050     6.7040     2.2520    -2.1720 
  123.6250    94.4010    21.1430     6.6330     5.0600     6.6940     2.2590    -2.2230 
  123.7500    97.1850    21.2330     6.3200     5.0680     6.7300     2.2740    -2.2940 
  123.8750    98.8250    21.4000     6.0590     5.0880     6.7730     2.2930    -2.3730 
  124.0000    99.1330    21.5380     5.9370     5.1040     6.8050     2.3020    -2.4770 
  124.1250    99.1950    21.6050     5.9110     5.1200     6.8160     2.2870    -2.5880 
  124.2500    98.4470    21.6270     5.9050     5.1440     6.8070     2.2630    -2.7140 
  124.3750    98.2480    21.5890     5.9280     5.1800     6.7920     2.2520    -2.8270 
  124.5000    97.5280    21.5040     6.0100     5.2300     6.7980     2.2580    -2.9400 
  124.6250    95.0430    21.3740     6.0360     5.3010     6.8560     2.2710    -3.0160 
  124.7500    91.8760    21.2340     5.9930     5.3860     6.9530     2.2820    -3.0590 
  124.8750    91.3010    21.2130     6.0070     5.4750     7.0570     2.2860    -3.0700 
  125.0000    94.3910    21.2980     6.1540     5.5400     7.1200     2.2850    -3.0130 
  125.1250    98.8260    21.4460     6.3400     5.5290     7.0660     2.2830    -2.8980 
  125.2500   102.1360    21.6400     6.3350     5.4260     6.8790     2.2860    -2.7270 
  125.3750   102.5260    21.8220     6.2070     5.2400     6.5790     2.2930    -2.5330 
  125.5000   100.2470    21.9820     6.0500     5.0090     6.2320     2.3010    -2.3360 
  125.6250    97.9760    22.2120     5.7640     4.8050     5.9590     2.3030    -2.1380 
  125.7500    95.2170    22.5580     5.4270     4.6790     5.8310     2.3000    -1.9700 
  125.8750    91.8970    22.9870     5.2330     4.6530     5.8560     2.2890    -1.8120 
  126.0000    91.8030    23.2930     5.3070     4.7140     5.9820     2.2720    -1.7080 
  126.1250    97.8120    23.1860     5.6100     4.8260     6.1140     2.2570    -1.6330 
  126.2500   102.6420    22.6780     5.8610     4.9200     6.1630     2.2590    -1.5740 
  126.3750   102.3590    22.1330     5.9960     4.9520     6.0970     2.2850    -1.5190 
  126.5000   101.4520    21.8380     6.1200     4.9060     5.9410     2.3210    -1.4640 
  126.6250   104.7180    21.9350     6.1660     4.7920     5.7400     2.3430    -1.4300 
  126.7500   106.6510    22.3060     5.9490     4.6490     5.5390     2.3540    -1.3850 
  126.8750   103.1890    22.8510     5.5870     4.4970     5.3480     2.3640    -1.3480 
  127.0000   100.2530    23.4620     5.3440     4.3500     5.1710     2.3760    -1.3120 
  127.1250   104.7550    23.9750     5.1510     4.2250     5.0290     2.3870    -1.3220 
  127.2500   106.2190    24.4000     4.9500     4.1340     4.9470     2.3970    -1.3940 
  127.3750    97.9910    24.6300     4.7980     4.0900     4.9440     2.4040    -1.5340 
  127.5000    87.5870    24.6700     4.8100     4.0910     5.0090     2.4050    -1.7690 
  127.6250    86.0620    24.5620     5.0370     4.1310     5.1050     2.4000    -2.1110 
  127.7500    89.3320    24.4130     5.2740     4.1920     5.2050     2.3940    -2.5410 
  127.8750    91.2000    24.3070     5.3530     4.2870     5.3370     2.3830    -3.0620 
  128.0000    88.8270    24.2600     5.2890     4.4550     5.5810     2.3580    -3.6840 
  128.1250    83.6400    24.1670     5.4520     4.7840     6.0960     2.3140    -4.4240 
  128.2500    79.0900    23.9720     6.1120     5.3180     6.9190     2.2640    -5.2030 
  128.3750    75.7460    23.6890     7.1530     6.0770     8.0260     2.2230    -6.0050 
  128.5000    71.8680    23.4540     8.4010     7.0090     9.2810     2.2060    -6.7830 
  128.6250    70.0380    23.3790     9.8920     7.9270    10.3720     2.2120    -7.4880 
  128.7500    72.7110    23.3590    10.9470     8.5700    11.0090     2.2210    -8.1070 
  128.8750    74.6450    23.3170    10.7600     8.7780    11.0710     2.2220    -8.6250 
  129.0000    72.5360    23.2400     9.5960     8.5620    10.6560     2.2160    -9.0340 
  129.1250    71.1240    23.1980     8.7640     8.0480     9.9600     2.2120    -9.2800 
  129.2500    73.6590    23.2130     8.3440     7.4670     9.2380     2.2130    -9.4490 
  129.3750    75.5030    23.2710     8.1590     6.9650     8.6640     2.2100    -9.5500 
  129.5000    73.4610    23.3300     8.2510     6.6980     8.4750     2.2060    -9.6010 
  129.6250    69.8700    23.3410     8.8100     6.9670     9.1310     2.2260    -9.6040 
  129.7500    68.2060    23.3060    10.2690     7.9870    10.8640     2.2890    -9.5920 
  129.8750    67.6590    23.2970    14.5630    10.0880    13.9290     2.3990    -9.5940 
  130.0000    65.6340    23.4030    25.7540    13.5080    18.3610     2.5360    -9.6140 
  130.1250    60.8420    24.4580    55.3770    17.7250    23.1750     2.6510    -9.7020 
  130.2500    58.2120    24.6330    72.1720    20.7170    25.5540     2.6910    -9.8610 
  130.3750    58.2240    24.7470    61.3600    20.4750    23.5050     2.6320   -10.0920 
  130.5000    59.5520    24.7380    34.2530    17.2920    18.5290     2.4960   -10.3880 
  130.6250    60.0740    24.4990    18.2630    13.4240    13.9860     2.3490   -10.7330 
  130.7500    62.2820    24.1680    11.9580    10.4870    11.1140     2.2440   -11.1200 
  130.8750    67.4920    23.9640    10.1680     8.6700     9.7160     2.1900   -11.4940 
  131.0000    70.9020    23.9050     9.8360     7.7700     9.3510     2.1740   -11.8400 
  131.1250    67.3100    23.9040     9.8580     7.5970     9.6470     2.1830   -12.1300 
  131.2500    63.3820    23.8960     9.8940     7.7720    10.1110     2.1980   -12.3400 
  131.3750    64.1410    23.8720     9.8860     8.0710    10.4870     2.2030   -12.4820 
  131.5000    66.3710    23.8360     9.9320     8.3320    10.6570     2.1960   -12.5420 
  131.6250    65.5090    23.7700    10.0820     8.4680    10.6220     2.1820   -12.5550 
  131.7500    63.1320    23.6610    10.1260     8.5090    10.5040     2.1720   -12.5200 
  131.8750    62.8280    23.5120     9.9480     8.4910    10.3700     2.1670   -12.4760 
  132.0000    66.1120    23.4930     9.7290     8.4490    10.2650     2.1630   -12.4200 
  132.1250    70.7440    23.7680     9.7200     8.4050    10.2170     2.1590   -12.3190 
  132.2500    72.3490    24.1440     9.9370     8.3520    10.1880     2.1570   -12.2030 
  132.3750    71.1440    24.3670    10.1370     8.2690    10.1260     2.1610   -12.0550 
  132.5000    70.2040    24.4260    10.2820     8.1330     9.9830     2.1690   -11.8950 
  132.6250    70.9050    24.4350    10.5410     7.9410     9.7460     2.1820   -11.7440 
  132.7500    70.6380    24.5020    10.7860     7.7350     9.4850     2.1960   -11.6080 
  132.8750    69.6320    24.5670    10.4230     7.5580     9.2720     2.2040   -11.4950 
  133.0000    69.2860    24.5490     9.5710     7.4450     9.1610     2.1990   -11.3950 
  133.1250    71.6270    24.5030     9.2710     7.4190     9.1770     2.1880   -11.3460 
  133.2500    75.3650    24.4800     9.1810     7.4540     9.2630     2.1820   -11.3160 
  133.3750    76.0500    24.4650     9.1660     7.5220     9.3740     2.1830   -11.3170 
  133.5000    71.9160    24.4390     9.2500     7.5970     9.4730     2.1830   -11.3520 
  133.6250    68.4290    24.4350     9.4510     7.6680     9.5360     2.1760   -11.3690 
