~V
VERS. 2.00: Ver 2.00
~W
STRT.M 62.0000:
STOP.M 282.0000:
STEP.M 0.1250:
NULL. -999.2500:
UWI. DF3054:
~C
DEPT.M :
DEN.GM/CC :
GR.API :
CALI.CM :
RXO.OHMM :
RI. :
RML.OHMM :
SP.MV :
~A
# ...
   95.7500  -999.2500    94.2280    24.3320     7.6910     5.4150     6.6050    -8.8730 
   95.8750  -999.2500    92.2640    24.2160     8.4960     5.8310     7.2330    -9.1590 
   96.0000  -999.2500    87.2310    24.1570     9.7560     6.6490     8.4360    -9.3870 
   96.1250  -999.2500    81.8800    24.2400    12.6740     8.0110    10.2970    -9.5360 
   96.2500  -999.2500    78.4710    24.4680    17.4600     9.7490    12.4490    -9.6350 
   96.3750  -999.2500    76.9640    24.8480    21.6480    11.5120    14.3700    -9.6940 
   96.5000  -999.2500    75.9310    25.2430    22.5590    12.7180    15.4520    -9.7150 
   96.6250  -999.2500    75.3580    25.4320    20.7920    12.7070    15.1390    -9.7140 
   96.7500  -999.2500    75.2640    25.4120    18.3390    11.7870    13.8760    -9.7620 
   96.8750  -999.2500    76.5410    25.1940    15.3800    10.4540    12.2310    -9.8970 
   97.0000  -999.2500    78.9260    24.8400    12.2470     9.1620    10.7420   -10.0840 
   97.1250  -999.2500    80.0310    24.5070    10.2940     8.2330     9.8150   -10.3830 
   97.2500  -999.2500    78.2680    24.2460     9.6250     7.6760     9.4090   -10.7890 
   97.3750  -999.2500    74.8920    24.0750     9.5120     7.4530     9.3910   -11.2400 
   97.5000  -999.2500    72.7070    23.9830     9.4270     7.4710     9.5430   -11.6880 
   97.6250  -999.2500    73.1480    23.9570     9.2750     7.5810     9.5960   -12.0640 
   97.7500  -999.2500    75.7620    23.9320     9.3630     7.5920     9.4050   -12.2650 
   97.8750  -999.2500    79.3770    23.9090     9.5880     7.4180     8.9790   -12.2500 
   98.0000  -999.2500    82.5020    23.9580     9.3130     7.0810     8.4310   -12.0100 
   98.1250  -999.2500    84.8090    24.2360     8.2560     6.6790     7.9210   -11.5040 
   98.2500  -999.2500    89.2160    24.7440     7.2300     6.3270     7.5270   -10.7690 
   98.3750  -999.2500    93.4070    25.2040     6.7380     6.0800     7.2470    -9.9130 
   98.5000  -999.2500    92.6980    25.4800     6.7500     5.9510     7.0490    -9.0180 
   98.6250  -999.2500    89.0570    25.7030     6.7270     5.9290     6.9210    -8.1350 
   98.7500  -999.2500    88.8010    25.9580     6.5930     5.9440     6.8470    -7.2960 
   98.8750  -999.2500    91.6440    26.1770     6.5380     5.9340     6.8060    -6.5230 
   99.0000  -999.2500    94.0860    26.1060     6.7960     5.8530     6.7460    -5.8770 
   99.1250  -999.2500    94.6030    25.7470     6.9540     5.6820     6.6020    -5.3990 
   99.2500  -999.2500    95.2080    25.4870     6.7080     5.4730     6.3940    -5.1060 
   99.3750  -999.2500    98.6090    25.4090     6.1830     5.2800     6.1880    -4.9480 
   99.5000  -999.2500   104.1630    25.4240     5.7940     5.1510     6.0550    -4.8510 
   99.6250  -999.2500   105.3010    25.4300     5.8290     5.1150     6.0230    -4.8050 
   99.7500  -999.2500   100.9190    25.4570     6.1190     5.1270     6.0140    -4.8440 
   99.8750  -999.2500    95.4540    25.5360     6.4210     5.1440     5.9770    -4.9480 
  100.0000  -999.2500    92.7570    25.6630     6.5920     5.1640     5.9440    -5.1120 
  100.1250  -999.2500    90.6920    25.6540     6.6170     5.2600     6.0740    -5.3960 
  100.2500  -999.2500    88.4120    25.5760     6.5630     5.5060     6.4710    -5.7030 
  100.3750  -999.2500    88.0100    25.5400     6.9650     5.9480     7.1430    -6.0000 
  100.5000  -999.2500    88.9070    25.5990     8.4740     6.5630     7.9680    -6.3270 
  100.6250  -999.2500    88.1670    25.5470    10.2830     7.1950     8.6640    -6.7130 
  100.7500  -999.2500    83.8600    25.3150    10.2860     7.5880     8.9890    -7.1490 
  100.8750  -999.2500    80.1010    24.8480     8.6990     7.5900     8.8520    -7.6200 
  101.0000  -999.2500    80.9250    24.4570     7.3570     7.2330     8.3280    -8.0450 
  101.1250  -999.2500    84.0520    24.3180     6.9840     6.6740     7.5890    -8.3870 
  101.2500  -999.2500    85.5910    24.2630     7.0980     6.1180     6.8600    -8.7120 
  101.3750  -999.2500    86.1610    24.2880     7.2630     5.6640     6.2730    -8.9970 
  101.5000  -999.2500    88.1280    24.5030     7.2270     5.3960     5.9640    -9.2050 
  101.6250  -999.2500    90.0670    24.9150     7.0950     5.5130     6.2250    -9.3630 
  101.7500  -999.2500    90.0240    25.2560     7.4130     6.1710     7.2420    -9.5280 
  101.8750  -999.2500    87.5250    25.3820     9.5480     7.5740     9.2110    -9.7370 
  102.0000  -999.2500    81.4390    25.3520    16.2560     9.8210    12.0280   -10.0640 
  102.1250  -999.2500    72.8550    25.3300    28.9350    12.5290    14.7560   -10.5190 
  102.2500  -999.2500    64.9300    25.3850    36.4420    14.2930    16.0110   -11.1010 
  102.3750  -999.2500    61.1760    25.1940    31.2040    14.0970    15.2180   -11.8690 
  102.5000  -999.2500    62.2380    24.6510    19.2280    12.3570    12.9850   -12.8490 
  102.6250  -999.2500    66.0850    24.1510    12.6730    10.3940    10.7090   -13.9130 
  102.7500  -999.2500    69.0600    23.8980    10.7120     8.9950     9.2900   -14.9790 
  102.8750  -999.2500    71.1360    23.8100    10.4020     8.2510     8.7840   -15.9760 
  103.0000  -999.2500    74.6040    23.7850    10.4660     8.0580     8.9220   -16.8680 
  103.1250  -999.2500    77.4560    23.7760    10.4960     8.2530     9.3740   -17.6320 
  103.2500  -999.2500    76.1260    23.7680    10.4780     8.5300     9.7990   -18.2870 
  103.3750  -999.2500    72.3190    23.7580    10.3820     8.7270    10.0850   -18.7770 
  103.5000  -999.2500    69.2750    23.7270    10.2930     8.7930    10.2350   -19.0760 
  103.6250  -999.2500    68.7420    23.6230    10.5190     8.7570    10.2800   -19.2340 
  103.7500  -999.2500    69.4110    23.4650    11.2860     8.6920    10.2480   -19.3070 
  103.8750  -999.2500    69.5030    23.3380    12.1800     8.6280    10.1380   -19.3360 
  104.0000  -999.2500    69.3690    23.2780    12.5790     8.5790     9.9690   -19.3640 
  104.1250  -999.2500    69.2870    23.2660    12.8190     8.5510     9.7970   -19.4050 
  104.2500  -999.2500    69.4290    23.2360    13.2330     8.5350     9.6780   -19.4380 
  104.3750  -999.2500    69.4990    23.1650    14.1400     8.5250     9.6290   -19.4820 
  104.5000  -999.2500    69.3920    23.0420    15.2870     8.5190     9.6400   -19.5320 
  104.6250  -999.2500    69.1210    22.8730    16.4050     8.5160     9.6980   -19.5570 
  104.7500  -999.2500    66.7510    22.7410    17.3960     8.5140     9.7750   -19.5760 
  104.8750  -999.2500    62.9820    22.7290    17.2590     8.5140     9.8580   -19.6040 
  105.0000  -999.2500    59.7210    22.8660    16.0680     8.5100     9.9330   -19.6260 
  105.1250  -999.2500    58.4380    23.0080    15.9150     8.4920     9.9920   -19.6870 
  105.2500  -999.2500    60.4080    23.0900    16.8760     8.4540    10.0260   -19.7500 
  105.3750  -999.2500    64.6340    23.1430    17.7530     8.4000    10.0300   -19.8240 
  105.5000  -999.2500    69.3920    23.1870    17.7550     8.3420    10.0060   -19.9210 
  105.6250  -999.2500    72.3130    23.1900    16.0140     8.3050     9.9740   -20.0840 
  105.7500  -999.2500    72.8050    23.1990    13.4610     8.3090     9.9730   -20.2540 
  105.8750  -999.2500    71.8930    23.2470    11.5570     8.3610    10.0310   -20.4030 
  106.0000  -999.2500    71.4800    23.3850    11.2030     8.4570    10.1520   -20.5250 
  106.1250  -999.2500    71.6520    23.5260    11.6890     8.5660    10.2960   -20.5710 
  106.2500  -999.2500    71.0000    23.6280    11.9020     8.6360    10.3870   -20.5920 
  106.3750  -999.2500    70.1640    23.6190    11.7830     8.6210    10.3610   -20.5990 
  106.5000  -999.2500    71.1150    23.5040    11.6150     8.5030    10.1890   -20.6060 
  106.6250  -999.2500    71.2320    23.3640    11.4940     8.3050     9.8970   -20.6560 
  106.7500  -999.2500    67.7470    23.3790    11.1390     8.1110     9.6110   -20.7700 
  106.8750  -999.2500    62.2070    23.4850    10.8470     7.9830     9.4450   -20.9650 
