~V
VERS. 2.00: Ver 2.00
~W
STRT.M 60.0000:
STOP.M 250.0000:
STEP.M 0.1250:
NULL. -999.2500:
UWI. DF3018:
~C
DEPT.M :
DEN.GM/CC :
GR.API :
RML.OHMM :
RI. :
RXO.OHMM :
CALI.CM :
SP.MV :
~A
# ...
  240.0000     2.4060    72.5110    11.4230    10.1470    11.4070    24.1660   -23.1020 
  240.1250     2.3750    72.5110    11.4440    10.0910    10.6640    24.2230   -23.2630 
  240.2500     2.3390    72.5110    11.4920    10.0570    10.0200    24.2350   -23.4280 
  240.3750     2.3120    72.5110    11.5480    10.0320     9.2640    24.2310   -23.6070 
  240.5000     2.3050    72.5110    11.5760     9.9870     8.8830    24.2670   -23.7670 
  240.6250     2.3210    72.5110    11.5410     9.8870     8.6330    24.2770   -23.9640 
  240.7500     2.3520    72.5110    11.4690     9.7430     8.3580    24.3220   -24.1480 
  240.8750     2.3860    72.5110    11.4130     9.5910     8.3740    24.3710   -24.3740 
  241.0000     2.4110    72.5110    11.4290     9.4800     8.8110    24.3650   -24.6220 
  241.1250     2.4250    72.5110    11.5510     9.4570     9.4930    24.2970   -24.8950 
  241.2500     2.4280    72.5110    11.7270     9.5020    10.3440    24.1680   -25.1620 
  241.3750     2.4220    72.5110    11.8970     9.5880    11.4120    24.0130   -25.3970 
  241.5000     2.4150    72.5110    12.0110     9.6830    12.2760    23.8530   -25.6290 
  241.6250     2.4140    72.5110    12.0510     9.7640    12.3830    23.7690   -25.8150 
  241.7500     2.4170    72.5110    12.0690     9.8360    11.1300    23.7570   -26.0130 
  241.8750     2.4200    72.5110    12.1060     9.9100    10.5620    23.8170   -26.1570 
  242.0000     2.4180    72.5110    12.1730     9.9860    11.0130    23.9360   -26.2880 
  242.1250     2.4110    72.5110    12.2330    10.0360    12.1360    24.0620   -26.3840 
  242.2500     2.4010    72.5110    12.2420    10.0340    12.8950    24.1060   -26.4740 
  242.3750     2.3940    72.5110    12.1830     9.9710    12.9160    24.0660   -26.5590 
  242.5000     2.3920    72.5110    12.0820     9.8650    12.3890    24.0230   -26.6360 
  242.6250     2.3930    72.5110    12.0070     9.7670    11.8090    24.0190   -26.7230 
  242.7500     2.3970    72.5110    12.0180     9.7270    11.1480    24.0440   -26.7850 
  242.8750     2.4040    72.5110    12.1210     9.7620    11.5140    24.0680   -26.8890 
  243.0000     2.4120    72.5110    12.2780     9.8510    12.7340    24.0820   -27.0020 
  243.1250     2.4200    72.5110    12.3990     9.9340    16.1200    24.0970   -27.1730 
  243.2500     2.4250    72.5110    12.4230     9.9540    21.1670    24.1250   -27.4110 
  243.3750     2.4250    72.5110    12.3470     9.8950    28.1190    24.1450   -27.6950 
  243.5000     2.4180    72.5110    12.2200     9.7830    33.1600    24.1370   -28.0210 
  243.6250     2.4090    72.5110    12.1430     9.6930    21.9560    24.0920   -28.4070 
  243.7500     2.3990    72.5110    12.1970     9.7070    14.3680    24.0550   -28.8300 
  243.8750     2.3930    72.5110    12.4200     9.8770     9.5670    24.0270   -29.2980 
  244.0000     2.3910    72.5110    12.8100    10.2130     7.7600    24.0010   -29.7910 
  244.1250     2.3910    72.5110    13.3350    10.6730     7.6490    23.9090   -30.3300 
  244.2500     2.3930    72.5110    13.9020    11.1390     8.0590    23.8310   -30.8840 
  244.3750     2.3970    72.5110    14.4360    11.5250     8.5920    23.7740   -31.4830 
  244.5000     2.4020    72.5110    14.8640    11.7930     8.8600    23.6870   -32.1170 
  244.6250     2.4120    72.5110    15.0940    11.9450     8.8420    23.5690   -32.7860 
  244.7500     2.4240    72.5110    15.1500    12.0460     8.4470    23.5130   -33.4530 
  244.8750     2.4350    72.5110    15.1040    12.1280     8.3020    23.4860   -34.1200 
  245.0000     2.4380    72.5110    15.0380    12.1960     8.5380    23.3910   -34.7780 
  245.1250     2.4320    72.5110    14.9930    12.2410     8.8940    23.1850   -35.0660 
  245.2500     2.4220    72.5110    14.9700    12.2630     9.5020    22.9730   -34.9820 
  245.3750     2.4140    72.5110    14.9630    12.2700    10.0390    22.8430   -34.6330 
  245.5000     2.4140    72.5110    14.9620    12.2710    10.3560    22.7580   -33.9050 
  245.6250     2.4160    72.5110    14.9620    12.2710    10.3760    22.6130   -32.7040 
  245.7500     2.4160    72.5110    14.9620    12.2710    10.3250    22.2590   -31.0880 
  245.8750     2.4070    72.5110    14.9620    12.2710    10.3310    21.7190   -29.0050 
  246.0000     2.3930    72.5110    14.9620    12.2710    10.3980    21.2480   -26.6660 
  246.1250     2.3800    72.5110    14.9620    12.2710    10.1840    20.9450   -24.4250 
  246.2500     2.3720    72.5110    14.9620    12.2710     9.8920    20.7620   -22.2990 
  246.3750     2.3690    72.5110    14.9620    12.2710     9.7590    20.6400   -20.2560 
  246.5000     2.3700    72.5110    14.9620    12.2710     9.9790    20.5830   -18.5000 
  246.6250     2.3730    72.5110    14.9620    12.2710    10.4610    20.5800   -17.0960 
  246.7500     2.3780    72.5110    14.9620    12.2710    11.0590    20.6090   -16.0000 
  246.8750     2.3870    72.5110    14.9620    12.2710    11.5350    20.6360   -15.3400 
  247.0000     2.3990    72.5110    14.9620    12.2710    11.6010    20.6460   -14.9350 
  247.1250     2.4110    72.5110    14.9620    12.2710    11.3160    20.6450   -14.6590 
  247.2500     2.4190    72.5110    14.9620    12.2710    11.2790    20.6460   -14.5260 
  247.3750     2.4200    72.5110    14.9620    12.2710    11.7040    20.6410   -14.5310 
  247.5000     2.4140    72.5110    14.9620    12.2710    12.1340    20.6180   -14.4840 
  247.6250     2.4040    72.5110    14.9620    12.2710    12.4240    20.5570   -14.4200 
  247.7500     2.3920    72.5110    14.9620    12.2710    12.4190    20.5130   -14.4040 
  247.8750     2.3810    72.5110    14.9620    12.2710    12.1090    20.5100   -14.3980 
  248.0000     2.3690    72.5110    14.9620    12.2710    11.6220    20.5430   -14.4040 
  248.1250     2.3540    72.5110    14.9620    12.2710    11.3670    20.5610   -14.3920 
  248.2500     2.3370    72.5110    14.9620    12.2710    11.7350    20.5720   -14.4100 
  248.3750     2.3210    72.5110    14.9620    12.2710    12.5340    20.5940   -14.4330 
  248.5000     2.3090    72.5110    14.9620    12.2710    14.2280    20.6390   -14.4290 
  248.6250     2.3010    72.5110    14.9620    12.2710    16.5840    20.6300   -14.4240 
  248.7500     2.2940    72.5110    14.9620    12.2710    16.7770    20.3860   -14.4900 
  248.8750     2.2810    72.5110    14.9620    12.2710    13.5600    19.6540   -14.5690 
  249.0000     2.2610    72.5110    14.9620    12.2710    11.6920    18.4410   -14.5390 
  249.1250     2.2350    72.5110    14.9620    12.2710    11.7480    17.0790   -14.5140 
  249.2500     2.2070    72.5110    14.9620    12.2710    12.5490    15.7740   -14.5050 
  249.3750     2.1840    72.5110    14.9620    12.2710    13.6230    14.9620   -14.4780 
  249.5000     2.1660    72.5110    14.9620    12.2710    14.2840    14.6910   -14.6060 
  249.6250     2.1560    72.5110    14.9620    12.2710    14.3810    14.6840   -14.7120 
  249.7500     2.1500    72.5110    14.9620    12.2710    14.3840    14.6710   -14.7520 
  249.8750     2.1480    72.5110    14.9620    12.2710    14.3860    14.6400   -14.7640 
  250.0000     2.1480    72.5110    14.9620    12.2710    14.3870    14.6260   -14.7640 
