~V
VERS. 2.00: Ver 2.00
~W
STRT.M 60.0000:
STOP.M 273.0000:
STEP.M 0.1250:
NULL. -999.2500:
UWI. DF3001:
~C
DEPT.M :
DEN.GM/CC :
SP.MV :
AC.US/MT :
GR.API :
RML.OHMM :
RI. :
RXO.OHMM :
CALI.CM :
~A
# ...
  170.0000     2.1990   -20.6390   395.1890    60.7140   126.1910   119.4390   105.5490    23.7840 
  170.1250     2.2150   -20.7990   394.3740    64.0840   122.4870   117.3510   113.2720    23.7840 
  170.2500     2.2290   -20.9340   389.7460    67.1110   115.4020   112.0290   106.9670    23.7840 
  170.3750     2.2360   -21.0290   382.0790    68.1760   107.0300   104.8480    99.1770    23.7840 
  170.5000     2.2350   -21.1020   373.5390    66.3530    99.8440    97.9400    97.7480    23.7840 
  170.6250     2.2280   -21.0800   371.0310    64.2420    95.8740    93.5240    97.3460    23.7840 
  170.7500     2.2200   -20.9340   376.5800    66.3190    94.4790    91.5940    96.4890    23.7840 
  170.8750     2.2140   -20.7320   386.0340    71.7600    94.4810    91.2430   104.6240    23.7840 
  171.0000     2.2110   -20.5150   391.4870    73.8490    94.5670    91.1360   122.8750    23.7840 
  171.1250     2.2130   -20.3720   390.0880    71.0280    93.3140    89.9030   131.4520    23.7840 
  171.2500     2.2180   -20.3130   386.3520    68.0260    90.5370    87.2750   118.4270    23.7840 
  171.3750     2.2270   -20.2740   381.3720    66.4460    86.3720    83.5450    90.2950    23.7840 
  171.5000     2.2370   -20.3440   379.4310    66.1890    81.7200    79.3790    71.1390    23.7850 
  171.6250     2.2460   -20.5420   377.9970    68.2340    77.0520    75.6970    68.6280    23.7860 
  171.7500     2.2500   -20.7920   376.9850    72.2650    73.3860    73.0190    69.4430    23.7860 
  171.8750     2.2460   -21.0280   376.4580    73.3820    71.6950    71.5170    65.9940    23.7850 
  172.0000     2.2370   -21.2650   376.8350    70.1810    71.7540    71.1340    61.8870    23.7840 
  172.1250     2.2280   -21.4840   377.7330    67.7300    72.8560    71.8080    61.8590    23.7840 
  172.2500     2.2250   -21.6210   378.8370    69.0450    74.5290    73.0650    63.5580    23.7840 
  172.3750     2.2310   -21.7910   379.9550    72.7750    76.3570    74.5060    64.3910    23.7840 
  172.5000     2.2430   -21.9110   380.9630    74.2990    77.8780    75.6890    64.1900    23.7840 
  172.6250     2.2550   -21.8820   381.8570    72.5770    78.6870    76.2000    64.1470    23.7860 
  172.7500     2.2610   -21.8980   382.5960    72.6080    79.0600    76.2370    64.4530    23.8100 
  172.8750     2.2600   -21.9200   381.9900    75.4310    79.5100    76.2420    63.4390    23.9000 
  173.0000     2.2530   -21.9040   380.4520    78.5400    80.5980    76.7320    62.3430    24.0690 
  173.1250     2.2430   -21.8830   379.1200    79.9040    82.8100    78.2020    65.0070    24.2200 
  173.2500     2.2330   -21.8490   378.3470    80.1170    85.8410    80.4580    70.6520    24.2790 
  173.3750     2.2260   -21.7650   378.2370    77.3610    89.2380    83.1420    75.7400    24.2890 
  173.5000     2.2240   -21.5980   378.4310    71.3370    92.4690    85.8020    76.7980    24.3010 
  173.6250     2.2250   -21.3780   378.5070    68.5180    95.0650    88.0150    73.0650    24.3560 
  173.7500     2.2250   -21.1190   378.4610    72.3570    97.1920    89.8420    71.5840    24.4570 
  173.8750     2.2240   -20.8550   378.4280    76.7310    99.2730    91.5870    74.5400    24.5500 
  174.0000     2.2210   -20.5600   378.5300    76.0240   101.7820    93.6390    80.4390    24.6280 
  174.1250     2.2190   -20.3300   378.7580    70.7780   105.0490    96.3050    87.3880    24.6830 
  174.2500     2.2190   -20.1570   379.0130    68.8440   108.7030    99.3260    93.3960    24.7380 
  174.3750     2.2220   -19.9520   379.3460    71.8380   112.2880   102.2410    99.0250    24.7560 
  174.5000     2.2280   -19.8450   379.8370    75.2200   115.1470   104.4920   102.9520    24.7430 
  174.6250     2.2380   -19.8330   380.3040    74.3110   116.6600   105.6100   106.1770    24.6930 
  174.7500     2.2470   -19.7840   380.3910    70.7670   117.2650   106.1740   109.4990    24.5920 
  174.8750     2.2510   -19.7670   380.1230    68.0670   117.9180   107.2010   112.6780    24.4330 
  175.0000     2.2480   -19.8140   379.9280    67.8060   119.5920   109.9520   116.2340    24.3180 
  175.1250     2.2340   -19.8370   380.4650    68.8870   124.3690   115.9790   124.3250    24.2780 
  175.2500     2.2160   -19.8570   381.6330    70.4000   132.6200   124.9250   140.8670    24.2690 
  175.3750     2.1990   -19.8670   382.9530    69.4900   144.0980   135.7530   164.5060    24.2670 
  175.5000     2.1900   -19.8070   384.1720    64.2370   155.5520   146.5590   185.2260    24.2740 
  175.6250     2.1910   -19.7370   385.2550    58.5690   163.6580   154.2060   193.7510    24.2710 
  175.7500     2.1980   -19.6640   386.0350    57.6420   166.2990   156.6970   187.7860    24.2680 
  175.8750     2.2060   -19.5310   386.3230    60.5850   162.0060   152.6470   174.5290    24.2680 
  176.0000     2.2130   -19.3860   386.3890    63.1720   150.2160   141.5250   158.7470    24.2680 
  176.1250     2.2190   -19.2510   387.0670    61.7770   130.3460   122.7800   141.8660    24.2680 
  176.2500     2.2260   -19.0800   388.4230    58.8940   105.8680    99.6870   120.5960    24.2670 
  176.3750     2.2370   -18.9370   390.2160    58.4140    80.5930    75.8430    96.0830    24.2690 
  176.5000     2.2510   -18.8600   392.0240    64.1980    58.6860    55.1750    69.1700    24.2710 
  176.6250     2.2670   -18.7120   392.4660    73.6290    43.7310    41.0670    43.6640    24.2730 
  176.7500     2.2790   -18.5910   390.8280    79.5920    34.5870    32.4400    27.3420    24.2750 
  176.8750     2.2850   -18.5990   387.9100    79.8310    29.8930    28.0120    21.7200    24.2760 
  177.0000     2.2870   -18.5970   385.7410    78.1750    28.2300    26.4430    23.2560    24.2510 
  177.1250     2.2870   -18.5850   385.8130    80.8590    28.6600    26.8510    26.5080    24.1570 
  177.2500     2.2870   -18.6060   386.9370    86.4580    30.0320    28.1590    28.3720    24.0050 
  177.3750     2.2870   -18.6360   388.0380    91.2460    31.9340    29.9190    28.5260    23.9000 
  177.5000     2.2850   -18.7180   388.6380    92.4110    34.1060    31.9040    28.1840    23.9520 
  177.6250     2.2820   -19.0010   388.6950    89.5480    36.5280    34.1660    29.1900    24.2700 
  177.7500     2.2790   -19.3440   388.3590    84.6130    39.1880    36.8280    32.3510    24.6300 
  177.8750     2.2760   -19.6640   387.7020    79.2040    42.0970    39.9720    36.6280    24.7830 
  178.0000     2.2730   -20.0540   386.8470    76.6110    44.9890    43.5260    40.0620    24.8050 
  178.1250     2.2670   -20.5010   385.9100    78.7460    48.0170    47.2660    43.4000    24.8110 
  178.2500     2.2590   -20.9640   384.9570    81.3170    51.3690    50.8600    47.7790    24.8350 
  178.3750     2.2510   -21.4260   384.0360    82.1370    55.3980    54.1220    53.1390    24.8820 
  178.5000     2.2440   -21.8240   383.3740    80.9390    59.2400    57.0140    58.2110    24.9170 
  178.6250     2.2390   -22.1700   383.1620    78.8170    62.9140    59.6300    61.2610    24.9280 
  178.7500     2.2350   -22.4580   382.9790    75.5400    66.6330    62.2690    61.6880    24.9280 
  178.8750     2.2330   -22.6820   382.3250    71.0720    70.7030    65.2380    62.1170    24.9280 
  179.0000     2.2310   -22.8790   380.7580    69.1460    75.5440    68.9250    66.2460    24.9280 
  179.1250     2.2320   -23.0030   377.8310    71.9130    81.9630    74.0850    73.5640    24.9300 
  179.2500     2.2330   -23.0990   374.9110    75.6420    90.4140    81.1610    78.4260    24.9320 
  179.3750     2.2340   -23.2220   373.2280    77.4910   101.5530    90.7710    82.2180    24.9350 
  179.5000     2.2350   -23.3360   372.8490    77.3240   115.8980   103.3830    90.9130    24.9340 
  179.6250     2.2360   -23.3620   374.1720    75.2280   133.8880   119.3620   109.5650    24.9360 
  179.7500     2.2360   -23.4340   375.8750    70.0380   153.6940   137.0110   133.4970    24.9370 
  179.8750     2.2340   -23.5740   377.6120    64.5070   172.9420   154.2710   155.0610    24.9380 
