~V
VERS. 2.00: Ver 2.00
~W
STRT.M 60.0000:
STOP.M 238.0000:
STEP.M 0.1250:
NULL. -999.2500:
UWI. DF308:
~C
DEPT.M :
DEN.GM/CC :
SP.MV :
AC.US/MT :
GR.API :
CALI.CM :
RXO.OHMM :
RI. :
RML.OHMM :
~A
# ...
  180.0000     2.4470   -22.8380   337.1300    46.3360    23.8970    15.2460    11.6070    14.6030 
  180.1250     2.4370   -22.7990   351.0960    46.6260    23.8630    14.1960    11.4390    14.3680 
  180.2500     2.4130   -22.7930   363.1590    46.8320    23.8690    11.9920    11.0140    13.7980 
  180.3750     2.3880   -22.8090   368.0430    47.2980    23.8840    10.5740    10.4260    13.0420 
  180.5000     2.3780   -22.8380   368.6420    48.0010    23.9210    10.2680     9.7970    12.2700 
  180.6250     2.3970   -22.8810   371.3430    46.1330    23.9330     9.9110     9.2420    11.6100 
  180.7500     2.4290   -22.9450   377.2910    42.5710    23.8640     9.3160     8.8040    11.0880 
  180.8750     2.4560   -23.0180   384.0830    39.8110    23.8210     9.1490     8.5180    10.7380 
  181.0000     2.4680   -23.0950   388.0340    38.9350    23.8830     9.6530     8.4240    10.6220 
  181.1250     2.4680   -23.1460   383.6750    41.0740    23.9540    10.8920     8.6200    10.8960 
  181.2500     2.4700   -23.1800   371.6940    45.9580    23.9710    12.8630     9.1080    11.5640 
  181.3750     2.4750   -23.1770   358.7110    51.6760    23.9600    14.9850     9.8680    12.5580 
  181.5000     2.4770   -23.1560   351.8520    54.1990    23.9300    16.3610    10.7650    13.6460 
  181.6250     2.4750   -23.1110   349.5750    53.5470    23.9260    16.8660    11.4550    14.3400 
  181.7500     2.4770   -23.0310   343.9980    50.2190    23.8590    16.8030    11.6130    14.3010 
  181.8750     2.4820   -22.9180   339.7930    45.9590    23.8180    15.3870    11.1020    13.4440 
  182.0000     2.4840   -22.7960   349.9400    43.9510    23.8740    12.8020    10.0620    12.0110 
  182.1250     2.4850   -22.6980   379.1320    46.5680    23.9750    10.0710     8.8360    10.4780 
  182.2500     2.4890   -22.6280   406.7550    50.5700    23.9810     8.7120     7.7850     9.2710 
  182.3750     2.4970   -22.6260   418.6530    53.6110    23.8760     7.9960     7.0540     8.5610 
  182.5000     2.5060   -22.6920   416.8970    57.6000    23.7170     7.6980     6.6850     8.3700 
  182.6250     2.5160   -22.8700   412.2630    62.9770    23.5240     7.9490     6.6980     8.6690 
  182.7500     2.5270   -23.1650   410.1730    70.1990    23.4410     8.7070     6.9500     9.2010 
  182.8750     2.5320   -23.5870   409.0630    83.4910    23.4510     9.3360     7.3290     9.7780 
  183.0000     2.5280   -24.1250   409.4500   100.5210    23.4570     9.2800     7.7230    10.2510 
  183.1250     2.5170   -24.7930   414.2250   112.4110    23.4590     8.8490     8.0340    10.5460 
  183.2500     2.5020   -25.5680   421.3030   115.2230    23.4400     8.8940     8.2610    10.7510 
  183.3750     2.4790   -26.4210   425.4240   111.1420    23.4130     9.7100     8.4400    10.9550 
  183.5000     2.4520   -27.3220   422.4680   106.0890    23.4710    11.0800     8.6140    11.2190 
  183.6250     2.4340   -28.1970   413.9220   103.2440    23.5710    12.4250     8.8180    11.5570 
  183.7500     2.4310   -29.0050   407.1910   102.9550    23.5710    13.3260     9.0450    11.8960 
  183.8750     2.4410   -29.7090   405.0550   102.0670    23.5860    13.7540     9.2640    12.1650 
  184.0000     2.4530   -30.2800   405.3720    98.4180    23.7000    14.1370     9.4380    12.3270 
  184.1250     2.4570   -30.6690   404.4990    95.2470    23.8100    14.8830     9.5400    12.3970 
  184.2500     2.4570   -30.8750   402.5540    94.8940    23.8560    15.3750     9.5900    12.4460 
  184.3750     2.4620   -30.8980   401.2950    96.3450    23.8350    15.0870     9.6130    12.5040 
  184.5000     2.4750   -30.7560   401.1320    96.7760    23.7940    14.5020     9.6400    12.5790 
  184.6250     2.4890   -30.4620   400.4620    95.8420    23.7540    14.4250     9.7190    12.7040 
  184.7500     2.4970   -30.0640   398.6750    94.7760    23.7420    14.7620     9.8710    12.9130 
  184.8750     2.5010   -29.5830   396.9930    93.7900    23.7470    14.9950    10.0910    13.2140 
  185.0000     2.5100   -29.0240   396.5760    92.5540    23.7690    15.0610    10.3260    13.5380 
  185.1250     2.5260   -28.3970   396.3830    91.0870    23.7980    15.1720    10.4300    13.6680 
  185.2500     2.5340   -27.7280   394.6280    92.5800    23.8100    15.3490    10.2780    13.4250 
  185.3750     2.5200   -27.0310   392.9650    97.1990    23.8060    14.7990     9.8200    12.7510 
  185.5000     2.4850   -26.3030   396.3880   101.5190    23.7860    13.0180     9.1280    11.7700 
  185.6250     2.4510   -25.5830   410.0170   100.0980    23.7570    10.6560     8.3770    10.7620 
  185.7500     2.4430   -24.8970   428.1010    97.8550    23.7240     9.1280     7.7730    10.0060 
  185.8750     2.4580   -24.2660   441.8670   100.6470    23.6670     8.6860     7.4500     9.6650 
  186.0000     2.4720   -23.6920   444.5210   104.7720    23.6300     9.0410     7.5150     9.8550 
  186.1250     2.4620   -23.1920   432.9300   102.9580    23.8010     9.9350     8.1380    10.7780 
  186.2500     2.4590   -22.7440   412.1650    97.8820    23.9680    11.3900     9.2930    12.3710 
  186.3750     2.4910   -22.3180   385.4650    92.7620    24.0450    13.4210    10.9530    14.5460 
  186.5000     2.5430   -21.8990   357.0840    88.1100    24.0580    15.7790    12.9530    17.0060 
  186.6250     2.5740   -21.4460   334.4030    81.9160    24.0080    17.8280    14.8030    19.0100 
  186.7500     2.5750   -20.9230   321.5890    78.7740    23.9060    18.7350    15.8320    19.7960 
  186.8750     2.5590   -20.3130   318.7150    83.8430    23.8090    18.2760    15.6010    18.9800 
  187.0000     2.5410   -19.6240   324.1180    94.3000    23.7780    16.4500    14.1880    16.8200 
  187.1250     2.5220   -18.8230   338.9920    97.5360    23.7500    13.3390    12.1180    14.0760 
  187.2500     2.5000   -17.9490   360.5890    89.7690    23.6610    10.1930    10.1270    11.6160 
  187.3750     2.4760   -17.0530   383.4880    78.5550    23.4450     7.9610     8.5220     9.7840 
  187.5000     2.4520   -16.1830   400.9280    70.8480    23.1550     6.8400     7.3960     8.6400 
  187.6250     2.4420   -15.3690   409.0990    68.0680    23.0150     6.4330     6.7710     8.1390 
  187.7500     2.4520   -14.6640   412.7800    68.0700    22.9610     6.1220     6.4670     7.9850 
  187.8750     2.4710   -14.0830   415.5760    71.8620    22.9450     5.9130     6.3810     8.0140 
  188.0000     2.4810   -13.6400   418.3550    79.4850    23.0550     5.8240     6.4160     8.1010 
  188.1250     2.4680   -13.3560   418.6500    88.0890    23.3010     5.8640     6.4990     8.1740 
  188.2500     2.4530   -13.1970   415.2970    93.1380    23.5420     6.0230     6.5810     8.2270 
  188.3750     2.4530   -13.1490   409.6490    94.0300    23.6770     6.2650     6.6450     8.2650 
  188.5000     2.4650   -13.1820   404.8870    94.3590    23.6950     6.4260     6.6790     8.2810 
  188.6250     2.4710   -13.2930   404.8850    93.0180    23.6270     6.3470     6.6640     8.2560 
  188.7500     2.4730   -13.4320   409.4670    88.3020    23.5650     6.2190     6.6090     8.2000 
  188.8750     2.4810   -13.6030   416.1770    85.3950    23.5620     6.3240     6.5270     8.1310 
  189.0000     2.4940   -13.7800   421.0370    88.3660    23.6440     6.7890     6.4340     8.0660 
  189.1250     2.5010   -13.9660   419.4580    94.0360    23.7470     7.4610     6.3500     8.0200 
  189.2500     2.4990   -14.1640   412.4060    96.1960    23.8420     7.9120     6.3030     8.0150 
  189.3750     2.4910   -14.3620   403.6850    95.6860    23.9090     7.9970     6.3400     8.1160 
  189.5000     2.4740   -14.5610   398.1860    93.4440    23.9340     7.9630     6.5290     8.4290 
  189.6250     2.4440   -14.7500   398.9920    90.0060    23.9820     8.4730     6.9960     9.1490 
  189.7500     2.4050   -14.9180   402.2220    87.9740    24.0300     9.9100     7.7640    10.2890 
  189.8750     2.3650   -15.0400   403.6330    85.8890    24.0660    12.1120     8.8120    11.7620 
