~V
VERS. 2.00: Ver 2.00
~W
STRT.M 60.0000:
STOP.M 251.0000:
STEP.M 0.1250:
NULL. -999.2500:
UWI. DF3020:
~C
DEPT.M :
GR.API :
RML.OHMM :
RI. :
RXO.OHMM :
CALI.CM :
DEN.GM/CC :
SP.MV :
~A
# ...
  183.7500    62.5600   159.8440   158.8920   167.9580    25.8060     2.1960   -18.5670 
  183.8750    64.5480   134.2510   135.8750   163.6100    25.7200     2.1990   -17.8590 
  184.0000    64.6790   115.8310   117.3200   162.4010    25.5830     2.2090   -17.4840 
  184.1250    62.0280   104.4420   104.5640   160.7790    25.4540     2.2240   -17.2290 
  184.2500    60.8470    96.4820    95.5100   140.6170    25.3740     2.2400   -16.9070 
  184.3750    62.5460    89.8970    88.4450    96.8870    25.3060     2.2530   -16.4070 
  184.5000    66.8740    83.7110    82.1740    67.8870    25.2640     2.2600   -15.6900 
  184.6250    69.5430    78.3730    76.7270    63.8380    25.2500     2.2630   -14.7790 
  184.7500    68.5730    74.9730    73.0230    66.2070    25.2500     2.2670   -13.7400 
  184.8750    66.7150    75.1780    72.4900    62.0640    25.2510     2.2690   -12.5540 
  185.0000    66.7130    80.4460    76.7450    53.3340    25.2820     2.2660   -11.1790 
  185.1250    67.6900    93.5720    88.8910    59.4220    25.3940     2.2550    -9.7480 
  185.2500    66.9530   114.6540   109.3200    80.6220    25.5640     2.2400    -8.4880 
  185.3750    65.3490   143.7850   137.9650   116.3420    25.6650     2.2270    -7.5110 
  185.5000    64.1950   178.4300   172.6590   161.2380    25.7010     2.2190    -6.8150 
  185.6250    62.8530   215.3190   208.3950   201.2940    25.7330     2.2150    -6.4660 
  185.7500    61.9700   249.2570   238.9520   213.0100    25.8010     2.2090    -6.4250 
  185.8750    60.9150   278.1940   260.8730   221.1580    25.8380     2.2010    -6.7360 
  186.0000    59.9910   297.5790   274.0510   246.9080    25.8400     2.1970    -7.5110 
  186.1250    60.3010   308.9450   280.6180   272.1140    25.8220     2.2120    -8.7680 
  186.2500    60.9760   316.5710   284.6520   284.5130    25.7110     2.2500   -10.3610 
  186.3750    60.8750   320.6930   286.7580   278.2550    25.4900     2.3090   -12.2660 
  186.5000    59.2420   318.7060   285.0700   255.8830    25.2730     2.3770   -14.3960 
  186.6250    57.9760   303.9450   274.2220   239.3660    25.1700     2.4350   -16.5670 
  186.7500    59.2860   275.3510   252.4320   228.2110    25.1090     2.4640   -18.6930 
  186.8750    61.3560   235.6590   220.6910   221.9420    25.1050     2.4550   -20.6530 
  187.0000    61.8280   192.4270   183.9490   222.9100    25.2270     2.4100   -22.3360 
  187.1250    61.3620   155.5370   150.0050   200.1050    25.4200     2.3430   -23.7310 
  187.2500    63.3850   128.2230   123.3810   138.7410    25.5430     2.2810   -24.8510 
  187.3750    67.7450   110.0440   105.0050    98.3240    25.5510     2.2360   -25.6870 
  187.5000    71.8500    99.2810    93.9820    86.4190    25.4760     2.2110   -26.3400 
  187.6250    72.6050    95.2580    89.8910    83.1880    25.4140     2.2040   -26.7710 
  187.7500    70.6990    96.1170    90.7700    82.7160    25.3900     2.2070   -27.0880 
  187.8750    66.9320   101.1660    95.8670    82.7360    25.3870     2.2190   -27.3140 
  188.0000    64.3160   108.9340   103.7750    81.7860    25.3780     2.2490   -27.5180 
  188.1250    63.1720   115.9250   111.2840    93.9260    25.3200     2.3080   -27.6480 
  188.2500    60.6320   117.6990   114.1700   107.0980    25.1910     2.3820   -27.7500 
  188.3750    58.5470   111.0520   109.3120   111.9870    24.9790     2.4480   -27.8660 
  188.5000    59.5760    95.6830    96.0280    96.0620    24.6890     2.4810   -27.9450 
  188.6250    62.0270    75.0470    76.6440    60.5470    24.2560     2.4720   -28.0340 
  188.7500    63.0240    55.6160    57.2240    29.4100    23.8580     2.4410   -28.1010 
  188.8750    65.7380    40.3030    41.2140    16.3820    23.1780     2.4080   -28.2190 
  189.0000    73.9300    29.6230    29.8160    10.4870    22.3750     2.3780   -28.3540 
  189.1250    83.0480    23.4030    23.1150     8.0460    22.4610     2.3540   -28.6700 
  189.2500    87.5140    20.0030    19.3240     7.9850    23.1920     2.3340   -29.1140 
  189.3750    89.1260    18.6650    17.6000     9.4030    24.0210     2.3220   -29.6320 
  189.5000    90.1950    18.7090    17.2690    12.1060    24.2860     2.3210   -30.1920 
  189.6250    88.7220    19.6770    17.8340    15.3990    24.1640     2.3310   -30.8080 
  189.7500    85.9210    20.8810    18.6840    18.8330    23.9590     2.3470   -31.4340 
  189.8750    84.7850    22.0250    19.5860    22.3530    23.8830     2.3630   -32.0450 
  190.0000    87.1300    22.8780    20.5450    25.1040    23.8640     2.3740   -32.6020 
  190.1250    87.8530    23.6320    21.9110    25.1000    23.8200     2.3720   -32.9810 
  190.2500    83.7430    24.4600    23.9710    22.7810    23.7440     2.3570   -33.2590 
  190.3750    77.1100    25.4830    26.7580    25.3490    23.6870     2.3380   -33.4040 
  190.5000    72.7550    27.4290    29.8880    34.1730    23.6670     2.3230   -33.3780 
  190.6250    71.9110    30.1290    32.4260    43.5770    23.6540     2.3280   -33.2220 
  190.7500    72.4370    31.5090    33.6070    45.9830    23.6240     2.3530   -32.9440 
  190.8750    75.0070    31.3240    33.1750    44.8470    23.5880     2.3910   -32.5750 
  191.0000    78.8370    29.9920    31.5340    43.4500    23.5590     2.4330   -32.1200 
  191.1250    79.3360    28.4070    29.5600    40.4920    23.5280     2.4680   -31.6210 
  191.2500    76.8050    27.2390    27.9670    37.9630    23.5150     2.4980   -31.0640 
  191.3750    75.2920    26.4890    26.8080    35.7050    23.5050     2.5250   -30.4890 
  191.5000    75.0660    25.8390    25.8110    34.6270    23.4850     2.5510   -29.9660 
  191.6250    72.4390    24.8320    24.5570    36.8550    23.4460     2.5700   -29.4330 
  191.7500    69.5090    23.3350    22.8930    38.6430    23.4330     2.5760   -28.9280 
  191.8750    69.1660    21.4810    20.9160    35.3620    23.4470     2.5720   -28.4320 
  192.0000    70.5270    19.5820    18.8950    30.2930    23.4800     2.5660   -27.9760 
  192.1250    68.6900    18.0480    17.2040    23.5300    23.5340     2.5690   -27.5180 
  192.2500    63.8620    17.0040    15.9790    21.4320    23.5670     2.5790   -27.1000 
  192.3750    58.6060    16.4090    15.2170    19.1730    23.5790     2.5900   -26.7550 
  192.5000    54.7160    16.0790    14.7840    17.1150    23.5730     2.5970   -26.4680 
  192.6250    53.1560    15.7230    14.4460    15.6750    23.5550     2.5890   -26.2820 
  192.7500    53.5730    15.0980    13.9470    15.0570    23.5490     2.5640   -26.2120 
  192.8750    55.8200    14.1230    13.1730    14.7820    23.6010     2.5250   -26.2430 
  193.0000    58.0710    12.8750    12.1390    13.0610    23.7120     2.4820   -26.3770 
  193.1250    58.3210    11.5800    10.9940    10.3700    23.9310     2.4490   -26.6230 
  193.2500    58.5310    10.5110     9.9750     8.1200    24.1410     2.4330   -26.8800 
  193.3750    59.7870     9.8280     9.2370     7.1870    24.1310     2.4360   -27.1380 
  193.5000    60.7480     9.5880     8.8530     7.1140    24.0830     2.4480   -27.3960 
  193.6250    60.4360     9.7630     8.8330     7.6890    24.1270     2.4600   -27.6020 
  193.7500    60.6990    10.0840     8.9750     8.2760    24.1650     2.4640   -27.7560 
  193.8750    62.5420    10.3300     9.1030     8.5120    24.1670     2.4600   -27.8690 
  194.0000    64.4990    10.3310     9.0650     8.7180    23.8760     2.4520   -27.8910 
  194.1250    66.7200    10.0080     8.7740     8.9440    23.5440     2.4500   -27.8660 
  194.2500    70.8190     9.5320     8.3410     8.7930    23.3120     2.4580   -27.8450 
  194.3750    78.0890     9.0720     7.8940     7.6630    23.1740     2.4710   -27.8600 
  194.5000    88.2430     8.7560     7.5390     6.7810    23.2350     2.4810   -27.9150 
  194.6250    97.0420     8.6710     7.3580     7.3230    23.3550     2.4800   -28.0780 
  194.7500   102.2830     8.7760     7.3340     8.2790    23.4020     2.4680   -28.3210 
  194.8750   105.2030     9.0560     7.4620     9.0810    23.4490     2.4530   -28.6280 
