~V
VERS. 2.00: Ver 2.00
~W
STRT.M 65.0000:
STOP.M 252.0000:
STEP.M 0.1250:
NULL. -999.2500:
UWI. DF3012:
~C
DEPT.M :
GR.API :
RML.OHMM :
RI. :
RXO.OHMM :
CALI.CM :
DEN.GM/CC :
SP.MV :
~A
# ...
  121.2500    78.3890    11.5130     9.9210    10.3580    23.3370     2.2390   -27.0450 
  121.3750    80.2580    11.5620     9.9610    11.4780    23.3560     2.2390   -27.1040 
  121.5000    80.6250    11.5540     9.9740    12.4660    23.4350     2.2380   -27.3440 
  121.6250    78.0840    11.4880     9.9530    12.7420    23.6150     2.2340   -27.5880 
  121.7500    74.2610    11.4030     9.9160    12.4050    23.7820     2.2300   -27.8780 
  121.8750    71.9210    11.3300     9.8800    11.9240    23.8640     2.2270   -28.2640 
  122.0000    72.4360    11.2910     9.8620    11.6210    23.8830     2.2270   -28.5400 
  122.1250    75.6780    11.2940     9.8690    11.4850    23.8830     2.2260   -28.7090 
  122.2500    78.0350    11.3070     9.8860    11.4930    23.8880     2.2230   -28.9730 
  122.3750    76.6660    11.2960     9.8900    11.6370    23.9050     2.2170   -29.1140 
  122.5000    72.1330    11.2320     9.8580    11.7980    23.9360     2.2080   -29.1560 
  122.6250    68.7830    11.1010     9.7710    11.8180    23.9190     2.2050   -29.2630 
  122.7500    68.8220    10.9430     9.6500    11.6640    23.8670     2.2080   -29.1930 
  122.8750    71.0870    10.8050     9.5270    11.3550    23.8270     2.2170   -28.9950 
  123.0000    72.4870    10.7270     9.4340    11.0510    23.8150     2.2250   -28.9310 
  123.1250    71.0070    10.7320     9.4000    10.9600    23.8150     2.2250   -28.8790 
  123.2500    69.9080    10.7690     9.3990    11.0500    23.8150     2.2200   -28.6740 
  123.3750    71.8770    10.7780     9.3940    11.2000    23.8150     2.2120   -28.5430 
  123.5000    76.0590    10.7120     9.3480    11.3000    23.8060     2.2080   -28.4790 
  123.6250    78.1810    10.5470     9.2380    11.2730    23.7800     2.2090   -28.3290 
  123.7500    77.0240    10.3460     9.1010    11.0040    23.7450     2.2140   -28.2160 
  123.8750    75.9510    10.1700     8.9870    10.5450    23.7290     2.2200   -28.2640 
  124.0000    75.5240    10.0670     8.9370    10.2260    23.7270     2.2230   -28.3140 
  124.1250    74.0580    10.0620     8.9860    10.3590    23.7300     2.2230   -28.3130 
  124.2500    72.6730    10.1130     9.0990    10.6850    23.7480     2.2200   -28.4700 
  124.3750    74.3100    10.1850     9.2380    10.9460    23.7820     2.2160   -28.6220 
  124.5000    77.1460    10.2510     9.3640    11.1600    23.8050     2.2120   -28.6440 
  124.6250    74.7210    10.2990     9.4540    11.3830    23.7970     2.2060   -28.7280 
  124.7500    70.7970    10.3530     9.5290    11.4570    23.7650     2.1980   -28.8090 
  124.8750    71.0140    10.4500     9.6290    11.3780    23.7380     2.1880   -28.6560 
  125.0000    74.3700    10.6230     9.7910    11.3510    23.7270     2.1780   -28.3810 
  125.1250    73.9640    10.8810    10.0290    11.6360    23.7080     2.1740   -28.0010 
  125.2500    69.8390    11.1430    10.2800    12.1050    23.6520     2.1810   -27.3410 
  125.3750    67.1540    11.3020    10.4500    12.8010    23.5620     2.1990   -26.5840 
  125.5000    68.4820    11.2510    10.4430    13.8850    23.4510     2.2220   -25.7630 
  125.6250    72.3880    10.8850    10.1450    14.2680    23.3310     2.2420   -24.6930 
  125.7500    74.4670    10.2830     9.6110    12.8550    23.2950     2.2580   -23.6270 
  125.8750    76.1930     9.5470     8.9190    10.4700    23.4070     2.2720   -22.5970 
  126.0000    79.4950     8.7950     8.1780     8.6630    23.6220     2.2860   -21.4290 
  126.1250    84.1880     8.1550     7.5060     7.8010    23.8890     2.3010   -20.3000 
  126.2500    89.4480     7.6670     6.9610     7.0930    24.1410     2.3120   -19.4120 
  126.3750    93.5340     7.3330     6.5620     6.4270    24.3870     2.3190   -18.6070 
  126.5000    95.4860     7.1270     6.2980     5.9960    24.5860     2.3210   -17.9020 
  126.6250    96.5920     7.0100     6.1550     5.8900    24.6830     2.3230   -17.4990 
  126.7500    97.8550     6.9190     6.0730     5.8840    24.7060     2.3260   -17.2700 
  126.8750    98.4620     6.8260     6.0230     5.8970    24.6830     2.3310   -17.1920 
  127.0000    96.0100     6.7380     5.9970     5.9660    24.6240     2.3370   -17.3460 
  127.1250    93.0170     6.7340     6.0420     6.1170    24.5590     2.3420   -17.8150 
  127.2500    91.1810     6.9140     6.2220     6.3490    24.5260     2.3430   -18.3470 
  127.3750    90.1910     7.3510     6.6020     6.6620    24.4800     2.3370   -18.9480 
  127.5000    89.3940     8.0440     7.1940     7.0900    24.3470     2.3200   -19.7750 
  127.6250    88.0770     8.8590     7.9190     7.8750    24.1040     2.2920   -20.6160 
  127.7500    84.7640     9.5160     8.5480     9.0340    23.9140     2.2650   -21.2680 
  127.8750    79.3450     9.7740     8.8630    10.1370    23.8360     2.2490   -21.8690 
  128.0000    74.8170     9.5080     8.7210    10.4830    23.8600     2.2530   -22.3750 
  128.1250    77.5600     8.7520     8.1020     9.7590    24.0100     2.2750   -22.5510 
  128.2500    84.9060     7.8900     7.3280     8.6560    24.2560     2.3020   -22.7080 
  128.3750    91.7640     7.2420     6.6730     7.5440    24.4650     2.3230   -22.9020 
  128.5000    94.0690     7.0310     6.3360     6.6660    24.4520     2.3300   -23.0040 
  128.6250    91.0920     7.4150     6.4860     6.5860    24.1560     2.3210   -23.3200 
  128.7500    88.1640     8.2210     7.0400     7.4050    23.8840     2.3050   -23.8890 
  128.8750    85.9460     9.2650     7.8990     8.8400    23.8090     2.2880   -24.5270 
  129.0000    81.9440    10.3100     8.8900    10.3670    23.8490     2.2730   -25.3720 
  129.1250    75.1750    11.0420     9.7450    11.4980    23.7740     2.2590   -26.4240 
  129.2500    71.0900    11.3400    10.2700    12.2470    23.6690     2.2440   -27.3130 
  129.3750    71.7710    11.2200    10.4000    12.5150    23.6360     2.2290   -28.1020 
  129.5000    72.6250    10.8550    10.2150    12.2740    23.7400     2.2130   -28.7900 
  129.6250    71.4420    10.5630     9.9360    11.9130    23.8960     2.1970   -29.0300 
  129.7500    71.4200    10.6060     9.8230    11.5590    24.0260     2.1860   -28.9180 
  129.8750    75.6290    11.0380     9.9800    11.2390    24.1260     2.1900   -28.6740 
  130.0000    81.0620    11.6730    10.3320    11.3550    24.2090     2.2210   -28.2230 
  130.1250    79.7630    12.0470    10.5780    12.4820    24.2890     2.2880   -27.4540 
  130.2500    74.1280    11.8050    10.4170    15.0110    24.3290     2.3660   -26.6050 
  130.3750    71.6940    10.8810     9.7390    18.3600    24.3290     2.4240   -25.7890 
  130.5000    77.9530     9.5390     8.6850    18.0590    24.3520     2.4350   -25.0490 
  130.6250    88.3010     8.3290     7.6450    11.5150    24.3340     2.3920   -24.5270 
  130.7500    92.0150     7.6550     6.9670     7.1000    24.2180     2.3290   -24.3380 
  130.8750    88.8970     7.6210     6.7950     6.3720    24.0000     2.2730   -24.3130 
  131.0000    84.3560     8.1250     7.1280     7.6010    23.7830     2.2350   -24.3350 
  131.1250    82.7980     8.9490     7.8770     8.7630    23.6780     2.2150   -24.6460 
  131.2500    83.1740     9.7230     8.7100     9.1740    23.6400     2.2040   -25.0670 
  131.3750    82.4680    10.1900     9.3380     9.1950    23.6300     2.1970   -25.3650 
  131.5000    79.9550    10.1980     9.5400     9.2910    23.6180     2.1940   -25.6160 
  131.6250    76.2390     9.7020     9.1930     9.4100    23.6050     2.1990   -25.7220 
  131.7500    75.3820     8.9690     8.5480     9.1840    23.6070     2.2140   -25.5310 
  131.8750    81.6060     8.2440     7.8440     8.3740    23.6710     2.2370   -25.2760 
  132.0000    91.9900     7.7580     7.2990     7.2090    23.7930     2.2600   -25.1400 
  132.1250    98.9340     7.7480     7.1170     6.5460    23.8230     2.2710   -24.9710 
  132.2500    98.4640     8.1780     7.2950     6.8210    23.7820     2.2670   -24.9210 
  132.3750    93.9130     8.9530     7.7850     7.8610    23.7390     2.2510   -25.0760 
