~V
VERS. 2.00: Ver 2.00
~W
STRT.M 125.0000:
STOP.M 273.0000:
STEP.M 0.1250:
NULL. -999.2500:
UWI. DF3072:
~C
DEPT.M :
DEN.GM/CC :
GR.API :
CALI.CM :
RXO.OHMM :
RI. :
RML.OHMM :
SP.MV :
~A
# ...
  136.2500     2.3560    79.6920    25.7080     5.9000     5.1650     5.4200   -18.1250 
  136.3750     2.3380    77.3030    25.7300     6.1470     5.3180     5.6860   -18.6720 
  136.5000     2.2990    75.0940    25.7110     6.5100     5.6140     6.1810   -19.2740 
  136.6250     2.2660    74.1140    25.5450     7.0620     6.1240     7.0060   -19.8750 
  136.7500     2.2610    73.7850    25.2620     7.7920     6.8470     8.1330   -20.4540 
  136.8750     2.2900    73.6190    24.9970     8.6820     7.7670     9.5120   -20.9800 
  137.0000     2.3390    72.5690    24.8440     9.6480     8.8020    10.9830   -21.4300 
  137.1250     2.3800    71.9900    24.7650    10.4970     9.7440    12.1920   -21.7830 
  137.2500     2.3830    73.1510    24.6860    11.1140    10.3880    12.8680   -22.0470 
  137.3750     2.3460    73.0320    24.6130    11.5120    10.6440    12.9430   -22.2280 
  137.5000     2.2870    70.5670    24.5610    11.6900    10.5690    12.5910   -22.3480 
  137.6250     2.2400    67.7760    24.5310    11.5560    10.3130    12.1130   -22.4420 
  137.7500     2.2190    66.2610    24.5160    11.2690    10.0600    11.7530   -22.5280 
  137.8750     2.2160    66.6270    24.5170    11.0450     9.8720    11.5610   -22.6230 
  138.0000     2.2210    68.2360    24.5230    10.9800     9.7490    11.4890   -22.7280 
  138.1250     2.2240    71.1940    24.5140    10.9720     9.6550    11.4450   -22.8480 
  138.2500     2.2200    72.7930    24.4960    10.9460     9.5590    11.3660   -22.9820 
  138.3750     2.2100    72.3590    24.4960    10.9750     9.4620    11.2620   -23.1460 
  138.5000     2.2070    71.5460    24.5510    11.1630     9.3840    11.1750   -23.3520 
  138.6250     2.2210    70.7180    24.7080    11.6010     9.3590    11.1630   -23.5860 
  138.7500     2.2360    69.7700    24.9200    12.1520     9.3910    11.2230   -23.8580 
  138.8750     2.2350    68.7250    25.1380    12.5240     9.4650    11.3110   -24.1510 
  139.0000     2.2200    68.5760    25.3540    12.4490     9.5450    11.3630   -24.4320 
  139.1250     2.2050    69.9510    25.4940    12.0070     9.5950    11.3220   -24.6870 
  139.2500     2.1980    70.1420    25.4650    11.6520     9.6110    11.2140   -24.8930 
  139.3750     2.1990    68.2370    25.3020    11.5420     9.6090    11.0840   -25.0220 
  139.5000     2.2020    66.0610    25.1570    11.5850     9.6180    10.9880   -25.0640 
  139.6250     2.1990    67.0470    25.1050    11.6020     9.6670    10.9920   -24.9920 
  139.7500     2.1900    69.5920    25.0540    11.4690     9.7480    11.0950   -24.8080 
  139.8750     2.1800    68.8620    24.9950    11.1250     9.8250    11.2500   -24.4950 
  140.0000     2.1740    66.1750    24.9690    10.6030     9.8170    11.3270   -24.0350 
  140.1250     2.1670    67.3170    24.9730    10.0540     9.5420    11.0210   -23.4190 
  140.2500     2.1630    70.7560    24.9710     9.4940     8.9170    10.1680   -22.6960 
  140.3750     2.1720    73.7230    24.9510     8.6450     7.9610     8.8000   -21.8930 
  140.5000     2.2000    77.2060    24.9190     7.3120     6.8440     7.2020   -21.0840 
  140.6250     2.2400    86.0720    24.8930     5.8450     5.8530     5.8590   -20.3670 
  140.7500     2.2830    94.2630    24.9020     4.8730     5.1690     5.0440   -19.7880 
  140.8750     2.3320    96.2590    24.9720     4.6700     4.8820     4.8780   -19.4280 
  141.0000     2.3880    91.5770    25.0940     5.2550     5.0460     5.4160   -19.3210 
  141.1250     2.4350    81.4970    25.1690     6.5420     5.7940     6.8100   -19.4730 
  141.2500     2.4490    71.9750    25.0680     8.0240     7.0340     8.8540   -19.8350 
  141.3750     2.4230    66.0440    24.8010     9.3780     8.6050    11.2090   -20.3640 
  141.5000     2.3730    64.0410    24.5670    10.4810    10.1120    13.1930   -20.9730 
  141.6250     2.3280    64.8740    24.5860    11.1550    10.9020    13.8240   -21.5960 
  141.7500     2.2920    66.2060    24.7220    11.2820    10.8970    13.2690   -22.1500 
  141.8750     2.2540    67.2620    24.7750    10.8960    10.3810    12.1640   -22.5820 
  142.0000     2.2070    66.9910    24.7260    10.2690     9.7270    11.1180   -22.9030 
  142.1250     2.1690    67.9380    24.7280     9.8090     9.1970    10.4730   -23.1130 
  142.2500     2.1510    68.3450    24.8000     9.7570     8.8500    10.1850   -23.2380 
  142.3750     2.1480    66.9070    24.8480    10.0390     8.6730    10.1690   -23.3040 
  142.5000     2.1440    67.4430    24.8220    10.3270     8.6230    10.3140   -23.3300 
  142.6250     2.1400    71.0390    24.7620    10.3480     8.6600    10.5220   -23.3560 
  142.7500     2.1490    72.7920    24.7320    10.2800     8.7350    10.7160   -23.4160 
  142.8750     2.1790    72.3450    24.7420    10.2900     8.8240    10.8460   -23.5300 
  143.0000     2.2130    72.2150    24.7730    10.3580     8.9010    10.8860   -23.6850 
  143.1250     2.2230    72.6670    24.8160    10.3900     8.9730    10.8850   -23.8510 
  143.2500     2.2060    70.5570    24.8960    10.4220     9.0790    10.9580   -23.9770 
  143.3750     2.1840    66.9430    25.0480    10.5840     9.2430    11.1680   -24.0130 
  143.5000     2.1840    65.3880    25.2950    11.1320     9.4400    11.4710   -23.9070 
  143.6250     2.2170    67.9300    25.5200    12.3670     9.5390    11.6270   -23.5910 
  143.7500     2.2610    72.8340    25.5580    13.4770     9.3770    11.3410   -23.1020 
  143.8750     2.3050    78.1780    25.4250    13.0980     8.8560    10.4700   -22.4300 
  144.0000     2.3430    83.6830    25.2810    10.7960     8.0370     9.1710   -21.6310 
  144.1250     2.3750    88.5170    25.2350     7.9660     7.1340     7.8460   -20.7910 
  144.2500     2.3940    90.4280    25.2140     6.1440     6.3720     6.8210   -19.9910 
  144.3750     2.3930    90.5310    25.1930     5.4100     5.8400     6.1870   -19.3000 
  144.5000     2.3690    91.3210    25.1750     5.3630     5.5480     5.9070   -18.7610 
  144.6250     2.3330    93.7100    25.1000     5.6340     5.4640     5.8870   -18.3800 
  144.7500     2.3010    95.3950    25.0280     5.8460     5.4720     5.9470   -18.1170 
  144.8750     2.2850    95.5170    25.1290     5.8440     5.5100     6.0030   -17.9550 
  145.0000     2.2910    94.4700    25.4310     5.6930     5.5430     6.0190   -17.8560 
  145.1250     2.3050    92.6810    25.6950     5.6380     5.5530     5.9860   -17.7990 
  145.2500     2.3030    90.9460    25.7390     5.7890     5.5320     5.9140   -17.7320 
  145.3750     2.2860    89.2690    25.6500     6.0200     5.4660     5.7930   -17.6250 
  145.5000     2.2720    88.5240    25.6000     6.0620     5.3430     5.6050   -17.4720 
  145.6250     2.2840    88.8080    25.6590     5.7090     5.1550     5.3400   -17.2910 
  145.7500     2.3110    90.1950    25.7750     5.2310     4.9360     5.0520   -17.1240 
  145.8750     2.3350    92.3590    25.8960     4.8990     4.7200     4.7940   -16.9820 
  146.0000     2.3470    94.4720    25.9720     4.7640     4.5340     4.5920   -16.8360 
  146.1250     2.3510    96.4860    25.9700     4.6790     4.3840     4.4300   -16.6590 
  146.2500     2.3560    98.4970    25.9210     4.5770     4.2480     4.2650   -16.4880 
  146.3750     2.3660   101.0470    25.8530     4.4970     4.1360     4.1180   -16.3350 
  146.5000     2.3800   103.0220    25.7910     4.4420     4.0950     4.0820   -16.2250 
  146.6250     2.3950   100.7330    25.7620     4.4870     4.2170     4.3250   -16.1880 
  146.7500     2.4120    95.3760    25.7790     5.0170     4.5190     4.8770   -16.1760 
  146.8750     2.4360    87.6240    25.7950     6.5220     4.9850     5.6910   -16.1960 
  147.0000     2.4680    81.0760    25.6600     8.6880     5.5250     6.5850   -16.2760 
  147.1250     2.4880    81.2260    25.2620     9.4130     5.9130     7.1290   -16.4060 
  147.2500     2.4740    86.0540    24.8740     8.0700     5.9730     7.0610   -16.5860 
  147.3750     2.4220    90.7380    24.7230     6.1680     5.6970     6.4510   -16.8100 
