~V
VERS. 2.00: Ver 2.00
~W
STRT.M 63.0000:
STOP.M 257.0000:
STEP.M 0.1250:
NULL. -999.2500:
UWI. DF3070:
~C
DEPT.M :
DEN.GM/CC :
GR.API :
RML.OHMM :
RI. :
RXO.OHMM :
CALI.CM :
SP.MV :
~A
# ...
  175.5000     2.2790    90.2990    56.1280    51.5440    51.3710    24.3660   -22.3880 
  175.6250     2.2800    89.5280    57.3520    51.7120    45.1140    24.2700   -22.4910 
  175.7500     2.2790    87.3010    59.4800    52.7650    44.9670    24.2680   -22.6500 
  175.8750     2.2780    87.0610    62.3690    54.5480    49.7200    24.3300   -22.8180 
  176.0000     2.2760    87.8280    66.2740    57.2190    54.5170    24.4080   -23.0100 
  176.1250     2.2690    86.9520    72.1840    61.5960    54.0650    24.4490   -23.2410 
  176.2500     2.2550    83.9840    80.6270    68.1690    56.3870    24.5080   -23.4440 
  176.3750     2.2380    80.1170    92.1450    77.4490    65.4230    24.6360   -23.6740 
  176.5000     2.2210    77.2050   106.9820    89.6510    77.6290    24.7670   -23.9380 
  176.6250     2.2100    75.9590   125.4780   105.0070    85.7830    24.7080   -24.2130 
  176.7500     2.2040    76.1960   146.4280   122.3940    94.0470    24.4440   -24.4930 
  176.8750     2.2020    74.9180   168.7920   140.8800   111.7300    24.1320   -24.7830 
  177.0000     2.2000    70.5750   191.2080   159.3450   140.9660    23.9190   -25.0550 
  177.1250     2.1940    68.9120   211.7250   176.3140   165.8270    23.8390   -25.3130 
  177.2500     2.1830    71.0040   229.2900   191.0520   180.5740    23.8170   -25.5890 
  177.3750     2.1740    72.7930   243.4820   203.2290   206.3030    23.7970   -25.8280 
  177.5000     2.1710    71.0890   254.5310   212.9500   249.9600    23.8470   -26.0440 
  177.6250     2.1790    68.1860   262.4470   220.1510   273.4740    24.1910   -26.1870 
  177.7500     2.1900    67.8540   267.7400   225.2740   264.5870    24.6280   -26.3920 
  177.8750     2.2000    69.1680   270.1480   228.1550   260.0510    24.8250   -26.5410 
  178.0000     2.2050    70.4210   269.5390   228.6620   262.2780    24.7030   -26.7640 
  178.1250     2.2070    70.9550   266.0450   226.7450   258.0340    24.5310   -26.9380 
  178.2500     2.2110    71.0570   261.6850   223.8990   249.5570    24.5020   -27.0780 
  178.3750     2.2150    70.0210   258.7150   221.9520   242.2670    24.5430   -27.1960 
  178.5000     2.2160    67.2960   259.4920   222.9810   234.0990    24.5890   -27.3310 
  178.6250     2.2070    64.2830   266.6980   229.4940   222.9510    24.5980   -27.5020 
  178.7500     2.1910    63.9410   279.5910   241.0840   216.8230    24.5610   -27.5940 
  178.8750     2.1740    66.3310   296.7970   256.7080   222.0400    24.5200   -27.7040 
  179.0000     2.1610    68.4410   315.8950   274.3550   238.7200    24.4700   -27.7160 
  179.1250     2.1580    66.8810   333.6460   291.3300   262.1040    24.4020   -27.6920 
  179.2500     2.1620    63.7400   348.2760   305.9970   282.5720    24.3620   -27.6240 
  179.3750     2.1710    61.8850   359.7730   318.2240   294.1460    24.3800   -27.5530 
  179.5000     2.1800    61.4210   369.3040   328.8300   295.1690    24.4420   -27.4350 
  179.6250     2.1860    60.0610   377.9490   338.4890   292.4940    24.5130   -27.2730 
  179.7500     2.1880    58.4300   385.4910   346.8370   295.2670    24.5630   -27.1540 
  179.8750     2.1870    58.5800   390.1400   352.2050   303.2930    24.5800   -27.0490 
  180.0000     2.1850    60.7900   389.7200   352.6830   316.7370    24.5520   -27.0320 
  180.1250     2.1820    63.3830   381.8530   346.2540   332.7950    24.5910   -27.0260 
  180.2500     2.1790    64.5410   368.5420   334.8300   337.1890    24.7310   -27.0870 
  180.3750     2.1760    64.4720   352.3350   320.6070   321.7860    24.7440   -27.1070 
  180.5000     2.1750    64.4740   336.2020   306.1200   288.8220    24.5230   -27.1480 
  180.6250     2.1750    66.4220   323.2790   294.1300   252.4650    24.4340   -27.2170 
  180.7500     2.1760    68.3990   314.7980   285.9100   232.0100    24.6090   -27.1300 
  180.8750     2.1770    68.1410   311.7230   282.3730   230.7190    24.7650   -27.0250 
  181.0000     2.1770    66.5330   314.7830   284.1290   238.2860    24.6570   -26.6720 
  181.1250     2.1770    65.8850   325.1820   292.0970   240.1930    24.4330   -26.3210 
  181.2500     2.1780    65.7350   340.6090   304.1960   240.8080    24.3060   -25.8420 
  181.3750     2.1780    64.1320   358.3380   318.1010   248.1820    24.3080   -25.3540 
  181.5000     2.1770    61.9060   374.5110   330.7180   260.2000    24.4370   -24.8170 
  181.6250     2.1750    60.6950   383.6080   337.8540   277.9490    24.5010   -24.3150 
  181.7500     2.1740    60.7600   383.7340   338.2020   302.3270    24.3750   -23.9040 
  181.8750     2.1740    62.3320   374.7360   331.7030   326.7830    24.1600   -23.5210 
  182.0000     2.1770    64.8670   358.4820   319.7450   332.4380    23.9850   -23.2850 
  182.1250     2.1830    64.6560   337.8350   304.3770   315.0340    23.9100   -23.0730 
  182.2500     2.1890    61.6630   317.0190   288.7050   301.4360    23.8790   -22.9250 
  182.3750     2.1960    61.2400   298.5850   274.6500   295.3160    23.8680   -22.8550 
  182.5000     2.2010    66.6480   284.1380   263.5120   285.6420    23.8900   -22.7970 
  182.6250     2.2040    71.9050   274.3180   256.0170   259.3260    23.9420   -22.6940 
  182.7500     2.2030    71.4060   266.1420   250.0620   229.0270    24.0290   -22.5650 
  182.8750     2.1990    66.9010   255.7230   242.6450   212.7610    24.1360   -22.3850 
  183.0000     2.1910    64.4930   238.5830   229.9900   212.4320    24.2720   -22.1680 
  183.1250     2.1810    66.8320   209.9010   207.3790   216.2130    24.4460   -21.9040 
  183.2500     2.1750    69.2620   173.3870   176.5480   210.5760    24.5900   -21.6520 
  183.3750     2.1760    68.3920   136.1770   142.0780   190.9830    24.6380   -21.3410 
  183.5000     2.1900    64.8950   106.0590   110.6590   162.8780    24.6160   -20.9780 
  183.6250     2.2180    65.2930    88.5620    89.8440   132.9110    24.6500   -20.6240 
  183.7500     2.2480    70.7050    82.1680    81.5320    90.3770    24.7400   -20.2510 
  183.8750     2.2660    75.9260    88.6370    88.3120    61.2740    24.7890   -19.8560 
  184.0000     2.2620    74.7420   111.0340   112.5750    66.4850    24.7590   -19.4760 
  184.1250     2.2330    66.7040   152.4630   155.7090   103.1980    24.7270   -19.0000 
  184.2500     2.2020    61.1230   201.8070   205.2950   174.5680    24.7240   -18.5580 
  184.3750     2.1920    59.7580   242.5920   244.8590   291.8250    24.7610   -18.0690 
  184.5000     2.2240    58.3360   253.9240   255.6510   330.6540    24.8360   -17.6270 
  184.6250     2.3120    55.2980   215.2150   221.2100   295.1310    24.8000   -17.0870 
  184.7500     2.4320    53.9010   151.8290   161.8730   305.4400    24.5730   -16.5440 
  184.8750     2.5530    53.5040    94.1080   102.1960   337.9050    24.2800   -16.0000 
  185.0000     2.6450    52.4980    54.6100    57.9260   302.4570    24.1030   -15.4720 
  185.1250     2.6790    55.3960    31.9090    33.1710   149.0410    24.0660   -15.0660 
  185.2500     2.6710    61.4780    18.0910    19.4930    61.8180    24.0420   -14.6240 
  185.3750     2.6410    64.7210    10.6560    12.2100    28.7990    24.0920   -14.2730 
  185.5000     2.6050    62.9440     7.5630     8.3960    14.6030    24.1550   -13.9400 
  185.6250     2.5780    60.3380     6.3200     6.6670     8.6670    24.0200   -13.7020 
  185.7500     2.5590    59.9580     5.8340     5.8860     5.9900    23.7440   -13.5500 
  185.8750     2.5390    61.7760     5.7560     5.6570     5.0850    23.5390   -13.4380 
  186.0000     2.5110    66.1940     5.8650     5.7300     5.0660    23.5090   -13.4030 
  186.1250     2.4720    70.9300     6.0330     5.9470     4.9540    23.5210   -13.3770 
  186.2500     2.4290    70.7970     6.1920     6.1860     4.5800    23.5420   -13.3910 
  186.3750     2.3910    67.0140     6.3290     6.4070     4.4150    23.6650   -13.3820 
  186.5000     2.3630    64.1650     6.4400     6.5860     4.6370    23.8610   -13.4030 
  186.6250     2.3470    62.7890     6.5060     6.6890     5.0030    23.9980   -13.4230 
