~V
VERS. 2.00: Ver 2.00
~W
STRT.M 110.0000:
STOP.M 266.0000:
STEP.M 0.1250:
NULL. -999.2500:
UWI. DF309:
~C
DEPT.M :
DEN.GM/CC :
SP.MV :
AC.US/MT :
GR.API :
CALI.CM :
RXO.OHMM :
RI. :
RML.OHMM :
~A
# ...
  160.0000     2.2790   -20.0440   389.8400    82.9440    22.8540    10.2770    12.0320    14.5880 
  160.1250     2.2830   -20.1140   389.5930    84.2990    22.9170    10.3270    12.0470    14.6300 
  160.2500     2.2900   -20.1510   389.6060    85.7080    22.9830    10.4050    12.0180    14.6060 
  160.3750     2.2920   -20.1550   390.0550    86.3670    23.0280    10.4870    11.9580    14.5410 
  160.5000     2.2910   -20.1210   390.6950    84.6560    23.0590    10.5220    11.8910    14.4670 
  160.6250     2.2880   -20.0580   391.0010    82.3000    23.0710    10.5500    11.8480    14.4230 
  160.7500     2.2830   -19.9920   390.8900    84.2250    23.0750    10.6740    11.8520    14.4320 
  160.8750     2.2740   -19.9390   390.5380    87.8640    23.0750    10.8220    11.9310    14.5150 
  161.0000     2.2670   -19.9120   390.1280    87.7970    23.0760    10.9560    12.1170    14.7110 
  161.1250     2.2690   -19.9170   389.7670    83.8510    23.0790    11.2770    12.4740    15.1080 
  161.2500     2.2790   -19.9510   389.4220    82.1330    23.0810    11.7880    13.0040    15.7330 
  161.3750     2.2870   -20.0310   388.9830    85.2960    23.0790    12.4550    13.7140    16.6130 
  161.5000     2.2860   -20.1380   388.4130    87.4190    23.0770    12.9480    14.2240    17.2660 
  161.6250     2.2740   -20.2710   387.9080    88.1330    23.0750    13.4940    14.7700    17.9770 
  161.7500     2.2610   -20.4180   387.6920    84.7360    23.0750    14.4640    15.7020    19.2230 
  161.8750     2.2510   -20.5730   387.8900    82.2160    23.0750    15.2600    16.5140    20.3450 
  162.0000     2.2480   -20.7300   388.4750    85.8170    23.0790    15.7590    17.0430    21.1270 
  162.1250     2.2530   -20.9120   389.2900    90.6880    23.1050    15.8460    17.0960    21.2950 
  162.2500     2.2610   -21.1090   390.0860    89.0660    23.1630    15.5270    16.7500    20.9080 
  162.3750     2.2670   -21.3150   390.7240    85.0850    23.2270    14.9240    16.1540    20.1320 
  162.5000     2.2710   -21.5430   390.9570    84.7760    23.2640    14.3490    15.5790    19.3260 
  162.6250     2.2740   -21.7930   390.3650    86.5420    23.2830    14.1950    15.4930    19.1400 
  162.7500     2.2730   -22.0590   389.1510    84.6000    23.3260    14.5470    16.2690    20.1070 
  162.8750     2.2650   -22.3380   387.9370    78.1050    23.4280    15.9500    18.3880    22.8140 
  163.0000     2.2550   -22.6190   387.5110    72.2160    23.6120    19.9620    22.6030    27.9980 
  163.1250     2.2530   -22.8840   388.4850    75.4480    23.7970    31.3960    30.8150    37.5070 
  163.2500     2.2520   -23.1240   390.0850    79.5960    23.9440    52.8060    43.5350    52.1410 
  163.3750     2.2450   -23.3270   391.4420    76.7210    24.0130    81.9250    59.2110    71.1490 
  163.5000     2.2320   -23.4860   392.4240    68.9550    24.0310   107.8920    71.0440    86.4290 
  163.6250     2.2270   -23.5740   394.0470    67.1990    24.0310   112.0040    67.1860    80.0040 
  163.7500     2.2380   -23.6180   396.4960    71.3610    24.0290    91.1780    52.4690    59.7470 
  163.8750     2.2630   -23.6290   398.3770    77.9660    24.0080    57.5400    36.8470    40.5260 
  164.0000     2.2920   -23.6180   397.7890    88.3570    23.9330    29.1350    25.6830    27.7800 
  164.1250     2.3150   -23.6050   393.6270   100.0970    23.7810    16.5300    19.7920    21.2840 
  164.2500     2.3310   -23.5910   387.4790   103.2750    23.6340    12.7860    16.8140    18.1850 
  164.3750     2.3440   -23.5810   380.5940    96.5100    23.5320    13.0600    15.6560    17.3080 
  164.5000     2.3510   -23.5740   374.2690    88.3280    23.4320    14.0690    15.6790    17.8160 
  164.6250     2.3530   -23.5980   370.7320    85.9100    23.3550    14.4050    16.4380    18.9600 
  164.7500     2.3540   -23.6260   370.6110    86.5780    23.2990    14.1650    17.2840    19.9000 
  164.8750     2.3560   -23.6470   372.7970    86.1040    23.2700    14.0340    17.9000    20.3150 
  165.0000     2.3580   -23.6620   375.1000    84.6790    23.2390    14.1400    18.2330    20.2990 
  165.1250     2.3540   -23.6510   376.1160    82.6860    23.2020    14.0580    18.3980    20.1500 
  165.2500     2.3400   -23.6210   376.7840    81.9770    23.1870    13.7590    18.5440    20.0950 
  165.3750     2.3170   -23.5780   378.0500    83.1270    23.1830    13.6190    18.7260    20.1920 
  165.5000     2.2950   -23.5250   379.8940    84.5390    23.1830    13.9280    18.9360    20.4230 
  165.6250     2.2910   -23.4520   381.5300    84.8530    23.1850    14.4360    19.0920    20.7010 
  165.7500     2.2980   -23.3570   382.4240    85.4650    23.2010    14.7290    19.1120    20.8970 
  165.8750     2.3000   -23.2460   382.6240    85.9050    23.2360    14.7070    18.9630    20.9200 
  166.0000     2.2900   -23.1190   382.5960    85.5220    23.2650    14.4140    18.6550    20.7250 
  166.1250     2.2740   -22.9800   382.9720    85.9570    23.2780    14.0350    18.2360    20.3130 
  166.2500     2.2700   -22.8360   383.6830    88.7500    23.2850    14.0620    17.8160    19.8290 
  166.3750     2.2820   -22.6960   384.2110    91.3300    23.3110    14.5890    17.4850    19.4140 
  166.5000     2.3020   -22.5640   384.1490    91.8810    23.4130    15.2640    17.3230    19.2010 
  166.6250     2.3160   -22.4300   383.4260    91.3790    23.6380    15.4440    17.4370    19.3450 
  166.7500     2.3190   -22.3120   382.5090    89.6620    23.9300    15.4600    17.7840    19.8020 
  166.8750     2.3180   -22.2060   381.8700    85.4730    24.1640    15.7990    18.2700    20.4540 
  167.0000     2.3180   -22.1140   381.8290    81.0050    24.3640    16.3800    18.7370    21.1050 
  167.1250     2.3190   -22.0360   382.3030    80.0230    24.5880    16.6600    18.9870    21.4890 
  167.2500     2.3150   -21.9770   382.6370    80.6640    24.7900    16.8260    18.9730    21.5280 
  167.3750     2.3050   -21.9420   382.3670    78.3690    24.9320    16.8020    18.7490    21.2750 
  167.5000     2.2960   -21.9550   381.3810    74.6630    24.9870    16.9400    18.4690    20.9280 
  167.6250     2.2940   -22.0330   379.9380    76.7690    24.9870    17.6120    18.4370    20.8830 
  167.7500     2.2950   -22.1720   378.5550    83.3540    24.9870    18.5250    18.9540    21.5380 
  167.8750     2.2940   -22.3760   377.4140    87.1900    24.9870    19.4860    20.3800    23.3430 
  168.0000     2.2850   -22.6460   376.7050    84.9610    24.9870    20.9970    23.1680    26.8040 
  168.1250     2.2700   -22.9980   377.0260    80.2290    24.9870    25.4460    28.2930    32.9400 
  168.2500     2.2570   -23.3990   378.2490    75.0030    24.9870    36.8550    36.0780    41.9930 
  168.3750     2.2500   -23.8280   379.3180    70.1500    24.9870    56.8120    46.7740    54.2590 
  168.5000     2.2500   -24.2610   378.7350    68.3800    24.9870    76.4920    59.7950    69.2610 
  168.6250     2.2600   -24.6810   376.2590    68.6220    24.9740    79.6540    72.6330    84.3160 
  168.7500     2.2700   -25.0700   374.9180    69.1340    24.9480    70.9150    81.4060    94.3270 
  168.8750     2.2730   -25.4440   377.4040    71.2030    24.9500    64.8580    83.5050    95.5000 
  169.0000     2.2650   -25.7980   383.3550    72.7600    25.0310    70.4980    79.2050    88.5130 
  169.1250     2.2540   -26.1410   388.0290    71.2660    25.1700    72.2250    71.5190    78.1350 
  169.2500     2.2530   -26.4840   388.0260    71.5890    25.2560    58.3390    64.9020    69.7500 
  169.3750     2.2660   -26.8310   385.1000    75.3960    25.3080    41.0060    61.7590    65.6610 
  169.5000     2.2800   -27.1870   383.8160    76.6250    25.3910    36.2560    63.4790    66.9420 
  169.6250     2.2750   -27.5480   387.3070    72.0310    25.5130    48.5400    71.6890    75.1900 
  169.7500     2.2530   -27.9330   392.3640    69.0810    25.5470    68.2200    85.1070    89.5000 
  169.8750     2.2280   -28.3190   395.4560    69.4250    25.3700    83.4270   101.5160   108.2280 
