~V
VERS. 2.00: Ver 2.00
~W
STRT.M 60.0000:
STOP.M 268.0000:
STEP.M 0.1250:
NULL. -999.2500:
UWI. DF3035:
~C
DEPT.M :
GR.API :
CALI.CM :
RXO.OHMM :
RI. :
RML.OHMM :
SP.MV :
DEN.GM/CC :
AC.US/MT :
~A
# ...
  140.0000    49.8050    24.7640    21.3220    15.5470    20.1770   -18.0400     2.6760   228.9820 
  140.1250    50.5520    24.8340    21.1100    14.3760    17.9000   -18.3380     2.6690   239.6120 
  140.2500    52.0280    24.8450    18.8130    12.8560    15.3650   -18.8190     2.6480   255.4070 
  140.3750    54.3630    24.7540    15.5220    11.4140    13.2060   -19.4610     2.6120   274.7750 
  140.5000    58.8180    24.4800    13.1490    10.3350    11.7610   -20.1880     2.5640   295.1140 
  140.6250    63.8100    24.1050    12.6090     9.8300    11.2390   -20.9250     2.5130   311.9560 
  140.7500    65.7710    23.8960    13.0660     9.7980    11.3970   -21.6160     2.4690   322.7510 
  140.8750    65.3970    23.9180    13.7940    10.1200    11.9970   -22.1820     2.4370   327.3370 
  141.0000    63.8240    24.0200    14.0170    10.5810    12.6680   -22.5660     2.4140   327.7880 
  141.1250    62.4120    24.0130    12.9150    10.8090    12.8330   -22.7260     2.3890   326.7710 
  141.2500    63.3970    23.9450    10.9840    10.5540    12.2370   -22.6510     2.3640   326.1410 
  141.3750    67.7540    23.9280     9.2370     9.7900    10.9790   -22.3330     2.3490   326.5910 
  141.5000    72.8750    24.0370     8.3910     8.7010     9.4190   -21.8230     2.3550   328.9080 
  141.6250    76.8290    24.2630     8.0220     7.5530     7.9530   -21.1640     2.3750   334.3080 
  141.7500    81.3390    24.4960     7.2930     6.5370     6.7490   -20.4540     2.3910   342.1290 
  141.8750    86.6140    24.7140     6.4040     5.7170     5.8340   -19.7770     2.4000   351.3410 
  142.0000    90.4850    24.9110     5.8660     5.0950     5.1820   -19.1800     2.4070   360.8680 
  142.1250    92.8040    25.0510     5.5310     4.6840     4.7980   -18.7350     2.4110   370.1360 
  142.2500    95.1000    25.1220     5.0180     4.4450     4.6320   -18.4710     2.4070   379.1790 
  142.3750    94.7060    25.1210     4.6140     4.3660     4.6610   -18.3800     2.3940   387.5010 
  142.5000    90.4040    25.0250     4.8050     4.4140     4.8240   -18.4450     2.3720   393.7810 
  142.6250    84.5670    24.7800     5.6630     4.5570     5.0600   -18.6600     2.3390   395.7730 
  142.7500    81.5560    24.4890     6.4990     4.7710     5.3520   -18.9240     2.2990   392.8490 
  142.8750    83.6040    24.2730     6.8050     5.0840     5.7670   -19.1840     2.2690   383.6280 
  143.0000    85.6340    24.1720     6.8180     5.5480     6.4040   -19.4360     2.2710   366.3760 
  143.1250    82.0090    24.1890     8.1530     6.2370     7.3880   -19.6510     2.3220   339.9930 
  143.2500    77.3640    24.3460    11.7670     7.0790     8.5920   -19.8590     2.4050   310.8960 
  143.3750    76.8920    24.6550    16.0540     7.9030     9.7210   -20.1050     2.4940   287.2780 
  143.5000    78.8370    24.9810    17.4630     8.4410    10.3410   -20.3710     2.5470   277.1650 
  143.6250    77.9380    25.0780    14.3700     8.3890    10.0320   -20.6600     2.5140   286.7430 
  143.7500    77.4820    24.9160    10.6250     7.9030     9.1410   -20.9730     2.4190   308.3600 
  143.8750    80.3530    24.6440     8.4380     7.2270     8.1090   -21.2570     2.3130   333.1900 
  144.0000    83.4910    24.4480     7.7340     6.5800     7.2530   -21.4770     2.2380   353.1510 
  144.1250    84.5200    24.4130     7.5830     6.0770     6.6760   -21.5790     2.2070   362.9120 
  144.2500    86.6810    24.4360     7.1780     5.6760     6.2290   -21.5130     2.1980   365.3860 
  144.3750    91.6010    24.4960     6.4600     5.3380     5.8250   -21.2850     2.2080   363.9710 
  144.5000    95.2130    24.6200     5.7060     5.0510     5.4610   -20.9390     2.2390   361.5490 
  144.6250    95.9410    24.7400     5.2410     4.8550     5.2240   -20.5120     2.2800   359.4670 
  144.7500    96.6350    24.7470     5.0800     4.7650     5.1480   -20.0720     2.3070   357.4530 
  144.8750    95.8350    24.6460     5.1380     4.7760     5.2150   -19.6710     2.3140   355.1400 
  145.0000    92.1560    24.5100     5.2890     4.8530     5.3550   -19.3120     2.3070   352.7010 
  145.1250    90.8990    24.4040     5.3540     4.9360     5.4570   -19.0340     2.2990   351.0350 
  145.2500    94.3660    24.3930     5.2670     4.9670     5.4460   -18.8320     2.2970   350.9760 
  145.3750    97.3350    24.5140     5.1450     4.9210     5.3080   -18.6650     2.3090   353.1010 
  145.5000    97.1420    24.6940     5.1180     4.8050     5.0770   -18.5220     2.3290   357.3150 
  145.6250    96.9790    24.8090     5.1680     4.6510     4.8230   -18.3900     2.3420   362.5740 
  145.7500    99.0490    24.8580     5.1830     4.5100     4.6130   -18.2320     2.3430   367.1360 
  145.8750   102.0160    24.8800     5.1510     4.4090     4.4760   -18.0580     2.3410   370.3390 
  146.0000   101.7240    24.8860     5.1590     4.3560     4.4170   -17.9070     2.3390   372.3450 
  146.1250    96.9740    24.8770     5.3510     4.3690     4.4610   -17.7800     2.3360   373.0240 
  146.2500    94.0130    24.8730     5.6060     4.4450     4.6030   -17.6660     2.3280   371.7780 
  146.3750    94.9510    24.8890     5.6960     4.5780     4.8280   -17.5740     2.3240   367.9870 
  146.5000    95.5170    24.9230     5.7840     4.7400     5.0950   -17.4890     2.3370   362.5380 
  146.6250    94.0200    24.9490     6.3510     4.8860     5.3190   -17.3800     2.3680   358.5970 
  146.7500    97.3130    24.9320     6.9010     4.9700     5.4240   -17.2670     2.3940   358.3910 
  146.8750   103.1920    24.8890     6.6390     4.9710     5.3850   -17.1670     2.4000   361.3880 
  147.0000   105.0000    24.8710     5.6620     4.9090     5.2530   -17.0580     2.3850   364.8200 
  147.1250   101.4220    24.8840     5.0370     4.8490     5.1540   -16.9480     2.3660   365.1530 
  147.2500    99.3710    24.9060     5.1200     4.8650     5.1990   -16.8440     2.3580   362.0480 
  147.3750   100.5610    24.9450     5.6190     5.0080     5.4530   -16.7440     2.3630   356.4330 
  147.5000   102.3410    25.0060     6.3110     5.3140     5.9480   -16.6650     2.3780   348.9950 
  147.6250   100.0900    25.0510     7.2600     5.8320     6.7380   -16.6090     2.4060   338.7560 
  147.7500    93.1410    25.0340     8.5070     6.5500     7.8060   -16.5750     2.4460   325.1260 
  147.8750    82.6600    24.9610    10.1660     7.4870     9.1880   -16.5700     2.4950   308.1870 
  148.0000    71.2850    24.8670    12.4490     8.6540    10.9020   -16.5880     2.5450   289.3680 
  148.1250    60.8830    24.8150    15.3970    10.0390    12.9090   -16.6330     2.5870   271.5410 
  148.2500    55.6950    24.8200    18.0430    11.4750    14.9350   -16.7200     2.6220   257.1730 
  148.3750    56.8850    24.8440    19.2340    12.7850    16.6930   -16.8330     2.6530   247.3940 
  148.5000    60.6250    24.8590    18.6990    13.8150    17.9650   -16.9550     2.6770   241.8690 
  148.6250    61.5420    24.8500    17.5410    14.4740    18.6850   -17.0960     2.6760   239.3950 
  148.7500    59.7570    24.8470    17.0990    14.9280    19.1740   -17.2390     2.6510   237.8930 
  148.8750    56.4830    24.8590    17.5400    15.3140    19.6550   -17.3530     2.6240   236.6420 
  149.0000    52.4310    24.8650    18.4300    15.7210    20.2340   -17.4590     2.6200   235.5110 
  149.1250    49.8300    24.8590    19.2460    16.1470    20.8540   -17.5570     2.6390   234.7590 
  149.2500    49.2630    24.8630    19.8100    16.5140    21.3540   -17.6110     2.6530   234.6230 
  149.3750    49.2340    24.8820    20.1880    16.7630    21.6470   -17.6420     2.6570   235.2570 
  149.5000    47.9700    24.8920    20.4900    16.8870    21.7470   -17.6470     2.6600   236.5640 
  149.6250    46.2560    24.8850    20.6000    16.9240    21.7480   -17.6180     2.6640   238.0610 
  149.7500    47.8330    24.8890    20.3010    16.9440    21.7580   -17.5790     2.6590   239.1620 
  149.8750    52.3820    24.9070    19.7090    16.9770    21.8110   -17.5330     2.6510   239.7660 
