~V
VERS. 2.00: Ver 2.00
~W
STRT.M 61.0000:
STOP.M 276.0000:
STEP.M 0.1250:
NULL. -999.2500:
UWI. DF3051:
~C
DEPT.M :
SP.MV :
GR.API :
CALI.CM :
RXO.OHMM :
RI. :
RML.OHMM :
DEN.GM/CC :
~A
# ...
  184.7500   -37.2650    59.9910    27.3130   164.3540   135.0350   153.9600     2.2610 
  184.8750   -37.2960    59.9100    27.3190   150.4300   133.7720   150.7570     2.2680 
  185.0000   -37.3510    60.5850    27.2930   133.1930   131.5220   146.5460     2.2700 
  185.1250   -37.4340    60.8620    27.2350   124.4600   127.6880   140.7610     2.2660 
  185.2500   -37.4590    60.1570    27.1510   123.2230   121.5190   132.3620     2.2620 
  185.3750   -37.3050    59.7770    27.0530   122.8120   112.0400   120.2650     2.2620 
  185.5000   -36.9740    60.6800    26.9880   115.5910    99.3720   105.0000     2.2680 
  185.6250   -36.5680    63.7230    27.0160    96.6630    85.5570    89.5060     2.2820 
  185.7500   -36.2250    68.0420    27.1030    73.5760    73.6220    76.9900     2.2960 
  185.8750   -35.9780    71.4100    27.1900    55.9140    65.2390    68.9360     2.3040 
  186.0000   -35.7770    71.5100    27.2450    50.9780    61.1410    65.8290     2.3040 
  186.1250   -35.4690    69.1940    27.2710    63.6780    62.3600    68.6070     2.2970 
  186.2500   -35.0610    68.1430    27.2800    82.7890    68.2250    76.4310     2.2880 
  186.3750   -34.6270    67.7510    27.2770    96.2130    78.6470    89.1810     2.2810 
  186.5000   -34.2250    66.6910    27.2650   105.5710    93.0920   106.2790     2.2780 
  186.6250   -33.8930    63.8740    27.2510   127.1940   110.1120   126.1040     2.2760 
  186.7500   -33.6380    61.7310    27.2370   151.8300   126.2630   144.7030     2.2740 
  186.8750   -33.4670    62.2970    27.2260   160.5780   138.8150   158.8480     2.2760 
  187.0000   -33.3470    64.3860    27.2180   153.4780   146.2550   166.9290     2.2790 
  187.1250   -33.2530    64.4380    27.2180   145.4850   148.1330   168.8910     2.2760 
  187.2500   -33.1690    62.1170    27.2280   142.4740   147.0180   167.9100     2.2660 
  187.3750   -33.1730    60.6580    27.2480   144.1350   144.5830   165.7610     2.2580 
  187.5000   -33.3320    62.7380    27.2690   148.5680   141.5100   162.8780     2.2610 
  187.6250   -33.6980    66.4910    27.2780   150.3410   137.2320   158.3360     2.2740 
  187.7500   -34.1650    68.0420    27.2750   146.2690   131.5940   152.0130     2.2820 
  187.8750   -34.6290    68.4470    27.2680   136.5260   124.9060   144.3890     2.2820 
  188.0000   -35.0630    69.3500    27.2650   124.7500   117.8960   136.4550     2.2820 
  188.1250   -35.5750    68.5410    27.2670   116.8330   111.8660   129.8970     2.2830 
  188.2500   -36.1920    66.0710    27.2700   113.3790   107.9320   126.0200     2.2810 
  188.3750   -36.8290    64.4770    27.2720   112.0280   107.0600   125.9050     2.2720 
  188.5000   -37.4280    64.1330    27.2710   112.3490   110.0550   130.4050     2.2640 
  188.6250   -37.9490    62.9570    27.2620   119.0250   118.4340   141.1160     2.2640 
  188.7500   -38.4160    61.6390    27.2440   133.3770   131.6800   157.2660     2.2630 
  188.8750   -38.8220    60.8460    27.2210   150.8120   148.9580   177.7900     2.2520 
  189.0000   -39.1220    59.6230    27.1960   163.5400   168.0210   199.9380     2.2330 
  189.1250   -39.1510    58.6930    27.1720   168.2100   184.0770   217.4820     2.2220 
  189.2500   -39.0580    59.0440    27.1560   171.3550   192.4550   224.4370     2.2210 
  189.3750   -39.0340    59.8500    27.1490   174.2790   190.1740   217.4150     2.2250 
  189.5000   -39.1190    60.6590    27.1480   171.9610   177.5100   197.9930     2.2310 
  189.6250   -39.2260    60.6310    27.1460   156.9530   157.3920   171.4890     2.2430 
  189.7500   -39.3070    60.4100    27.1420   132.8200   135.7140   145.0320     2.2560 
  189.8750   -39.3340    60.9920    27.1380   107.5000   115.4810   121.5920     2.2630 
  190.0000   -39.3380    62.1550    27.1290    88.5550    98.2810   102.2820     2.2640 
  190.1250   -39.4210    64.6910    27.1050    77.2120    85.0970    87.7160     2.2700 
  190.2500   -39.5300    68.1120    27.0580    67.9610    75.0870    76.7430     2.2890 
  190.3750   -39.5760    70.2900    26.9910    59.9850    67.9810    69.0360     2.3020 
  190.5000   -39.6310    70.7750    26.9270    55.1490    63.6300    64.4000     2.3100 
  190.6250   -39.7930    71.8070    26.9020    55.0440    62.4100    63.2150     2.3110 
  190.7500   -40.0150    74.5260    26.9170    58.1720    63.8330    64.9030     2.3040 
  190.8750   -40.2790    74.7740    26.9500    64.3650    67.7700    69.2730     2.2890 
  191.0000   -40.5570    71.3870    26.9780    74.1760    73.8230    75.8410     2.2690 
  191.1250   -40.8230    69.3730    26.9900    86.4360    81.1270    83.6730     2.2570 
  191.2500   -41.1440    69.0110    26.9930    95.5660    88.0070    91.0710     2.2620 
  191.3750   -41.6360    68.7830    26.9850    97.9900    93.2690    96.8990     2.2760 
  191.5000   -42.1930    68.0790    26.9550    94.9770    96.4930   100.9160     2.2820 
  191.6250   -42.7220    67.7790    26.8880    91.2280    98.5400   104.3530     2.2740 
  191.7500   -43.1830    66.1310    26.7970    90.1170   101.7670   109.7060     2.2670 
  191.8750   -43.6110    62.8500    26.7110    93.3520   108.4890   119.3660     2.2690 
  192.0000   -44.0700    60.2120    26.6620   104.1700   121.1640   135.7560     2.2750 
  192.1250   -44.6530    57.7820    26.6570   130.4660   144.1580   163.3240     2.2790 
  192.2500   -45.2840    55.6500    26.6390   172.6700   178.2550   203.1670     2.2820 
  192.3750   -45.8370    55.4350    26.5650   220.0780   223.5040   256.5760     2.2900 
  192.5000   -46.2920    55.4440    26.4540   255.1100   276.5630   321.8610     2.3000 
  192.6250   -46.6490    51.8090    26.3770   275.4070   327.8720   389.8140     2.3090 
  192.7500   -46.9270    48.7370    26.3520   296.4450   365.5030   442.6910     2.3160 
  192.8750   -47.1200    49.5410    26.3340   315.0760   382.1950   467.1370     2.3170 
  193.0000   -47.1600    51.4650    26.2990   321.2060   377.6610   461.1040     2.3080 
  193.1250   -46.9560    51.6280    26.3310   312.4740   356.2380   431.5600     2.2870 
  193.2500   -46.5560    53.6530    26.4850   293.6860   329.5030   395.9770     2.2610 
  193.3750   -46.0200    57.2510    26.6920   267.4940   304.5070   364.0790     2.2360 
  193.5000   -45.5090    57.8660    26.8360   243.4480   285.6870   340.8550     2.2210 
  193.6250   -45.0470    54.7530    26.8610   234.8680   275.2960   328.0260     2.2150 
  193.7500   -44.5520    52.9570    26.8410   238.2350   270.1190   321.0460     2.2140 
  193.8750   -44.0210    53.8500    26.8160   244.3070   267.2300   316.2670     2.2170 
  194.0000   -43.5070    55.7350    26.8050   245.2290   263.8790   310.4900     2.2230 
  194.1250   -43.0910    56.6080    26.8220   235.6850   257.4670   300.8610     2.2270 
  194.2500   -42.8150    56.7010    26.8620   220.3840   247.6280   287.3370     2.2260 
  194.3750   -42.6300    55.9860    26.9120   206.5310   235.1590   271.1560     2.2190 
  194.5000   -42.3910    56.0600    26.9570   196.6770   221.9650   254.8400     2.2110 
  194.6250   -42.0680    57.5340    26.9820   184.4080   211.2320   242.4600     2.2130 
  194.7500   -41.7190    58.8500    26.9920   168.9170   205.4240   236.5930     2.2200 
  194.8750   -41.3560    57.6000    26.9940   157.6060   206.2040   238.7990     2.2210 
  195.0000   -40.9740    53.0080    26.9940   157.1230   213.2920   248.4340     2.2140 
  195.1250   -40.6850    48.8980    26.9960   167.9710   222.7680   260.3350     2.2070 
  195.2500   -40.4670    49.0300    27.0050   183.0820   227.1680   264.8700     2.2060 
  195.3750   -40.3040    52.7670    27.0230   193.5410   222.0950   257.1150     2.2130 
  195.5000   -40.1320    56.9830    27.0310   186.4910   208.8240   240.7080     2.2250 
  195.6250   -39.8650    59.9820    26.9940   162.4620   194.7770   226.2490     2.2340 
  195.7500   -39.4860    61.5820    26.9440   149.9520   188.3540   221.8310     2.2280 
  195.8750   -38.9900    59.8260    26.9440   168.9800   194.2210   231.2260     2.2130 
