~V
VERS. 2.00: Ver 2.00
~W
STRT.M 120.0000:
STOP.M 235.0000:
STEP.M 0.1250:
NULL. -999.2500:
UWI. DF3022:
~C
DEPT.M :
SP.MV :
GR.API :
CALI.CM :
RXO.OHMM :
RI. :
RML.OHMM :
DEN.GM/CC :
~A
# ...
  187.5000   -24.2090    87.9250    25.0650    11.1780     8.1600    11.5390     2.4490 
  187.6250   -23.3970    85.9090    25.0650    11.0920     7.9440    11.1670     2.4240 
  187.7500   -22.5240    83.5080    25.0620    10.7970     7.5400    10.4610     2.4060 
  187.8750   -21.6170    82.8030    25.0510    10.0430     7.0140     9.5630     2.4010 
  188.0000   -20.6940    79.5190    25.0310     8.7950     6.4930     8.7250     2.4170 
  188.1250   -19.7940    72.1740    25.0220     7.6110     6.1400     8.2300     2.4400 
  188.2500   -18.9330    67.0840    25.0230     7.0640     5.9930     8.0940     2.4540 
  188.3750   -18.1170    67.2250    25.0300     7.4590     6.0160     8.2190     2.4560 
  188.5000   -17.3310    68.1430    25.0360     8.4320     6.1090     8.4050     2.4530 
  188.6250   -16.5750    63.6510    25.0350     8.7960     6.1250     8.3710     2.4470 
  188.7500   -15.8600    56.7260    25.0280     8.0740     6.0080     8.0590     2.4350 
  188.8750   -15.2080    50.6270    25.0220     6.7870     5.7980     7.5980     2.4260 
  189.0000   -14.6400    47.9920    25.0210     5.7730     5.5880     7.1930     2.4270 
  189.1250   -14.1750    52.1490    25.0280     5.5970     5.4820     7.0220     2.4220 
  189.2500   -13.7740    57.5700    25.0380     5.7360     5.4840     7.0470     2.4030 
  189.3750   -13.4200    57.2170    25.0430     5.8520     5.5540     7.1730     2.3790 
  189.5000   -13.1450    54.6690    25.0430     5.8130     5.6330     7.2820     2.3800 
  189.6250   -12.9530    57.9320    25.0450     5.6970     5.6700     7.2820     2.4030 
  189.7500   -12.8020    63.3380    25.0470     5.6520     5.6720     7.2110     2.4300 
  189.8750   -12.6740    63.4900    25.0490     5.7110     5.6670     7.1400     2.4430 
  190.0000   -12.5580    61.5660    25.0520     5.8590     5.6790     7.1260     2.4360 
  190.1250   -12.4420    63.2320    25.0520     6.0260     5.7130     7.1750     2.4240 
  190.2500   -12.3710    66.5670    25.0490     6.1240     5.7440     7.2170     2.4170 
  190.3750   -12.3290    70.3910    25.0460     6.2230     5.7420     7.1980     2.4190 
  190.5000   -12.2990    72.7200    25.0450     6.2350     5.6880     7.0950     2.4280 
  190.6250   -12.3240    72.8490    25.0430     6.0310     5.5730     6.9280     2.4320 
  190.7500   -12.3830    73.3620    25.0440     5.8420     5.4320     6.7530     2.4250 
  190.8750   -12.4880    76.5720    25.0410     5.8050     5.3000     6.6100     2.4100 
  191.0000   -12.6340    81.3110    25.0390     5.9330     5.2130     6.5350     2.3920 
  191.1250   -12.8360    81.2840    25.0390     6.1630     5.2300     6.5990     2.3760 
  191.2500   -13.0420    79.3730    25.0420     6.3500     5.3690     6.8330     2.3700 
  191.3750   -13.2600    79.8490    25.0460     6.5370     5.6320     7.2340     2.3740 
  191.5000   -13.4880    85.8510    25.0470     6.8790     5.9780     7.7320     2.3780 
  191.6250   -13.6980    90.0940    25.0470     7.5660     6.3180     8.1790     2.3740 
  191.7500   -13.9080    85.2750    25.0450     8.4750     6.5670     8.4510     2.3680 
  191.8750   -14.1230    76.7590    25.0410     9.0370     6.7110     8.5420     2.3660 
  192.0000   -14.3650    72.4370    25.0390     8.8920     6.8110     8.5670     2.3690 
  192.1250   -14.6280    74.4680    25.0390     8.6750     6.9980     8.7240     2.3720 
  192.2500   -14.8760    76.0100    25.0400     9.3000     7.3720     9.1450     2.3760 
  192.3750   -15.1300    74.0390    25.0400    10.9850     8.0010     9.9110     2.3800 
  192.5000   -15.3790    70.1420    25.0390    12.9990     8.9240    11.0550     2.3820 
  192.6250   -15.6390    65.6030    25.0380    14.1620    10.2030    12.6240     2.3740 
  192.7500   -15.9020    63.8110    25.0390    14.9500    11.7950    14.5280     2.3530 
  192.8750   -16.1420    65.4330    25.0430    17.2840    13.7100    16.7520     2.3260 
  193.0000   -16.3550    66.9340    25.0440    20.6980    15.9430    19.2660     2.3070 
  193.1250   -16.5520    66.2050    25.0440    24.1860    18.4380    21.9750     2.2970 
  193.2500   -16.7210    66.9040    25.0450    26.7740    20.8910    24.5530     2.2940 
  193.3750   -16.8680    69.7120    25.0450    28.4110    22.9530    26.6040     2.2980 
  193.5000   -17.0340    70.2280    25.0430    28.9220    24.3490    27.8420     2.3140 
  193.6250   -17.1900    66.1440    25.0450    28.9730    24.9510    28.2200     2.3310 
  193.7500   -17.3280    62.1310    25.0430    29.2970    25.0570    28.1470     2.3370 
  193.8750   -17.4820    61.3430    25.0390    28.5580    24.8070    27.7680     2.3310 
  194.0000   -17.6290    63.6790    25.0390    26.4990    24.2820    27.1190     2.3210 
  194.1250   -17.7390    67.1170    25.0440    24.8630    23.5270    26.1960     2.3130 
  194.2500   -17.8880    67.9020    25.0460    23.6180    22.7330    25.2040     2.3060 
  194.3750   -18.0540    69.3760    25.0470    22.9610    22.1670    24.4710     2.3080 
  194.5000   -18.1850    74.0060    25.0470    23.1690    22.1770    24.4060     2.3220 
  194.6250   -18.3070    75.8960    25.0470    24.0840    23.3400    25.6420     2.3280 
  194.7500   -18.4640    68.9750    25.0470    26.8670    25.8920    28.4110     2.3090 
  194.8750   -18.6260    59.3550    25.0490    32.9940    30.1080    33.0150     2.2680 
  195.0000   -18.8030    56.0220    25.0510    44.3120    36.0160    39.5450     2.2260 
  195.1250   -19.0160    59.2290    25.0500    55.7140    43.2130    47.6470     2.2030 
  195.2500   -19.2410    62.1660    25.0520    63.3500    50.3290    55.6850     2.2080 
  195.3750   -19.4550    62.8060    25.0550    63.9530    56.4320    62.4020     2.2270 
  195.5000   -19.6800    61.6650    25.0410    60.7220    61.4390    67.6200     2.2340 
  195.6250   -19.9280    58.5510    24.9950    59.7480    66.2510    72.5390     2.2220 
  195.7500   -20.1750    56.7180    24.9210    64.8400    71.8940    78.6060     2.2020 
  195.8750   -20.4060    59.0090    24.8610    73.7310    78.5480    86.2190     2.1910 
  196.0000   -20.6020    62.5950    24.8330    82.1070    85.6030    94.7530     2.1930 
  196.1250   -20.7870    62.0420    24.8240    88.2800    91.6650   102.3730     2.1970 
  196.2500   -20.9420    59.8830    24.8350    92.7960    95.9340   107.6780     2.2030 
  196.3750   -21.1020    59.1540    24.8770    96.6810    98.4780   110.6090     2.2150 
  196.5000   -21.2740    58.1240    24.9680    99.0500   100.1090   112.2320     2.2430 
  196.6250   -21.4030    55.0590    25.0280   100.0060   102.0120   113.9750     2.2890 
  196.7500   -21.5100    53.5990    25.0520   104.1050   104.9460   116.6860     2.3390 
  196.8750   -21.6110    54.1920    25.0560   109.8330   109.0320   120.4760     2.3710 
  197.0000   -21.7390    55.3460    25.0560   114.5990   113.7680   124.7910     2.3570 
  197.1250   -21.8230    54.8110    25.0560   117.1830   117.8350   128.0860     2.3060 
  197.2500   -21.9060    53.5650    25.0540   118.6730   120.0060   129.0440     2.2460 
  197.3750   -21.9790    54.1750    25.0390   119.3940   119.6820   127.2050     2.2020 
  197.5000   -22.0130    57.0290    24.9970   119.4080   117.0350   123.0570     2.1900 
  197.6250   -22.0610    58.4510    24.9380   115.3210   112.6270   117.4360     2.1920 
  197.7500   -22.0970    57.7950    24.9130   109.9040   107.6300   111.4700     2.1980 
  197.8750   -22.1160    57.6100    24.9080   106.1520   102.7560   105.7920     2.2050 
  198.0000   -22.1120    58.4220    24.9080   102.9410    98.6430   100.9990     2.2100 
  198.1250   -22.1240    58.5370    24.9080    96.3600    96.1430    97.9510     2.2060 
  198.2500   -22.1470    58.0290    24.9080    88.1540    95.5530    96.9190     2.1950 
  198.3750   -22.1980    57.3040    24.9080    86.6620    97.2130    98.2330     2.1820 
  198.5000   -22.2800    57.1510    24.9080    96.7190   101.2050   102.0010     2.1800 
  198.6250   -22.3560    58.8530    24.9080   113.4280   107.4320   108.2380     2.1820 
