~V
VERS. 2.00: Ver 2.00
~W
STRT.M 62.0000:
STOP.M 282.0000:
STEP.M 0.1250:
NULL. -999.2500:
UWI. DF3054:
~C
DEPT.M :
DEN.GM/CC :
GR.API :
CALI.CM :
RXO.OHMM :
RI. :
RML.OHMM :
SP.MV :
~A
# ...
  118.2500     2.2930    93.1450    24.1690     7.8630     6.4490     6.8560   -13.6710 
  118.3750     2.2740    92.3090    24.4810     7.4860     6.2220     6.7110   -12.6310 
  118.5000     2.2520    92.7880    24.8480     6.8590     5.9230     6.4220   -11.5740 
  118.6250     2.2570    96.7800    25.1770     6.4480     5.6350     6.1100   -10.6180 
  118.7500     2.2710   100.9950    25.3820     6.3300     5.4480     5.9630    -9.8730 
  118.8750     2.2710   103.2860    25.4450     6.3550     5.4080     6.0740    -9.3650 
  119.0000     2.2590   103.0210    25.4320     6.5920     5.5100     6.4090    -9.0110 
  119.1250     2.2540    99.3200    25.3430     7.0830     5.7240     6.8140    -8.7540 
  119.2500     2.2610    94.0800    25.1620     7.4720     5.9730     7.1100    -8.5680 
  119.3750     2.2740    91.1010    24.9850     7.4550     6.2060     7.2360    -8.4670 
  119.5000     2.2900    93.8650    24.9740     7.2900     6.3750     7.2300    -8.4410 
  119.6250     2.3150   100.0200    25.0460     7.9730     6.4190     7.1570    -8.4460 
  119.7500     2.3470   104.9300    25.0680     8.9750     6.3340     7.0460    -8.4340 
  119.8750     2.3720   107.6430    25.0490     9.2570     6.1410     6.8690    -8.3920 
  120.0000     2.3790   107.7210    25.0420     8.3550     5.8940     6.6230    -8.3730 
  120.1250     2.3610   104.2760    25.0730     7.2920     5.6870     6.4030    -8.3950 
  120.2500     2.3290    98.3780    25.1010     6.7370     5.5950     6.3520    -8.4570 
  120.3750     2.2940    94.3910    25.0990     6.7090     5.6640     6.5620    -8.6050 
  120.5000     2.2680    94.9630    24.9950     6.9230     5.9050     7.0180    -8.9040 
  120.6250     2.2500    97.9790    24.8120     7.2600     6.2900     7.5770    -9.3970 
  120.7500     2.2340    99.2250    24.6640     7.6510     6.6870     8.0180   -10.0040 
  120.8750     2.2200    97.1700    24.5740     7.9060     6.9770     8.2110   -10.6310 
  121.0000     2.2170    92.4720    24.6040     7.8890     7.0740     8.1250   -11.1510 
  121.1250     2.2250    86.7160    24.8110     7.6960     6.9340     7.7900   -11.5310 
  121.2500     2.2340    84.3040    25.0780     7.4660     6.6520     7.3560   -11.7590 
  121.3750     2.2410    87.3370    25.3790     7.2080     6.3060     6.9300   -11.7960 
  121.5000     2.2470    91.6980    25.5240     6.8980     5.9670     6.6140   -11.6210 
  121.6250     2.2490    92.2180    25.3860     6.7170     5.7040     6.5140   -11.2720 
  121.7500     2.2410    91.6800    25.0110     6.5090     5.5480     6.6120   -10.8090 
  121.8750     2.2300    92.6220    24.7390     6.3390     5.5260     6.8680   -10.3210 
  122.0000     2.2270    93.2970    24.6880     6.3220     5.6370     7.2230    -9.9170 
  122.1250     2.2390    92.0340    24.7330     6.5630     5.8520     7.6090    -9.6530 
  122.2500     2.2570    90.7660    24.7450     7.0410     6.0690     7.9320    -9.5280 
  122.3750     2.2730    90.1210    24.6980     7.3310     6.1940     8.0950    -9.5430 
  122.5000     2.2870    90.4500    24.6630     7.1170     6.1770     8.0310    -9.6350 
  122.6250     2.3010    94.5870    24.8070     6.6880     6.0490     7.7570    -9.6720 
  122.7500     2.3110   100.8690    24.9910     6.6010     5.9500     7.4840    -9.6990 
  122.8750     2.3070   103.4550    25.0630     6.7900     5.9790     7.3840    -9.7910 
  123.0000     2.2830    99.5110    24.9730     7.0700     6.1660     7.5160    -9.9640 
  123.1250     2.2490    93.7050    24.7610     7.4140     6.4490     7.7730   -10.2150 
  123.2500     2.2220    89.5970    24.5330     7.6730     6.6520     7.9070   -10.4970 
  123.3750     2.2070    86.8710    24.3760     7.6630     6.6470     7.7840   -10.7440 
  123.5000     2.2000    85.4050    24.3280     7.3460     6.4130     7.4140   -10.9430 
  123.6250     2.2030    87.9200    24.3770     6.8840     6.0290     6.9270   -11.1040 
  123.7500     2.2160    94.2830    24.5120     6.4400     5.6560     6.4980   -11.2020 
  123.8750     2.2370    99.8450    24.7120     6.2930     5.3990     6.2200   -11.1680 
  124.0000     2.2570   100.5860    24.9300     6.5550     5.3220     6.1540   -11.0310 
  124.1250     2.2610    97.1440    25.0510     6.8160     5.4820     6.3700   -10.8460 
  124.2500     2.2460    92.8550    25.0600     7.1300     5.8250     6.8160   -10.7390 
  124.3750     2.2300    87.5190    24.9060     7.6990     6.3040     7.4400   -10.8180 
  124.5000     2.2300    80.0920    24.6510     8.4960     6.8540     8.1600   -11.1450 
  124.6250     2.2460    74.5460    24.3880     8.8510     7.3850     8.8290   -11.6980 
  124.7500     2.2570    73.5190    24.2630     8.7870     7.7940     9.2610   -12.3320 
  124.8750     2.2570    75.1320    24.2200     8.6770     7.9760     9.2870   -12.9820 
  125.0000     2.2640    77.1210    24.2300     8.5310     7.8330     8.8300   -13.5400 
  125.1250     2.2960    80.4940    24.2950     8.0220     7.2980     7.9550   -13.8350 
  125.2500     2.3290    85.5590    24.3560     7.1310     6.5610     7.0050   -13.7820 
  125.3750     2.3420    90.1540    24.3890     6.2350     5.8080     6.2130   -13.3660 
  125.5000     2.3360    93.0340    24.3360     5.6690     5.1910     5.6950   -12.6480 
  125.6250     2.3340    96.6150    24.2200     5.5610     4.8460     5.5090   -11.8020 
  125.7500     2.3330   101.3460    24.0780     5.8250     4.7700     5.5690   -10.9940 
  125.8750     2.3210   103.6800    23.9840     6.2270     4.9420     5.8410   -10.2810 
  126.0000     2.3010   101.4480    23.9460     6.6950     5.2980     6.2670    -9.7360 
  126.1250     2.2850    98.4690    23.9330     7.3640     5.7330     6.7320    -9.4450 
  126.2500     2.2710    96.6680    23.9050     7.8850     6.1040     7.0840    -9.4470 
  126.3750     2.2550    94.8800    23.9050     7.9150     6.3240     7.2300    -9.6400 
  126.5000     2.2470    94.1100    23.9800     7.6830     6.3530     7.1440    -9.9100 
  126.6250     2.2540    95.0940    24.0570     7.7510     6.1820     6.8520   -10.1520 
  126.7500     2.2570    96.0030    23.9830     7.8600     5.9280     6.5110   -10.3700 
  126.8750     2.2490    95.4710    23.8360     7.6160     5.7230     6.2750   -10.5170 
  127.0000     2.2430    94.4690    23.7720     7.1800     5.7030     6.2930   -10.5270 
  127.1250     2.2600    95.0890    23.9100     7.1510     5.9970     6.7190   -10.3750 
  127.2500     2.2970    95.2640    24.1840     8.1680     6.5500     7.4350   -10.0510 
  127.3750     2.3450    92.8330    24.5090    10.5730     7.2390     8.2080    -9.6870 
  127.5000     2.3980    86.0400    24.7580    12.5880     7.8150     8.6920    -9.3730 
  127.6250     2.4290    78.5500    24.9070    11.5210     7.8950     8.5150    -9.1720 
  127.7500     2.4200    75.6890    24.8980     9.2780     7.5000     7.8530    -9.0340 
  127.8750     2.3760    76.5790    24.7920     7.9180     6.8620     7.0470    -8.9970 
  128.0000     2.3280    77.6210    24.6780     7.2210     6.2640     6.4510    -9.0180 
  128.1250     2.3160    78.1200    24.7030     6.8110     5.9440     6.3170    -9.0380 
  128.2500     2.3410    81.1150    24.8250     7.0200     5.9080     6.5370    -9.0950 
  128.3750     2.3770    85.2710    24.9100     8.0250     6.0910     6.9650    -9.2070 
  128.5000     2.4050    86.8380    24.9010     8.7310     6.3700     7.4380    -9.3330 
  128.6250     2.4090    85.2480    24.6850     8.6100     6.6000     7.7720    -9.4340 
  128.7500     2.3920    85.5520    24.3430     8.1410     6.6860     7.8760    -9.4910 
  128.8750     2.3600    88.3220    24.0310     8.0250     6.5950     7.7120    -9.5120 
  129.0000     2.3280    90.7180    23.8500     7.9610     6.3650     7.3350    -9.5210 
  129.1250     2.3160    92.6020    23.8070     7.5300     6.1080     6.9090    -9.5680 
  129.2500     2.3230    94.6830    23.8650     6.9800     5.9520     6.6480    -9.6050 
  129.3750     2.3420    95.5130    23.9910     6.7250     5.9730     6.6800    -9.6470 
