~V
VERS. 2.00: Ver 2.00
~W
STRT.M 90.0000:
STOP.M 264.0000:
STEP.M 0.1250:
NULL. -999.2500:
UWI. DF3021:
~C
DEPT.M :
AC.US/MT :
DEN.GM/CC :
GR.API :
CALI.CM :
RXO.OHMM :
RI. :
RML.OHMM :
SP.MV :
~A
# ...
  110.0000   437.3720     2.2630    92.9760    23.8670     5.6800     4.9200     5.9210   -17.5250 
  110.1250   433.7600     2.2340    85.6940    23.7260     6.0060     5.0960     6.1330   -17.6060 
  110.2500   435.1090     2.2230    86.5090    23.6600     6.0280     5.1710     6.1780   -17.6230 
  110.3750   439.7350     2.2340    91.9410    23.7110     5.9990     5.1150     6.0300   -17.5850 
  110.5000   444.9580     2.2510    98.2540    23.8220     5.8890     4.9550     5.7520   -17.5070 
  110.6250   448.0700     2.2700   100.7610    23.8840     5.5490     4.7570     5.4570   -17.3910 
  110.7500   447.7200     2.2960   100.7960    23.9010     5.1710     4.5830     5.2290   -17.2230 
  110.8750   443.8020     2.3270   100.7820    23.9100     5.1230     4.4550     5.0840   -17.0280 
  111.0000   438.9970     2.3520    99.8000    23.9130     5.4380     4.3730     5.0110   -16.8360 
  111.1250   438.9050     2.3570    97.6840    23.9150     5.4700     4.3360     4.9910   -16.6740 
  111.2500   443.8520     2.3580    97.1480    23.8970     5.1410     4.3300     5.0000   -16.5580 
  111.3750   449.1130     2.3570    96.7970    23.9090     4.7990     4.3490     5.0310   -16.5070 
  111.5000   449.3840     2.3440    93.2460    23.9340     4.8460     4.3850     5.0710   -16.5130 
  111.6250   443.8370     2.3100    88.2150    23.9160     5.1080     4.4210     5.1000   -16.5900 
  111.7500   437.9500     2.2850    85.6200    23.9050     5.1390     4.4400     5.0950   -16.7260 
  111.8750   434.0740     2.2920    84.3970    23.8970     4.9710     4.4400     5.0580   -16.9350 
  112.0000   431.1450     2.3180    82.4570    23.8810     4.8870     4.4410     5.0280   -17.2260 
  112.1250   427.6010     2.3290    77.9560    23.8630     5.0290     4.5020     5.1110   -17.6200 
  112.2500   424.5460     2.3210    72.0630    23.8270     5.1160     4.6580     5.3670   -18.1230 
  112.3750   422.9710     2.3050    67.2730    23.7650     5.1880     4.9110     5.8000   -18.7180 
  112.5000   421.8940     2.2860    66.1240    23.5880     5.5620     5.2190     6.3310   -19.3980 
  112.6250   419.5180     2.2680    69.9980    23.1760     6.2090     5.4710     6.7480   -20.0740 
  112.7500   416.8680     2.2610    75.7800    22.6970     6.6510     5.5570     6.8440   -20.7190 
  112.8750   416.0810     2.2660    79.4900    22.3310     6.6440     5.4590     6.5760   -21.2680 
  113.0000   417.3610     2.2700    79.6590    22.1490     6.4320     5.2980     6.1680   -21.7040 
  113.1250   415.1350     2.2630    76.3200    22.1200     6.4890     5.3800     6.1880   -21.9690 
  113.2500   400.6180     2.2660    71.9340    22.1210     7.0120     6.0010     7.1420   -22.0480 
  113.3750   366.8420     2.3020    67.8140    22.1490     8.4880     7.4740     9.4710   -21.9490 
  113.5000   314.5480     2.3870    63.8420    22.2060    13.1340    10.0750    13.4740   -21.6980 
  113.6250   259.0850     2.5030    61.9670    22.2540    26.2370    13.6550    18.7420   -21.3910 
  113.7500   226.1250     2.5970    62.9150    22.3930    42.3040    16.1480    22.1700   -21.0910 
  113.8750   232.6200     2.6240    67.9670    22.6760    46.2660    15.3660    20.5220   -20.8590 
  114.0000   279.3870     2.5800    77.3230    22.9860    33.2100    11.8690    14.7770   -20.7100 
  114.1250   349.0250     2.5010    88.3380    23.2070    16.8570     8.3090     9.3590   -20.7200 
  114.2500   410.1210     2.4340    97.1770    23.3600     8.0360     5.8660     6.0090   -20.8960 
  114.3750   447.2690     2.3910    99.6280    23.5620     4.8320     4.4540     4.3790   -21.2680 
  114.5000   459.4240     2.3680    95.4160    23.6730     4.1050     3.8190     3.9210   -21.8440 
  114.6250   454.2230     2.3430    87.2290    23.6930     4.5770     3.8600     4.3710   -22.6580 
  114.7500   444.9490     2.2970    80.0120    23.3980     5.5740     4.3550     5.3560   -23.6220 
  114.8750   437.1090     2.2350    75.1710    22.8860     6.8910     5.1900     6.6620   -24.6590 
  115.0000   432.5810     2.1810    72.9040    22.4040     8.1180     6.2100     8.0180   -25.7240 
  115.1250   430.7380     2.1600    72.3640    22.1610     8.7990     7.1790     9.0840   -26.7390 
  115.2500   429.2910     2.1630    71.2930    22.1160     9.2300     7.9030     9.7420   -27.7060 
  115.3750   427.9000     2.1750    68.5810    22.1410     9.7190     8.3170    10.0150   -28.5720 
  115.5000   427.4230     2.1870    66.1180    22.1930    10.3690     8.4580    10.0290   -29.3100 
  115.6250   426.4620     2.1920    69.0810    22.2340    10.7300     8.3930     9.9170   -29.8370 
  115.7500   420.5910     2.1850    74.7250    22.2390    10.6460     8.2230     9.7680   -30.2070 
  115.8750   409.5230     2.1690    76.9180    22.2020    10.3500     7.9800     9.5840   -30.4730 
  116.0000   401.1070     2.1530    73.9040    22.0780    10.1120     7.6930     9.3640   -30.6520 
  116.1250   405.4650     2.1480    72.4270    21.8950    10.0150     7.4400     9.1770   -30.7670 
  116.2500   413.9410     2.1550    74.5350    21.8060     9.9340     7.3090     9.1510   -30.8020 
  116.3750   413.5920     2.1680    77.0510    21.8870     9.8170     7.3700     9.3950   -30.7870 
  116.5000   401.2960     2.1780    76.0330    22.1690     9.9890     7.6460     9.9480   -30.7200 
  116.6250   386.1430     2.1750    70.9360    22.3420    11.5450     8.1090    10.7440   -30.6190 
  116.7500   376.0560     2.1680    66.1710    22.5230    14.4820     8.5830    11.4960   -30.5000 
  116.8750   372.1640     2.1630    64.4110    22.7570    16.6120     8.8950    11.9240   -30.3490 
  117.0000   375.9500     2.1590    65.2610    22.8400    15.5860     8.9280    11.8530   -30.1890 
  117.1250   389.2750     2.1520    66.3840    22.6470    12.3870     8.6660    11.3040   -30.0150 
  117.2500   405.1280     2.1470    69.3710    22.4230    10.4970     8.3010    10.6370   -29.8470 
  117.3750   416.8830     2.1490    73.8790    22.3210    10.0920     7.9690    10.0910   -29.6700 
  117.5000   422.6280     2.1590    75.2640    22.3330    10.4080     7.7540     9.7840   -29.4810 
  117.6250   424.7540     2.1670    71.2440    22.3820    10.8210     7.7100     9.7420   -29.2690 
  117.7500   425.7060     2.1680    67.8510    22.3510    10.8790     7.7960     9.8500   -29.0330 
  117.8750   424.6180     2.1670    66.5000    22.2450    10.6810     7.9830    10.0430   -28.7920 
  118.0000   420.8190     2.1690    65.6300    22.1620    10.6490     8.2420    10.2870   -28.5050 
  118.1250   416.2040     2.1740    65.5150    22.2150    11.0380     8.5460    10.5640   -28.1640 
  118.2500   414.2230     2.1760    64.5390    22.3520    11.2970     8.8390    10.8240   -27.7340 
  118.3750   416.1030     2.1710    62.8170    22.4330    11.1400     9.0610    10.9980   -27.2350 
  118.5000   420.4840     2.1660    62.1370    22.3710    10.6610     9.1220    10.9780   -26.6750 
  118.6250   424.1620     2.1660    64.4600    22.1710    10.1650     8.8670    10.5620   -26.0610 
  118.7500   425.5090     2.1720    67.5360    22.0900     9.8800     8.2960     9.7440   -25.3970 
  118.8750   425.5950     2.1830    70.8650    22.1040     9.7310     7.4900     8.6260   -24.6700 
  119.0000   426.8390     2.2040    76.4620    22.1310     9.1070     6.6080     7.4240   -23.9240 
  119.1250   430.9410     2.2390    83.4560    22.2620     7.6610     5.8550     6.4390   -23.2110 
  119.2500   435.4480     2.2730    86.3130    22.7210     6.2980     5.3290     5.8110   -22.6130 
  119.3750   437.2010     2.2870    84.2540    23.4300     5.8930     5.0480     5.5590   -22.1480 
  119.5000   435.0220     2.2750    80.7630    23.9900     6.2260     4.9770     5.6060   -21.8260 
  119.6250   431.6570     2.2540    81.4020    24.1670     6.6430     5.0360     5.7950   -21.6380 
  119.7500   431.5780     2.2460    84.4570    24.1620     6.6760     5.0770     5.8910   -21.5600 
  119.8750   436.0540     2.2570    85.1220    24.1650     6.3460     5.0120     5.7720   -21.5970 
