~V
VERS. 2.00: Ver 2.00
~W
STRT.M 54.0000:
STOP.M 250.0000:
STEP.M 0.1250:
NULL. -999.2500:
UWI. DF3016:
~C
DEPT.M :
GR.API :
RML.OHMM :
RI. :
RXO.OHMM :
CALI.CM :
DEN.GM/CC :
SP.MV :
~A
# ...
  200.2500    66.4600   182.2090   172.5910   139.1240    24.3850     2.2020   -25.8150 
  200.3750    66.1720   178.3100   169.0710   135.2660    24.4140     2.2050   -25.9960 
  200.5000    68.3300   174.6950   165.8120   135.1620    24.4730     2.2070   -26.0620 
  200.6250    70.5860   171.3650   162.7750   135.7340    24.4930     2.2090   -26.0310 
  200.7500    70.9440   168.8580   160.3850   133.6740    24.4480     2.2100   -25.9340 
  200.8750    69.7750   168.1500   159.5310   129.5060    24.3960     2.2100   -25.7900 
  201.0000    68.0540   170.2620   161.2360   125.8550    24.3770     2.2100   -25.6290 
  201.1250    66.7220   176.2570   166.6990   125.9950    24.4010     2.2110   -25.4490 
  201.2500    65.8640   184.8120   174.8760   130.8720    24.4720     2.2170   -25.2900 
  201.3750    64.8710   193.9920   184.0920   137.2840    24.5740     2.2310   -25.1680 
  201.5000    64.3580   201.1630   191.9480   144.2200    24.6560     2.2510   -25.0850 
  201.6250    63.7330   202.8190   195.1620   154.7710    24.5740     2.2670   -25.0000 
  201.7500    62.9690   198.3810   192.8620   165.0300    24.4750     2.2720   -24.9270 
  201.8750    61.3170   188.0710   184.9080   167.2940    24.4510     2.2590   -24.8530 
  202.0000    58.9990   172.8480   171.8960   145.0250    24.4820     2.2390   -24.7800 
  202.1250    57.9120   153.3770   154.2120   126.2320    24.4700     2.2220   -24.7010 
  202.2500    59.3880   131.6930   133.8610   113.8910    24.4770     2.2140   -24.6180 
  202.3750    63.9560   109.5790   112.5560   104.3350    24.5220     2.2160   -24.5540 
  202.5000    68.3380    89.2710    92.4900    93.9560    24.5490     2.2250   -24.5120 
  202.6250    67.7580    73.8380    76.7150    79.5530    24.5300     2.2390   -24.5190 
  202.7500    65.5200    64.1290    66.3150    64.7710    24.4780     2.2590   -24.5270 
  202.8750    64.3470    60.7240    61.9990    52.2120    24.4180     2.2790   -24.5120 
  203.0000    64.8230    63.6500    63.9230    47.8840    24.3860     2.2910   -24.4510 
  203.1250    64.8960    73.0080    72.3830    53.9590    24.4010     2.2900   -24.3770 
  203.2500    64.5450    85.8130    84.5820    68.8530    24.4630     2.2750   -24.3040 
  203.3750    64.2600    99.0410    97.6140    92.4640    24.5510     2.2520   -24.2130 
  203.5000    64.1790   109.1530   107.9360   117.8990    24.6310     2.2300   -24.1030 
  203.6250    65.0690   112.2330   111.5070   122.7450    24.6660     2.2150   -23.9760 
  203.7500    65.4570   109.3660   109.0580   114.8930    24.6350     2.2090   -23.8680 
  203.8750    65.3850   103.3750   103.1010   105.6540    24.5590     2.2120   -23.7910 
  204.0000    65.7340    97.8330    97.0310    96.8390    24.4770     2.2210   -23.7550 
  204.1250    64.7690    95.8780    94.0210    85.9630    24.4530     2.2290   -23.7610 
  204.2500    62.7000    97.4230    94.3520    80.8820    24.5190     2.2330   -23.7700 
  204.3750    61.4310   101.2560    97.1010    86.6180    24.5640     2.2310   -23.8200 
  204.5000    63.8060   105.3300   100.4750    96.6730    24.5880     2.2250   -23.9070 
  204.6250    68.2160   106.8600   101.9460   103.0270    24.6230     2.2190   -23.9840 
  204.7500    70.2080   104.8740   100.3910   102.3370    24.6390     2.2160   -24.0630 
  204.8750    69.1600    99.8280    96.0040    98.4650    24.6370     2.2150   -24.1330 
  205.0000    69.0600    93.3850    90.1150    91.4480    24.6120     2.2160   -24.2190 
  205.1250    72.7620    87.7830    84.6840    79.6170    24.5330     2.2150   -24.2680 
  205.2500    74.2020    84.0910    80.8640    68.1370    24.4090     2.2130   -24.3350 
  205.3750    70.9920    82.3060    78.8090    67.1920    24.2660     2.2110   -24.3880 
  205.5000    66.6330    81.8390    78.0870    73.9630    24.1850     2.2130   -24.4260 
  205.6250    65.1170    81.9510    78.0770    75.7940    24.2290     2.2220   -24.4580 
  205.7500    65.2740    82.0680    78.1750    74.6650    24.2890     2.2330   -24.4570 
  205.8750    64.8550    82.3160    78.4030    73.8360    24.2540     2.2390   -24.4510 
  206.0000    63.4540    83.3510    79.2700    73.4420    24.0810     2.2340   -24.4140 
  206.1250    62.7660    86.4250    81.8800    71.4460    23.8480     2.2170   -24.3930 
  206.2500    64.4770    91.6030    86.3980    72.2070    23.6510     2.1870   -24.3410 
  206.3750    66.3100    98.0770    92.2310    76.4190    23.4850     2.1510   -24.2750 
  206.5000    64.5820   103.9990    97.8250    77.8810    23.3650     2.1240   -24.1940 
  206.6250    61.8300   106.1970   100.3820    79.1290    23.3300     2.1270   -24.1300 
  206.7500    62.1140   103.4800    98.6210    84.9620    23.3590     2.1740   -24.0910 
  206.8750    63.8650    96.3140    92.7000    96.7190    23.4440     2.2640   -24.0740 
  207.0000    66.0220    87.0100    84.4510   109.9690    23.5880     2.3520   -24.0840 
  207.1250    67.4560    79.1220    76.9570   109.5240    23.6560     2.3980   -24.1290 
  207.2500    67.7430    74.6850    72.3630    83.2080    23.6890     2.3840   -24.1910 
  207.3750    68.2330    74.1300    71.3370    68.3580    23.7200     2.3300   -24.2580 
  207.5000    71.1530    76.8530    73.5340    71.1260    23.7580     2.2790   -24.3410 
  207.6250    73.2450    81.8180    78.1170    82.3110    23.8240     2.2460   -24.4030 
  207.7500    70.5800    87.2070    83.2800    91.3300    23.9390     2.2310   -24.4810 
  207.8750    67.1280    91.9200    87.8470    92.8500    24.1040     2.2240   -24.5410 
  208.0000    66.0310    95.2260    90.9820    89.0760    24.2330     2.2180   -24.5910 
  208.1250    65.5060    96.4770    91.9750    86.9840    24.2670     2.2120   -24.5740 
  208.2500    65.3380    95.9520    91.1600    88.6880    24.2850     2.2060   -24.5570 
  208.3750    67.5440    93.8530    88.8040    91.5370    24.3640     2.2030   -24.5310 
  208.5000    69.5960    90.6480    85.3790    91.1680    24.4520     2.2020   -24.4870 
  208.6250    68.3890    87.3210    81.7530    86.6310    24.4690     2.2050   -24.4220 
  208.7500    67.1120    85.1890    79.0990    80.1210    24.4250     2.2170   -24.2740 
  208.8750    67.0820    85.1560    78.2510    76.1080    24.3930     2.2500   -24.0750 
  209.0000    65.6240    87.4520    79.5100    74.5570    24.4030     2.3080   -23.8220 
  209.1250    61.2750    91.5830    82.6340    79.1630    24.4280     2.3810   -23.5780 
  209.2500    58.4670    95.7630    86.1640    88.8430    24.3530     2.4430   -23.2670 
  209.3750    58.9090    98.4790    88.8160   108.3840    24.1900     2.4510   -22.9000 
  209.5000    61.0750    98.6390    89.5470   127.4110    24.0390     2.4050   -22.4360 
  209.6250    63.8260    95.6580    87.6070    99.9210    24.0070     2.3300   -21.9050 
  209.7500    66.4390    90.8770    83.9000    82.6390    24.0480     2.2600   -21.3810 
  209.8750    67.8350    85.4350    79.3150    74.0540    24.1950     2.2230   -20.8600 
  210.0000    66.1360    80.3170    74.7470    70.1100    24.3800     2.2170   -20.3860 
  210.1250    64.0360    76.4280    71.0730    66.0750    24.4590     2.2310   -20.0160 
  210.2500    65.9650    73.9750    68.5850    66.2930    24.4470     2.2530   -19.7750 
  210.3750    70.2200    73.0670    67.4170    66.1270    24.3820     2.2770   -19.7040 
  210.5000    73.0600    73.5770    67.5020    65.1260    24.3240     2.3020   -19.8490 
  210.6250    72.8930    75.0710    68.5400    64.5770    24.3050     2.3220   -20.2190 
  210.7500    72.2700    76.5400    69.6700    64.9830    24.3200     2.3270   -20.7310 
  210.8750    71.9570    77.3670    70.3210    70.4650    24.3690     2.3060   -21.3470 
  211.0000    71.6680    77.4620    70.3320    76.6620    24.4270     2.2630   -22.0210 
  211.1250    70.3500    77.5910    70.2480    80.7020    24.4250     2.2130   -22.5860 
  211.2500    67.7190    79.1230    71.2370    78.3620    24.3850     2.1770   -23.0930 
  211.3750    66.3520    83.3470    74.4810    69.8130    24.3130     2.1880   -23.4890 
