~V
VERS. 2.00: Ver 2.00
~W
STRT.M 120.0000:
STOP.M 268.0000:
STEP.M 0.1250:
NULL. -999.2500:
UWI. DF3028:
~C
DEPT.M :
DEN.GM/CC :
GR.API :
CALI.CM :
RXO.OHMM :
RI. :
RML.OHMM :
SP.MV :
~A
# ...
  198.7500     2.4030    95.7590    27.5620     8.3320     6.7020    10.2640   -26.8540 
  198.8750     2.4020    95.0800    27.4860     9.5960     6.9510    10.8860   -27.2380 
  199.0000     2.4030    92.3970    27.3120    11.2040     7.4330    11.8540   -27.8920 
  199.1250     2.4110    84.8750    27.0660    12.7880     8.1700    13.1550   -28.8160 
  199.2500     2.4320    77.1540    26.8740    14.9300     9.0930    14.6560   -29.8540 
  199.3750     2.4660    75.8460    26.7950    18.0080    10.1680    16.2870   -30.9170 
  199.5000     2.4950    79.5100    26.7940    21.4150    11.3790    18.0400   -31.8880 
  199.6250     2.5060    80.9380    26.8150    23.9210    12.7690    20.0510   -32.5910 
  199.7500     2.5070    79.3330    26.8150    25.5380    14.3420    22.3930   -32.9810 
  199.8750     2.5100    78.2760    26.7920    27.1050    16.0270    24.9220   -33.0100 
  200.0000     2.5160    78.4710    26.8310    29.1710    17.5010    26.9980   -32.6100 
  200.1250     2.5250    77.6430    27.0380    30.8940    17.8610    26.9470   -31.6750 
  200.2500     2.5340    77.4270    27.3050    31.1250    16.6190    24.1160   -30.3360 
  200.3750     2.5410    79.1330    27.4850    28.2590    13.9970    19.2540   -28.6680 
  200.5000     2.5380    79.8650    27.4750    21.4470    10.8900    14.0960   -26.7860 
  200.6250     2.5200    76.4440    27.2310    13.0360     8.2860    10.2270   -24.8320 
  200.7500     2.4930    73.8110    26.8950     7.2770     6.4590     7.7740   -22.9380 
  200.8750     2.4630    76.9250    26.6230     4.7990     5.3570     6.4960   -21.2080 
  201.0000     2.4390    84.5940    26.5200     4.2960     4.8280     6.0610   -19.7270 
  201.1250     2.4300    89.7840    26.5700     4.5370     4.7530     6.1990   -18.6030 
  201.2500     2.4250    90.8830    26.6970     4.8810     4.8930     6.5160   -17.7970 
  201.3750     2.4130    91.0690    26.8850     5.1930     5.1180     6.8100   -17.2670 
  201.5000     2.3950    92.7550    27.0710     5.3770     5.3360     6.9850   -16.9600 
  201.6250     2.3870    93.8980    27.1680     5.4390     5.4980     7.0340   -16.8370 
  201.7500     2.3950    93.5120    27.1850     5.5010     5.6110     7.0310   -16.8130 
  201.8750     2.4120    91.4500    27.1780     5.6120     5.6830     7.0090   -16.8470 
  202.0000     2.4280    89.4840    27.1750     5.7400     5.7210     6.9840   -16.9310 
  202.1250     2.4390    90.0550    27.2080     5.7980     5.7190     6.9530   -17.0380 
  202.2500     2.4470    91.4760    27.2880     5.7850     5.6760     6.9030   -17.1480 
  202.3750     2.4450    93.0720    27.3800     5.7180     5.5920     6.8240   -17.2520 
  202.5000     2.4300    94.1490    27.4340     5.5690     5.4780     6.7230   -17.3450 
  202.6250     2.4120    95.8900    27.4490     5.3830     5.3540     6.6210   -17.3960 
  202.7500     2.4100    98.1670    27.4860     5.3430     5.2450     6.5530   -17.4110 
  202.8750     2.4210   100.0760    27.5360     5.5140     5.1790     6.5560   -17.4070 
  203.0000     2.4290   100.4000    27.5860     5.7800     5.1830     6.6670   -17.3870 
  203.1250     2.4230    98.9710    27.6880     6.0290     5.2930     6.9310   -17.3870 
  203.2500     2.4150    95.2750    27.8440     6.3800     5.5010     7.3310   -17.4240 
  203.3750     2.4060    90.0040    27.9800     7.0280     5.8150     7.8800   -17.5140 
  203.5000     2.3890    85.4900    28.0340     7.9070     6.2560     8.6220   -17.6650 
  203.6250     2.3570    83.5390    28.0310     8.6470     6.9120     9.7170   -17.8970 
  203.7500     2.3220    82.9900    28.0310     9.3640     7.8530    11.2760   -18.1990 
  203.8750     2.2980    82.9740    28.0400    10.8520     9.1760    13.4410   -18.5520 
  204.0000     2.2870    83.6400    28.0590    13.9330    10.9500    16.2700   -18.9370 
  204.1250     2.2890    83.7600    28.0850    18.5320    13.2090    19.6900   -19.3400 
  204.2500     2.2980    82.3090    28.0940    22.5460    15.6490    23.1400   -19.7510 
  204.3750     2.3070    81.1300    28.0760    24.3410    17.8730    25.9640   -20.1490 
  204.5000     2.3110    80.6560    28.0460    24.1590    19.4530    27.6010   -20.5220 
  204.6250     2.3010    80.1810    28.0290    23.9000    20.0800    27.8410   -20.8890 
  204.7500     2.2860    80.4740    28.0340    24.0620    20.1340    27.4580   -21.2450 
  204.8750     2.2770    82.1410    28.0480    23.5330    19.9460    26.9770   -21.5860 
  205.0000     2.2780    83.5060    28.0550    22.3690    19.7900    26.7460   -21.9390 
  205.1250     2.2850    80.4310    28.0590    23.2370    19.9800    27.1840   -22.3260 
  205.2500     2.2920    76.6000    28.0550    26.4940    20.7430    28.5360   -22.7290 
  205.3750     2.2960    76.8770    28.0450    29.4550    22.3290    31.1150   -23.1550 
  205.5000     2.2910    78.8150    28.0390    31.2690    25.0210    35.2590   -23.6130 
  205.6250     2.2670    74.4460    28.0390    38.2300    29.4100    41.6220   -24.0950 
  205.7500     2.2350    68.0860    28.0320    52.7350    35.4000    49.9340   -24.5890 
  205.8750     2.2130    66.3930    27.9970    64.8690    42.6980    59.7400   -25.0930 
  206.0000     2.2030    68.0130    27.9400    65.2150    50.6250    70.1300   -25.5820 
  206.1250     2.2000    67.5250    27.8870    58.9740    58.1730    79.7100   -26.0480 
  206.2500     2.1970    66.3300    27.8580    57.2330    64.7370    87.7770   -26.4970 
  206.3750     2.1870    66.5660    27.8510    59.0000    70.3620    94.6230   -26.9400 
  206.5000     2.1630    66.1810    27.8520    61.9230    75.5050   101.0990   -27.3750 
  206.6250     2.1360    63.0180    27.8690    66.0020    80.3070   107.3840   -27.7760 
  206.7500     2.1410    61.3840    27.8590    69.7830    84.3150   112.5210   -28.1540 
  206.8750     2.1920    63.1120    27.7620    71.0080    86.9650   115.5190   -28.5320 
  207.0000     2.2670    66.5780    27.5990    69.1820    87.9670   115.9260   -28.9210 
  207.1250     2.3160    70.2200    27.4740    66.2200    87.1150   113.6070   -29.2910 
  207.2500     2.3140    73.0130    27.4550    64.3960    85.1240   109.8880   -29.6420 
  207.3750     2.2740    72.8070    27.5150    64.3010    82.7320   105.9710   -29.9740 
  207.5000     2.2320    68.8830    27.5930    65.0340    80.7990   103.0030   -30.2740 
  207.6250     2.2220    64.9160    27.6460    64.7690    80.2650   102.0680   -30.5370 
  207.7500     2.2340    64.0630    27.6860    64.2190    81.2100   103.0390   -30.7720 
  207.8750     2.2480    65.1170    27.7170    65.7170    83.4640   105.5760   -30.9680 
  208.0000     2.2490    67.4130    27.7070    69.4280    86.5030   108.9100   -31.1200 
  208.1250     2.2390    69.1540    27.6420    71.3000    89.3030   111.5610   -31.2130 
  208.2500     2.2250    67.7760    27.5900    70.1020    90.8090   112.2280   -31.2540 
  208.3750     2.2150    64.0410    27.5910    68.5820    90.4590   110.4200   -31.2510 
  208.5000     2.2160    61.9250    27.6290    68.5840    88.4020   106.7180   -31.2220 
  208.6250     2.2230    64.1220    27.6520    68.3000    85.5520   102.7040   -31.1750 
  208.7500     2.2270    66.6580    27.6170    66.3460    83.4230   100.1520   -31.1430 
  208.8750     2.2230    69.1660    27.5370    63.6780    83.0520   100.1070   -31.1460 
  209.0000     2.2160    71.4590    27.4730    61.9120    85.0310   103.0850   -31.1840 
  209.1250     2.2110    69.9650    27.4760    62.4280    89.8920   109.6170   -31.2880 
  209.2500     2.2110    64.7540    27.5040    64.6760    96.8080   118.6260   -31.4230 
  209.3750     2.2170    60.2130    27.5210    67.0850   104.9470   128.9950   -31.5510 
  209.5000     2.2240    59.7490    27.5220    68.0290   113.2430   139.2720   -31.6880 
  209.6250     2.2260    62.4820    27.5210    68.1400   120.7090   148.1420   -31.8550 
  209.7500     2.2200    64.4830    27.5210    69.8080   127.4710   155.9720   -32.0250 
  209.8750     2.2090    65.1570    27.5210    72.8920   134.0780   163.5950   -32.1820 
