~V
VERS. 2.00: Ver 2.00
~W
STRT.M 60.0000:
STOP.M 251.0000:
STEP.M 0.1250:
NULL. -999.2500:
UWI. DF3020:
~C
DEPT.M :
GR.API :
RML.OHMM :
RI. :
RXO.OHMM :
CALI.CM :
DEN.GM/CC :
SP.MV :
~A
# ...
   82.5000    69.3340     9.9640     7.8880     8.6910    22.5900  -999.2500   -45.2240 
   82.6250    74.8730    10.0460     7.8660     8.7810    22.5290  -999.2500   -45.0310 
   82.7500    81.9750    10.2420     7.9340     8.8580    22.3860  -999.2500   -44.8160 
   82.8750    84.6120    10.5230     8.0810     8.8330    22.3300  -999.2500   -44.5640 
   83.0000    80.4700    10.8380     8.2800     8.8190    22.2600  -999.2500   -44.2850 
   83.1250    77.3040    11.1110     8.4850     8.8860    22.1670  -999.2500   -43.9950 
   83.2500    77.8860    11.2900     8.6460     9.0550    22.0750  -999.2500   -43.7230 
   83.3750    79.3520    11.3520     8.7300     9.2380    22.0240  -999.2500   -43.4880 
   83.5000    80.7160    11.2970     8.7240     9.3270    22.0030  -999.2500   -43.3080 
   83.6250    81.8430    11.1330     8.6240     9.3280    22.0000  -999.2500   -43.2130 
   83.7500    80.3260    10.9110     8.4720     9.3320    22.0000  -999.2500   -43.1400 
   83.8750    77.2930    10.6710     8.3020     9.3000    22.0000  -999.2500   -43.0990 
   84.0000    75.6990    10.4600     8.1520     9.2110    22.0000  -999.2500   -43.0820 
   84.1250    76.5720    10.3410     8.0640     9.1000    22.0000  -999.2500   -43.0520 
   84.2500    77.6550    10.3290     8.0480     9.0430    22.0030  -999.2500   -43.0580 
   84.3750    78.7970    10.4120     8.1010     9.0250    22.0230  -999.2500   -43.0680 
   84.5000    79.0630    10.5440     8.1970     9.0910    22.1370  -999.2500   -43.0760 
   84.6250    76.8180    10.6560     8.2890     9.3030    22.2760  -999.2500   -43.0550 
   84.7500    72.9890    10.7060     8.3440     9.4870    22.3910  -999.2500   -43.0240 
   84.8750    68.9610    10.6980     8.3540     9.5630    22.4670  -999.2500   -42.9940 
   85.0000    68.4310    10.6670     8.3360     9.5620    22.5330  -999.2500   -42.9110 
   85.1250    72.6900    10.6580     8.3150     9.4880    22.5890  -999.2500   -42.8900 
   85.2500    74.5760    10.6770     8.3020     9.4480    22.5980  -999.2500   -42.8320 
   85.3750    71.3880    10.6960     8.2880     9.4190    22.6000  -999.2500   -42.7740 
   85.5000    68.4580    10.6720     8.2540     9.3780    22.6000  -999.2500   -42.7100 
   85.6250    69.8900    10.5560     8.1760     9.2350    22.5980  -999.2500   -42.6230 
   85.7500    72.3600    10.3620     8.0640     9.0010    22.5870  -999.2500   -42.5150 
   85.8750    73.7980    10.1240     7.9300     8.7950    22.5750  -999.2500   -42.3740 
   86.0000    73.8720     9.8840     7.7930     8.7050    22.5930  -999.2500   -42.2090 
   86.1250    72.5710     9.6930     7.6750     8.7310    22.6110  -999.2500   -41.9290 
   86.2500    71.9290     9.5800     7.5870     8.7970    22.6540  -999.2500   -41.5960 
   86.3750    73.6950     9.5600     7.5370     8.8470    22.7520  -999.2500   -41.2080 
   86.5000    75.5850     9.6230     7.5240     8.8630    22.9050  -999.2500   -40.7810 
   86.6250    75.8400     9.6990     7.5160     8.8760    23.0810  -999.2500   -40.2560 
   86.7500    75.8410     9.6640     7.4480     8.8600    23.2560  -999.2500   -39.6700 
   86.8750    75.6550     9.4110     7.2610     8.8780    23.3710  -999.2500   -39.0110 
   87.0000    77.8390     8.9110     6.9300     8.9030    23.4160  -999.2500   -38.3340 
   87.1250    86.5700     8.2680     6.5050     8.6520    23.4500  -999.2500   -37.6500 
   87.2500    97.6440     7.7370     6.1380     7.9100    23.5500  -999.2500   -37.0400 
   87.3750   103.0210     7.5100     5.9600     6.8910    23.7450  -999.2500   -36.4840 
   87.5000    99.8680     7.6720     6.0470     6.1690    23.9040  -999.2500   -36.0390 
   87.6250    93.0300     8.1970     6.4120     6.5740    23.6150  -999.2500   -35.6650 
   87.7500    85.7700     8.8020     6.8750     7.5050    23.0900  -999.2500   -35.3220 
   87.8750    80.2380     9.2290     7.2500     8.1380    22.7760  -999.2500   -34.9280 
   88.0000    79.7870     9.2810     7.3660     8.0840    22.7210  -999.2500   -34.4270 
   88.1250    85.0530     8.8540     7.0930     7.5340    22.8230  -999.2500   -33.7910 
   88.2500    93.9390     8.1790     6.5730     6.9080    23.0260  -999.2500   -32.9530 
   88.3750   106.2940     7.4570     5.9590     6.1410    23.4020  -999.2500   -32.0060 
   88.5000   117.2720     6.8240     5.3830     5.1970    24.0450  -999.2500   -30.9540 
   88.6250   118.4890     6.3520     4.9370     4.9010    24.7260  -999.2500   -29.9760 
   88.7500   113.5200     6.0340     4.6340     4.9930    25.0250  -999.2500   -29.0690 
   88.8750   110.8810     5.9290     4.5150     5.2260    25.0920  -999.2500   -28.3570 
   89.0000   112.0600     6.1460     4.6490     5.4730    25.0940  -999.2500   -27.8970 
   89.1250   111.2720     6.8680     5.1750     5.7560    25.0840  -999.2500   -27.7990 
   89.2500   107.3320     8.0140     6.0570     6.3330    25.0440  -999.2500   -28.0060 
   89.3750   101.3930     9.4160     7.2020     7.6500    24.9470  -999.2500   -28.4660 
   89.5000    95.5230    10.7700     8.4010     9.9230    24.7300  -999.2500   -29.1110 
   89.6250    89.3020    11.6040     9.2800    13.2670    24.4180  -999.2500   -29.8310 
   89.7500    84.6120    11.7400     9.6180    13.6250    24.0520  -999.2500   -30.6070 
   89.8750    84.7580    11.2260     9.3780    11.2300    23.8040  -999.2500   -31.3270 
   90.0000    88.8370    10.3270     8.7230     9.5140    23.7310  -999.2500   -31.9800 
   90.1250    91.4460     9.3920     7.9270     8.8620    23.7750  -999.2500   -32.4250 
   90.2500    92.9720     8.6560     7.2310     8.3620    23.8340  -999.2500   -32.7580 
   90.3750    95.6000     8.1780     6.7150     7.5070    23.8470  -999.2500   -32.9630 
   90.5000    96.6530     7.9400     6.3900     6.4980    23.8030  -999.2500   -33.1210 
   90.6250    92.8560     7.9160     6.2590     6.2750    23.6590  -999.2500   -33.1990 
   90.7500    89.0720     8.0220     6.2690     6.7330    23.4830  -999.2500   -33.3010 
   90.8750    89.3630     8.2240     6.3960     7.1480    23.3390  -999.2500   -33.4680 
   91.0000    91.6100     8.5150     6.6320     7.3490    23.2760  -999.2500   -33.7250 
   91.1250    90.4180     8.9710     7.0210     7.7530    23.2670  -999.2500   -34.0980 
   91.2500    86.7900     9.6760     7.6100     8.4560    23.2690  -999.2500   -34.5040 
   91.3750    85.5130    10.7120     8.4640     9.3630    23.2880  -999.2500   -34.9420 
   91.5000    90.0580    12.0530     9.5810    10.4550    23.3620  -999.2500   -35.3370 
   91.6250    93.7730    13.4690    10.8130    12.2200    23.5310  -999.2500   -35.7610 
   91.7500    90.0990    14.5560    11.8460    15.1430    23.7260  -999.2500   -36.1670 
   91.8750    82.4540    15.0050    12.4140    19.4930    23.8700  -999.2500   -36.6050 
   92.0000    75.6420    14.7250    12.3940    24.0470    23.9000  -999.2500   -37.0400 
   92.1250    71.1840    13.8900    11.8410    21.9690    23.8080  -999.2500   -37.5340 
   92.2500    69.0450    12.9900    11.1220    15.6220    23.6630  -999.2500   -38.0130 
   92.3750    69.2520    12.2740    10.4540    11.5180    23.5830  -999.2500   -38.5110 
   92.5000    71.6860    11.8100     9.9410    10.4630    23.5620  -999.2500   -39.0050 
   92.6250    75.5880    11.5720     9.6110    10.5580    23.5600  -999.2500   -39.4980 
   92.7500    78.6950    11.4460     9.4010    10.5760    23.5640  -999.2500   -39.9450 
   92.8750    78.1520    11.3980     9.2850    10.4840    23.5800  -999.2500   -40.3190 
   93.0000    76.0220    11.4260     9.2540    10.4310    23.6200  -999.2500   -40.6770 
   93.1250    77.1730    11.5250     9.3050    10.4000    23.6990  -999.2500   -40.9540 
   93.2500    78.7330    11.6310     9.3920    10.3440    23.7610  -999.2500   -41.2570 
   93.3750    77.6460    11.6680     9.4520    10.2930    23.7860  -999.2500   -41.5380 
   93.5000    74.7420    11.5770     9.4260    10.2120    23.7900  -999.2500   -41.8370 
   93.6250    74.7020    11.3280     9.2640    10.1420    23.7930  -999.2500   -42.0950 
