~V
VERS. 2.00: Ver 2.00
~W
STRT.M 135.0000:
STOP.M 270.0000:
STEP.M 0.1250:
NULL. -999.2500:
UWI. DF3063:
~C
DEPT.M :
SP.MV :
GR.API :
CALI.CM :
RXO.OHMM :
RI. :
RML.OHMM :
DEN.GM/CC :
~A
# ...
  191.2500   -31.1890    61.3140    25.1810   165.5550    92.3160   104.2760     2.2620 
  191.3750   -31.1800    63.2760    25.0550   147.6790    71.9300    80.5380     2.2980 
  191.5000   -31.1340    65.5860    24.9790   103.0160    54.6350    61.0300     2.3380 
  191.6250   -31.0200    67.6740    24.8830    62.3530    42.9850    48.1330     2.3640 
  191.7500   -30.9210    68.4560    24.6600    33.8340    35.9800    40.7960     2.3730 
  191.8750   -30.9540    68.3170    24.1030    20.2960    32.9700    38.3040     2.3700 
  192.0000   -31.0700    69.5440    23.7930    22.8720    33.4630    40.0560     2.3570 
  192.1250   -31.1540    71.8540    23.7520    35.4740    37.5360    45.8120     2.3320 
  192.2500   -31.1590    73.2500    23.7580    47.7220    44.0340    53.8260     2.3060 
  192.3750   -31.2780    72.2580    23.7460    58.0820    52.4010    63.2010     2.2860 
  192.5000   -31.5670    69.4300    23.5640    65.2680    61.6700    72.6810     2.2770 
  192.6250   -31.8570    67.4500    23.7750    68.4720    69.7990    80.3250     2.2830 
  192.7500   -32.0310    67.3820    24.0320    75.6760    75.0700    84.8890     2.2940 
  192.8750   -32.1490    68.3020    24.6240    85.9510    77.2680    86.2590     2.2970 
  193.0000   -32.3450    68.2350    25.0140    90.7990    76.9750    85.2580     2.2860 
  193.1250   -32.6200    66.5030    25.1410    86.7500    74.6230    82.6190     2.2700 
  193.2500   -32.8610    64.5860    25.2720    79.9250    71.3000    79.2970     2.2650 
  193.3750   -32.9400    63.1510    25.2590    73.0680    67.6660    75.8810     2.2750 
  193.5000   -32.9490    63.1810    25.0410    65.3180    64.1760    72.7020     2.2930 
  193.6250   -33.0540    64.8950    24.9940    63.2970    61.2400    70.0740     2.3060 
  193.7500   -33.3000    67.2020    25.0260    63.3580    58.9940    68.0600     2.3140 
  193.8750   -33.5300    69.1640    25.0670    60.9000    57.5070    66.8700     2.3240 
  194.0000   -33.6290    70.6460    25.2610    57.5280    56.7010    66.3910     2.3340 
  194.1250   -33.6600    69.9030    25.2900    56.5810    56.6460    66.5370     2.3320 
  194.2500   -33.7880    68.4670    25.2650    59.4700    57.1480    67.2440     2.3130 
  194.3750   -34.0750    69.6770    25.0670    61.3960    58.1210    68.4890     2.2970 
  194.5000   -34.3890    72.8430    24.8030    62.5000    59.5200    70.2210     2.3000 
  194.6250   -34.5930    72.6060    24.9170    64.6830    61.4790    72.7370     2.3190 
  194.7500   -34.6850    68.7370    24.9310    67.1550    64.1450    76.2560     2.3300 
  194.8750   -34.8160    64.9010    24.9400    67.6410    67.7570    81.0150     2.3310 
  195.0000   -35.0990    62.2900    24.9490    69.2000    72.6440    87.2940     2.3260 
  195.1250   -35.4880    62.3410    25.0260    74.6130    79.4680    95.8250     2.3170 
  195.2500   -35.8440    63.2120    25.1520    81.7980    88.0110   106.1660     2.3000 
  195.3750   -36.0510    61.4930    25.2480    91.7500    97.8260   117.7190     2.2750 
  195.5000   -36.1820    56.7620    25.1600   110.2820   108.1440   129.4810     2.2480 
  195.6250   -36.4050    54.8710    25.0830   134.4120   117.5500   139.5710     2.2360 
  195.7500   -36.7520    56.7180    25.0260   145.1560   124.4870   146.1980     2.2440 
  195.8750   -37.0510    58.2970    24.7500   138.9100   128.0400   148.5560     2.2610 
  196.0000   -37.1760    57.1780    24.3500   122.4670   127.9200   146.6700     2.2730 
  196.1250   -37.1960    55.2790    23.8710   105.4430   124.3910   141.0700     2.2760 
  196.2500   -37.2410    57.0490    23.8160    88.4190   119.2640   133.9540     2.2800 
  196.3750   -37.4010    62.0600    23.9370    76.1370   113.8480   126.8320     2.2800 
  196.5000   -37.6030    65.2530    23.8940    70.5490   108.9230   120.4950     2.2720 
  196.6250   -37.6920    63.5960    23.9140    72.1860   105.2610   115.7660     2.2570 
  196.7500   -37.6190    61.3380    23.9040    70.5920   103.0550   112.8410     2.2470 
  196.8750   -37.5300    61.9360    23.8210    66.3930   102.4080   111.6690     2.2450 
  197.0000   -37.5550    62.2360    23.7280    60.2250   103.4880   112.2180     2.2450 
  197.1250   -37.6250    59.2180    23.7150    59.6390   106.3700   114.4130     2.2440 
  197.2500   -37.5820    57.6730    23.8880    68.2820   109.5050   116.6120     2.2400 
  197.3750   -37.3550    59.4810    24.5520    87.4710   111.3450   117.1930     2.2350 
  197.5000   -37.1030    63.4330    25.2130   107.2690   110.2420   114.4710     2.2330 
  197.6250   -36.9610    64.5040    25.3140   120.3750   103.9890   106.4790     2.2400 
  197.7500   -36.8930    62.6020    25.2900   114.0950    93.6840    94.8450     2.2510 
  197.8750   -36.7780    62.7370    25.0770    96.5010    81.7770    82.3230     2.2640 
  198.0000   -36.5180    67.6760    24.6440    73.3450    70.7420    71.5250     2.2820 
  198.1250   -36.1610    73.3720    24.0530    54.0530    63.2490    65.3150     2.3000 
  198.2500   -35.8860    74.8720    23.7890    42.0670    60.8750    64.7660     2.3080 
  198.3750   -35.7690    72.0440    23.5850    34.8100    65.3060    70.8410     2.2970 
  198.5000   -35.6910    66.1360    23.5440    37.3070    77.3120    84.0790     2.2730 
  198.6250   -35.5360    59.7850    23.8220    75.3680    98.6640   107.0610     2.2470 
  198.7500   -35.2820    56.9520    24.0260   145.3770   128.2300   139.4570     2.2280 
  198.8750   -35.0430    58.2950    24.0690   199.4460   164.0430   180.4170     2.2240 
  199.0000   -34.9800    58.2090    23.9870   190.9380   201.3790   225.4980     2.2430 
  199.1250   -35.0190    52.2730    24.3000   166.7250   232.1450   263.6660     2.2890 
  199.2500   -34.9710    46.7820    24.8180   191.5360   251.0990   284.8670     2.3500 
  199.3750   -34.7870    46.2960    25.1400   235.2190   256.2390   286.9760     2.4070 
  199.5000   -34.5840    50.3750    25.0510   256.3240   251.0330   278.0250     2.4350 
  199.6250   -34.4770    53.3050    24.6580   238.4550   241.1110   265.9420     2.4160 
  199.7500   -34.4710    52.3700    24.8540   226.3420   229.3220   252.7340     2.3670 
  199.8750   -34.4100    49.9250    25.1830   229.5660   215.9930   238.2230     2.3110 
  200.0000   -34.1660    48.7520    25.3080   230.9870   201.5250   222.5650     2.2630 
  200.1250   -33.8210    51.6000    25.3100   205.3690   187.3740   207.9840     2.2270 
  200.2500   -33.5440    55.4930    25.1780   175.2220   176.0070   196.8030     2.2020 
  200.3750   -33.3850    56.9970    25.0800   157.8400   168.8800   189.9850     2.1940 
  200.5000   -33.1720    56.6230    25.2780   166.0950   166.0700   187.4840     2.2050 
  200.6250   -32.7620    55.6510    25.3290   172.3460   168.0800   190.0380     2.2200 
  200.7500   -32.2320    54.2110    25.3440   153.4150   174.0230   196.4900     2.2240 
  200.8750   -31.7790    52.6250    25.3480   131.1350   181.8850   204.3100     2.2180 
  201.0000   -31.4670    51.3190    25.3790   163.2130   188.4460   209.4620     2.2130 
  201.1250   -31.1680    50.1210    25.3320   231.8010   188.1820   205.1390     2.2140 
  201.2500   -30.7320    48.2860    25.3280   256.8900   178.3750   189.7620     2.2200 
  201.3750   -30.1370    47.7100    25.3320   241.8170   159.6830   165.6990     2.2310 
  201.5000   -29.5480    48.2240    25.3680   210.4540   134.9520   137.3360     2.2550 
  201.6250   -29.1110    48.6400    25.1850   169.7150   106.5890   108.1980     2.2990 
  201.7500   -28.7980    49.0290    24.9000   126.4050    79.0280    81.9120     2.3630 
  201.8750   -28.4180    49.4120    24.5730    91.2150    56.3900    60.6390     2.4500 
  202.0000   -27.9200    49.6250    24.2390    56.6780    39.7100    44.4640     2.5490 
  202.1250   -27.3750    50.3590    24.0700    47.2830    28.6490    32.9750     2.6240 
  202.2500   -26.9440    51.6400    24.0820    25.6560    21.0890    24.6850     2.6540 
  202.3750   -26.7030    53.1460    24.0860    12.1410    16.0700    19.0390     2.6420 
