~V
VERS. 2.00: Ver 2.00
~W
STRT.M 61.0000:
STOP.M 318.0000:
STEP.M 0.1250:
NULL. -999.2500:
UWI. DF302:
~C
DEPT.M :
DEN.GM/CC :
SP.MV :
AC.US/MT :
GR.API :
CALI.CM :
RXO.OHMM :
RI. :
RML.OHMM :
~A
# ...
  291.0000     2.5090   -24.1970   255.9470    75.8330    24.7870    36.5620    32.4510    35.6680 
  291.1250     2.5210   -24.2380   250.4770    75.6310    24.7810    44.4920    33.7050    36.7740 
  291.2500     2.5180   -24.2890   247.4450    78.1350    24.7400    50.4730    33.0580    35.4330 
  291.3750     2.4870   -24.3270   249.1970    81.5600    24.6510    50.5580    29.7140    31.0160 
  291.5000     2.4470   -24.3590   260.8140    83.9150    24.4950    42.1730    24.3180    24.5810 
  291.6250     2.4120   -24.4100   281.2820    85.9260    24.3170    28.8940    18.7740    18.3730 
  291.7500     2.3850   -24.4660   305.8330    87.3220    24.2100    18.7240    14.4500    13.7130 
  291.8750     2.3620   -24.5260   326.9270    86.8990    24.1480    13.1900    11.5470    10.7340 
  292.0000     2.3510   -24.5980   337.4430    86.2080    24.0750    10.7850     9.8180     9.1160 
  292.1250     2.3600   -24.6530   340.1970    86.0370    24.0430     9.9800     9.0240     8.5360 
  292.2500     2.3830   -24.7290   339.9470    83.7250    24.0840     9.4400     8.7230     8.4230 
  292.3750     2.4040   -24.8560   340.0540    79.6290    24.1100     8.8840     8.7160     8.5140 
  292.5000     2.4130   -25.0250   339.8870    78.2270    24.0140     8.5250     8.8760     8.6840 
  292.6250     2.4120   -25.2730   336.6700    82.2960    23.8600     8.6240     9.1830     8.9760 
  292.7500     2.4050   -25.5870   328.9570    87.0010    23.8100     9.0640     9.6480     9.4760 
  292.8750     2.3960   -25.9390   317.2630    89.1770    23.8810     9.9560    10.3120    10.2380 
  293.0000     2.3810   -26.3360   304.7760    91.1170    23.9900    11.3850    11.1700    11.2350 
  293.1250     2.3600   -26.7860   295.2160    95.4540    24.0640    13.0760    12.1790    12.4010 
  293.2500     2.3330   -27.2250   290.5110    99.0780    24.1840    14.6990    13.2440    13.6620 
  293.3750     2.3060   -27.6150   290.9320   100.0590    24.4380    16.4760    14.3720    15.0870 
  293.5000     2.2920   -27.9590   294.9330   100.3450    24.7310    18.7870    15.6550    16.8170 
  293.6250     2.3010   -28.1950   300.4480   100.6310    24.8130    22.0920    17.1860    18.9180 
  293.7500     2.3220   -28.3200   306.8560    99.1040    24.7220    26.5580    18.7350    20.9880 
  293.8750     2.3420   -28.3680   312.7390    97.6400    24.6560    31.8430    19.8800    22.4340 
  294.0000     2.3540   -28.3350   315.8470    97.6730    24.7140    35.4380    20.2020    22.7380 
  294.1250     2.3580   -28.2100   314.9810    98.2960    24.8030    33.4000    19.4470    21.6660 
  294.2500     2.3510   -28.0510   310.7840    98.1390    24.7900    28.6990    18.0760    19.8860 
  294.3750     2.3340   -27.8730   305.8760    96.2590    24.7070    26.4820    16.4960    17.9150 
  294.5000     2.3210   -27.6470   303.8610    93.8090    24.6840    28.3130    15.0740    16.1750 
  294.6250     2.3240   -27.3930   304.5740    93.4130    24.7720    29.3370    14.2080    15.1580 
  294.7500     2.3500   -27.1480   303.9550    95.3920    24.8400    27.0200    14.1210    15.1830 
  294.8750     2.4010   -26.8960   293.5240    95.1350    24.8080    25.3790    15.1290    16.6410 
  295.0000     2.4590   -26.6440   272.0260    90.7040    24.7090    30.1010    17.5850    19.8550 
  295.1250     2.4990   -26.3830   248.8310    84.9220    24.6410    44.2340    21.8720    25.0670 
  295.2500     2.5020   -26.1020   233.4550    81.2200    24.6120    59.5290    26.7840    30.6650 
  295.3750     2.4700   -25.8330   233.4260    82.3770    24.6070    64.5330    29.9390    33.5830 
  295.5000     2.4260   -25.6190   252.1240    87.9470    24.5920    54.3940    28.8140    30.9740 
  295.6250     2.3790   -25.4760   279.2980    92.4460    24.5520    36.5090    23.4930    23.9940 
  295.7500     2.3340   -25.4140   305.6700    93.6280    24.5060    22.1860    17.8240    17.4590 
  295.8750     2.3040   -25.4480   324.6810    94.2530    24.4390    13.8470    13.5230    12.9370 
  296.0000     2.2930   -25.5680   333.9790    96.3330    24.3030    10.1770    10.8390    10.3680 
  296.1250     2.2980   -25.8120   338.1650    98.8390    24.0800     9.4880     9.5950     9.4470 
  296.2500     2.3080   -26.1380   340.5810    99.0780    23.9200     9.9870     9.2060     9.4810 
  296.3750     2.3160   -26.5210   342.7160    97.6430    23.9950    11.0520     9.4440    10.1550 
  296.5000     2.3230   -26.9430   342.8110    96.2780    24.3070    12.1950    10.1110    11.1920 
  296.6250     2.3280   -27.3620   339.3830    97.2880    24.6750    13.1220    11.0670    12.3920 
  296.7500     2.3230   -27.7240   331.8350    99.7240    24.8450    14.4780    12.1520    13.6430 
  296.8750     2.3040   -27.9900   321.2160    99.4570    24.6740    17.1380    13.3130    14.9430 
  297.0000     2.2920   -28.1300   310.3820    95.4060    24.2690    20.8450    14.5120    16.3000 
  297.1250     2.3020   -28.1050   302.6480    91.3980    24.0760    23.2670    15.6790    17.6420 
  297.2500     2.3210   -27.9720   299.7300    90.1520    24.2310    23.4510    16.6270    18.6960 
  297.3750     2.3200   -27.7420   301.3200    90.5600    24.4070    22.7900    17.0380    19.0370 
  297.5000     2.3050   -27.4300   307.0240    88.6330    24.2950    22.4760    16.6680    18.3840 
  297.6250     2.2930   -27.0380   316.3670    86.1240    23.9920    20.8370    15.5760    16.9250 
  297.7500     2.2900   -26.6200   329.2630    85.9840    23.7950    17.8020    14.3860    15.5130 
  297.8750     2.2880   -26.2380   343.9090    87.5130    23.7680    16.1650    13.5530    14.7290 
  298.0000     2.2900   -25.9180   354.6860    88.9710    23.8810    18.7790    13.3370    14.8560 
  298.1250     2.3070   -25.6500   357.0650    90.9820    24.0670    25.0080    13.8220    15.8840 
  298.2500     2.3290   -25.3970   350.3250    94.1250    24.2300    28.7230    14.5230    17.0140 
  298.3750     2.3280   -25.1180   338.3070    96.1770    24.3470    26.2850    14.7890    17.2470 
  298.5000     2.3100   -24.7820   328.5540    94.5100    24.4300    19.5370    13.9920    15.7710 
  298.6250     2.3020   -24.4040   325.7310    88.0660    24.5240    13.6650    12.0170    12.7660 
  298.7500     2.3210   -23.9860   329.2090    78.3480    24.6500    10.3940     9.8510     9.8280 
  298.8750     2.3620   -23.5000   334.8990    68.4090    24.7880     9.1140     8.1510     7.8120 
  299.0000     2.4040   -22.9840   338.7070    62.5090    24.8370     9.4650     7.1900     6.9600 
  299.1250     2.4410   -22.4730   339.9410    62.4870    24.6650    12.8030     7.1210     7.3960 
  299.2500     2.4740   -21.9720   339.5450    63.8830    24.4260    20.1910     7.7280     8.7470 
  299.3750     2.4960   -21.5040   338.5830    64.9820    24.3450    31.3060     8.7550    10.5330 
  299.5000     2.4930   -21.0890   338.6820    65.3160    24.5010    40.7980     9.6100    11.7430 
  299.6250     2.4580   -20.7190   341.8720    62.1130    24.6920    37.8780     9.3490    10.9550 
  299.7500     2.4030   -20.3840   350.1300    56.7970    24.6610    25.5360     8.1320     8.8260 
  299.8750     2.3620   -20.0900   364.0260    51.9660    24.4450    13.1070     6.6290     6.6030 
  300.0000     2.3610   -19.8080   380.4000    47.2300    24.2300     6.2370     5.3840     5.0360 
  300.1250     2.3960   -19.5390   392.8710    40.9870    24.1700     4.2350     4.6410     4.3090 
  300.2500     2.4360   -19.2890   398.8360    34.8330    24.2140     3.8480     4.2590     4.0590 
  300.3750     2.4430   -19.0550   399.7060    30.0940    24.2580     3.8080     4.1110     4.0430 
  300.5000     2.4170   -18.8510   399.8510    26.3020    24.2530     3.6620     4.0660     4.0630 
  300.6250     2.3850   -18.6950   402.0350    23.7300    24.1750     3.4410     4.0170     3.9950 
  300.7500     2.3740   -18.5630   405.2210    22.3890    24.0530     3.2550     3.9370     3.8700 
  300.8750     2.3910   -18.4620   407.2870    21.9230    23.9240     3.1170     3.8470     3.7500 
