~V
VERS. 2.00: Ver 2.00
~W
STRT.M 65.0000:
STOP.M 270.0000:
STEP.M 0.1250:
NULL. -999.2500:
UWI. DF3062:
~C
DEPT.M :
SP.MV :
GR.API :
CALI.CM :
RXO.OHMM :
RI. :
RML.OHMM :
DEN.GM/CC :
~A
# ...
  121.2500   -25.2940    92.3600    24.0560     6.0690     6.1850     7.6550  -999.2500 
  121.3750   -25.3560    91.2710    23.5440     6.2380     6.4180     7.8500  -999.2500 
  121.5000   -25.3820    90.2250    23.0250     7.0080     6.5810     7.9510  -999.2500 
  121.6250   -25.4140    86.7820    22.3800     6.2660     6.6120     7.8910  -999.2500 
  121.7500   -25.4550    85.6070    22.1700     5.1280     6.5160     7.6890  -999.2500 
  121.8750   -25.4870    88.5510    22.1950     4.4450     6.3310     7.4020  -999.2500 
  122.0000   -25.5350    93.9730    22.5690     4.0230     6.0910     7.0740  -999.2500 
  122.1250   -25.6720    99.0180    23.0950     3.9020     5.8340     6.7730     2.3040 
  122.2500   -25.8550   100.1000    23.6680     5.0040     5.6600     6.6380     2.3040 
  122.3750   -26.0790    95.3670    23.9560     6.2090     5.6490     6.7390     2.2850 
  122.5000   -26.3400    88.3480    23.9770     7.0160     5.8320     7.0920     2.2870 
  122.6250   -26.5980    85.8860    23.9230     7.0770     6.2500     7.7680     2.3000 
  122.7500   -26.8520    85.9190    23.9000     7.5440     6.8670     8.6820     2.3180 
  122.8750   -27.1530    84.7090    23.9690     8.5150     7.5970     9.6480     2.3440 
  123.0000   -27.5050    80.8670    23.8940    11.0180     8.2970    10.4440     2.3710 
  123.1250   -27.8020    76.1640    23.4540    14.4960     8.7270    10.8040     2.3760 
  123.2500   -28.0510    73.5510    23.1740    14.2330     8.7970    10.7050     2.3440 
  123.3750   -28.2400    74.6180    22.8940    11.1130     8.5100    10.2030     2.2920 
  123.5000   -28.3650    80.7520    22.8220     9.0450     7.9910     9.4700     2.2630 
  123.6250   -28.4090    87.4470    22.8060     8.3750     7.4070     8.7180     2.2630 
  123.7500   -28.4110    89.7590    22.7970     7.7580     6.9010     8.1270     2.2700 
  123.8750   -28.3760    87.2920    22.8190     7.0810     6.5510     7.7930     2.2590 
  124.0000   -28.2800    83.9810    23.0520     7.0070     6.3820     7.7160     2.2350 
  124.1250   -28.1210    84.6770    23.1610     7.6700     6.3630     7.7730     2.2200 
  124.2500   -27.8890    87.2570    23.3150     8.3900     6.3810     7.8170     2.2290 
  124.3750   -27.6390    90.9950    23.4040     8.4000     6.3840     7.8100     2.2520 
  124.5000   -27.4260    93.2090    23.6300     7.8700     6.3940     7.8060     2.2680 
  124.6250   -27.2790    91.5930    23.5920     7.4430     6.4250     7.8050     2.2780 
  124.7500   -27.1570    88.8890    23.4340     7.7180     6.5000     7.8640     2.2970 
  124.8750   -27.0350    87.6750    23.4320     7.9300     6.6430     8.0180     2.3410 
  125.0000   -26.9440    88.0250    23.5760     7.7150     6.8510     8.2500     2.3900 
  125.1250   -26.9180    85.7220    23.5640     7.5710     7.0840     8.4770     2.4180 
  125.2500   -26.9710    79.7970    23.1390     7.8810     7.2810     8.6410     2.4080 
  125.3750   -27.0840    74.6270    22.6330     8.0590     7.3690     8.6850     2.3660 
  125.5000   -27.1940    73.5840    22.4700     8.0390     7.2980     8.5570     2.3230 
  125.6250   -27.2870    76.5810    22.3770     7.7240     7.0700     8.2780     2.3010 
  125.7500   -27.3800    79.8150    22.2620     7.4340     6.7750     7.9250     2.3040 
  125.8750   -27.4590    83.0690    22.4150     7.4900     6.4420     7.5230     2.3310 
  126.0000   -27.5290    86.8540    22.6950     7.8270     6.1380     7.1630     2.3630 
  126.1250   -27.5860    87.8870    23.1120     7.4200     5.9440     6.9630     2.3830 
  126.2500   -27.6670    85.1510    23.4730     7.2140     5.8910     6.9380     2.3820 
  126.3750   -27.8020    82.2270    23.5180     7.5110     5.9810     7.0780     2.3610 
  126.5000   -28.0360    81.3190    23.3680     8.1040     6.2050     7.4000     2.3330 
  126.6250   -28.3540    81.1040    23.1280     8.2370     6.5920     7.9290     2.3020 
  126.7500   -28.7160    78.7740    23.0440     8.4940     7.0850     8.5640     2.2680 
  126.8750   -29.1140    74.9260    22.7630     9.1590     7.6270     9.1970     2.2370 
  127.0000   -29.5000    71.9060    22.4670    10.2560     8.1430     9.7550     2.2140 
  127.1250   -29.8630    69.9390    22.4440    10.5940     8.5500    10.1290     2.2030 
  127.2500   -30.1950    68.0100    22.5380     9.9120     8.7940    10.2950     2.2070 
  127.3750   -30.4590    68.6640    22.7340     8.9810     8.8490    10.2530     2.2280 
  127.5000   -30.6100    72.8010    23.0590     8.7100     8.7390    10.0510     2.2520 
  127.6250   -30.6360    75.9300    23.3440     8.7580     8.4930     9.7410     2.2600 
  127.7500   -30.5850    74.5990    23.4470     8.7340     8.1990     9.4120     2.2500 
  127.8750   -30.4570    71.5520    23.5120     8.7190     7.9190     9.1200     2.2420 
  128.0000   -30.2680    71.7280    23.5240     8.7690     7.6760     8.8820     2.2550 
  128.1250   -30.0360    74.7340    23.5200     8.6630     7.4830     8.7110     2.2820 
  128.2500   -29.7920    76.7770    23.4700     8.2460     7.3280     8.5810     2.3060 
  128.3750   -29.5620    77.3860    23.4110     7.9920     7.1870     8.4460     2.3180 
  128.5000   -29.3840    77.9180    23.4330     7.9650     7.0100     8.2480     2.3270 
  128.6250   -29.2800    77.1960    23.6590     7.8460     6.8070     8.0310     2.3330 
  128.7500   -29.2460    74.5970    23.8370     7.9170     6.6990     7.9410     2.3320 
  128.8750   -29.3040    72.3220    23.9040     7.9900     6.7680     8.1150     2.3290 
  129.0000   -29.4690    71.4820    23.7290     8.0300     7.0730     8.6410     2.3410 
  129.1250   -29.7500    70.9560    23.4450     8.1990     7.7360     9.6290     2.3790 
  129.2500   -30.1130    68.8170    23.3990     8.9420     8.7070    10.9260     2.4360 
  129.3750   -30.5490    66.8530    23.3580    11.8360     9.8910    12.3130     2.4820 
  129.5000   -31.0310    65.5230    23.2350    18.1640    11.0890    13.5170     2.4810 
  129.6250   -31.5320    62.9900    23.1310    21.5720    11.9780    14.2020     2.4220 
  129.7500   -32.0220    60.3310    22.9540    18.8290    12.3790    14.3130     2.3210 
  129.8750   -32.4750    59.0400    22.9850    14.3690    12.3210    13.9650     2.2230 
  130.0000   -32.8610    59.3970    23.0520    12.5390    11.9890    13.3810     2.1600 
  130.1250   -33.1720    58.2840    23.0680    12.3940    11.5870    12.8320     2.1370 
  130.2500   -33.3700    56.4710    23.0220    12.7760    11.3000    12.5130     2.1330 
  130.3750   -33.4400    57.2900    22.9630    13.1990    11.2110    12.4790     2.1270 
  130.5000   -33.4100    60.1440    22.5440    13.2720    11.3020    12.6440     2.1170 
  130.6250   -33.3140    62.9090    22.5000    13.0950    11.4870    12.8590     2.1180 
  130.7500   -33.1960    63.6630    22.6290    13.4240    11.6610    13.0360     2.1340 
  130.8750   -33.0790    64.3580    22.7780    14.1930    11.7860    13.1360     2.1550 
  131.0000   -32.9580    64.8290    22.7830    17.1670    11.8540    13.1650     2.1650 
  131.1250   -32.8210    63.1560    22.6350    17.0100    11.8660    13.1590     2.1640 
  131.2500   -32.7480    60.2950    22.3270    14.8880    11.8480    13.1370     2.1600 
  131.3750   -32.7520    59.3910    22.1660    12.8840    11.8080    13.0960     2.1580 
  131.5000   -32.7690    61.1750    22.1510    12.5510    11.7490    13.0290     2.1530 
  131.6250   -32.8040    62.6200    22.2470    12.1170    11.6690    12.9240     2.1460 
  131.7500   -32.8450    63.2270    22.3100    11.6050    11.5720    12.7950     2.1440 
  131.8750   -32.8550    63.5620    22.4250    11.4660    11.4480    12.6680     2.1500 
  132.0000   -32.8360    63.7900    22.5420    11.5600    11.2760    12.5190     2.1590 
  132.1250   -32.8070    63.2970    22.6210    11.3430    11.0410    12.3000     2.1690 
  132.2500   -32.7330    61.3520    22.4760    10.7120    10.7580    12.0010     2.1830 
  132.3750   -32.6260    60.4890    22.4550    10.4280    10.4470    11.6500     2.1990 
