~V
VERS. 2.00: Ver 2.00
~W
STRT.M 60.0000:
STOP.M 275.0000:
STEP.M 0.1250:
NULL. -999.2500:
UWI. DF3003:
~C
DEPT.M :
DEN.GM/CC :
SP.MV :
AC.US/MT :
GR.API :
RML.OHMM :
RI. :
RXO.OHMM :
CALI.CM :
~A
# ...
  240.0000     2.3110   -14.9570   323.9410    70.5000    46.9740    43.1630    35.8660    24.4280 
  240.1250     2.3480   -14.7010   294.9150    72.1710    50.8440    46.7070    40.8970    24.3350 
  240.2500     2.3880   -14.4690   267.1040    75.0370    55.0130    50.9300    47.5670    24.1310 
  240.3750     2.4160   -14.1550   248.3850    75.6440    58.7400    55.0210    52.3110    24.0080 
  240.5000     2.4180   -13.8890   238.9360    76.2210    62.0170    58.2770    53.8910    24.0070 
  240.6250     2.3980   -13.6470   232.3500    78.7480    63.8320    60.1790    54.3350    24.0110 
  240.7500     2.3810   -13.3370   223.5110    79.0710    64.4440    61.0300    57.1840    24.0210 
  240.8750     2.3840   -13.0690   212.6210    76.1860    64.0590    60.9590    60.6140    24.0440 
  241.0000     2.4150   -12.8160   202.2780    74.0910    62.5670    59.8660    65.0260    24.0870 
  241.1250     2.4620   -12.5410   195.1170    74.2340    59.4620    57.2880    66.0900    24.1480 
  241.2500     2.5010   -12.3030   190.0650    71.1730    55.1100    53.4840    61.5320    24.1950 
  241.3750     2.5150   -12.1200   185.4200    67.4970    50.1610    48.9570    48.9720    24.2410 
  241.5000     2.5040   -11.9130   181.2040    69.2160    45.4240    44.4190    33.2750    24.2790 
  241.6250     2.4780   -11.7460   185.8660    76.0890    41.5380    40.5300    28.4450    24.2890 
  241.7500     2.4550   -11.6170   196.4420    80.5940    38.2170    37.1940    28.6510    24.2850 
  241.8750     2.4410   -11.4690   211.0770    78.6250    34.9410    33.9720    31.8910    24.2670 
  242.0000     2.4390   -11.3450   232.5210    74.5500    31.1950    30.3750    34.6690    24.2290 
  242.1250     2.4430   -11.2070   246.6780    73.4500    26.7670    26.1430    33.5100    24.1480 
  242.2500     2.4420   -10.9950   258.3390    73.4430    22.1800    21.7370    29.2020    24.0440 
  242.3750     2.4320   -10.7870   274.7080    71.8480    18.0190    17.7250    22.8830    23.9430 
  242.5000     2.4150   -10.7050   294.1240    67.9810    14.6150    14.5480    14.9960    23.8860 
  242.6250     2.3970   -10.6990   307.3350    65.2540    12.3800    12.5090    10.7620    23.9300 
  242.7500     2.3820   -10.6930   311.3150    64.4570    11.1480    11.3150     9.1710    24.0600 
  242.8750     2.3710   -10.7190   308.5030    65.1730    10.8710    10.7640     8.7520    24.1810 
  243.0000     2.3600   -10.7180   303.3570    67.8370    10.9410    10.6530     8.6660    24.2360 
  243.1250     2.3470   -10.6540   299.8850    70.1310    11.1740    10.8100     8.7270    24.2220 
  243.2500     2.3370   -10.6510   300.2670    70.6940    11.4080    11.0340     8.9460    24.1650 
  243.3750     2.3350   -10.6800   301.5140    70.4750    11.6020    11.2370     9.2590    24.0420 
  243.5000     2.3440   -10.5840   297.8700    69.5550    11.7480    11.3820     9.7330    23.8330 
  243.6250     2.3610   -10.4110   288.7280    67.8890    11.8590    11.4500    10.3110    23.6000 
  243.7500     2.3810   -10.2970   282.2910    66.2440    11.9340    11.4590    10.9420    23.4480 
  243.8750     2.3980   -10.1280   282.0860    65.5850    11.9710    11.4200    11.4870    23.3680 
  244.0000     2.4130    -9.8880   285.8200    66.7740    11.9570    11.3460    11.7080    23.3370 
  244.1250     2.4270    -9.7500   289.6370    69.2190    11.8540    11.2520    11.4660    23.3330 
  244.2500     2.4400    -9.5870   292.0090    71.4980    11.7230    11.1590    11.0030    23.3420 
  244.3750     2.4460    -9.4050   292.4730    71.1050    11.5930    11.0800    10.8900    23.3690 
  244.5000     2.4400    -9.3270   292.1700    67.3640    11.4970    11.0220    10.9930    23.4270 
  244.6250     2.4190    -9.2500   292.7940    65.3340    11.4550    10.9880    11.1340    23.5570 
  244.7500     2.3890    -9.1260   294.7910    65.6060    11.4360    10.9660    11.0660    23.7440 
  244.8750     2.3620    -9.0850   297.3580    66.8710    11.4620    10.9470    10.7010    23.9460 
  245.0000     2.3430    -9.1260   299.1310    68.8550    11.5060    10.9230    10.2900    24.1510 
  245.1250     2.3380    -9.1100   298.7080    70.1790    11.5260    10.8910    10.2940    24.2850 
  245.2500     2.3440    -9.1080   296.6760    70.4160    11.5240    10.8560    10.4240    24.3440 
  245.3750     2.3570    -9.0790   293.9500    69.3140    11.5160    10.8270    10.4770    24.3520 
  245.5000     2.3730    -8.9620   291.3200    68.8760    11.5220    10.8160    10.3780    24.3340 
  245.6250     2.3870    -8.8640   289.6820    67.7480    11.5620    10.8350    10.5440    24.2930 
  245.7500     2.3980    -8.8520   289.2780    64.9560    11.6260    10.8750    10.8850    24.2280 
  245.8750     2.4050    -8.8040   289.5110    62.3880    11.6910    10.9210    11.2900    24.1940 
  246.0000     2.4080    -8.7240   289.1170    62.4220    11.7440    10.9600    11.7640    24.1480 
  246.1250     2.4090    -8.7180   286.6960    62.9630    11.7920    10.9930    12.5790    24.0430 
  246.2500     2.4100    -8.7490   282.3520    62.0910    11.8770    11.0510    13.3270    23.9840 
  246.3750     2.4120    -8.8570   276.4890    63.7990    12.0310    11.1610    13.9320    23.9880 
  246.5000     2.4170    -9.0730   270.1180    70.0210    12.2460    11.3260    14.0590    24.0210 
  246.6250     2.4220    -9.3060   266.2370    73.9240    12.4680    11.5060    13.3770    24.0930 
  246.7500     2.4240    -9.4300   268.2980    71.0410    12.6340    11.6520    12.5090    24.2200 
  246.8750     2.4210    -9.5770   276.7910    66.3780    12.7220    11.7390    11.2830    24.3280 
  247.0000     2.4160    -9.7690   287.2420    65.4500    12.7440    11.7710    10.3340    24.3660 
  247.1250     2.4100    -9.8880   292.5800    67.1450    12.7260    11.7690     9.6470    24.3580 
  247.2500     2.4070    -9.9550   292.1670    68.1420    12.6860    11.7550     9.6150    24.3430 
  247.3750     2.4050    -9.9220   289.1950    68.1780    12.6090    11.7210    10.2710    24.3120 
  247.5000     2.4050    -9.7630   287.3840    68.9250    12.4890    11.6480    11.1800    24.2320 
  247.6250     2.4040    -9.5800   289.0550    71.7130    12.3460    11.5290    11.4880    24.1890 
  247.7500     2.4050    -9.4370   292.8530    74.5350    12.2190    11.3890    11.0280    24.1220 
  247.8750     2.4110    -9.2430   297.0840    77.1770    12.1440    11.2610    10.4260    24.0540 
  248.0000     2.4220    -9.0130   298.4840    79.3340    12.1700    11.1990    10.1100    23.9630 
  248.1250     2.4350    -8.7890   293.9590    78.9820    12.3940    11.2870    10.1860    23.9100 
  248.2500     2.4460    -8.5830   286.6080    76.1420    12.8280    11.5440    10.2960    23.8350 
  248.3750     2.4510    -8.4410   280.7030    71.5900    13.4390    11.9630    10.2390    23.6710 
  248.5000     2.4470    -8.3420   277.7100    66.1520    14.1260    12.4910     9.9090    23.3890 
  248.6250     2.4370    -8.1710   275.0760    61.5270    14.7070    13.0170     9.3500    23.0940 
  248.7500     2.4260    -8.0060   270.6350    62.0150    15.0600    13.4220     8.9750    22.8680 
  248.8750     2.4170    -7.9470   262.8970    65.3100    15.1570    13.6400     8.8040    22.7520 
  249.0000     2.4160    -7.9700   248.6430    64.3360    15.0550    13.6710     8.8180    22.6550 
  249.1250     2.4240    -8.1260   230.3010    58.0210    14.8660    13.5660     9.0520    22.6220 
  249.2500     2.4380    -8.3240   218.8540    55.4140    14.6930    13.4310     9.2030    22.5820 
  249.3750     2.4520    -8.4630   221.3380    58.9680    14.5560    13.3100     9.3300    22.5530 
  249.5000     2.4580    -8.5810   237.3130    65.8410    14.4330    13.2090     9.3950    22.3040 
  249.6250     2.4500    -8.7840   258.7480    71.8430    14.2900    13.1080     8.8350    22.1310 
  249.7500     2.4300    -8.9350   276.1980    75.0750    14.1320    12.9990     7.9650    21.9940 
  249.8750     2.4040    -8.9580   286.5180    74.4600    14.0120    12.9100     7.2460    21.9120 
