~V
VERS. 2.00: Ver 2.00
~W
STRT.M 56.0000:
STOP.M 263.0000:
STEP.M 0.1250:
NULL. -999.2500:
UWI. DF3034:
~C
DEPT.M :
DEN.GM/CC :
GR.API :
RML.OHMM :
RI. :
RXO.OHMM :
CALI.CM :
SP.MV :
~A
# ...
  191.0000     2.2430    66.1530   149.5370   132.1860   107.1880    24.5930   -29.0950 
  191.1250     2.2410    65.2730   139.5860   123.6460   102.3450    24.6450   -29.0420 
  191.2500     2.2410    65.6410   131.0580   116.5130   104.4100    24.6360   -29.0250 
  191.3750     2.2450    67.5930   123.1960   110.1050   104.1020    24.5700   -29.0180 
  191.5000     2.2520    68.8340   116.5920   104.7690   103.0150    24.4250   -29.0710 
  191.6250     2.2560    69.0630   114.1340   102.8780    94.5030    24.2690   -29.1320 
  191.7500     2.2520    68.6470   118.0050   106.4870    88.0930    24.1500   -29.2660 
  191.8750     2.2390    67.2840   129.5550   117.0480    87.9610    24.1710   -29.4190 
  192.0000     2.2220    66.8000   147.7300   134.0000   100.0140    24.3180   -29.5840 
  192.1250     2.2080    69.8830   167.4730   153.6080   133.9500    24.4950   -29.7070 
  192.2500     2.2020    72.4810   181.5040   168.8370   180.7830    24.5820   -29.8460 
  192.3750     2.2040    71.7770   183.9900   174.2430   208.9340    24.4940   -29.9800 
  192.5000     2.2130    69.2460   174.9580   167.7670   178.7390    24.3300   -30.0780 
  192.6250     2.2250    67.4250   157.5830   151.6050   121.1010    23.9730   -30.1280 
  192.7500     2.2350    66.3890   142.4190   133.7940    83.9410    23.7390   -30.1850 
  192.8750     2.2410    66.6030   131.9730   118.7400    67.2580    23.5550   -30.1910 
  193.0000     2.2440    68.5720   121.6810   108.0240    61.0750    23.4520   -30.2000 
  193.1250     2.2430    71.9340   115.0830   101.7620    61.2360    23.4180   -30.1880 
  193.2500     2.2410    73.4270   111.4910    98.1940    63.5320    23.4170   -30.1760 
  193.3750     2.2380    72.6880   110.2010    96.6390    66.4280    23.4210   -30.1770 
  193.5000     2.2330    71.7190   111.1120    96.9260    67.3360    23.4300   -30.2180 
  193.6250     2.2290    72.2400   115.3330    99.9650    66.9710    23.4910   -30.2780 
  193.7500     2.2240    73.2370   123.6900   106.5440    70.7150    23.6910   -30.3500 
  193.8750     2.2210    73.2420   137.8370   118.1850    80.7080    24.0410   -30.4850 
  194.0000     2.2170    72.4250   159.9070   136.7450    98.5420    24.3920   -30.6210 
  194.1250     2.2080    71.6740   194.7520   165.9850   131.5870    24.5190   -30.8000 
  194.2500     2.1960    70.8080   243.1890   205.7640   168.0880    24.5430   -30.9940 
  194.3750     2.1820    68.5130   304.7050   254.8820   210.4140    24.5400   -31.2060 
  194.5000     2.1700    63.4650   373.4840   308.3790   255.8080    24.5390   -31.3540 
  194.6250     2.1630    57.7280   433.6150   354.3380   301.9440    24.5390   -31.5380 
  194.7500     2.1620    55.7880   467.7630   380.9360   337.8650    24.5390   -31.6440 
  194.8750     2.1660    57.8390   463.6140   379.9010   341.1180    24.5390   -31.7530 
  195.0000     2.1750    60.3910   420.8080   350.8200   321.3950    24.5390   -31.8110 
  195.1250     2.1880    59.0630   355.0700   302.9370   298.7780    24.5390   -31.8660 
  195.2500     2.2030    56.9850   292.9350   254.5020   267.8400    24.5390   -31.8450 
  195.3750     2.2170    59.4450   244.7780   214.6490   214.6200    24.5390   -31.8100 
  195.5000     2.2270    68.4440   210.6150   185.6670   154.4770    24.5390   -31.7990 
  195.6250     2.2330    67.5020   186.6260   165.8660   121.9570    24.5390   -31.7260 
  195.7500     2.2370    68.6350   170.9800   153.4730   139.0940    24.5390   -31.6250 
  195.8750     2.2400    74.4580   156.6020   141.7160   151.6990    24.5470   -31.5110 
  196.0000     2.2420    78.9260   144.9190   131.5620   118.2040    24.5710   -31.3780 
  196.1250     2.2420    75.6460   138.3050   125.0660    84.5820    24.6230   -31.3000 
  196.2500     2.2440    69.3960   136.7320   122.6910    78.4800    24.5950   -31.2130 
  196.3750     2.2460    65.4440   140.1150   124.6500    90.8500    24.4390   -31.1260 
  196.5000     2.2500    65.7860   149.1960   130.9580   112.4820    24.2870   -31.0490 
  196.6250     2.2510    68.3280   164.9370   143.1340   118.9310    24.2400   -31.0010 
  196.7500     2.2490    69.1770   188.2910   162.5430   122.1420    24.2800   -30.9420 
  196.8750     2.2470    68.4510   220.6680   192.5750   127.4350    24.3530   -30.8040 
  197.0000     2.2490    65.4060   268.1660   236.8810   148.1920    24.4870   -30.6400 
  197.1250     2.2580    60.9950   333.1990   299.5680   196.8310    24.5610   -30.2520 
  197.2500     2.2690    57.8460   414.9760   373.6780   279.9540    24.6060   -29.7850 
  197.3750     2.2770    57.5020   511.5450   449.3590   397.5730    24.6150   -29.1950 
  197.5000     2.2830    59.4150   606.2840   513.4800   479.7840    24.6580   -28.4790 
  197.6250     2.2920    58.7490   668.3990   549.4860   460.7590    24.6530   -27.6750 
  197.7500     2.3070    56.4070   692.5150   557.8530   457.7210    24.4890   -26.8550 
  197.8750     2.3220    55.1550   683.3250   544.1400   505.5020    24.2910   -26.0540 
  198.0000     2.3350    55.6560   651.3890   516.8250   576.9230    24.2320   -25.2440 
  198.1250     2.3480    56.4140   604.3680   481.8280   594.1290    24.3040   -24.5500 
  198.2500     2.3760    55.2610   549.8270   443.2540   552.5180    24.3800   -23.9070 
  198.3750     2.4240    53.8150   490.3230   401.7890   479.0590    24.4260   -23.3150 
  198.5000     2.4800    52.5720   428.0430   357.8900   422.0140    24.3580   -22.7660 
  198.6250     2.5100    52.3280   366.2250   312.7180   407.5410    24.3120   -22.2530 
  198.7500     2.4930    54.1530   308.3490   268.7170   368.8050    24.3380   -21.6860 
  198.8750     2.4330    56.0480   256.5860   227.8190   304.4160    24.4530   -21.1040 
  199.0000     2.3560    57.0430   211.7700   191.1670   249.1950    24.5680   -20.4410 
  199.1250     2.3010    57.6150   175.0770   159.8940   202.1120    24.6300   -19.7660 
  199.2500     2.2680    58.0670   145.0810   133.1530   168.5900    24.6710   -19.0190 
  199.3750     2.2660    58.3010   121.0060   110.6090   146.7340    24.7110   -18.2530 
  199.5000     2.3040    58.7230   101.0990    91.4500   123.1810    24.5960   -17.4130 
  199.6250     2.3730    59.4210    83.0480    74.4760    93.3410    24.4070   -16.5660 
  199.7500     2.4590    59.1250    64.8980    58.1340    69.5620    24.2650   -15.6920 
  199.8750     2.5400    59.1680    47.2750    42.5140    56.7970    24.0980   -14.8130 
  200.0000     2.5980    61.5640    31.7280    28.8110    52.3290    23.9610   -13.9890 
  200.1250     2.6220    64.1540    20.6640    18.9410    44.0810    23.7820   -13.1960 
  200.2500     2.6100    63.8780    13.0330    12.5140    29.8520    23.5770   -12.5150 
  200.3750     2.5750    63.0570     8.2520     8.7680    14.2740    23.3700   -11.8990 
  200.5000     2.5400    64.1990     6.4400     6.7970     7.1310    23.2800   -11.4320 
  200.6250     2.5160    65.6460     5.9630     6.0060     5.5580    23.2860   -11.0370 
  200.7500     2.5020    65.6770     5.9000     5.7560     5.3260    23.3060   -10.7910 
  200.8750     2.4900    63.9970     5.9940     5.7850     5.3510    23.3410   -10.5870 
  201.0000     2.4730    62.2920     6.0890     5.9120     5.2730    23.3520   -10.4740 
  201.1250     2.4530    63.6690     6.1190     6.0280     5.1150    23.3680   -10.3880 
  201.2500     2.4340    65.7240     6.1190     6.1110     5.0130    23.3790   -10.3480 
  201.3750     2.4200    64.1720     6.1220     6.1750     4.9580    23.3790   -10.3230 
  201.5000     2.4090    59.3030     6.1370     6.2200     4.9270    23.3760   -10.2970 
  201.6250     2.3970    56.0960     6.1500     6.2230     5.0720    23.3560   -10.3130 
  201.7500     2.3830    54.7560     6.1490     6.1700     5.2810    23.3500   -10.3420 
  201.8750     2.3670    53.1030     6.1390     6.0660     5.4190    23.3480   -10.4490 
  202.0000     2.3560    52.3580     6.1350     5.9340     5.4570    23.3480   -10.5830 
  202.1250     2.3500    52.8220     6.1660     5.8120     5.4490    23.3480   -10.8200 
