~V
VERS. 2.00: Ver 2.00
~W
STRT.M 70.0000:
STOP.M 278.0000:
STEP.M 0.1250:
NULL. -999.2500:
UWI. DF3060:
~C
DEPT.M :
SP.MV :
GR.API :
RML.OHMM :
RI. :
RXO.OHMM :
CALI.CM :
DEN.GM/CC :
~A
# ...
  193.7500   -32.6680    51.8760   235.8800   219.6650   546.2280    21.1930     2.1820 
  193.8750   -32.5750    53.1620   215.4230   203.4110   434.2810    21.0830     2.1880 
  194.0000   -32.4480    55.2640   196.9680   187.5640   440.8290    21.0270     2.1960 
  194.1250   -32.2710    57.2800   185.1380   177.0760   427.0580    21.0140     2.2050 
  194.2500   -32.0880    59.2370   179.1780   172.1360   421.0780    21.0140     2.2110 
  194.3750   -31.8910    60.6920   177.3750   171.4900   365.0460    21.0140     2.2130 
  194.5000   -31.6910    60.9810   177.1970   172.8170   343.2070    21.0140     2.2110 
  194.6250   -31.5380    59.7040   175.2870   172.7720   350.7400    21.0140     2.2080 
  194.7500   -31.4190    58.4550   169.3400   168.7720   298.8190    21.0140     2.2090 
  194.8750   -31.3370    59.3790   158.0480   159.2680   238.9080    21.0140     2.2140 
  195.0000   -31.2760    63.4640   141.1750   143.7990   217.8380    21.0140     2.2240 
  195.1250   -31.2360    67.6570   119.7650   123.0010   214.7760    21.0120     2.2330 
  195.2500   -31.2000    69.7930    98.0730   101.0240   193.4360    21.0020     2.2410 
  195.3750   -31.1810    70.5650    79.6580    81.5000   184.5460    20.9770     2.2500 
  195.5000   -31.1910    71.0500    67.1690    67.3420   177.1100    20.9210     2.2610 
  195.6250   -31.2610    71.3290    63.7020    61.8610   125.9040    20.8080     2.2710 
  195.7500   -31.3950    71.0590    69.3040    65.2950    98.3650    20.6620     2.2760 
  195.8750   -31.5610    70.2510    84.8440    78.6190    87.9250    20.5520     2.2740 
  196.0000   -31.7770    68.6350   110.2060   101.8580    78.3580    20.5070     2.2670 
  196.1250   -32.0680    65.3760   143.7360   133.5920    68.5470    20.5000     2.2580 
  196.2500   -32.4510    61.3310   178.2530   166.7900    60.0280    20.5020     2.2510 
  196.3750   -32.9070    58.4780   207.0990   195.0130    60.3680    20.5100     2.2440 
  196.5000   -33.4120    56.9360   225.3550   213.5010    73.8690    20.5360     2.2320 
  196.6250   -33.9280    56.3840   230.5330   219.6180   109.8400    20.6150     2.2110 
  196.7500   -34.4250    56.6750   226.8070   217.0210   161.4180    20.7780     2.1860 
  196.8750   -34.9270    58.0330   215.5230   207.0390   208.3140    21.0520     2.1600 
  197.0000   -35.4200    58.7110   197.3590   190.4200   243.3360    21.4220     2.1380 
  197.1250   -35.9070    57.7430   173.5700   168.1440   223.2010    21.7430     2.1250 
  197.2500   -36.3510    57.7340   149.5430   144.7950   135.6280    21.9530     2.1170 
  197.3750   -36.7720    59.6340   130.1670   124.7610   101.4890    22.0660     2.1140 
  197.5000   -37.2030    62.2870   119.0420   111.8670   124.0510    22.1220     2.1140 
  197.6250   -37.6240    63.4090   119.7390   110.0130   168.7310    22.1700     2.1200 
  197.7500   -38.0540    63.3150   129.3010   117.4950   205.1710    22.2420     2.1300 
  197.8750   -38.4980    62.4200   145.1020   132.0660   188.6080    22.3350     2.1420 
  198.0000   -38.9360    60.8030   163.0960   149.8870   169.9650    22.4440     2.1530 
  198.1250   -39.2930    57.8970   177.6900   165.5210   196.5850    22.5830     2.1630 
  198.2500   -39.5310    55.0270   189.1040   175.8270   230.8530    22.7660     2.1730 
  198.3750   -39.6230    54.3470   194.9730   181.2580   214.7200    22.9490     2.1810 
  198.5000   -39.5400    56.6060   199.6730   185.2670   173.5510    23.0870     2.1850 
  198.6250   -39.2990    61.6010   207.3250   192.5430   188.2290    23.1590     2.1830 
  198.7500   -38.9050    65.8370   218.6950   203.4450   228.0000    23.1820     2.1790 
  198.8750   -38.3700    67.2370   229.8960   215.1150   257.3480    23.1850     2.1760 
  199.0000   -37.7340    66.1420   236.2780   223.1650   253.8760    23.1830     2.1790 
  199.1250   -37.0740    62.7570   237.8040   222.7970   227.4420    23.1750     2.1890 
  199.2500   -36.4610    58.7540   232.1260   215.7070   201.5510    23.1560     2.2020 
  199.3750   -35.9070    56.6290   223.7520   205.7880   160.9560    23.1140     2.2140 
  199.5000   -35.4080    57.5100   217.7290   197.5820   131.0900    23.0400     2.2190 
  199.6250   -34.9550    58.6310   217.6670   194.7580   130.9650    22.9370     2.2160 
  199.7500   -34.5570    57.9900   221.6660   196.1930   143.9790    22.8080     2.2060 
  199.8750   -34.1950    56.7040   226.4510   199.3700   162.7730    22.6670     2.1920 
  200.0000   -33.8390    56.2060   228.0830   200.9750   178.4820    22.5460     2.1760 
  200.1250   -33.4840    57.4120   222.3440   197.2770   185.9630    22.4850     2.1580 
  200.2500   -33.1280    59.1950   210.1130   188.3100   187.2510    22.4500     2.1390 
  200.3750   -32.7590    60.0490   193.8240   175.5980   185.8270    22.4270     2.1220 
  200.5000   -32.4050    59.9640   176.7740   161.6520   184.1530    22.4040     2.1130 
  200.6250   -32.0800    60.3930   162.1570   149.1680   177.8490    22.3880     2.1140 
  200.7500   -31.7580    61.6520   150.7380   139.1400   149.4720    22.3820     2.1250 
  200.8750   -31.4680    62.5680   142.0680   131.4100   116.3760    22.3810     2.1420 
  201.0000   -31.2030    62.8280   134.7370   124.9460    98.5850    22.3810     2.1590 
  201.1250   -30.9250    62.8020   126.4680   117.8860    93.2100    22.3810     2.1740 
  201.2500   -30.6570    63.4350   115.8420   108.8640    90.0760    22.3810     2.1860 
  201.3750   -30.4150    65.3780   102.9450    97.7370    82.3120    22.3810     2.1950 
  201.5000   -30.1830    68.0780    89.3000    85.6110    69.2270    22.3810     2.2010 
  201.6250   -29.9650    70.3290    77.7440    74.8190    55.5680    22.3810     2.2040 
  201.7500   -29.7810    70.8060    69.9840    67.0920    44.3110    22.3810     2.2060 
  201.8750   -29.6010    70.4660    66.7100    63.2820    38.4830    22.3810     2.2080 
  202.0000   -29.4450    69.9500    67.7070    63.4230    39.7000    22.3810     2.2100 
  202.1250   -29.3180    68.4780    72.4170    67.2450    45.0750    22.3810     2.2110 
  202.2500   -29.2340    65.5310    78.6590    72.8260    51.0870    22.3810     2.2140 
  202.3750   -29.1830    63.1550    84.7850    78.6440    55.8620    22.3810     2.2170 
  202.5000   -29.1340    63.4840    89.3620    83.2630    57.6590    22.3810     2.2230 
  202.6250   -29.0920    66.2180    91.2090    85.3840    55.9850    22.3830     2.2310 
  202.7500   -29.0420    67.5030    90.9520    85.3900    53.7500    22.3960     2.2400 
  202.8750   -28.9960    65.8980    89.3520    83.9190    52.1400    22.4320     2.2520 
  203.0000   -28.9570    62.9370    87.1920    81.7220    50.5590    22.5210     2.2640 
  203.1250   -28.9220    61.1040    85.0970    79.4560    49.2610    22.7360     2.2760 
  203.2500   -28.8710    59.6120    83.3920    77.5380    48.6930    23.0930     2.2830 
  203.3750   -28.8210    57.6340    82.2290    76.1620    47.5770    23.5410     2.2860 
  203.5000   -28.7860    57.0140    81.6980    75.4530    46.1810    24.0390     2.2830 
  203.6250   -28.7290    60.0250    81.9150    75.5870    45.0380    24.4550     2.2770 
  203.7500   -28.6670    63.9890    82.6860    76.3980    44.3270    24.6550     2.2720 
  203.8750   -28.5900    66.6520    83.8730    77.7650    44.0770    24.6010     2.2690 
  204.0000   -28.5420    67.9980    85.2970    79.4990    43.9650    24.3780     2.2680 
  204.1250   -28.4910    68.3440    86.6370    81.2880    43.7720    24.1220     2.2700 
  204.2500   -28.4260    67.5230    87.4670    82.6910    43.3610    24.0030     2.2710 
  204.3750   -28.3650    66.1020    87.3380    83.2800    43.2930    23.9730     2.2730 
  204.5000   -28.3340    65.4360    85.9090    82.7020    44.0960    23.9720     2.2770 
  204.6250   -28.3130    65.5600    82.9890    80.6730    44.8800    23.9720     2.2810 
  204.7500   -28.3220    65.3520    79.3220    77.7650    45.5830    23.9720     2.2850 
  204.8750   -28.3450    64.8570    75.6220    74.5560    46.5270    23.9720     2.2880 
