~V
VERS. 2.00: Ver 2.00
~W
STRT.M 60.0000:
STOP.M 270.0000:
STEP.M 0.1250:
NULL. -999.2500:
UWI. DF3075:
~C
DEPT.M :
GR.API :
RML.OHMM :
RI. :
RXO.OHMM :
CALI.CM :
DEN.GM/CC :
SP.MV :
~A
# ...
  105.0000    72.6840     9.8170     8.4160    10.9320    24.5460  -999.2500   -29.1310 
  105.1250    74.6980     9.8810     8.4710    11.2870    24.6470  -999.2500   -29.3050 
  105.2500    73.2830     9.9120     8.4850    11.3640    24.7480  -999.2500   -29.4630 
  105.3750    68.5080     9.9180     8.4630    10.9670    24.9290  -999.2500   -29.6270 
  105.5000    62.2110     9.8900     8.4100    10.3270    25.0180  -999.2500   -29.7960 
  105.6250    58.4880     9.8280     8.3450     9.6950    25.0210  -999.2500   -29.9240 
  105.7500    57.8440     9.7710     8.3060     9.1190    24.8210  -999.2500   -30.0130 
  105.8750    59.9000     9.7650     8.3130     8.7780    24.7950  -999.2500   -30.0370 
  106.0000    63.2060     9.8260     8.3710     8.6920    24.9930  -999.2500   -29.9970 
  106.1250    65.4340     9.9380     8.4820     8.6500    25.2050  -999.2500   -29.8370 
  106.2500    66.9960    10.0350     8.6090     8.6930    25.2180  -999.2500   -29.6010 
  106.3750    69.1160    10.0980     8.7360     8.9120    25.0480  -999.2500   -29.2220 
  106.5000    71.3110    10.1400     8.8450     9.2500    24.8090  -999.2500   -28.7400 
  106.6250    70.2680    10.1620     8.8920     9.5230    24.5060  -999.2500   -28.0980 
  106.7500    68.7600    10.1150     8.8580     9.5750    24.2820  -999.2500   -27.3090 
  106.8750    72.3740     9.9300     8.7160     9.2990    24.1670  -999.2500   -26.4240 
  107.0000    78.4120     9.5940     8.4500     8.9220    24.2410  -999.2500   -25.3770 
  107.1250    80.5920     9.1560     8.0650     9.0440    24.3700  -999.2500   -24.3500 
  107.2500    82.5620     8.7140     7.6120     9.2620    24.3770  -999.2500   -23.3110 
  107.3750    88.5370     8.3200     7.1490     8.8060    24.2870  -999.2500   -22.4600 
  107.5000    93.9610     8.0050     6.7420     7.5940    24.2240  -999.2500   -21.7640 
  107.6250    91.4040     7.8190     6.4680     6.6270    24.0850  -999.2500   -21.4460 
  107.7500    86.9380     7.8030     6.3450     6.3280    23.9380  -999.2500   -21.3430 
  107.8750    85.4220     7.9640     6.3630     6.2950    23.8220  -999.2500   -21.4540 
  108.0000    84.2830     8.2540     6.4950     6.6640    23.8420  -999.2500   -21.7520 
  108.1250    80.2720     8.5700     6.7100     7.6420    23.9670  -999.2500   -22.1760 
  108.2500    77.1170     8.8410     6.9360     8.5720    24.1080  -999.2500   -22.7010 
  108.3750    76.7680     9.0500     7.1370     8.7390    24.2780  -999.2500   -23.2390 
  108.5000    76.4200     9.1960     7.2870     8.5460    24.5030  -999.2500   -23.7410 
  108.6250    75.2880     9.2570     7.3710     8.5240    24.7490  -999.2500   -24.1950 
  108.7500    76.8500     9.2480     7.4250     8.5500    24.8290  -999.2500   -24.6420 
  108.8750    78.8900     9.2040     7.4770     8.6000    24.6350  -999.2500   -25.1070 
  109.0000    76.8820     9.1950     7.5500     8.7650    24.3960     0.0000   -25.6030 
  109.1250    73.6910     9.2740     7.6520     9.0340    24.2090     0.0000   -26.1550 
  109.2500    74.6980     9.4150     7.7760     9.3740    23.9960     0.0000   -26.7170 
  109.3750    77.9290     9.5670     7.9160     9.6070    23.9100     1.6480   -27.2370 
  109.5000    78.3740     9.6930     8.0550     9.7590    23.9690     2.1850   -27.6960 
  109.6250    75.9260     9.7640     8.1520     9.9310    24.2010     2.1710   -27.9920 
  109.7500    75.7860     9.7530     8.1770     9.9940    24.5490     2.1640   -28.1660 
  109.8750    76.6220     9.6310     8.1090     9.8750    24.9630     2.1700   -28.2260 
  110.0000    75.6130     9.4000     7.9610     9.7150    25.2330     2.1850   -28.1050 
  110.1250    74.3460     9.1490     7.7980     9.8900    25.1000     2.2030   -27.7770 
  110.2500    75.0840     9.0170     7.6920    10.1130    24.6840     2.2170   -27.2540 
  110.3750    77.1070     9.0600     7.6890    10.0480    24.3870     2.2250   -26.5930 
  110.5000    76.9090     9.2260     7.7850     9.5720    24.3140     2.2320   -25.7860 
  110.6250    74.8730     9.3870     7.9170     9.1590    24.4040     2.2380   -24.8250 
  110.7500    73.1070     9.4220     8.0010     9.3290    24.5590     2.2420   -23.7690 
  110.8750    73.5090     9.2630     7.9420    10.1080    24.7620     2.2370   -22.5340 
  111.0000    78.3950     8.8910     7.6860    10.8840    24.9880     2.2240   -21.2760 
  111.1250    86.3820     8.3320     7.2330    11.9360    24.8670     2.2080   -19.9590 
  111.2500    93.0860     7.7230     6.7060    13.5620    24.7400     2.1990   -18.7820 
  111.3750    97.8800     7.1890     6.2250    12.5620    24.5400     2.2020   -17.7160 
  111.5000   102.5890     6.8630     5.8940     7.7070    24.3670     2.2140   -16.8380 
  111.6250   105.0670     6.8880     5.8340     5.8860    24.2940     2.2280   -16.1810 
  111.7500   100.7810     7.1800     5.9960     5.7120    24.3150     2.2370   -15.6630 
  111.8750    93.7890     7.6260     6.3160     6.3300    24.3800     2.2440   -15.3290 
  112.0000    91.7660     8.0930     6.7140     7.0760    24.4580     2.2590   -15.1420 
  112.1250    94.3160     8.4160     7.0570     7.6990    24.5060     2.2940   -15.1100 
  112.2500    94.4460     8.5310     7.2500     8.1960    24.4740     2.3420   -15.1050 
  112.3750    93.1260     8.4440     7.2570     8.9320    24.3640     2.3850   -15.1190 
  112.5000    94.6630     8.1950     7.0990    10.8570    24.3230     2.4050   -15.1230 
  112.6250   100.6260     7.8250     6.8350    10.8870    24.4190     2.3870   -15.1420 
  112.7500   106.0820     7.4760     6.5650     9.2780    24.5720     2.3470   -15.1840 
  112.8750   107.3170     7.2560     6.3550     7.0130    24.6840     2.3030   -15.2590 
  113.0000   103.3810     7.1960     6.2230     6.2660    24.7370     2.2710   -15.3610 
  113.1250    98.0840     7.2650     6.1900     6.5010    24.7420     2.2590   -15.4530 
  113.2500    97.0130     7.3800     6.2340     6.7250    24.6660     2.2600   -15.5630 
  113.3750    99.5100     7.5060     6.3320     6.9030    24.5140     2.2690   -15.6220 
  113.5000    99.8310     7.6360     6.4570     6.9910    24.3550     2.2780   -15.7030 
  113.6250    94.3860     7.7690     6.5630     7.1930    24.1990     2.2830   -15.6820 
  113.7500    87.9170     7.8460     6.6220     7.0410    24.0140     2.2840   -15.6850 
  113.8750    86.0060     7.8130     6.6210     7.1510    23.9250     2.2820   -15.6370 
  114.0000    89.6800     7.6790     6.5510     7.3450    23.8890     2.2770   -15.5990 
  114.1250    93.9790     7.5200     6.4380     7.2080    23.8630     2.2720   -15.5540 
  114.2500    96.2120     7.4180     6.3280     7.0540    23.8430     2.2670   -15.4620 
  114.3750    95.6220     7.3910     6.2480     6.8290    23.8410     2.2620   -15.3380 
  114.5000    93.7700     7.4220     6.2170     6.6810    23.8550     2.2600   -15.1720 
  114.6250    93.6710     7.5140     6.2500     6.8630    23.8870     2.2660   -15.0240 
  114.7500    94.2690     7.6360     6.3190     7.1890    23.9160     2.2850   -14.8700 
  114.8750    93.7230     7.7540     6.3750     7.9990    23.9280     2.3160   -14.7340 
  115.0000    91.9460     7.8150     6.3740     9.2340    23.9260     2.3560   -14.6110 
  115.1250    93.3600     7.7620     6.2900     9.4760    23.9140     2.3890   -14.5020 
  115.2500    97.4720     7.6090     6.1410     8.0210    23.9160     2.4050   -14.4240 
  115.3750    97.9600     7.4100     5.9680     7.3280    23.9410     2.3960   -14.3920 
  115.5000    94.7660     7.2390     5.8140     6.9630    24.0140     2.3690   -14.3730 
  115.6250    94.0700     7.1660     5.7320     6.8970    24.1700     2.3330   -14.3850 
  115.7500    96.9290     7.1900     5.7550     6.7830    24.3910     2.3000   -14.4300 
  115.8750    98.7020     7.3060     5.8920     6.6340    24.6200     2.2760   -14.4760 
  116.0000    97.6900     7.5030     6.1410     6.6750    24.7760     2.2630   -14.5010 
  116.1250    96.2960     7.7860     6.4770     7.2570    24.7830     2.2670   -14.5110 
