~V
VERS. 2.00: Ver 2.00
~W
STRT.M 140.0000:
STOP.M 272.0000:
STEP.M 0.1250:
NULL. -999.2500:
UWI. DF3077:
~C
DEPT.M :
GR.API :
CALI.CM :
RXO.OHMM :
RI. :
RML.OHMM :
DEN.GM/CC :
SP.MV :
~A
# ...
  207.5000    56.8720    24.5590     6.9460     8.5610    10.9340     2.4110   -11.7360 
  207.6250    66.9860    24.5120     7.3620     8.8120    11.2720     2.4380   -11.9640 
  207.7500    75.5850    24.5510     8.1140     8.9760    11.5340     2.4460   -12.2550 
  207.8750    81.1790    24.6040     8.5730     9.0800    11.7840     2.4340   -12.6380 
  208.0000    85.7600    24.6070     8.3760     9.1520    12.0060     2.4140   -13.0360 
  208.1250    90.5910    24.5120     8.0730     9.2280    12.2320     2.4050   -13.4600 
  208.2500    96.5270    24.3650     8.3180     9.3340    12.4530     2.4000   -13.8960 
  208.3750   101.6290    24.4520     8.9110     9.5020    12.6850     2.3860   -14.3090 
  208.5000   103.2170    24.5450     9.5440     9.7610    13.0210     2.3660   -14.6950 
  208.6250    99.9590    24.5660     9.3360    10.1690    13.5210     2.3590   -15.0240 
  208.7500    94.5420    24.6410     9.2720    10.6850    14.1200     2.3690   -15.3140 
  208.8750    89.2260    24.9010    10.0100    11.2520    14.7260     2.3790   -15.5540 
  209.0000    83.6460    25.0620    11.3340    11.8040    15.2510     2.3780   -15.7560 
  209.1250    77.7890    25.0280    13.0230    12.1860    15.5370     2.3700   -15.8780 
  209.2500    74.8060    25.0550    14.7000    12.3910    15.5790     2.3620   -15.9150 
  209.3750    77.4440    25.0730    14.5470    12.4370    15.4260     2.3570   -15.8740 
  209.5000    84.9810    25.0860    12.5320    12.3440    15.1170     2.3510   -15.7560 
  209.6250    91.1650    25.0090    11.8980    12.1730    14.7410     2.3450   -15.6070 
  209.7500    93.0300    24.9190    12.0680    12.0120    14.3860     2.3430   -15.4150 
  209.8750    93.5090    24.9110    12.4300    11.8750    14.1000     2.3470   -15.1810 
  210.0000    94.3100    24.8940    12.7340    11.8000    13.9270     2.3550   -14.9760 
  210.1250    95.4840    24.8150    12.6090    11.7880    13.8510     2.3550   -14.7650 
  210.2500    94.7340    24.6560    12.6690    11.7420    13.7470     2.3460   -14.5520 
  210.3750    92.8300    24.4860    12.8470    11.5990    13.5470     2.3350   -14.3880 
  210.5000    92.1800    24.2640    12.7850    11.3600    13.2410     2.3330   -14.2380 
  210.6250    95.9330    24.2080    12.2180    11.0020    12.8400     2.3410   -14.0740 
  210.7500   100.1460    24.0430    11.5450    10.5340    12.3610     2.3550   -13.8930 
  210.8750    99.5410    23.7500    10.6400    10.0000    11.8150     2.3750   -13.6890 
  211.0000    92.5860    23.7910     9.5940     9.4100    11.1880     2.3950   -13.4200 
  211.1250    83.6640    23.9350     8.8150     8.7860    10.5460     2.4110   -13.1210 
  211.2500    77.1730    24.1020     8.2250     8.2220     9.9890     2.4170   -12.7890 
  211.3750    70.9460    24.1090     7.2330     7.7540     9.5760     2.4130   -12.4010 
  211.5000    61.9750    24.0940     6.2110     7.3950     9.3170     2.3980   -12.0420 
  211.6250    54.4530    23.9890     5.8150     7.1720     9.2290     2.3790   -11.7380 
  211.7500    55.1820    24.0650     5.6230     7.0500     9.2360     2.3630   -11.4990 
  211.8750    61.8160    24.0370     5.4650     6.9940     9.2880     2.3520   -11.3230 
  212.0000    65.7590    23.9140     5.4240     6.9830     9.3570     2.3500   -11.2000 
  212.1250    65.4220    23.8930     5.4390     7.0260     9.3970     2.3610   -11.1920 
  212.2500    66.0300    23.8880     5.4500     7.0860     9.3840     2.3790   -11.3160 
  212.3750    70.9320    23.8980     5.4740     7.1570     9.3400     2.3970   -11.5170 
  212.5000    78.2610    23.9370     5.5100     7.2670     9.3110     2.4070   -11.7430 
  212.6250    83.4110    24.0050     5.5990     7.4290     9.3310     2.4110   -11.9620 
  212.7500    84.1340    24.0480     5.9410     7.6030     9.3630     2.4170   -12.1330 
  212.8750    83.1320    24.2650     6.7050     7.7700     9.3980     2.4210   -12.2900 
  213.0000    83.1020    24.3620     7.4120     7.9230     9.4370     2.4160   -12.4200 
  213.1250    83.0820    24.4990     7.4700     8.0450     9.4930     2.4010   -12.4730 
  213.2500    80.4100    24.7350     7.1110     8.1160     9.5120     2.3890   -12.4870 
  213.3750    76.2330    24.8640     7.1060     8.1170     9.4640     2.3830   -12.5010 
  213.5000    75.2260    24.9110     7.4080     8.0570     9.3440     2.3790   -12.5420 
  213.6250    78.7910    25.0550     7.4290     7.9540     9.1880     2.3650   -12.6060 
  213.7500    83.2520    25.0220     7.1820     7.8600     9.0540     2.3440   -12.7280 
  213.8750    86.2530    24.9110     7.0270     7.8040     8.9720     2.3260   -12.8730 
  214.0000    86.7320    24.8510     6.9650     7.7900     8.9340     2.3230   -13.0660 
  214.1250    86.3150    24.7120     7.0170     7.8210     8.9710     2.3310   -13.3410 
  214.2500    85.8920    24.7490     7.0410     7.9120     9.0990     2.3360   -13.6640 
  214.3750    85.8120    24.6800     6.9910     8.0570     9.3040     2.3360   -14.0240 
  214.5000    85.7200    24.7360     7.1440     8.2240     9.5400     2.3370   -14.3960 
  214.6250    85.2310    24.7460     7.7800     8.3900     9.7800     2.3440   -14.7930 
  214.7500    86.8180    24.9010     8.3590     8.6230    10.1310     2.3480   -15.1830 
  214.8750    87.9080    24.9790     8.2500     9.0290    10.7470     2.3510   -15.5730 
  215.0000    87.1020    24.9720     7.9620     9.6910    11.7610     2.3590   -15.9580 
  215.1250    85.5090    24.9090     8.9070    10.7830    13.4050     2.3730   -16.3190 
  215.2500    82.9500    24.8870    10.6180    12.4200    15.8900     2.3880   -16.6440 
  215.3750    79.2990    24.9040    12.0350    14.7920    19.3910     2.3960   -16.9280 
  215.5000    74.9630    25.0460    14.7310    17.9920    23.8970     2.3910   -17.0980 
  215.6250    71.5300    25.0750    18.4740    22.1380    29.4110     2.3730   -17.2720 
  215.7500    70.7800    25.0980    23.3350    27.0280    35.7090     2.3400   -17.5440 
  215.8750    71.3750    25.1380    25.5470    32.4180    42.4740     2.2900   -17.7920 
  216.0000    71.4930    25.1610    26.4830    38.1710    49.5270     2.2320   -18.0380 
  216.1250    69.8720    25.2570    29.3170    43.9850    56.4670     2.2040   -18.2530 
  216.2500    68.9500    25.2610    34.3960    49.3130    62.5610     2.2240   -18.4430 
  216.3750    69.9160    25.1640    43.4330    53.4570    66.9730     2.2710   -18.6620 
  216.5000    69.4390    24.9640    54.2890    56.5430    70.1060     2.3030   -18.9040 
  216.6250    66.2370    25.0510    58.2440    58.1210    71.3820     2.2930   -19.1390 
  216.7500    63.8960    25.1300    54.8700    58.0030    70.6050     2.2610   -19.4190 
  216.8750    64.0580    25.1450    52.5190    56.3670    68.1900     2.2250   -19.7270 
  217.0000    65.6640    25.1510    51.3600    53.9890    65.1450     2.1970   -20.0320 
  217.1250    65.9200    25.1920    48.9560    51.6930    62.4450     2.1840   -20.3530 
  217.2500    65.0870    25.1920    45.8550    50.3670    61.1560     2.1830   -20.6610 
  217.3750    64.9340    25.1520    41.0690    50.5650    61.8270     2.1880   -20.9230 
  217.5000    66.1720    25.1390    40.7620    52.2360    64.3050     2.1900   -21.1550 
  217.6250    69.4080    25.1220    44.8510    55.4810    68.5810     2.1920   -21.3120 
  217.7500    70.5210    25.0660    48.8910    59.6810    73.7850     2.1930   -21.3780 
  217.8750    68.1620    24.9940    53.3370    64.0100    78.7330     2.1930   -21.4070 
  218.0000    65.6580    24.9080    63.3550    67.5970    82.4090     2.1890   -21.4360 
  218.1250    67.0870    24.8940    69.8540    69.5680    83.8670     2.1870   -21.5360 
  218.2500    68.2210    24.9070    64.9750    69.7560    83.0570     2.1860   -21.6790 
  218.3750    65.9480    25.0140    61.9640    68.5040    80.6200     2.1820   -21.8460 
  218.5000    63.8930    25.0790    62.3240    66.9230    78.2920     2.1770   -22.0210 
  218.6250    65.9180    24.9130    57.5420    66.3390    77.6840     2.1780   -22.2280 
