~V
VERS. 2.00: Ver 2.00
~W
STRT.M 60.0000:
STOP.M 258.0000:
STEP.M 0.1250:
NULL. -999.2500:
UWI. DF3032:
~C
DEPT.M :
GR.API :
RML.OHMM :
RI. :
RXO.OHMM :
CALI.CM :
DEN.GM/CC :
SP.MV :
~A
# ...
  116.2500    81.2450    13.4000    12.6710    15.8020    22.9030     2.3200   -20.7310 
  116.3750    80.9090    12.1470    11.2840    12.5480    23.0650     2.2500   -21.6610 
  116.5000    78.7280    11.6130    10.5700    10.7880    23.5140     2.2090   -22.3820 
  116.6250    78.4070    11.7490    10.4500    10.1000    23.6260     2.2110   -22.9450 
  116.7500    81.2130    12.0980    10.5760    10.0280    23.3850     2.2420   -23.5020 
  116.8750    84.2800    12.3710    10.7260    10.3580    23.1460     2.2830   -23.8570 
  117.0000    84.1350    12.4120    10.7420    10.7590    23.3090     2.3110   -23.9680 
  117.1250    82.0380    12.1770    10.5400    10.6970    23.5540     2.3070   -24.1410 
  117.2500    81.8860    11.8100    10.2040    10.6090    23.6080     2.2800   -24.3410 
  117.3750    84.0530    11.4070     9.8090    10.2600    23.3200     2.2460   -24.3850 
  117.5000    86.0030    11.0260     9.4100     9.8560    23.0140     2.2180   -24.4750 
  117.6250    84.4890    10.7020     9.0530     9.7920    22.8120     2.2050   -24.6930 
  117.7500    83.2880    10.4560     8.7620     9.8050    22.7360     2.2010   -24.7590 
  117.8750    85.9830    10.3270     8.5670     9.5080    22.7090     2.2030   -24.8240 
  118.0000    90.5460    10.3520     8.4990     9.1350    22.8050     2.2070   -25.0980 
  118.1250    90.0470    10.5580     8.5860     9.1030    23.0720     2.2120   -25.3980 
  118.2500    84.0860    10.8570     8.7670     9.4990    23.4180     2.2150   -25.6410 
  118.3750    75.9430    11.1590     8.9790    10.2060    23.5690     2.2160   -25.9930 
  118.5000    69.4920    11.3750     9.1530    10.6880    23.5900     2.2130   -26.4040 
  118.6250    69.2920    11.4430     9.2290    10.7940    23.5580     2.2070   -26.7320 
  118.7500    74.9210    11.4130     9.2260    10.6770    23.3920     2.1970   -27.0200 
  118.8750    80.2270    11.3520     9.1840    10.4900    23.0500     2.1820   -27.2670 
  119.0000    80.4370    11.3180     9.1470    10.3020    22.8150     2.1630   -27.4540 
  119.1250    77.2420    11.3340     9.1410    10.4410    22.8700     2.1440   -27.5950 
  119.2500    76.4400    11.3650     9.1530    10.9980    23.1590     2.1290   -27.6640 
  119.3750    76.7860    11.3800     9.1610    11.6640    23.4410     2.1220   -27.6600 
  119.5000    75.0820    11.3710     9.1570    11.9590    23.6560     2.1270   -27.5880 
  119.6250    72.4200    11.3600     9.1490    11.7670    23.7280     2.1430   -27.3850 
  119.7500    71.5170    11.3830     9.1640    11.5730    23.6070     2.1640   -27.1510 
  119.8750    73.8030    11.4600     9.2220    11.4360    23.4430     2.1840   -26.9590 
  120.0000    77.4630    11.5940     9.3320    11.2060    23.5580     2.1980   -26.6850 
  120.1250    79.3640    11.7710     9.4880    11.0820    23.7770     2.2030   -26.1730 
  120.2500    79.6110    11.9460     9.6450    11.1620    23.9280     2.2020   -25.6560 
  120.3750    77.6580    12.0660     9.7500    11.2220    24.0250     2.1990   -25.1020 
  120.5000    73.9840    12.0600     9.7420    11.1690    24.0960     2.1950   -24.3040 
  120.6250    70.8460    11.8050     9.5240    10.9460    24.1220     2.1900   -23.3320 
  120.7500    71.9590    11.2870     9.0950    10.6710    24.1320     2.1860   -22.3360 
  120.8750    77.7620    10.5370     8.4840    10.1140    24.1550     2.1880   -21.1100 
  121.0000    86.2640     9.6610     7.7760     9.1000    24.2470     2.1980   -19.6410 
  121.1250    94.8660     8.8430     7.1070     7.8870    24.3980     2.2220   -18.3090 
  121.2500   100.9510     8.2310     6.5870     6.7490    24.4990     2.2540   -17.1080 
  121.3750   103.5600     7.8970     6.2740     6.0020    24.3710     2.2870   -15.9160 
  121.5000   103.9300     7.8360     6.1790     5.6370    24.0240     2.3110   -14.8930 
  121.6250   102.5030     8.0090     6.2980     5.6400    23.9540     2.3210   -14.2560 
  121.7500    99.4250     8.2840     6.5370     5.7720    24.0940     2.3190   -13.8520 
  121.8750    96.4370     8.5690     6.8260     5.9740    24.1950     2.3130   -13.6310 
  122.0000    95.8820     8.7860     7.0870     6.2460    24.2190     2.3080   -13.5500 
  122.1250    97.3490     8.8470     7.2220     6.3290    24.2410     2.3060   -13.4700 
  122.2500    98.0270     8.7360     7.1970     6.3800    24.3070     2.3020   -13.4090 
  122.3750    98.1990     8.4560     7.0020     6.4950    24.4410     2.2930   -13.4310 
  122.5000   100.1470     8.0500     6.6700     6.5350    24.6290     2.2820   -13.4400 
  122.6250   105.3060     7.6140     6.2730     6.1460    24.6960     2.2750   -13.3540 
  122.7500   111.3340     7.2680     5.9170     5.6470    24.5850     2.2790   -13.3330 
  122.8750   116.4560     7.0800     5.6630     5.2730    24.4590     2.2930   -13.4170 
  123.0000   118.8760     7.0470     5.5320     5.0540    24.3590     2.3130   -13.6350 
  123.1250   115.0770     7.1000     5.5060     5.1630    24.2390     2.3270   -14.0870 
  123.2500   106.0300     7.1250     5.5150     5.6230    24.0810     2.3290   -14.6270 
  123.3750    95.2940     7.1030     5.5400     6.3130    23.9530     2.3220   -15.1210 
  123.5000    87.5230     7.1340     5.6230     6.9700    23.9980     2.3110   -15.6740 
  123.6250    84.5620     7.5010     5.9340     7.1790    24.1300     2.3040   -16.3770 
  123.7500    83.4600     8.3750     6.5980     7.3120    24.1620     2.3100   -16.9800 
  123.8750    82.4190     9.7790     7.6730     7.8810    24.1650     2.3370   -17.5730 
  124.0000    81.8270    11.5140     9.0720     9.6640    24.3040     2.3870   -18.3230 
  124.1250    81.8530    13.0830    10.4870    12.1770    24.2410     2.4550   -19.0310 
  124.2500    82.3690    13.9970    11.4900    14.0780    23.9900     2.5150   -19.6070 
  124.3750    83.4650    14.0170    11.7990    14.4230    23.7980     2.5440   -20.2800 
  124.5000    83.8070    13.2480    11.3980    14.8320    23.6840     2.5270   -21.0630 
  124.6250    81.9010    12.0870    10.5370    14.5550    23.6120     2.4680   -21.6280 
  124.7500    79.8450    11.0550     9.6710    12.4830    23.5760     2.3980   -22.0760 
  124.8750    78.1450    10.3500     9.0000    10.9610    23.5380     2.3380   -22.5160 
  125.0000    75.0970     9.9850     8.5850    10.4310    23.5110     2.2940   -22.8270 
  125.1250    72.1380     9.9210     8.4390    10.1840    23.5020     2.2690   -22.9030 
  125.2500    73.3160    10.0430     8.4780     9.8560    23.5020     2.2530   -22.8610 
  125.3750    77.9980    10.3140     8.6550     9.6250    23.5020     2.2420   -22.7220 
  125.5000    81.3270    10.6780     8.9090     9.4880    23.5020     2.2350   -22.5100 
  125.6250    80.3640    10.9870     9.1160     9.4180    23.4990     2.2340   -22.2820 
  125.7500    77.4850    11.0350     9.1250     9.3790    23.4880     2.2370   -21.9480 
  125.8750    76.1090    10.6630     8.8170     9.3670    23.5010     2.2470   -21.4900 
  126.0000    78.7820     9.8370     8.1630     9.2510    23.6260     2.2630   -20.9590 
  126.1250    83.6200     8.7150     7.2650     8.7500    23.9670     2.2830   -20.4060 
  126.2500    88.5240     7.6950     6.4120     7.6140    24.3660     2.3010   -19.9490 
  126.3750    93.4430     7.0620     5.8110     6.0780    24.6650     2.3080   -19.6940 
  126.5000    96.8400     6.9580     5.5770     5.1970    24.7130     2.3020   -19.6170 
  126.6250    94.4980     7.4180     5.7870     5.2530    24.5390     2.2840   -19.7540 
  126.7500    87.6830     8.1650     6.2910     6.1730    24.1540     2.2640   -20.2450 
  126.8750    79.7580     8.9620     6.9470     7.5790    23.8730     2.2500   -20.9200 
  127.0000    75.1000     9.5930     7.5920     8.5130    23.7750     2.2430   -21.5880 
  127.1250    74.2820     9.8890     8.0460     8.7790    23.7470     2.2380   -22.4210 
  127.2500    74.7890     9.9370     8.2910     8.8440    23.7090     2.2300   -23.4040 
  127.3750    75.3530     9.8690     8.3860     8.9890    23.6760     2.2170   -24.2260 
