~V
VERS. 2.00: Ver 2.00
~W
STRT.M 60.0000:
STOP.M 264.0000:
STEP.M 0.1250:
NULL. -999.2500:
UWI. DF303:
~C
DEPT.M :
DEN.GM/CC :
SP.MV :
AC.US/MT :
GR.API :
CALI.CM :
RXO.OHMM :
RI. :
RML.OHMM :
~A
# ...
  140.0000     2.4990   -18.6660   361.3700    76.3390    24.3430    12.8780     7.2140     8.5290 
  140.1250     2.5320   -18.9020   323.2690    73.8730    24.3420    19.5170     9.9980    12.2160 
  140.2500     2.4990   -19.1880   315.1260    70.7520    24.3430    22.0090    13.0390    16.2450 
  140.3750     2.4060   -19.5180   337.7990    67.1840    24.3480    20.0470    15.4430    19.1970 
  140.5000     2.3020   -19.8550   374.7150    67.8010    24.3510    17.7200    16.6300    20.1470 
  140.6250     2.2350   -20.1760   402.9420    72.0880    24.3580    17.4310    16.7900    19.6610 
  140.7500     2.2040   -20.4900   415.6430    73.2900    24.3810    17.9470    16.7730    19.2020 
  140.8750     2.1970   -20.7860   417.4370    70.9270    24.4250    18.5490    16.9390    19.2500 
  141.0000     2.2030   -21.0570   415.3850    68.2690    24.4580    18.9670    17.3830    19.8350 
  141.1250     2.2120   -21.2920   413.9060    69.2160    24.4660    19.3340    18.1250    20.8790 
  141.2500     2.2130   -21.5120   413.5500    69.5900    24.4660    19.6040    19.1040    22.2110 
  141.3750     2.2080   -21.6900   413.8540    66.1910    24.4680    19.9920    20.3360    23.8180 
  141.5000     2.2000   -21.8500   414.3390    60.8760    24.4990    21.2390    21.8410    25.7170 
  141.6250     2.1930   -21.9940   414.4160    57.8370    24.6280    23.1260    23.6290    27.9270 
  141.7500     2.1830   -22.1060   413.8080    56.8070    24.8300    24.7010    25.5260    30.2560 
  141.8750     2.1720   -22.2330   412.6690    56.8810    24.9770    25.9890    27.3050    32.4320 
  142.0000     2.1650   -22.3260   411.5450    59.8950    25.0310    27.5700    28.6730    34.0850 
  142.1250     2.1660   -22.4110   411.4100    62.6220    25.0370    28.7510    29.1960    34.6400 
  142.2500     2.1670   -22.4910   412.5240    61.0660    25.0340    28.5870    28.8200    34.0130 
  142.3750     2.1650   -22.5520   414.4760    58.7690    25.0070    26.9500    27.6120    32.3070 
  142.5000     2.1650   -22.6130   416.4360    60.0890    24.9310    24.4850    25.8590    29.9410 
  142.6250     2.1720   -22.6520   417.5550    63.0450    24.7990    21.8690    24.0170    27.5610 
  142.7500     2.1800   -22.6920   417.9390    64.2500    24.6890    19.2960    22.5100    25.6910 
  142.8750     2.1800   -22.7040   417.9560    64.4950    24.5490    17.4990    21.5410    24.5690 
  143.0000     2.1730   -22.7160   417.9020    67.6240    24.4340    17.4910    21.1370    24.2160 
  143.1250     2.1710   -22.7160   417.6250    73.4010    24.3920    19.3580    21.1930    24.4900 
  143.2500     2.1840   -22.6890   416.7100    75.5270    24.3890    20.7270    21.3580    24.8960 
  143.3750     2.2090   -22.6610   415.1180    71.6270    24.3910    21.1730    21.3970    25.0770 
  143.5000     2.2280   -22.6070   413.3070    66.9360    24.3980    20.8510    21.1840    24.8350 
  143.6250     2.2210   -22.5590   411.6870    69.5070    24.4060    20.1580    20.7850    24.2680 
  143.7500     2.2040   -22.4970   409.6250    73.8290    24.4200    19.7850    20.5260    23.8750 
  143.8750     2.2070   -22.4300   406.6820    73.0210    24.4740    20.1020    20.7000    24.0720 
  144.0000     2.2460   -22.3630   404.0120    67.5330    24.5990    20.4310    21.5230    25.1300 
  144.1250     2.2880   -22.2910   404.7550    64.1610    24.7530    21.2940    23.2330    27.3450 
  144.2500     2.2920   -22.2380   409.2700    65.6690    24.8170    23.3870    25.6340    30.4850 
  144.3750     2.2540   -22.1840   414.9080    68.2720    24.8330    27.4640    28.4120    34.1680 
  144.5000     2.2010   -22.1310   417.3160    69.4510    24.8400    32.4100    30.9970    37.6260 
  144.6250     2.1710   -22.0870   412.1890    70.7170    24.8510    34.6590    32.4240    39.4520 
  144.7500     2.1790   -22.0480   401.8410    72.3280    24.8590    34.9670    32.2730    38.9970 
  144.8750     2.2210   -22.0150   390.9700    70.8080    24.8250    32.8240    30.5950    36.3740 
  145.0000     2.2730   -21.9840   384.6290    66.1650    24.6940    29.6460    27.9810    32.5390 
  145.1250     2.3010   -21.9520   385.9450    63.3550    24.4140    26.0090    25.2830    28.7850 
  145.2500     2.2920   -21.8990   391.3560    63.9760    24.1160    22.7590    23.0730    25.8200 
  145.3750     2.2590   -21.8180   397.5800    66.1390    23.9110    20.0750    21.5170    23.7890 
  145.5000     2.2290   -21.7400   402.8070    68.4840    23.8350    18.6920    20.6000    22.6170 
  145.6250     2.2250   -21.6050   405.9110    72.0290    23.8310    19.0590    20.1140    22.0070 
  145.7500     2.2420   -21.4420   405.5670    75.3990    23.8370    19.9660    19.4700    21.1750 
  145.8750     2.2700   -21.2550   400.0220    76.5670    23.8730    20.7570    18.1720    19.4850 
  146.0000     2.3040   -21.0570   390.3780    76.5280    24.0000    20.5900    16.0410    16.7850 
  146.1250     2.3430   -20.8330   382.8830    78.4470    24.1980    17.5550    13.3720    13.5530 
  146.2500     2.3770   -20.6090   383.2130    83.9870    24.3580    12.8700    10.8540    10.6220 
  146.3750     2.3980   -20.4080   391.2370    90.6560    24.4020     8.7000     8.8540     8.3780 
  146.5000     2.3960   -20.2090   402.2760    93.0660    24.4030     6.5690     7.4760     6.8870 
  146.6250     2.3720   -20.0320   411.1930    91.3460    24.4060     6.0760     6.7320     6.1280 
  146.7500     2.3440   -19.8830   417.3520    91.7040    24.4060     5.9430     6.3970     5.8210 
  146.8750     2.3260   -19.7430   421.7740    95.1760    24.4070     5.8630     6.3400     5.8110 
  147.0000     2.3190   -19.5930   424.9880    97.6040    24.4090     5.8220     6.4180     5.9340 
  147.1250     2.3200   -19.4420   426.7680    96.5280    24.4100     5.7720     6.4920     6.0300 
  147.2500     2.3260   -19.2970   427.5820    95.7570    24.4070     5.6720     6.4950     6.0320 
  147.3750     2.3370   -19.1620   427.7570    94.7360    24.3960     5.6680     6.4190     5.9390 
  147.5000     2.3500   -19.0500   427.5010    94.3170    24.3610     5.8200     6.2840     5.7820 
  147.6250     2.3520   -19.0000   426.5730    99.9210    24.2980     6.1970     6.1250     5.6190 
  147.7500     2.3450   -18.9650   424.8470   106.8170    24.2480     6.5900     5.9950     5.5190 
  147.8750     2.3390   -18.9440   422.5590   108.5960    24.2300     6.8870     5.9600     5.5760 
  148.0000     2.3350   -18.9410   420.2360   103.9410    24.2270     7.1360     6.1310     5.9320 
  148.1250     2.3290   -18.9650   416.6060    96.2970    24.2310     7.5640     6.7470     6.8970 
  148.2500     2.3290   -18.9920   406.6550    87.7480    24.2400     8.3570     7.9310     8.6070 
  148.3750     2.3560   -19.0020   384.1180    78.3570    24.2960    10.1600     9.7620    11.1480 
  148.5000     2.4200   -18.9830   347.7920    70.3870    24.4400    14.5640    12.0300    14.2740 
  148.6250     2.4980   -18.9410   309.7900    68.0190    24.6260    21.9090    13.7310    16.6940 
  148.7500     2.5400   -18.8800   291.0480    74.9310    24.7050    25.6770    13.8510    16.8690 
  148.8750     2.5290   -18.8190   301.3250    87.9880    24.7220    22.1730    12.5170    14.8110 
  149.0000     2.4850   -18.7640   332.1140    96.3530    24.7220    14.8180    10.7810    12.1270 
  149.1250     2.4490   -18.7100   357.8910    91.3910    24.7220    10.4100     9.6950    10.5210 
  149.2500     2.4390   -18.6630   361.4610    84.5230    24.7280     9.7240     9.5190    10.3230 
  149.3750     2.4540   -18.6390   345.2260    81.7090    24.7610    11.8850    10.3270    11.5230 
  149.5000     2.4860   -18.6350   322.0460    78.8220    24.8410    15.1640    12.1480    14.0460 
  149.6250     2.5170   -18.6310   304.5330    69.8860    24.9400    17.8580    15.0370    17.8310 
  149.7500     2.5410   -18.6420   293.8240    62.1640    24.9900    19.3580    18.4220    22.0830 
  149.8750     2.5650   -18.6610   286.4030    61.5070    25.0030    20.7350    21.6410    25.9380 
