~V
VERS. 2.00: Ver 2.00
~W
STRT.M 60.0000:
STOP.M 273.0000:
STEP.M 0.1250:
NULL. -999.2500:
UWI. DF3001:
~C
DEPT.M :
DEN.GM/CC :
SP.MV :
AC.US/MT :
GR.API :
RML.OHMM :
RI. :
RXO.OHMM :
CALI.CM :
~A
# ...
  260.0000     2.4400    -6.5090   228.7420    82.4410    20.4010    20.1490    36.5590    24.5560 
  260.1250     2.4530    -6.5530   233.9210    79.1680    18.9750    18.7110    34.0730    24.5550 
  260.2500     2.4650    -6.6340   236.7250    75.6310    17.6470    17.3020    29.6340    24.5510 
  260.3750     2.4720    -6.7190   236.9020    72.7470    16.6620    16.1890    23.2180    24.5470 
  260.5000     2.4730    -6.7340   237.9800    70.9610    16.1860    15.5390    19.4810    24.5450 
  260.6250     2.4710    -6.7520   241.0690    70.5280    16.3370    15.4860    18.4020    24.5430 
  260.7500     2.4670    -6.7460   243.8660    70.4020    17.0170    15.8760    18.5220    24.5450 
  260.8750     2.4610    -6.6800   243.5580    70.6110    18.0800    16.5860    19.2620    24.5470 
  261.0000     2.4530    -6.6360   241.4950    70.8540    19.3270    17.4690    20.2180    24.5490 
  261.1250     2.4450    -6.6100   239.2340    71.5520    20.5430    18.3810    20.9280    24.5520 
  261.2500     2.4420    -6.5260   236.4510    71.4620    21.2680    19.2190    21.5000    24.5450 
  261.3750     2.4440    -6.4780   231.7690    71.0180    21.8610    19.9390    22.2300    24.5320 
  261.5000     2.4510    -6.4460   226.4780    70.7340    22.3170    20.5190    23.0730    24.5490 
  261.6250     2.4590    -6.4020   222.5810    70.3990    22.6000    20.9130    24.1680    24.5630 
  261.7500     2.4690    -6.4460   221.3320    69.8270    22.7240    21.1390    25.2390    24.5730 
  261.8750     2.4770    -6.5400   223.1510    69.2510    22.6980    21.1980    25.7000    24.5750 
  262.0000     2.4830    -6.5920   226.6730    69.2170    22.5490    21.1120    25.2110    24.5750 
  262.1250     2.4840    -6.6630   231.1070    69.2170    22.3250    20.9230    24.0110    24.5720 
  262.2500     2.4800    -6.7960   235.9540    69.2170    22.0970    20.7130    22.9340    24.5520 
  262.3750     2.4710    -6.9190   240.8020    69.2170    21.9070    20.5340    22.3540    24.5070 
  262.5000     2.4610    -7.0800   245.2820    69.2170    21.7700    20.4070    22.9320    24.4720 
  262.6250     2.4550    -7.2550   249.3110    69.2170    21.6670    20.3240    24.2180    24.4610 
  262.7500     2.4550    -7.3630   251.0320    69.2170    21.5420    20.2290    25.3940    24.4610 
  262.8750     2.4590    -7.4160   247.4680    69.2170    21.3490    20.0770    25.7610    24.4630 
  263.0000     2.4630    -7.4450   240.9350    69.2170    21.0580    19.8410    25.1540    24.4670 
  263.1250     2.4660    -7.4370   235.1020    69.2170    20.6620    19.5080    23.2560    24.4700 
  263.2500     2.4660    -7.4260   231.4670    69.2170    20.2140    19.1200    21.4310    24.4700 
  263.3750     2.4620    -7.4430   229.1550    69.2170    19.7730    18.7230    20.5450    24.4690 
  263.5000     2.4590    -7.4810   228.4350    69.2170    19.3990    18.3770    20.1400    24.4660 
  263.6250     2.4590    -7.5390   230.3570    69.2170    19.1710    18.1580    19.0770    24.4620 
  263.7500     2.4660    -7.6000   233.8860    69.2170    19.1020    18.0860    17.8860    24.4630 
  263.8750     2.4790    -7.6560   236.5690    69.2170    19.1990    18.1730    18.1460    24.4620 
  264.0000     2.4930    -7.7430   237.5300    69.2170    19.4360    18.4000    19.3270    24.4640 
  264.1250     2.5020    -7.8830   237.6380    69.2170    19.7380    18.7070    20.1770    24.4680 
  264.2500     2.4980    -8.0140   238.1270    69.2170    19.9700    18.9690    20.2380    24.4670 
  264.3750     2.4790    -8.1180   238.8480    69.2170    20.0300    19.0880    19.9350    24.4620 
  264.5000     2.4480    -8.1570   238.4760    69.2170    19.8700    19.0060    20.1680    24.4550 
  264.6250     2.4150    -8.1130   236.9900    69.2170    19.5240    18.7360    19.6280    24.4520 
  264.7500     2.3950    -8.0230   236.2210    69.2170    19.1830    18.4500    18.8250    24.4510 
  264.8750     2.3960    -7.9510   238.2720    69.2170    19.0250    18.3140    17.8260    24.4550 
  265.0000     2.4160    -7.8880   241.7750    69.2170    19.1860    18.4690    17.1880    24.4610 
  265.1250     2.4460    -7.7460   244.1880    69.2170    19.7690    19.0270    19.0010    24.4680 
  265.2500     2.4690    -7.6010   244.1540    69.2170    20.6040    19.8480    21.5540    24.4560 
  265.3750     2.4820    -7.4370   242.0700    69.2170    21.4790    20.7510    24.1360    24.4410 
  265.5000     2.4880    -7.2950   239.2290    69.2170    22.1550    21.5180    25.9960    24.4200 
  265.6250     2.4920    -7.2300   235.8720    69.2170    22.3880    21.9140    25.1300    24.4100 
  265.7500     2.4960    -7.2070   232.5870    69.2170    22.2590    21.9670    23.9030    24.4050 
  265.8750     2.4980    -7.1970   230.5720    69.2170    21.9380    21.7960    23.6160    24.4040 
  266.0000     2.4950    -7.2280   229.6440    69.2170    21.6210    21.5660    22.5210    24.4050 
  266.1250     2.4890    -7.3500   228.5900    69.2170    21.4780    21.4370    22.6350    24.4060 
  266.2500     2.4850    -7.4230   226.7660    69.2170    21.4990    21.4440    22.7650    24.4080 
  266.3750     2.4870    -7.4910   224.9220    69.2170    21.6220    21.5590    22.6200    24.4100 
  266.5000     2.4930    -7.5500   224.1620    69.2170    21.7620    21.7210    21.9050    24.4120 
  266.6250     2.5000    -7.5810   225.0510    69.2170    21.8510    21.8670    20.7870    24.4130 
  266.7500     2.5010    -7.6170   227.6970    69.2170    21.8920    21.9690    20.3380    24.4150 
  266.8750     2.4950    -7.6950   231.5280    69.2170    21.9070    22.0290    21.0290    24.4200 
  267.0000     2.4810    -7.7820   234.8250    69.2170    21.9100    22.0590    22.2160    24.4250 
  267.1250     2.4620    -7.8720   236.2700    69.2170    21.9070    22.0680    23.1220    24.4260 
  267.2500     2.4390    -7.9680   235.3610    69.2170    21.8980    22.0690    23.6950    24.4250 
  267.3750     2.4130    -8.0680   231.9970    69.2170    21.8850    22.0680    24.2620    24.4060 
  267.5000     2.3840    -8.2080   227.2880    69.2170    21.8710    22.0660    25.0570    24.3520 
  267.6250     2.3540    -8.2430   222.3960    69.2170    21.8630    22.0640    26.6040    24.2790 
  267.7500     2.3240    -8.1070   218.1420    69.2170    21.8620    22.0650    28.4990    24.2130 
  267.8750     2.2970    -7.8160   214.6760    69.2170    21.8630    22.0660    29.4580    24.0330 
  268.0000     2.2720    -7.4570   211.8820    69.2170    21.8650    22.0670    27.8980    23.5330 
  268.1250     2.2500    -7.1490   209.9160    69.2170    21.8650    22.0670    25.7920    22.7500 
  268.2500     2.2300    -6.8340   208.5960    69.2170    21.8650    22.0670    23.5410    21.7890 
  268.3750     2.2110    -6.4920   207.4740    69.2170    21.8650    22.0670    22.2760    20.8620 
  268.5000     2.1920    -6.1260   206.6970    69.2170    21.8650    22.0670    21.8020    20.1400 
  268.6250     2.1740    -5.8490   207.0360    69.2170    21.8650    22.0670    21.6010    19.8100 
  268.7500     2.1580    -5.7100   209.0820    69.2170    21.8650    22.0670    21.2650    19.7220 
  268.8750     2.1460    -5.6580   213.1000    69.2170    21.8650    22.0670    20.6520    19.7110 
  269.0000     2.1430    -5.5820   217.9080    69.2170    21.8650    22.0670    20.3640    19.7170 
  269.1250     2.1480    -5.4440   222.5860    69.2170    21.8650    22.0670    20.2380    19.7470 
  269.2500     2.1630    -5.3280   226.3010    69.2170    21.8650    22.0670    20.1110    19.8100 
  269.3750     2.1820    -5.2030   228.1740    69.2170    21.8650    22.0670    19.6630    19.9040 
  269.5000     2.2000    -5.0500   227.6510    69.2170    21.8650    22.0670    19.3570    20.0680 
  269.6250     2.2120    -4.9880   223.7590    69.2170    21.8650    22.0670    19.6450    20.2790 
  269.7500     2.2190    -4.9860   216.3780    69.2170    21.8650    22.0670    20.3940    20.4360 
  269.8750     2.2220    -4.9930   211.1360    69.2170    21.8650    22.0670    20.4840    20.5180 
