~V
VERS. 2.00: Ver 2.00
~W
STRT.M 125.0000:
STOP.M 265.0000:
STEP.M 0.1250:
NULL. -999.2500:
UWI. DF3008:
~C
DEPT.M :
DEN.GM/CC :
GR.API :
CALI.CM :
RXO.OHMM :
RI. :
RML.OHMM :
SP.MV :
~A
# ...
  158.7500     2.3220    77.3210    25.0170    56.1760    66.7010    69.7990   -23.3520 
  158.8750     2.3250    66.8640    25.0730    63.1040    72.4000    75.6670   -23.4770 
  159.0000     2.3190    60.8580    25.0910    80.2510    81.3960    85.0650   -23.6720 
  159.1250     2.3020    59.2570    25.0920   101.7370    94.0840    98.2640   -23.9280 
  159.2500     2.2810    57.1960    25.0910   116.7850   109.2090   113.6920   -24.2120 
  159.3750     2.2610    55.0190    25.0910   125.6880   125.5280   129.9530   -24.5180 
  159.5000     2.2450    54.6510    25.0920   138.8280   141.6410   145.7880   -24.8130 
  159.6250     2.2350    54.5520    25.0920   159.6110   156.4980   160.3620   -25.0840 
  159.7500     2.2280    54.4010    25.0910   172.7820   170.2150   173.6740   -25.3430 
  159.8750     2.2230    54.4790    25.0880   177.9470   182.2880   184.9830   -25.5980 
  160.0000     2.2220    54.1370    25.0880   193.3710   190.6790   192.4270   -25.8250 
  160.1250     2.2260    53.6310    25.0880   218.6570   191.2040   192.6700   -26.0340 
  160.2500     2.2330    54.8250    25.0890   223.0850   184.3050   186.3790   -26.2090 
  160.3750     2.2380    57.5280    25.0890   180.3930   172.2920   175.4380   -26.3390 
  160.5000     2.2410    59.5590    25.0900   148.0700   158.5630   162.6830   -26.4230 
  160.6250     2.2390    60.5770    25.0870   138.1590   146.5040   151.1960   -26.4400 
  160.7500     2.2350    61.2130    25.0860   137.8660   137.3670   142.4510   -26.4230 
  160.8750     2.2340    60.9030    25.0870   134.9530   131.1600   136.6720   -26.3790 
  161.0000     2.2410    59.5660    25.0890   126.4470   127.2040   133.2850   -26.3250 
  161.1250     2.2520    58.4590    25.0910   121.0680   124.5920   131.3770   -26.2370 
  161.2500     2.2550    58.2270    25.0900   119.5800   122.1340   129.6420   -26.1240 
  161.3750     2.2460    58.5780    25.0870   121.6490   119.1920   127.3730   -25.9880 
  161.5000     2.2350    58.9590    25.0860   123.3100   115.2140   123.9960   -25.8310 
  161.6250     2.2350    59.5000    25.0860   121.9760   109.5800   118.8250   -25.6700 
  161.7500     2.2420    60.3380    25.0860   118.2750   102.7410   112.2070   -25.4960 
  161.8750     2.2570    61.4660    25.0860   113.4030    95.4260   104.7800   -25.3040 
  162.0000     2.2770    61.6170    25.0860   102.2670    88.5260    97.4500   -25.0690 
  162.1250     2.2910    62.0200    25.0650    89.4850    83.0800    91.3590   -24.7970 
  162.2500     2.2950    64.8510    24.9860    82.0460    79.3730    86.9880   -24.5500 
  162.3750     2.2960    68.1100    24.8470    77.6770    77.5240    84.5560   -24.3440 
  162.5000     2.3010    68.1980    24.7540    73.8230    77.3710    83.9500   -24.1840 
  162.6250     2.3030    66.8440    24.7300    72.6290    78.5520    84.8500   -24.0640 
  162.7500     2.3000    66.0030    24.7360    74.6550    80.0950    86.2680   -23.9530 
  162.8750     2.2960    65.7520    24.7470    72.8090    81.3790    87.6050   -23.8640 
  163.0000     2.2960    64.9460    24.7540    63.0120    82.1090    88.5880   -23.8180 
  163.1250     2.3040    63.2030    24.7560    50.0580    82.4660    89.3980   -23.8140 
  163.2500     2.3090    65.0240    24.7550    46.9520    83.0780    90.5510   -23.8240 
  163.3750     2.3030    69.8210    24.7230    55.8400    84.2990    92.3120   -23.8400 
  163.5000     2.2890    70.9600    24.6340    71.6750    86.0720    94.5600   -23.8490 
  163.6250     2.2820    66.7950    24.4750    84.9010    87.8160    96.7030   -23.8120 
  163.7500     2.2860    61.2710    24.4050    90.0470    88.7890    98.0360   -23.7420 
  163.8750     2.2960    60.0380    24.3880    86.6430    88.6100    98.1680   -23.6350 
  164.0000     2.3010    67.0300    24.3880    79.6820    87.3730    97.1290   -23.5070 
  164.1250     2.3020    75.3290    24.3870    74.2560    85.1840    94.9290   -23.3880 
  164.2500     2.3030    76.3390    24.3790    71.6280    82.0710    91.6230   -23.2420 
  164.3750     2.3070    67.7310    24.3600    71.5690    77.8820    87.1030   -23.0770 
  164.5000     2.3180    61.9420    24.3460    71.3160    72.9250    81.7070   -22.9090 
  164.6250     2.3310    62.8920    24.3420    65.6460    68.1750    76.4210   -22.7970 
  164.7500     2.3390    64.8490    24.3760    58.7460    64.6840    72.3670   -22.7360 
  164.8750     2.3350    65.8320    24.5010    56.6430    63.1110    70.2680   -22.7200 
  165.0000     2.3190    66.0070    24.7660    61.9770    63.7000    70.4200   -22.7330 
  165.1250     2.3010    65.2960    24.9190    68.5410    66.7240    73.1610   -22.7690 
  165.2500     2.2880    64.0900    24.9820    68.6960    71.6900    78.0280   -22.8390 
  165.3750     2.2790    63.6040    24.9910    64.6840    78.6100    85.0870   -22.9370 
  165.5000     2.2670    60.7570    24.9920    66.1250    87.6830    94.5550   -23.0560 
  165.6250     2.2510    55.2760    24.9920    87.5790    99.7310   107.2130   -23.1630 
  165.7500     2.2380    52.1820    24.9920   120.4680   114.6660   122.7820   -23.2720 
  165.8750     2.2360    54.3470    24.9920   151.9650   132.3250   140.9110   -23.3910 
  166.0000     2.2420    57.0160    24.9920   167.9820   151.8320   160.5860   -23.5380 
  166.1250     2.2420    55.2160    24.9920   169.5130   171.9420   180.5860   -23.7020 
  166.2500     2.2270    52.3150    24.9920   170.9160   192.2280   200.7720   -23.9010 
  166.3750     2.2050    51.9130    24.9920   187.2480   213.5380   221.9980   -24.1400 
  166.5000     2.1910    52.2470    24.9920   227.6170   236.2990   244.2580   -24.4280 
  166.6250     2.1930    50.4910    24.9520   258.4080   257.3510   263.7090   -24.8060 
  166.7500     2.2030    49.7710    24.8490   269.1240   269.8730   274.2020   -25.2640 
  166.8750     2.2150    51.9720    24.7310   273.8720   267.8450   271.0420   -25.8130 
  167.0000     2.2260    55.5210    24.6710   272.2680   251.3190   254.7350   -26.4410 
  167.1250     2.2400    58.0050    24.6710   244.2220   226.8350   230.9010   -27.1960 
  167.2500     2.2540    58.1740    24.6900   200.6270   203.4210   207.8010   -28.0270 
  167.3750     2.2600    57.2470    24.7260   164.1360   184.3760   188.8000   -28.8810 
  167.5000     2.2530    58.4100    24.7540   145.8390   170.5130   174.9510   -29.7170 
  167.6250     2.2390    60.2410    24.8000   141.2170   162.1460   166.8070   -30.5010 
  167.7500     2.2320    59.7750    24.8930   140.4430   157.6080   162.7780   -31.1660 
  167.8750     2.2330    57.1270    25.0070   142.6100   156.2290   162.1720   -31.6660 
  168.0000     2.2380    56.0670    25.0720   146.8040   157.5980   164.4640   -31.9740 
  168.1250     2.2390    56.3590    25.0860   149.3800   161.5250   169.2150   -32.0520 
  168.2500     2.2380    55.3660    25.0860   151.4860   166.0820   174.2510   -31.9620 
  168.3750     2.2360    53.3880    25.0860   160.2830   168.4070   176.6920   -31.7440 
  168.5000     2.2370    51.5370    25.0860   178.2590   164.8610   173.2220   -31.4310 
  168.6250     2.2420    51.6640    25.0860   187.6130   152.1480   160.8310   -30.9950 
  168.7500     2.2490    54.5790    25.0860   171.5640   134.2230   143.0440   -30.5100 
  168.8750     2.2600    60.0960    25.0860   137.6130   115.9030   124.2800   -30.0020 
  169.0000     2.2740    65.6420    25.0860   105.7440   101.1490   108.6270   -29.5220 
  169.1250     2.2880    66.3850    25.0860    89.1200    92.8460    99.4760   -29.0750 
  169.2500     2.2960    60.9160    25.0860    83.0460    90.2980    96.4800   -28.6530 
  169.3750     2.2950    55.0540    25.0920    86.7680    93.0940    99.2940   -28.2760 
  169.5000     2.2900    53.8430    25.1110   100.0650   100.5050   107.0650   -27.9480 
  169.6250     2.2840    55.4000    25.1510   118.0210   111.4160   118.3240   -27.6840 
  169.7500     2.2750    56.9380    25.1860   134.1000   122.3120   129.1990   -27.4870 
  169.8750     2.2590    57.8370    25.2380   142.3630   129.6220   136.1130   -27.3820 
