~V
VERS. 2.00: Ver 2.00
~W
STRT.M 110.0000:
STOP.M 277.0000:
STEP.M 0.1250:
NULL. -999.2500:
UWI. DF3015:
~C
DEPT.M :
DEN.GM/CC :
SP.MV :
AC.US/MT :
GR.API :
CALI.CM :
RXO.OHMM :
RI. :
RML.OHMM :
~A
# ...
  150.0000     2.5460   -10.4250   295.6940    70.3760    25.2850    13.2120    13.5780    15.7560 
  150.1250     2.5460   -10.6740   296.7760    71.8300    25.2850    13.3600    13.3260    15.4250 
  150.2500     2.5440   -10.7940   297.5200    69.1730    25.2850    13.3500    13.2460    15.2860 
  150.3750     2.5320   -10.7140   297.6300    63.9340    25.2850    13.1660    13.3770    15.3510 
  150.5000     2.5080   -10.3650   296.8730    61.8500    25.2840    13.0660    13.7060    15.5690 
  150.6250     2.4970    -9.7410   295.0330    63.3170    25.2820    13.3210    14.2020    15.8170 
  150.7500     2.5090    -9.0060   292.4960    64.2950    25.2800    13.7150    14.7610    16.0400 
  150.8750     2.5270    -8.3570   289.7150    64.2840    25.2820    14.2070    15.3400    16.3230 
  151.0000     2.5320    -7.8890   287.3490    65.0610    25.2840    14.9040    15.9210    16.7620 
  151.1250     2.5290    -7.5770   286.1940    65.8900    25.2850    15.1540    16.3540    17.2450 
  151.2500     2.5330    -7.3420   286.2330    65.2240    25.2840    14.8610    16.4660    17.4330 
  151.3750     2.5440    -7.1470   287.3550    65.1800    25.2800    14.3280    16.2080    17.1450 
  151.5000     2.5550    -6.9630   289.5270    65.5770    25.2770    13.9550    15.6640    16.4210 
  151.6250     2.5590    -6.7780   292.7980    63.8230    25.2760    13.4610    14.9970    15.5190 
  151.7500     2.5520    -6.6540   296.3100    60.6090    25.2760    12.3910    14.4140    14.8170 
  151.8750     2.5340    -6.6060   298.9850    57.7200    25.2760    11.2410    14.0380    14.4640 
  152.0000     2.5140    -6.6410   300.2060    55.9480    25.2760    10.7790    13.8880    14.4360 
  152.1250     2.5100    -6.7570   301.0330    55.9310    25.2760    11.5040    13.8810    14.5840 
  152.2500     2.5200    -6.9230   304.2360    57.4280    25.2760    12.6900    13.8380    14.6350 
  152.3750     2.5230    -7.1640   312.1020    59.6150    25.2760    13.2850    13.6050    14.3980 
  152.5000     2.4970    -7.5000   325.3130    63.0990    25.2770    12.6350    13.1160    13.8070 
  152.6250     2.4480    -7.9830   342.7340    67.9650    25.2730    11.3420    12.4860    13.0480 
  152.7500     2.4070    -8.5970   360.6340    72.6660    25.2420    10.3530    12.0220    12.5530 
  152.8750     2.3880    -9.3420   376.4510    80.2180    25.1370    10.3190    11.9840    12.6660 
  153.0000     2.3820   -10.1770   388.6000    91.3730    24.9460    11.5650    12.5650    13.6000 
  153.1250     2.3720   -11.0810   395.9920    98.5870    24.7230    14.3980    13.9810    15.5320 
  153.2500     2.3530   -12.0120   400.0100    95.4940    24.6060    18.2400    16.0550    18.1290 
  153.3750     2.3380   -12.9480   401.7980    88.7340    24.5720    22.2410    18.5590    21.0370 
  153.5000     2.3360   -13.8540   402.3950    87.7410    24.5690    25.0190    21.1580    23.8470 
  153.6250     2.3450   -14.6530   402.2960    90.4050    24.5690    26.2170    23.5580    26.2840 
  153.7500     2.3510   -15.3000   401.7100    90.0880    24.5690    27.3260    25.8720    29.7680 
  153.8750     2.3450   -15.8020   400.8590    85.4330    24.5810    29.7240    28.4370    33.7210 
  154.0000     2.3200   -16.1960   400.2330    81.8610    24.6350    34.4170    31.6120    37.4080 
  154.1250     2.2890   -16.5160   400.5920    81.3490    24.8050    41.4210    35.6770    42.1890 
  154.2500     2.2680   -16.7960   401.9670    81.1510    25.0450    48.9860    40.2410    47.4940 
  154.3750     2.2630   -17.0360   403.9280    78.7160    25.2800    55.4670    44.7670    52.6030 
  154.5000     2.2700   -17.2490   405.7860    75.3740    25.4110    57.6650    48.7570    56.9000 
  154.6250     2.2810   -17.4420   406.7840    73.7340    25.4750    54.5100    51.9710    60.2010 
  154.7500     2.2910   -17.6350   406.8820    74.2040    25.5360    51.8240    54.7800    63.0960 
  154.8750     2.2920   -17.7980   406.3030    75.4530    25.5790    53.9690    57.3810    65.8480 
  155.0000     2.2850   -17.9200   405.4030    76.5190    25.5940    60.2960    59.6590    68.2410 
  155.1250     2.2750   -18.0080   404.6130    76.4420    25.5940    64.8890    61.0440    69.4620 
  155.2500     2.2690   -18.0680   404.1430    74.6330    25.5940    64.6700    61.3890    69.3640 
  155.3750     2.2670   -18.1030   403.9720    71.8520    25.5940    60.7690    61.0280    68.5010 
  155.5000     2.2670   -18.1080   403.9760    71.4270    25.5940    58.8730    60.8380    68.0370 
  155.6250     2.2760   -18.1080   403.9780    73.8540    25.5940    63.8930    62.2510    69.6380 
  155.7500     2.2900   -18.0980   403.8630    76.3170    25.5940    71.1760    65.9910    73.9480 
  155.8750     2.2970   -18.0680   403.6910    75.0570    25.5940    78.3450    72.4600    81.3000 
  156.0000     2.2900   -18.0340   403.6630    72.1340    25.5940    86.6490    81.4510    91.4210 
  156.1250     2.2740   -17.9890   404.0120    70.2120    25.5940    91.6150    92.0160   103.2280 
  156.2500     2.2630   -17.9870   404.6400    69.4330    25.5940    95.2050   102.1170   114.3500 
  156.3750     2.2560   -18.0360   405.3140    67.9000    25.5940    95.5270   110.2630   122.9820 
  156.5000     2.2530   -18.1280   405.8070    66.9810    25.5940    93.0770   115.5570   128.0910 
  156.6250     2.2550   -18.2490   405.9590    68.4940    25.5940    90.3840   117.3050   129.0470 
  156.7500     2.2590   -18.4000   405.9120    70.1110    25.5940    92.4970   116.3720   127.0500 
  156.8750     2.2640   -18.5810   405.8210    68.9840    25.5940   100.7920   113.2230   122.7070 
  157.0000     2.2650   -18.7590   405.7420    68.0590    25.5940   108.2810   108.4970   116.8110 
  157.1250     2.2560   -18.9390   405.5500    69.1180    25.5940   101.8670   103.3740   110.7890 
  157.2500     2.2420   -19.0740   405.1470    70.3980    25.5940    87.5210    99.4000   106.2530 
  157.3750     2.2340   -19.1400   404.5530    70.1580    25.5940    76.3590    97.6430   104.2140 
  157.5000     2.2380   -19.1280   403.9720    70.5870    25.5940    74.2170    98.6390   105.0890 
  157.6250     2.2530   -19.0260   403.7310    73.9330    25.5930    82.9250   102.3190   108.6100 
  157.7500     2.2670   -18.8760   403.7180    78.1250    25.5810    96.7580   106.4370   112.2310 
  157.8750     2.2720   -18.7170   403.6070    78.2020    25.5430   110.9240   108.6730   113.3730 
  158.0000     2.2650   -18.5980   403.1810    75.7120    25.4580   119.2330   107.5410   110.6710 
  158.1250     2.2550   -18.5260   402.5970    74.4130    25.3420   112.9630   103.1500   104.9300 
  158.2500     2.2530   -18.4870   402.2170    74.9870    25.1760    95.1250    97.9560    99.0520 
  158.3750     2.2620   -18.5140   402.0520    74.2400    25.0340    78.1930    93.5210    94.5350 
  158.5000     2.2750   -18.6050   401.7730    72.3530    24.9690    74.8820    90.4150    91.6410 
  158.6250     2.2790   -18.7620   400.8210    71.5580    24.9590    84.3570    88.1010    89.4910 
  158.7500     2.2780   -18.9570   399.3400    73.7340    24.9590    85.4800    85.5030    86.8700 
  158.8750     2.2800   -19.2070   397.9450    78.2250    24.9590    74.5520    82.5820    83.8490 
  159.0000     2.2880   -19.4700   397.2720    79.7820    24.9590    64.2470    80.2230    81.5320 
  159.1250     2.2940   -19.7300   397.7920    77.4510    24.9590    61.8040    80.3680    82.0560 
  159.2500     2.2940   -20.0140   399.0790    74.0040    24.9590    62.0960    84.2050    86.5200 
  159.3750     2.2880   -20.2670   400.6410    72.2430    24.9590    70.7530    92.5630    95.6770 
  159.5000     2.2770   -20.4970   402.0130    69.9390    24.9590    97.0060   105.2720   109.3740 
  159.6250     2.2650   -20.6950   402.9100    68.1770    24.9590   134.8890   120.9580   126.2530 
  159.7500     2.2600   -20.8730   403.5190    68.6730    24.9590   156.8790   136.2530   142.6500 
  159.8750     2.2660   -21.0050   403.9690    68.8930    24.9590   157.1670   148.7620   155.8500 
