~V
VERS. 2.00: Ver 2.00
~W
STRT.M 64.0000:
STOP.M 278.0000:
STEP.M 0.1250:
NULL. -999.2500:
UWI. DF3056:
~C
DEPT.M :
SP.MV :
GR.API :
CALI.CM :
RXO.OHMM :
RI. :
RML.OHMM :
DEN.GM/CC :
~A
   64.0000    41.9560    49.8610    25.0180    17.7990     2.0540     8.7940  -999.2500 
   64.1250    40.7860    51.9920    25.0820    17.3990     2.0590     8.5290  -999.2500 
   64.2500    39.4730    51.6660    25.2160    19.2920     2.0510     8.2890  -999.2500 
   64.3750    38.0140    49.6490    25.2500    23.8880     2.0310     8.1220  -999.2500 
   64.5000    36.3800    48.7070    25.3050    28.6170     2.0090     8.0420  -999.2500 
   64.6250    34.5850    51.1870    25.3210    30.7430     1.9870     8.0480  -999.2500 
   64.7500    32.6960    55.5230    25.3300    30.7980     1.9720     8.1110  -999.2500 
   64.8750    30.7420    58.4600    25.3630    30.9630     1.9590     8.1570  -999.2500 
   65.0000    28.7370    57.3980    25.3790    36.1650     1.9540     8.1430  -999.2500 
   65.1250    26.6950    54.6130    25.3810    36.2580     1.9520     8.1080  -999.2500 
   65.2500    24.6140    53.6460    25.3810    34.3710     1.9460     8.0610  -999.2500 
   65.3750    22.4820    53.1660    25.5110    32.8480     1.9450     8.0340  -999.2500 
   65.5000    20.2760    51.4710    25.5720    32.5560     1.9510     7.9980  -999.2500 
   65.6250    17.9770    49.7900    25.5350    30.3560     1.9630     7.9630  -999.2500 
   65.7500    15.6220    49.6970    25.4060    28.2050     1.9650     8.0380  -999.2500 
   65.8750    13.2720    49.7720    25.3930    22.8800     1.9520     8.1940  -999.2500 
   66.0000    10.9190    50.0600    25.4160    21.0220     1.9150     8.2790  -999.2500 
   66.1250     8.5060    50.7100    25.5650    23.7100     1.7730     7.4240  -999.2500 
   66.2500     5.9660    48.9230    25.5740    28.7030     1.4940     5.4470  -999.2500 
   66.3750     3.2420    46.7420    25.4500    31.5370     1.1470     3.4310  -999.2500 
   66.5000     0.2560    49.0460    25.3500    33.0120     0.8230     2.0260  -999.2500 
   66.6250    -3.1460    54.2850    25.3180    32.2750     0.5980     1.2620  -999.2500 
   66.7500    -6.9810    55.6550    25.3080    30.9090     0.4590     0.8310  -999.2500 
   66.8750   -11.2330    55.0560    25.2940    25.8410     0.4060     0.6380  -999.2500 
   67.0000   -15.7320    58.7620    25.2930    17.3860     0.4520     0.6500  -999.2500 
   67.1250   -20.2960    66.4760    25.2310    10.8120     0.6740     0.9130  -999.2500 
   67.2500   -24.7570    70.1670    25.0640    10.6380     1.1630     1.4700  -999.2500 
   67.3750   -28.9750    67.5670    24.4630    18.2270     2.0490     2.4030  -999.2500 
   67.5000   -32.7690    62.0410    23.9030    27.3610     3.3700     3.7240  -999.2500 
   67.6250   -35.8190    59.5690    23.6150    28.1420     4.9960     5.3170  -999.2500 
   67.7500   -38.0700    61.6350    23.5190    19.0780     6.5070     6.6840  -999.2500 
   67.8750   -39.5110    66.2820    23.3860    12.3190     7.6100     7.5660  -999.2500 
   68.0000   -40.3090    70.7380    23.4330    10.9200     8.2500     7.9660  -999.2500 
   68.1250   -40.6760    72.9290    23.4400    12.7660     8.5750     8.1430  -999.2500 
   68.2500   -40.7910    73.3190    23.4220    15.4570     8.8360     8.3680  -999.2500 
   68.3750   -40.7220    70.7320    23.3970    15.6450     9.0900     8.6750  -999.2500 
   68.5000   -40.5590    65.8920    23.6820    14.3230     9.3280     8.9940  -999.2500 
   68.6250   -40.3880    65.4090    23.8930    12.5280     9.4380     9.1580  -999.2500 
   68.7500   -40.3030    70.0580    24.1900    10.1920     9.3850     9.1150  -999.2500 
   68.8750   -40.3550    74.1490    24.1810     8.6300     9.2200     8.9290  -999.2500 
   69.0000   -40.4980    74.0120    24.0400     8.4300     9.0180     8.6940  -999.2500 
   69.1250   -40.5630    73.0640    24.0470     8.5000     8.8340     8.5220  -999.2500 
   69.2500   -40.5710    73.7050    24.0520     8.5670     8.6910     8.4350  -999.2500 
   69.3750   -40.5420    75.1240    24.0430     8.6150     8.5920     8.4200  -999.2500 
   69.5000   -40.5350    76.0160    23.9650     8.8880     8.5310     8.4380  -999.2500 
   69.6250   -40.6090    75.9250    23.9360     9.7240     8.5000     8.5040  -999.2500 
   69.7500   -40.7720    76.2230    23.9010    10.0730     8.5080     8.6620  -999.2500 
   69.8750   -41.0040    76.1170    23.7470     9.4070     8.5660     8.8970  -999.2500 
   70.0000   -41.2970    72.0220    23.4450     8.6060     8.6820     9.1870  -999.2500 
   70.1250   -41.6680    65.0480    23.1630     9.0850     8.8400     9.4910  -999.2500 
   70.2500   -42.0600    62.7780    23.0010    10.5270     8.9870     9.7300  -999.2500 
   70.3750   -42.4290    66.1100    22.9760    13.5520     9.1070     9.8660  -999.2500 
   70.5000   -42.7370    68.2210    22.9520    15.3970     9.1870     9.8980  -999.2500 
   70.6250   -42.9390    65.5580    22.8800    14.5350     9.2100     9.8300  -999.2500 
   70.7500   -43.0420    64.3140    22.8570    12.5670     9.1910     9.7080  -999.2500 
   70.8750   -43.0750    65.6950    23.0860    12.4740     9.1540     9.5910  -999.2500 
   71.0000   -43.0660    65.7600    23.4240    12.6920     9.1110     9.5030  -999.2500 
   71.1250   -43.0550    64.0410    23.7460    12.3710     9.0550     9.4350  -999.2500 
   71.2500   -43.0810    64.2110    23.9260    11.9540     8.9740     9.3710  -999.2500 
   71.3750   -43.1710    67.3700    24.1220    12.2280     8.8670     9.3070  -999.2500 
   71.5000   -43.2920    70.7240    24.1480    12.8530     8.7390     9.2290  -999.2500 
   71.6250   -43.4500    73.1850    24.1400    13.3820     8.6140     9.1410  -999.2500 
   71.7500   -43.6420    75.5890    24.0430    12.8340     8.5200     9.0690  -999.2500 
   71.8750   -43.8570    76.8480    23.9060    12.0060     8.4690     9.0410  -999.2500 
   72.0000   -44.0790    76.5440    23.8170    11.8750     8.4660     9.0590  -999.2500 
   72.1250   -44.2840    72.5190    23.8300    12.2720     8.5070     9.1220  -999.2500 
   72.2500   -44.4510    66.8660    23.8360    12.6450     8.5660     9.1940  -999.2500 
   72.3750   -44.5940    64.5400    23.8300    12.8320     8.6210     9.2580  -999.2500 
   72.5000   -44.7310    65.4470    23.7950    12.9840     8.6620     9.3110  -999.2500 
   72.6250   -44.8940    65.3090    23.8410    12.9340     8.7110     9.3740  -999.2500 
   72.7500   -45.0640    64.7320    23.9910    12.9420     8.8020     9.4760  -999.2500 
   72.8750   -45.2380    65.7350    24.0680    12.8960     8.9420     9.6310  -999.2500 
   73.0000   -45.4210    66.5630    24.0890    13.1440     9.1200     9.8200  -999.2500 
   73.1250   -45.5530    63.0400    24.1790    13.5370     9.3270    10.0080  -999.2500 
   73.2500   -45.6430    58.6950    24.0400    13.4550     9.5200    10.1490  -999.2500 
   73.3750   -45.6460    56.4970    24.1580    12.6480     9.6550    10.2090  -999.2500 
   73.5000   -45.5670    55.7000    24.2090    12.0600     9.7060    10.1760  -999.2500 
   73.6250   -45.3930    56.1010    24.1560    11.8400     9.6480    10.0670  -999.2500 
   73.7500   -45.2010    57.4020    24.1610    12.2120     9.5240     9.9290  -999.2500 
   73.8750   -45.0270    59.3180    24.2280    12.7770     9.3780     9.8110  -999.2500 
   74.0000   -44.8780    62.0170    24.4190    13.2160     9.2400     9.7410  -999.2500 
   74.1250   -44.7570    63.9380    24.4420    13.6360     9.1250     9.7350  -999.2500 
   74.2500   -44.6550    63.8670    24.2710    13.6270     9.0280     9.7610  -999.2500 
   74.3750   -44.5890    61.6710    23.8400    13.2620     8.9530     9.7990  -999.2500 
   74.5000   -44.5420    59.9340    23.6650    12.7840     8.8900     9.8240  -999.2500 
   74.6250   -44.4690    61.3770    23.8710    12.7990     8.8450     9.8230  -999.2500 
   74.7500   -44.3200    63.2750    23.9820    13.1920     8.8260     9.8260  -999.2500 
   74.8750   -44.0740    63.2740    24.1100    13.4950     8.8310     9.8390  -999.2500 
   75.0000   -43.7370    61.1740    24.1740    13.6870     8.8640     9.8700  -999.2500 
   75.1250   -43.3790    61.1030    24.1970    13.8040     8.9210     9.9190  -999.2500 
