~V
VERS. 2.00: Ver 2.00
~W
STRT.M 60.0000:
STOP.M 283.0000:
STEP.M 0.1250:
NULL. -999.2500:
UWI. DF3045:
~C
DEPT.M :
DEN.GM/CC :
SP.MV :
AC.US/MT :
GR.API :
CALI.CM :
RXO.OHMM :
RI. :
RML.OHMM :
~A
# ...
  200.0000     2.4220   -32.7810   377.1500    68.2650    23.3950    52.4250    64.2840    70.8140 
  200.1250     2.5290   -32.4960   333.1890    65.8090    23.9840    43.6680    66.1400    72.8940 
  200.2500     2.6330   -32.0770   278.7800    64.4250    24.3260    66.6640    67.3040    73.6340 
  200.3750     2.7150   -31.6120   235.1760    59.2550    24.1450   112.6280    63.6960    69.0580 
  200.5000     2.7690   -31.1040   212.4920    51.4700    24.2770   169.5870    53.9220    57.8200 
  200.6250     2.7890   -30.5690   208.5400    49.3360    24.2960   188.6670    40.4130    42.6770 
  200.7500     2.7820   -30.0210   221.8850    53.6020    24.2910   155.1360    27.8940    28.9690 
  200.8750     2.7490   -29.4780   262.1800    57.5840    24.2670    84.3770    18.2730    18.9080 
  201.0000     2.6990   -28.9810   327.8330    57.9230    24.2430    25.4630    11.7120    12.5880 
  201.1250     2.6440   -28.5710   388.5150    54.8570    24.5410     7.7380     8.3780     9.4670 
  201.2500     2.6000   -28.3380   420.3790    50.9000    24.7960     5.2830     6.8580     8.0790 
  201.3750     2.5720   -28.2090   424.1910    50.7270    24.5460     5.2080     6.2950     7.7750 
  201.5000     2.5480   -28.1940   411.5310    56.9270    24.3070     5.4810     6.3150     8.0700 
  201.6250     2.5130   -28.2750   399.6780    63.4940    24.5190     6.1400     6.6780     8.5970 
  201.7500     2.4730   -28.3740   400.1900    63.3480    24.4060     6.6150     7.0210     8.9360 
  201.8750     2.4350   -28.4500   414.5760    58.5970    24.8070     6.1070     7.1100     8.8740 
  202.0000     2.3930   -28.4810   432.1890    53.7790    26.0990     5.0150     6.8780     8.4200 
  202.1250     2.3410   -28.5020   437.9990    50.5550    26.8380     4.6810     6.4320     7.7570 
  202.2500     2.3050   -28.5080   435.4980    48.2420    26.6190     4.5690     5.9350     7.1270 
  202.3750     2.3000   -28.5010   432.3470    48.7470    26.4180     4.4880     5.5010     6.6600 
  202.5000     2.3160   -28.4990   431.3980    52.8690    25.2170     4.3090     5.2240     6.4620 
  202.6250     2.3420   -28.5430   424.2460    57.5440    24.6430     4.4140     5.1710     6.6320 
  202.7500     2.3870   -28.6850   409.3630    60.6190    24.7780     4.8440     5.2980     7.0550 
  202.8750     2.4470   -28.9550   393.6490    63.6680    24.7750     5.5850     5.5740     7.6720 
  203.0000     2.4910   -29.3410   386.2900    69.7650    24.6360     6.4340     5.9610     8.3760 
  203.1250     2.4930   -29.8050   395.4190    77.0350    24.5950     7.0860     6.3890     9.0740 
  203.2500     2.4760   -30.2680   414.4740    81.9390    24.4930     7.0780     6.7920     9.6870 
  203.3750     2.4650   -30.7590   431.7460    85.4190    24.6070     6.8320     7.1370    10.1820 
  203.5000     2.4720   -31.2440   434.1310    89.7460    24.6760     6.8290     7.4170    10.6050 
  203.6250     2.5020   -31.6880   418.0920    93.6690    24.7830     7.3190     7.6750    11.0490 
  203.7500     2.5400   -32.0830   399.6690    92.8200    24.6270     8.0070     7.9590    11.5840 
  203.8750     2.5660   -32.4320   390.2250    90.8280    24.6480     8.8400     8.2650    12.1980 
  204.0000     2.5720   -32.7940   391.4010    92.1120    24.8350     9.5890     8.5620    12.8270 
  204.1250     2.5600   -33.1750   396.7580    94.5580    24.6460     9.9050     8.7960    13.3520 
  204.2500     2.5410   -33.6410   401.2850    94.3300    24.5520    10.4590     8.9430    13.7160 
  204.3750     2.5170   -34.1490   407.0880    94.4420    24.3750    11.1160     9.0100    13.9420 
  204.5000     2.4930   -34.7030   416.7300    98.9670    24.3190    11.1290     9.0320    14.0570 
  204.6250     2.4820   -35.3300   428.2760   102.0710    24.3590    10.3680     9.0430    14.1150 
  204.7500     2.4820   -36.0020   434.5550    99.3250    24.2760     9.7030     9.0910    14.2320 
  204.8750     2.4870   -36.6880   432.4570    94.3180    24.1880     9.7350     9.2080    14.4560 
  205.0000     2.4870   -37.3380   424.8910    92.0950    23.7090    10.9150     9.4060    14.7840 
  205.1250     2.4820   -37.9400   418.5550    93.8270    23.0020    12.8820     9.6940    15.2250 
  205.2500     2.4770   -38.4510   416.5140    94.1700    22.7640    14.2050    10.0660    15.7570 
  205.3750     2.4710   -38.9160   417.8080    92.8340    23.2620    14.3270    10.4910    16.3220 
  205.5000     2.4630   -39.3750   422.7900    92.3850    23.5330    15.6720    10.9350    16.8660 
  205.6250     2.4540   -39.8300   433.4910    92.3680    23.1480    18.7500    11.3770    17.3350 
  205.7500     2.4430   -40.2630   443.6260    90.6470    23.0830    21.7210    11.8180    17.7310 
  205.8750     2.4270   -40.6280   444.3660    86.5860    23.1020    23.5610    12.2600    18.1220 
  206.0000     2.4060   -40.8940   433.6800    81.4800    23.1080    24.7940    12.7430    18.6440 
  206.1250     2.3880   -41.0300   420.7290    78.5510    23.2480    25.1080    13.3250    19.4160 
  206.2500     2.3850   -41.0220   412.4670    79.4460    23.5540    25.2030    13.9900    20.3300 
  206.3750     2.4000   -40.8500   405.3520    83.3780    23.6060    25.4060    14.6060    21.1390 
  206.5000     2.4290   -40.4550   394.5610    85.5110    23.3790    25.9250    14.9890    21.5830 
  206.6250     2.4560   -39.7550   379.7020    83.9390    23.1180    27.1100    14.8370    21.2160 
  206.7500     2.4720   -38.7990   370.0320    83.5970    23.1030    29.1120    14.1350    20.0380 
  206.8750     2.4830   -37.6550   374.7950    84.7470    23.2870    30.2550    12.9790    18.2030 
  207.0000     2.4990   -36.4170   394.5610    82.7250    23.4340    27.8670    11.6610    16.1780 
  207.1250     2.5180   -35.1420   414.4240    77.1030    23.5320    18.9820    10.5210    14.5180 
  207.2500     2.5330   -33.9620   416.8070    74.8370    23.6290    11.1940     9.7270    13.4560 
  207.3750     2.5380   -32.8960   403.0310    78.7700    23.4220     8.4960     9.3610    13.0460 
  207.5000     2.5330   -31.9950   388.5780    87.0600    23.1890     9.1120     9.4010    13.1920 
  207.6250     2.5200   -31.3330   388.3040    92.7950    23.1000    10.1720     9.7880    13.6730 
  207.7500     2.5060   -30.8540   397.5030    92.8960    23.1290    11.4740    10.3220    14.2320 
  207.8750     2.4950   -30.5120   406.9680    91.2220    23.3060    13.1570    10.8590    14.6730 
  208.0000     2.4890   -30.2130   412.9830    91.4890    23.6780    14.6580    11.2520    14.8730 
  208.1250     2.4840   -29.9010   416.2800    91.6250    23.9710    14.6420    11.3580    14.7030 
  208.2500     2.4890   -29.4900   417.1670    89.5250    24.0430    13.1500    11.2280    14.3030 
  208.3750     2.5030   -29.0070   413.5890    88.8950    24.0490    12.0330    10.8870    13.7060 
  208.5000     2.5170   -28.4440   404.2450    91.3760    24.2270    11.7280    10.3650    12.9070 
  208.6250     2.5170   -27.7930   395.1010    90.4740    24.1220    12.1800     9.6590    11.9160 
  208.7500     2.5160   -27.1420   395.2410    84.1500    23.9160    12.2010     8.8730    10.8510 
  208.8750     2.5210   -26.5320   406.3450    78.4920    23.7990    10.4100     8.1020     9.8200 
  209.0000     2.5210   -26.0100   420.9830    79.4790    24.1570     7.6350     7.4320     8.9380 
  209.1250     2.5020   -25.6260   428.0990    84.0900    24.2190     5.5770     6.9790     8.3680 
  209.2500     2.4770   -25.3580   429.7090    83.8750    24.0920     5.2060     6.7450     8.1200 
  209.3750     2.4580   -25.1720   431.0730    79.5750    23.6910     5.1920     6.7370     8.1530 
  209.5000     2.4470   -25.0470   431.6110    78.0830    23.5480     5.4490     6.9270     8.4130 
  209.6250     2.4440   -24.9540   422.5110    83.9480    24.5070     5.8610     7.2600     8.7610 
  209.7500     2.4500   -24.8450   403.7460    91.1630    24.2050     6.4460     7.6230     9.0730 
  209.8750     2.4640   -24.7190   384.8020    95.2120    23.3340     7.0360     7.9360     9.2940 
