~V
VERS. 2.00: Ver 2.00
~W
STRT.M 64.0000:
STOP.M 278.0000:
STEP.M 0.1250:
NULL. -999.2500:
UWI. DF3056:
~C
DEPT.M :
SP.MV :
GR.API :
CALI.CM :
RXO.OHMM :
RI. :
RML.OHMM :
DEN.GM/CC :
~A
# ...
  131.5000   -26.2540    67.2480    24.1850    12.2550     9.6410    10.2370     2.2160 
  131.6250   -26.0070    68.1550    24.2910    12.7070     9.2680     9.8940     2.2210 
  131.7500   -25.7940    67.3680    24.2390    12.8920     8.8550     9.5420     2.2210 
  131.8750   -25.6310    67.4290    24.2240    12.7180     8.4990     9.3080     2.2120 
  132.0000   -25.4680    72.3190    24.3390    12.5800     8.3140     9.3150     2.2100 
  132.1250   -25.2740    78.5360    24.4250    12.2190     8.4700     9.7420     2.2470 
  132.2500   -25.0560    77.9980    24.4420    12.1920     8.9810    10.5570     2.3340 
  132.3750   -24.8240    71.4320    24.4830    12.7640     9.8500    11.6640     2.4550 
  132.5000   -24.6140    64.5700    24.6540    15.3820    10.9850    12.8690     2.5700 
  132.6250   -24.4210    60.4060    24.7400    21.7130    12.1870    13.8440     2.6110 
  132.7500   -24.2750    59.7890    24.7460    28.4260    13.1320    14.3490     2.5620 
  132.8750   -24.1880    62.8640    24.7010    30.7640    13.5680    14.2750     2.4500 
  133.0000   -24.1800    67.1860    24.4870    26.0050    13.4280    13.6710     2.3300 
  133.1250   -24.2430    67.4170    24.5000    18.3080    12.7190    12.6740     2.2510 
  133.2500   -24.3050    64.3080    24.5040    14.6930    11.7680    11.5820     2.2160 
  133.3750   -24.3180    63.9320    24.4920    14.4080    10.7590    10.5480     2.2110 
  133.5000   -24.2350    68.4310    24.5210    14.5210     9.7850     9.6150     2.2200 
  133.6250   -24.0290    72.4610    24.7390    14.6480     8.8920     8.7930     2.2380 
  133.7500   -23.7470    72.0720    24.8160    14.0500     8.1140     8.0830     2.2630 
  133.8750   -23.4290    72.2220    24.8420    12.3250     7.4740     7.4910     2.2930 
  134.0000   -23.1250    76.4090    24.7530    10.8940     6.9750     7.0450     2.3190 
  134.1250   -22.9310    80.3080    24.4250    10.4700     6.6880     6.8200     2.3320 
  134.2500   -22.8630    80.6010    24.2220    10.5600     6.5950     6.7840     2.3290 
  134.3750   -22.9410    79.3440    24.1820    10.6620     6.6440     6.8920     2.3140 
  134.5000   -23.1490    78.7590    24.1530    10.9050     6.7840     7.0780     2.2950 
  134.6250   -23.4640    77.4750    24.1160    10.2930     6.9160     7.2230     2.2820 
  134.7500   -23.8170    76.1940    24.0820    10.4230     6.9450     7.2470     2.2760 
  134.8750   -24.1620    76.9760    24.0650    10.2910     6.8420     7.1380     2.2810 
  135.0000   -24.4550    77.9230    24.1090     9.5990     6.6510     6.9740     2.3000 
  135.1250   -24.6940    78.1970    24.1330     9.1580     6.4670     6.8580     2.3290 
  135.2500   -24.9180    81.1670    24.1670     9.0530     6.3620     6.8690     2.3470 
  135.3750   -25.1610    86.7200    24.1630     9.0030     6.3930     7.0500     2.3400 
  135.5000   -25.4430    88.4140    24.1570     9.3590     6.5730     7.4040     2.3060 
  135.6250   -25.7860    83.6170    24.1730     9.8580     6.8860     7.8740     2.2590 
  135.7500   -26.1690    76.9610    24.3050    10.5250     7.2530     8.3610     2.2260 
  135.8750   -26.5790    71.9840    24.3290    11.5120     7.6140     8.7930     2.2120 
  136.0000   -27.0050    70.2890    24.3220    12.3520     7.9090     9.1130     2.2070 
  136.1250   -27.4000    71.9000    24.2380    12.2250     8.0840     9.2850     2.1980 
  136.2500   -27.7280    73.7700    24.0710    11.8780     8.1840     9.4000     2.1900 
  136.3750   -27.9410    72.9330    23.8850    11.7770     8.2720     9.5180     2.1880 
  136.5000   -28.0170    69.3690    23.8480    12.0250     8.3900     9.6930     2.1900 
  136.6250   -27.9620    68.5790    24.1450    12.7420     8.5740     9.9830     2.1850 
  136.7500   -27.8190    70.1590    24.3700    13.0370     8.8190    10.3490     2.1730 
  136.8750   -27.6300    69.3680    24.3490    12.9830     9.0940    10.7430     2.1590 
  137.0000   -27.4380    64.2870    24.2310    13.1820     9.3640    11.1100     2.1550 
  137.1250   -27.2350    59.3910    24.0200    13.4520     9.5890    11.3930     2.1670 
  137.2500   -27.0570    57.6240    23.8630    13.8380     9.7490    11.5650     2.1800 
  137.3750   -26.9100    57.9910    23.7810    14.0080     9.8370    11.6280     2.1820 
  137.5000   -26.7790    60.1600    23.7690    13.2930     9.8730    11.5910     2.1760 
  137.6250   -26.6370    62.2920    23.7810    12.5820     9.8980    11.5380     2.1660 
  137.7500   -26.4440    63.0140    23.8660    12.8090     9.9900    11.6100     2.1550 
  137.8750   -26.1450    62.9820    24.3450    13.4560    10.2700    11.9610     2.1470 
  138.0000   -25.7180    62.1910    24.7590    13.5010    10.8050    12.6470     2.1580 
  138.1250   -25.1520    58.5820    24.8170    12.8150    11.5640    13.5420     2.2140 
  138.2500   -24.4980    55.5640    24.7130    12.5350    12.3050    14.3200     2.3020 
  138.3750   -23.8160    57.1060    24.3020    13.9320    12.7640    14.6930     2.3930 
  138.5000   -23.1740    62.2100    24.1280    18.4350    12.6830    14.4280     2.4460 
  138.6250   -22.6580    65.7780    24.1440    22.5500    11.8800    13.3690     2.4370 
  138.7500   -22.3080    65.4180    24.1620    22.7910    10.7020    11.8860     2.3940 
  138.8750   -22.1400    65.6500    24.1730    17.5480     9.4870    10.4040     2.3420 
  139.0000   -22.1430    69.0910    24.1270    11.3670     8.5290     9.2860     2.2960 
  139.1250   -22.2510    73.6670    24.1080     9.3990     8.0840     8.8500     2.2520 
  139.2500   -22.3600    75.1850    24.0420    10.4250     8.1070     8.9630     2.2150 
  139.3750   -22.4310    72.9020    23.9620    12.0550     8.4970     9.4210     2.1970 
  139.5000   -22.4050    69.1990    23.9450    13.3910     9.0860     9.9820     2.2010 
  139.6250   -22.1950    67.5440    24.2190    13.9490     9.6160    10.3510     2.2130 
  139.7500   -21.8320    68.3500    24.4160    13.9840     9.8310    10.3430     2.2280 
  139.8750   -21.3680    70.2780    24.4420    13.6970     9.6150     9.9030     2.2580 
  140.0000   -20.8800    72.0940    24.4070    13.1490     9.0410     9.1610     2.3020 
  140.1250   -20.4520    74.1190    24.1760    12.0070     8.3080     8.3460     2.3330 
  140.2500   -20.1030    76.5890    23.9660    10.6450     7.5790     7.6130     2.3410 
  140.3750   -19.8270    79.9480    23.7850     9.8060     6.9140     7.0000     2.3410 
  140.5000   -19.6360    86.0720    23.5560     9.6670     6.3290     6.5000     2.3490 
  140.6250   -19.5700    93.3560    23.4200     9.7260     5.8650     6.1400     2.3690 
  140.7500   -19.6050    96.4600    23.7050     9.2850     5.5430     5.9310     2.3920 
  140.8750   -19.6910    97.5840    24.0360     8.8690     5.3760     5.8790     2.4090 
  141.0000   -19.7700    98.1520    24.1590     8.7420     5.3610     5.9750     2.4090 
  141.1250   -19.8650    95.0960    24.2210     8.8660     5.4830     6.1840     2.3940 
  141.2500   -19.9740    87.8200    24.1950     9.3050     5.6750     6.4340     2.3810 
  141.3750   -20.1120    80.6220    24.1870    10.2720     5.8780     6.6600     2.3760 
  141.5000   -20.3070    79.0930    24.1400    11.4650     6.0460     6.8400     2.3750 
  141.6250   -20.5860    81.8050    24.1810    11.5160     6.2050     7.0500     2.3750 
  141.7500   -20.9320    82.4040    24.1830    10.6920     6.4590     7.4640     2.3860 
  141.8750   -21.3330    79.6320    24.1870    10.0710     6.9570     8.2990     2.4210 
  142.0000   -21.7830    73.8800    24.1680    10.2210     7.8590     9.7130     2.4880 
  142.1250   -22.2680    70.7010    24.1240    11.1730     9.3010    11.7260     2.5690 
  142.2500   -22.7770    70.7290    24.1170    14.3880    11.1360    13.9880     2.6210 
  142.3750   -23.2870    69.4940    24.1200    21.0950    13.0960    16.0870     2.6150 
  142.5000   -23.7720    65.2390    24.1250    27.0840    14.6840    17.4920     2.5480 
  142.6250   -24.1930    60.3440    24.1370    27.7340    15.1210    17.5460     2.4360 
