~V
VERS. 2.00: Ver 2.00
~W
STRT.M 61.0000:
STOP.M 279.0000:
STEP.M 0.1250:
NULL. -999.2500:
UWI. DF3040:
~C
DEPT.M :
GR.API :
CALI.CM :
RXO.OHMM :
RI. :
RML.OHMM :
DEN.GM/CC :
SP.MV :
~A
# ...
  173.5000    66.3870    23.4300   103.9480   112.5810   112.6910     2.2600   -28.0840 
  173.6250    68.3360    23.7090    94.9800   107.8770   107.6740     2.2680   -28.1290 
  173.7500    69.9470    23.9490    83.9950   103.8300   103.6510     2.2890   -28.2090 
  173.8750    70.9690    24.0450    80.2180   100.6860   100.6420     2.3170   -28.3220 
  174.0000    71.0680    24.0540    82.4130    98.7860    99.1960     2.3300   -28.4440 
  174.1250    71.5930    24.0290    81.3210    98.7580    99.7730     2.3150   -28.5510 
  174.2500    71.9190    23.9910    75.9770   100.0110   101.9330     2.2970   -28.6150 
  174.3750    72.2750    24.0000    75.4750   102.3260   105.4270     2.2900   -28.6110 
  174.5000    72.5260    23.9890    81.1270   105.4050   109.6610     2.2880   -28.5110 
  174.6250    70.1830    24.0740    89.6920   109.1740   114.9950     2.2750   -28.3560 
  174.7500    67.0850    24.1230    94.8420   113.8460   121.3570     2.2570   -28.1850 
  174.8750    66.1710    24.1150    94.6250   119.9370   129.3930     2.2480   -28.0050 
  175.0000    68.1940    24.0050    91.6090   127.8710   139.3790     2.2560   -27.8340 
  175.1250    69.3480    23.9540    93.4420   137.8930   151.6230     2.2740   -27.7140 
  175.2500    67.4820    23.8320   100.6320   149.4540   165.4960     2.2840   -27.6450 
  175.3750    64.9570    23.7250   109.5850   161.7310   179.9170     2.2820   -27.6450 
  175.5000    64.4490    23.9420   119.4320   173.7760   193.8290     2.2750   -27.7120 
  175.6250    65.9930    24.0470   131.5690   182.3460   202.5340     2.2730   -27.8130 
  175.7500    65.1310    24.1200   142.3110   184.3110   202.5370     2.2770   -27.9230 
  175.8750    60.3360    24.1540   143.7290   177.6270   192.1960     2.2820   -28.0420 
  176.0000    55.9060    24.0010   136.8230   163.4460   173.5470     2.2770   -28.1580 
  176.1250    57.5140    23.9730   126.7920   144.6420   151.5760     2.2600   -28.2190 
  176.2500    61.7930    23.9180   119.0320   126.0430   131.3260     2.2440   -28.1880 
  176.3750    65.0830    23.6440   102.2170   110.9260   116.4960     2.2410   -28.0710 
  176.5000    67.7440    23.1920    76.1460   101.8250   109.2240     2.2600   -27.9010 
  176.6250    69.7660    22.8910    58.7370   101.9510   112.0440     2.2930   -27.7290 
  176.7500    68.8030    22.9460    62.0040   110.9160   123.9780     2.3220   -27.5750 
  176.8750    64.8400    23.2700    86.7610   128.7290   145.3940     2.3310   -27.4760 
  177.0000    61.3560    23.6400   120.6660   154.5880   176.6720     2.3150   -27.4440 
  177.1250    59.6850    23.6640   142.6150   188.0340   218.0890     2.2790   -27.4850 
  177.2500    56.3330    23.7950   154.0410   224.4340   264.7580     2.2390   -27.6150 
  177.3750    51.8340    23.9730   157.2770   257.8270   307.8490     2.2050   -27.7950 
  177.5000    49.5620    24.1650   155.5340   280.8800   334.3850     2.1850   -28.0170 
  177.6250    52.9980    24.2190   150.8250   284.3860   331.4860     2.1820   -28.2320 
  177.7500    59.0280    24.2420   148.8470   269.9220   304.9390     2.1850   -28.4020 
  177.8750    62.2460    24.0700   150.9890   242.6880   265.5000     2.1850   -28.4790 
  178.0000    60.1290    24.0020   152.4960   209.2630   221.9600     2.1830   -28.4570 
  178.1250    57.6100    23.9020   149.0010   175.7200   183.1550     2.1890   -28.3360 
  178.2500    60.2130    23.7660   134.1040   146.7560   152.1960     2.2070   -28.1610 
  178.3750    63.9570    23.7210   105.2040   124.7340   130.0080     2.2310   -27.9850 
  178.5000    64.8700    23.7150    71.4860   109.9210   115.9270     2.2540   -27.8220 
  178.6250    66.6120    23.7270    62.0370   102.6650   109.2400     2.2700   -27.6890 
  178.7500    70.6410    23.6980    76.0440   100.4740   107.4180     2.2790   -27.6300 
  178.8750    71.2650    23.6790    93.8500   101.5780   108.5750     2.2820   -27.6350 
  179.0000    68.0290    23.6680    97.5550   104.4280   111.3940     2.2880   -27.7120 
  179.1250    68.8250    23.6420    84.8180   107.4940   114.7260     2.3030   -27.8630 
  179.2500    73.1650    23.4130    81.3190   109.8360   117.0250     2.3130   -28.0360 
  179.3750    76.6670    23.3150    86.1630   110.4540   117.6080     2.3080   -28.2030 
  179.5000    74.3850    23.5190    92.6260   109.0730   115.9540     2.2880   -28.3470 
  179.6250    67.0530    23.6390    90.0560   105.6390   112.2770     2.2670   -28.4370 
  179.7500    60.5470    23.6790    82.5130   101.1040   107.5300     2.2580   -28.4200 
  179.8750    57.9640    23.6660    67.1950    96.2660   102.6280     2.2610   -28.2930 
  180.0000    59.0590    23.8600    55.6950    91.9250    98.5850     2.2680   -28.0780 
  180.1250    59.7750    23.5050    54.0040    89.4920    96.5170     2.2660   -27.8250 
  180.2500    61.7060    23.2000    57.4150    89.0410    96.9430     2.2580   -27.5720 
  180.3750    65.3580    23.0310    58.5390    91.0370   100.2860     2.2510   -27.3420 
  180.5000    67.5070    22.7930    57.5550    96.0830   107.2480     2.2490   -27.1390 
  180.6250    65.6820    22.7970    58.5690   104.6970   118.4880     2.2490   -26.9700 
  180.7500    62.3780    23.0830    68.4350   115.9560   133.0090     2.2460   -26.8890 
  180.8750    62.0880    23.4920    85.1020   129.3590   150.4750     2.2400   -26.9040 
  181.0000    62.7000    24.0110    98.8670   144.1290   169.7640     2.2300   -26.9860 
  181.1250    60.7520    24.1910   101.9780   157.9340   188.2730     2.2180   -27.0760 
  181.2500    58.8240    24.2610   104.1700   167.9600   202.1310     2.2070   -27.1510 
  181.3750    58.1700    24.2800   107.8430   172.2730   208.6070     2.1990   -27.1750 
  181.5000    56.7730    24.2900   110.3100   170.5940   207.0140     2.1960   -27.1390 
  181.6250    54.9690    24.2700   108.9010   163.5100   198.5690     2.2000   -27.0400 
  181.7500    56.3010    24.1570   103.8630   155.0890   189.2310     2.2060   -26.8610 
  181.8750    59.9460    24.1370    95.4520   148.0010   182.2860     2.2140   -26.6280 
  182.0000    62.9050    24.1170    86.6170   144.1300   179.9540     2.2280   -26.3460 
  182.1250    64.1040    24.0640    89.6400   145.1070   183.6180     2.2440   -26.0390 
  182.2500    63.4690    24.0130    97.8600   150.1250   192.1310     2.2510   -25.7300 
  182.3750    61.6140    23.9710   104.5490   158.3470   204.6260     2.2450   -25.4390 
  182.5000    59.3750    23.9710   108.5250   168.5120   219.1870     2.2330   -25.1690 
  182.6250    57.9520    23.9660   110.9350   178.6380   233.5760     2.2290   -24.9840 
  182.7500    57.6020    23.9400   112.3530   186.9970   244.4970     2.2290   -24.8540 
  182.8750    58.4560    23.8770   112.6550   192.0530   249.8970     2.2260   -24.7710 
  183.0000    59.2490    23.9040   112.1040   193.4680   249.5870     2.2190   -24.7720 
  183.1250    57.7130    23.9770   111.2650   191.5470   244.3810     2.2170   -24.8120 
  183.2500    55.4970    24.0250   108.9990   187.7440   236.9570     2.2250   -24.8450 
  183.3750    54.9490    24.1940   111.2750   182.6620   227.9220     2.2370   -24.8290 
  183.5000    57.5620    24.2160   111.9810   176.9140   218.7380     2.2410   -24.7660 
  183.6250    62.6810    23.9070    97.3550   171.2900   209.6290     2.2290   -24.6350 
  183.7500    67.1130    23.5790    76.0600   165.4920   199.9700     2.2160   -24.4730 
  183.8750    68.6640    23.3680    62.1800   158.0390   187.7500     2.2210   -24.2930 
  184.0000    69.2850    23.3300    58.1480   147.3620   171.2870     2.2490   -24.0650 
  184.1250    71.5860    23.3740    63.9000   132.1770   150.0560     2.2830   -23.8300 
  184.2500    73.2670    23.3820    76.5060   114.4440   126.9140     2.3060   -23.6160 
  184.3750    72.9880    23.3620    87.9540    96.3660   104.8680     2.3160   -23.4850 
  184.5000    69.8780    23.3680    87.0940    80.0630    86.0910     2.3190   -23.4730 
  184.6250    66.6970    23.3610    70.2620    67.8170    72.8030     2.3260   -23.5350 
