~V
VERS. 2.00: Ver 2.00
~W
STRT.M 105.0000:
STOP.M 269.0000:
STEP.M 0.1250:
NULL. -999.2500:
UWI. DF304:
~C
DEPT.M :
GR.API :
CALI.CM :
RXO.OHMM :
RI. :
RML.OHMM :
SP.MV :
DEN.GM/CC :
AC.US/MT :
~A
# ...
  205.0000    56.4010    25.3690   114.4840   114.2790   116.6840   -20.8500     2.2150   408.1350 
  205.1250    53.7020    25.3690   120.1920   117.1300   119.0610   -21.0210     2.2210   406.2440 
  205.2500    58.1740    25.3630   115.7830   110.4950   111.2240   -21.1820     2.2260   403.4980 
  205.3750    66.1370    25.3440   100.0080    97.9220    97.5480   -21.3480     2.2310   400.5280 
  205.5000    71.0270    25.3060    79.4290    84.2000    83.2810   -21.4840     2.2390   397.2220 
  205.6250    69.7140    25.2880    64.3700    73.5480    72.5400   -21.5850     2.2540   393.1050 
  205.7500    67.0330    25.2830    56.0380    67.0990    66.1790   -21.6580     2.2730   388.4860 
  205.8750    64.7900    25.2830    54.6060    65.1010    64.3960   -21.7180     2.2870   384.6750 
  206.0000    62.3980    25.2830    57.2200    67.4550    67.0650   -21.7470     2.2850   383.4420 
  206.1250    60.1010    25.2830    65.0610    74.5060    74.4390   -21.7770     2.2680   385.9010 
  206.2500    60.2020    25.2830    77.6480    84.4380    84.6500   -21.7980     2.2560   389.7280 
  206.3750    61.7450    25.2830    92.1130    94.8020    95.2730   -21.8060     2.2580   392.4870 
  206.5000    60.7120    25.2830   103.0020   102.1380   102.7650   -21.8260     2.2670   392.7190 
  206.6250    56.6790    25.2810   107.2200   102.8020   103.1970   -21.8650     2.2670   390.6420 
  206.7500    54.0950    25.2770   100.8970    98.5740    98.4570   -21.9020     2.2600   388.5670 
  206.8750    54.8460    25.2730    85.0070    92.6470    92.0660   -21.9160     2.2550   387.9690 
  207.0000    57.4750    25.2720    69.1350    88.3740    87.5990   -21.9170     2.2520   389.1120 
  207.1250    58.2050    25.2720    66.6900    88.7860    88.1170   -21.9020     2.2450   391.1700 
  207.2500    58.5530    25.2720    76.4180    93.7680    93.3820   -21.8780     2.2340   393.0230 
  207.3750    60.8140    25.2720    89.5920   102.3530   102.4240   -21.8120     2.2280   394.3140 
  207.5000    63.7420    25.2720   101.8950   112.3310   113.0200   -21.6860     2.2310   394.8480 
  207.6250    64.4300    25.2720   111.6920   119.6400   120.8600   -21.4700     2.2400   394.4180 
  207.7500    62.3730    25.2720   115.3430   121.4660   122.7610   -21.2070     2.2470   393.5020 
  207.8750    58.9140    25.2720   107.9710   117.2740   118.1650   -20.9020     2.2520   392.7580 
  208.0000    55.2750    25.2720    94.2180   108.7370   109.1020   -20.5940     2.2580   392.5620 
  208.1250    53.4800    25.2720    84.5000    98.4460    98.5610   -20.2980     2.2690   392.1740 
  208.2500    54.1310    25.2720    76.9120    88.9760    89.1040   -19.9900     2.2800   390.5820 
  208.3750    54.4410    25.2740    68.7630    81.7100    82.0070   -19.7320     2.2820   388.1230 
  208.5000    52.9150    25.2790    62.5660    77.5880    78.1400   -19.5260     2.2730   386.3930 
  208.6250    51.2920    25.2820    62.0840    77.9150    78.7960   -19.3960     2.2620   386.6120 
  208.7500    51.3700    25.2830    63.8830    82.6150    83.8570   -19.3130     2.2560   387.2730 
  208.8750    53.6380    25.2830    68.5930    92.1450    93.7150   -19.2650     2.2490   387.4600 
  209.0000    54.8080    25.2830    81.8350   106.5250   108.3800   -19.2270     2.2300   388.4230 
  209.1250    53.0760    25.2810   104.8740   124.8960   127.1510   -19.2010     2.2050   392.5920 
  209.2500    52.2440    25.2770   125.1480   143.5140   146.3460   -19.1910     2.2040   397.0420 
  209.3750    54.0870    25.2730   135.3890   158.7250   162.1020   -19.1570     2.2420   394.9950 
  209.5000    57.3960    25.2720   138.1610   166.7160   170.2550   -19.0990     2.3030   381.8110 
  209.6250    59.1810    25.2720   138.8510   162.0930   165.0760   -19.0290     2.3470   362.0550 
  209.7500    59.2190    25.2720   135.4130   145.9170   148.0200   -18.9440     2.3570   349.8480 
  209.8750    58.8120    25.2740   125.5890   121.6670   123.1560   -18.8580     2.3410   351.8410 
  210.0000    59.8650    25.2790   107.9690    95.4870    96.8610   -18.7760     2.3170   363.6730 
  210.1250    61.1370    25.2820    79.1330    74.2020    75.6080   -18.6780     2.3030   373.5520 
  210.2500    59.7170    25.2830    53.0670    59.6380    60.9190   -18.5870     2.3020   375.8510 
  210.3750    57.5650    25.2830    39.1820    51.3150    52.4700   -18.5180     2.3050   373.2860 
  210.5000    56.2030    25.2830    37.3730    47.9150    49.1970   -18.4830     2.3050   371.2600 
  210.6250    58.6410    25.2830    39.2010    48.7330    50.5280   -18.4190     2.2990   374.1330 
  210.7500    65.9620    25.2830    39.8210    52.1280    54.6150   -18.3460     2.2930   380.6960 
  210.8750    72.4110    25.2830    42.8760    57.0660    60.2320   -18.2540     2.2880   387.7780 
  211.0000    71.3610    25.2830    51.3310    62.3070    65.9770   -18.1230     2.2810   392.4580 
  211.1250    65.0050    25.2830    61.2140    66.4670    70.3150   -17.9580     2.2680   393.8700 
  211.2500    60.5750    25.2830    65.0740    69.1290    72.8980   -17.7660     2.2530   394.2030 
  211.3750    60.2980    25.2830    65.4890    70.3070    73.8660   -17.5330     2.2440   394.6270 
  211.5000    65.2050    25.2830    65.8430    70.1460    73.5090   -17.2690     2.2450   395.1470 
  211.6250    72.8600    25.2830    65.8510    68.4820    71.7420   -17.0140     2.2550   394.8910 
  211.7500    75.5550    25.2830    64.4080    65.4790    68.6720   -16.7410     2.2620   393.4840 
  211.8750    71.8770    25.2830    61.3260    61.2270    64.3120   -16.4730     2.2650   391.2910 
  212.0000    66.6320    25.2830    56.1250    56.0550    58.9560   -16.2380     2.2670   389.3050 
  212.1250    64.1810    25.2810    49.0870    50.4940    53.1490   -16.0260     2.2750   388.6610 
  212.2500    64.0010    25.2780    42.3980    45.2130    47.6080   -15.8330     2.2850   389.1510 
  212.3750    65.0960    25.2760    37.3400    40.6290    42.7860   -15.6800     2.2930   390.1660 
  212.5000    64.1700    25.2790    33.6280    37.0050    38.9860   -15.5550     2.3000   390.7210 
  212.6250    62.2070    25.2780    30.4790    34.6490    36.6050   -15.4560     2.3140   387.6810 
  212.7500    63.4620    25.2530    28.2130    33.3310    35.4450   -15.3960     2.3370   378.8100 
  212.8750    66.9860    25.1800    27.5970    32.8490    35.2970   -15.3600     2.3560   365.8530 
  213.0000    69.6830    25.0850    28.3170    32.8930    35.7930   -15.3420     2.3640   355.5980 
  213.1250    70.4080    24.9630    29.3120    33.0970    36.4650   -15.3350     2.3600   356.7110 
  213.2500    71.6980    24.8470    29.6810    33.1820    36.9420   -15.3320     2.3500   365.9920 
  213.3750    73.1340    24.7270    29.0720    33.1700    37.2420   -15.3250     2.3340   376.2820 
  213.5000    72.6920    24.6140    28.2560    33.3320    37.7250   -15.3410     2.3170   382.2660 
  213.6250    70.4940    24.5420    29.0080    34.2090    39.1210   -15.3700     2.3100   382.9130 
  213.7500    68.1210    24.5240    31.6120    36.0720    41.7700   -15.3960     2.3120   381.5230 
  213.8750    64.9450    24.5520    36.0080    39.1080    45.8510   -15.4220     2.3190   379.1850 
  214.0000    61.5490    24.6180    42.4270    43.3650    51.3230   -15.4390     2.3360   373.8540 
  214.1250    62.1000    24.6780    49.1050    49.0110    58.1870   -15.4380     2.3870   356.6450 
  214.2500    65.1120    24.7020    54.2080    55.8850    66.1350   -15.4270     2.4810   323.4520 
  214.3750    66.4810    24.7070    58.7890    64.0490    75.2290   -15.3800     2.6010   279.3370 
  214.5000    64.9270    24.7020    68.6950    73.3610    85.4960   -15.2560     2.7110   238.9940 
  214.6250    62.4450    24.6810    91.4250    83.0660    96.4900   -15.0730     2.7700   219.3890 
  214.7500    61.1270    24.6450   121.6440    91.0520   106.0710   -14.8470     2.7790   217.0190 
  214.8750    62.0840    24.6190   132.7350    93.3400   109.4910   -14.5850     2.7470   223.9150 
