~V
VERS. 2.00: Ver 2.00
~W
STRT.M 64.0000:
STOP.M 259.0000:
STEP.M 0.1250:
NULL. -999.2500:
UWI. DF3067:
~C
DEPT.M :
DEN.GM/CC :
GR.API :
CALI.CM :
RXO.OHMM :
RI. :
RML.OHMM :
SP.MV :
~A
# ...
  120.2500     2.3290    95.5400    23.8960     5.0790     4.3260     5.1680   -26.7870 
  120.3750     2.3350    92.6950    23.8730     5.2280     4.3950     5.2400   -26.9800 
  120.5000     2.3500    90.8800    23.9200     5.1120     4.4700     5.3350   -27.2370 
  120.6250     2.3560    91.4640    24.0490     5.0660     4.5300     5.4320   -27.5370 
  120.7500     2.3470    92.0190    24.1040     5.3190     4.5620     5.5000   -27.8230 
  120.8750     2.3330    91.8730    24.0420     5.5880     4.5500     5.5180   -28.0720 
  121.0000     2.3290    92.2080    23.9660     5.7330     4.4910     5.4780   -28.2890 
  121.1250     2.3360    91.3210    23.9850     5.4530     4.4170     5.4220   -28.5270 
  121.2500     2.3390    90.3210    24.0600     5.3860     4.4160     5.4710   -28.8390 
  121.3750     2.3380    90.7340    24.0780     5.6110     4.5920     5.7770   -29.2450 
  121.5000     2.3410    89.3350    23.9140     6.1930     5.0530     6.4850   -29.7350 
  121.6250     2.3610    84.2680    23.5960     7.7660     5.9840     7.7930   -30.2750 
  121.7500     2.3950    78.6340    23.4270    12.1750     7.3720     9.5990   -30.8240 
  121.8750     2.4220    73.0610    23.5440    18.4880     9.0960    11.6640   -31.3680 
  122.0000     2.4180    66.7150    23.8080    20.6120    10.7920    13.4690   -31.8990 
  122.1250     2.3750    63.1870    23.8600    15.4520    11.8340    14.2680   -32.4000 
  122.2500     2.3320    65.7860    23.5400    11.6720    12.1450    14.1910   -32.8710 
  122.3750     2.3210    71.0950    23.0050    10.9590    12.0040    13.7470   -33.3150 
  122.5000     2.3530    73.9050    22.6090    11.8630    11.7950    13.4340   -33.7400 
  122.6250     2.3970    72.7950    22.6230    13.7630    11.7730    13.4790   -34.1300 
  122.7500     2.4090    70.6360    22.7980    15.3950    11.8540    13.6400   -34.4580 
  122.8750     2.3780    70.9910    22.9080    14.7810    11.8350    13.6180   -34.6880 
  123.0000     2.3210    74.6510    22.9370    12.5350    11.5560    13.2330   -34.8080 
  123.1250     2.2700    76.4160    22.9360    11.1340    10.9900    12.5270   -34.8290 
  123.2500     2.2360    74.0750    22.9340    10.4330    10.3550    11.8170   -34.8040 
  123.3750     2.2190    70.9350    22.9340    10.0380     9.8250    11.3030   -34.7510 
  123.5000     2.2180    71.2050    22.9340     9.9400     9.4960    11.0580   -34.6750 
  123.6250     2.2310    74.7410    22.9350     9.6690     9.3940    11.0440   -34.5780 
  123.7500     2.2420    76.7880    22.9330     9.2410     9.4000    11.0930   -34.4710 
  123.8750     2.2410    77.4940    22.9210     9.1940     9.4260    11.0980   -34.3600 
  124.0000     2.2280    77.5470    22.8730     9.6010     9.4080    11.0070   -34.2550 
  124.1250     2.2110    75.1090    22.7430     9.8590     9.3160    10.8240   -34.1600 
  124.2500     2.1990    70.0740    22.5710     9.8370     9.1890    10.6270   -34.0720 
  124.3750     2.2000    67.1450    22.4330     9.7590     9.0630    10.4640   -33.9910 
  124.5000     2.2220    70.3740    22.3730     9.6580     8.9610    10.3470   -33.9120 
  124.6250     2.2560    76.2020    22.3680     9.4300     8.8830    10.2650   -33.8330 
  124.7500     2.2760    78.5250    22.3720     9.3130     8.8190    10.2060   -33.7460 
  124.8750     2.2720    77.2780    22.3680     9.2650     8.7820    10.1840   -33.6450 
  125.0000     2.2570    73.9670    22.3350     9.1020     8.7990    10.2240   -33.5190 
  125.1250     2.2630    72.0870    22.3030     9.2520     8.8990    10.3330   -33.3580 
  125.2500     2.2800    73.1870    22.3960    11.1710     9.0140    10.4080   -33.1880 
  125.3750     2.2850    74.2900    22.6640    14.8010     9.0230    10.2980   -33.0420 
  125.5000     2.2710    72.2900    22.9930    15.2780     8.7840     9.8640   -32.9310 
  125.6250     2.2530    70.8480    23.1760    11.4020     8.1610     9.0250   -32.8320 
  125.7500     2.2510    74.2590    23.2320     7.9800     7.2850     7.9880   -32.6870 
  125.8750     2.2670    79.3870    23.3410     6.2600     6.3200     6.9450   -32.4690 
  126.0000     2.2920    83.2350    23.6270     5.2740     5.4290     6.0590   -32.1800 
  126.1250     2.3140    88.4880    24.0320     4.9690     4.7600     5.4770   -31.8440 
  126.2500     2.3380    96.5650    24.3360     4.7670     4.3400     5.1930   -31.4960 
  126.3750     2.3610   104.9280    24.4710     4.6330     4.1910     5.2140   -31.1660 
  126.5000     2.3690   108.4670    24.4810     4.6690     4.3110     5.5260   -30.8900 
  126.6250     2.3360   103.4500    24.2970     5.5250     4.7190     6.1240   -30.7490 
  126.7500     2.2780    95.0930    23.8800     6.9520     5.3210     6.8750   -30.7590 
  126.8750     2.2250    88.3080    23.3680     7.9550     6.0250     7.6530   -30.9200 
  127.0000     2.1980    84.9790    23.0080     8.0140     6.7030     8.3130   -31.2050 
  127.1250     2.1930    82.9000    22.9240     7.9300     7.2040     8.7200   -31.5780 
  127.2500     2.1870    80.5130    22.9340     8.1680     7.5320     8.9470   -31.9720 
  127.3750     2.1760    77.3780    22.9390     8.5250     7.7460     9.1090   -32.3330 
  127.5000     2.1730    74.5890    22.9360     8.6660     7.9290     9.3030   -32.6090 
  127.6250     2.1930    75.1180    22.9350     8.7230     8.1410     9.5650   -32.7290 
  127.7500     2.2290    76.2090    22.9140     8.9750     8.3720     9.8380   -32.6990 
  127.8750     2.2640    74.7200    22.8420     9.2510     8.5750    10.0560   -32.5310 
  128.0000     2.2710    70.7820    22.7080     9.0930     8.7070    10.1780   -32.2540 
  128.1250     2.2350    69.2860    22.6170     8.6620     8.7180    10.1590   -31.8960 
  128.2500     2.1940    71.0480    22.6780     8.4390     8.5900     9.9810   -31.5130 
  128.3750     2.1870    74.3770    22.9010     8.4560     8.2850     9.5960   -31.1300 
  128.5000     2.2220    78.1720    23.2000     8.5250     7.7930     8.9850   -30.7580 
  128.6250     2.2680    81.6830    23.4640     8.3140     7.1350     8.1860   -30.3690 
  128.7500     2.2980    85.0340    23.6790     7.4090     6.4340     7.3800   -29.9340 
  128.8750     2.3120    90.2650    23.8640     6.4740     5.8140     6.7310   -29.4410 
  129.0000     2.3190    96.6850    24.0600     5.9670     5.3870     6.3580   -28.9040 
  129.1250     2.3270    99.0210    24.3580     6.0260     5.2400     6.3180   -28.3490 
  129.2500     2.3340    97.5880    24.7350     6.0150     5.2850     6.4540   -27.8020 
  129.3750     2.3370    95.0770    25.0610     6.4700     5.4090     6.6000   -27.2900 
  129.5000     2.3380    92.7550    25.2130     7.5340     5.4710     6.5930   -26.8410 
  129.6250     2.3430    93.7050    25.2090     7.1410     5.3390     6.3430   -26.5170 
  129.7500     2.3530    97.5460    25.1930     5.8950     5.0850     6.0160   -26.3300 
  129.8750     2.3590   100.4080    25.1910     5.0870     4.8420     5.7890   -26.2770 
  130.0000     2.3450    98.9720    25.1540     5.0500     4.7220     5.7730   -26.3320 
  130.1250     2.3070    96.7210    24.8750     5.4290     4.8210     6.0330   -26.4720 
  130.2500     2.2710    93.8320    24.3640     6.0150     5.0990     6.4620   -26.6700 
  130.3750     2.2540    88.1620    23.8480     6.6330     5.4880     6.9330   -26.9250 
  130.5000     2.2510    82.5160    23.5360     7.0220     5.8690     7.2980   -27.2220 
  130.6250     2.2430    81.6760    23.3380     6.9550     6.0920     7.4130   -27.5270 
  130.7500     2.2280    84.6050    23.0590     6.8180     6.1400     7.3250   -27.7710 
  130.8750     2.2220    90.3820    22.8090     6.6350     6.0480     7.1140   -27.8950 
  131.0000     2.2340    98.3820    22.7790     6.2690     5.8670     6.8570   -27.8610 
  131.1250     2.2610   102.9610    23.0460     6.0460     5.6310     6.6060   -27.6620 
  131.2500     2.2890   102.7240    23.4030     6.5780     5.3680     6.3640   -27.3650 
  131.3750     2.3120   102.8050    23.7780     6.8340     5.0850     6.1180   -27.0150 
