~V
VERS. 2.00: Ver 2.00
~W
STRT.M 64.0000:
STOP.M 268.0000:
STEP.M 0.1250:
NULL. -999.2500:
UWI. DF3073:
~C
DEPT.M :
SP.MV :
GR.API :
CALI.CM :
RXO.OHMM :
RI. :
RML.OHMM :
DEN.GM/CC :
~A
# ...
  199.0000   -20.5750    78.7980    23.9470     7.0080     7.6440    10.4720     2.4860 
  199.1250   -20.2470    73.7140    23.9650     6.9800     7.5120    10.3890     2.5020 
  199.2500   -19.9200    78.4100    24.0880     7.6450     7.5140    10.4700     2.5050 
  199.3750   -19.5870    83.9180    24.1870     8.1850     7.5460    10.5600     2.4920 
  199.5000   -19.2520    82.3670    24.1600     8.1530     7.5060    10.5420     2.4680 
  199.6250   -18.9710    74.0850    24.1740     7.3970     7.3250    10.3470     2.4490 
  199.7500   -18.7910    65.0270    24.1090     6.6440     7.0570    10.0000     2.4460 
  199.8750   -18.6980    58.8800    24.1020     6.3190     6.7490     9.5990     2.4510 
  200.0000   -18.6480    57.0620    24.0390     6.3440     6.4720     9.2340     2.4550 
  200.1250   -18.6190    56.2960    23.9360     6.3300     6.2850     8.9720     2.4560 
  200.2500   -18.5960    54.5640    23.9420     6.2400     6.1780     8.7920     2.4580 
  200.3750   -18.5640    52.8030    23.9470     6.1220     6.1400     8.6660     2.4560 
  200.5000   -18.5260    54.0490    23.9130     6.0120     6.1480     8.5630     2.4480 
  200.6250   -18.5120    57.7900    23.9510     5.9730     6.1890     8.4620     2.4420 
  200.7500   -18.5040    61.6360    23.9690     6.0050     6.2510     8.3940     2.4460 
  200.8750   -18.5150    67.5110    24.0790     6.0970     6.3280     8.3470     2.4620 
  201.0000   -18.5810    75.2670    24.0630     6.2150     6.4180     8.3290     2.4820 
  201.1250   -18.7010    80.3160    24.0820     6.3150     6.5140     8.3370     2.4950 
  201.2500   -18.8520    82.0150    24.0870     6.3400     6.6030     8.3500     2.4980 
  201.3750   -19.0210    83.5730    24.1220     6.3720     6.6580     8.3400     2.4950 
  201.5000   -19.1840    85.9610    24.1280     6.4960     6.6770     8.3070     2.4870 
  201.6250   -19.2990    86.3680    24.1350     6.5350     6.6580     8.2630     2.4770 
  201.7500   -19.3890    83.7350    24.1440     6.5160     6.6190     8.2030     2.4640 
  201.8750   -19.5060    80.2580    24.2200     6.5310     6.5770     8.1410     2.4480 
  202.0000   -19.6480    79.4940    24.3500     6.5510     6.5330     8.0810     2.4360 
  202.1250   -19.8460    84.1440    24.3210     6.5610     6.5020     8.0320     2.4230 
  202.2500   -20.0840    89.6720    24.3440     6.5510     6.4810     7.9800     2.4080 
  202.3750   -20.3450    91.1390    24.3590     6.6140     6.4770     7.9370     2.3970 
  202.5000   -20.6360    88.8800    24.3290     6.7210     6.4970     7.9050     2.3990 
  202.6250   -20.9440    87.6520    24.3600     6.6870     6.5290     7.8740     2.4080 
  202.7500   -21.2160    87.3480    24.3450     6.6330     6.5810     7.8210     2.4150 
  202.8750   -21.4460    85.7790    24.3100     6.6840     6.6820     7.7870     2.4130 
  203.0000   -21.6670    83.6900    24.1850     6.6970     6.8600     7.8420     2.4080 
  203.1250   -21.8790    83.9350    24.2110     6.9980     7.1580     8.0200     2.4010 
  203.2500   -22.1340    84.4090    24.1690     7.6010     7.5880     8.3660     2.3960 
  203.3750   -22.4390    82.3960    24.1530     8.2670     8.2260     8.9860     2.3990 
  203.5000   -22.7900    78.8150    24.1110     8.7570     9.1710    10.0390     2.4130 
  203.6250   -23.1650    79.3050    24.1230     9.8460    10.6480    11.8550     2.4380 
  203.7500   -23.5370    81.7710    24.1000    11.9140    12.7850    14.5860     2.4710 
  203.8750   -23.8680    80.8130    24.0790    14.0360    15.7960    18.3950     2.5070 
  204.0000   -24.1560    75.4590    24.0960    15.8590    19.8490    23.2910     2.5300 
  204.1250   -24.4180    69.9490    23.9340    20.7000    25.1450    29.2900     2.5310 
  204.2500   -24.6650    66.7350    23.9040    30.1440    31.2150    35.8810     2.5100 
  204.3750   -24.9310    65.5850    23.8960    37.2850    37.4670    42.5230     2.4720 
  204.5000   -25.2170    66.8240    23.8880    38.2690    43.1580    48.6230     2.4250 
  204.6250   -25.5320    68.6860    23.8340    35.5030    47.9660    53.9130     2.3720 
  204.7500   -25.8490    68.3820    23.7060    32.6480    52.1370    58.6550     2.3200 
  204.8750   -26.1570    66.7220    23.6650    31.5520    55.8520    63.0860     2.2860 
  205.0000   -26.4560    66.4000    23.6450    33.4290    59.4190    67.5100     2.2690 
  205.1250   -26.7520    68.0040    23.5970    37.0310    63.1700    72.1230     2.2610 
  205.2500   -27.0260    70.1100    23.4330    41.3230    66.8710    76.5150     2.2500 
  205.3750   -27.2690    70.8090    23.2150    44.0930    70.2260    80.3000     2.2310 
  205.5000   -27.5050    68.7230    22.9660    45.2640    73.0510    83.3700     2.2130 
  205.6250   -27.7290    65.3740    22.9690    44.3680    75.4040    85.6980     2.2060 
  205.7500   -27.9750    63.5770    22.9920    43.9790    77.6760    87.8060     2.2110 
  205.8750   -28.2340    63.3850    23.1500    44.3520    80.1910    90.1790     2.2210 
  206.0000   -28.4630    63.3430    23.4180    46.3770    83.0170    92.8080     2.2260 
  206.1250   -28.6150    62.8500    24.0070    47.4820    85.7200    95.1590     2.2240 
  206.2500   -28.7280    63.7120    24.4710    47.3160    87.9410    96.8450     2.2200 
  206.3750   -28.8130    65.8900    24.6860    45.6600    89.3420    97.4370     2.2220 
  206.5000   -28.8900    66.3510    24.6630    44.3480    89.7500    96.8210     2.2240 
  206.6250   -29.0090    62.7970    24.7040    45.8340    89.0330    94.9850     2.2180 
  206.7500   -29.1610    59.5330    24.6850    47.1550    87.6570    92.4510     2.2090 
  206.8750   -29.3550    61.2250    24.6680    45.6330    85.9980    89.5980     2.2070 
  207.0000   -29.5610    66.4600    24.7180    43.0730    84.5050    87.1020     2.2180 
  207.1250   -29.7790    70.1410    24.6570    41.8080    83.6310    85.5150     2.2330 
  207.2500   -29.9750    70.3700    24.6360    39.8230    83.4010    84.7310     2.2390 
  207.3750   -30.1580    69.0700    24.4930    37.6240    83.8220    84.8110     2.2300 
  207.5000   -30.3170    66.6120    24.4100    37.2200    84.8470    85.6130     2.2170 
  207.6250   -30.4500    64.0590    24.4100    39.5730    85.9600    86.4210     2.2130 
  207.7500   -30.6100    62.6760    24.4030    43.8750    86.2830    86.4780     2.2180 
  207.8750   -30.8250    61.6090    24.4180    46.7440    85.4110    85.4170     2.2210 
  208.0000   -31.1040    60.4360    24.5230    45.6340    83.4660    83.1690     2.2180 
  208.1250   -31.4000    61.8160    24.6060    41.7800    80.6160    80.1560     2.2190 
  208.2500   -31.6890    66.0010    24.6350    40.4240    77.9130    77.5850     2.2260 
  208.3750   -31.9660    69.7280    24.7910    39.8450    76.4050    76.5250     2.2330 
  208.5000   -32.2380    69.9250    24.8620    37.6370    77.0270    77.9150     2.2300 
  208.6250   -32.5220    67.0420    24.8760    38.1910    81.3570    83.2620     2.2180 
  208.7500   -32.8210    64.0460    24.7980    39.3680    89.4180    92.4060     2.2080 
  208.8750   -33.1290    62.1710    24.6720    39.1460   101.1710   105.3380     2.2110 
  209.0000   -33.4220    62.5400    24.6190    39.4050   115.9710   121.5140     2.2190 
  209.1250   -33.7150    65.0800    24.6250    45.9230   132.9130   139.9620     2.2130 
  209.2500   -34.0290    66.9580    24.6610    58.5510   149.9300   158.5540     2.1840 
  209.3750   -34.3250    67.0600    24.9010    75.7190   165.0020   175.1710     2.1510 
  209.5000   -34.5440    64.9130    25.0820    87.2890   176.4920   187.6570     2.1320 
  209.6250   -34.6940    62.5610    25.1140    85.8960   182.1070   193.5050     2.1290 
  209.7500   -34.7790    63.3400    25.1180    83.9740   182.0690   192.8140     2.1360 
  209.8750   -34.8330    65.6530    25.1150    83.4840   176.5930   185.9910     2.1410 
  210.0000   -34.9230    65.3580    25.1110    86.1510   166.8510   174.4220     2.1370 
  210.1250   -35.0570    61.3390    25.0820    87.3980   154.2710   160.2570     2.1280 
