~V
VERS. 2.00: Ver 2.00
~W
STRT.M 64.0000:
STOP.M 257.0000:
STEP.M 0.1250:
NULL. -999.2500:
UWI. DF3069:
~C
DEPT.M :
GR.API :
CALI.CM :
RXO.OHMM :
RI. :
RML.OHMM :
DEN.GM/CC :
SP.MV :
~A
# ...
  109.0000    90.9570    23.5470     7.5520     5.8160     7.8670  -999.2500   -23.1130 
  109.1250    92.2470    23.5560     7.6490     5.8030     7.8500  -999.2500   -23.1570 
  109.2500    90.2360    23.6040     7.4450     5.7810     7.7860  -999.2500   -23.1860 
  109.3750    88.9040    23.6570     7.1420     5.7310     7.6750  -999.2500   -23.2060 
  109.5000    93.4650    23.6780     7.0320     5.6760     7.5750  -999.2500   -23.2470 
  109.6250   102.1830    23.8870     6.7350     5.6450     7.5350  -999.2500   -23.3230 
  109.7500   104.8550    23.9190     6.8560     5.6380     7.5510  -999.2500   -23.4390 
  109.8750   100.5160    23.9350     7.4700     5.6640     7.6210  -999.2500   -23.5830 
  110.0000    94.9390    23.9310     7.8870     5.7250     7.7550  -999.2500   -23.7660 
  110.1250    93.0570    23.8380     7.7330     5.8450     7.9500  -999.2500   -23.9990 
  110.2500    91.6020    23.7610     7.4060     6.0330     8.2420  -999.2500   -24.2630 
  110.3750    88.5970    23.6480     7.5460     6.2970     8.6370  -999.2500   -24.5590 
  110.5000    85.3280    23.3740     7.9200     6.6300     9.1150  -999.2500   -24.8700 
  110.6250    80.8860    23.2230     8.7240     7.0030     9.6110  -999.2500   -25.1660 
  110.7500    73.8550    22.9590     9.2750     7.3360    10.0200  -999.2500   -25.3940 
  110.8750    68.1940    22.8320     9.4450     7.5440    10.2040  -999.2500   -25.5320 
  111.0000    68.3790    22.6890     9.3180     7.5600    10.1110  -999.2500   -25.5590 
  111.1250    73.5900    22.4720     9.1660     7.3540     9.7240  -999.2500   -25.4140 
  111.2500    78.9550    22.5200     9.0130     7.0110     9.2020  -999.2500   -25.1410 
  111.3750    81.8620    22.6000     8.7930     6.6240     8.6650  -999.2500   -24.7770 
  111.5000    82.5740    22.5930     8.2490     6.2880     8.2560  -999.2500   -24.3630 
  111.6250    84.5980    22.6230     7.4920     6.0940     8.0870  -999.2500   -23.9790 
  111.7500    89.2170    22.5920     7.3140     6.0340     8.0950  -999.2500   -23.6710 
  111.8750    92.7300    22.6600     7.6990     6.0800     8.2290  -999.2500   -23.4320 
  112.0000    91.4960    22.6720     8.1670     6.1870     8.4000  -999.2500   -23.2530 
  112.1250    88.3550    22.7340     8.2390     6.2720     8.4500  -999.2500   -23.1280 
  112.2500    87.7040    22.9870     8.0930     6.2780     8.3420  -999.2500   -22.9790 
  112.3750    89.0640    23.1530     7.8050     6.1760     8.0640  -999.2500   -22.7970 
  112.5000    90.9280    23.2640     7.3840     5.9610     7.6390  -999.2500   -22.5880 
  112.6250    95.2440    23.4650     6.9910     5.6470     7.1010  -999.2500   -22.3960 
  112.7500    99.9610    23.6210     6.7240     5.2960     6.5400  -999.2500   -22.2310 
  112.8750   101.6000    23.6650     6.4760     4.9640     6.0440  -999.2500   -22.0990 
  113.0000   100.0540    23.7950     6.2180     4.7340     5.7400  -999.2500   -22.0090 
  113.1250    97.8690    23.7550     6.0600     4.7340     5.8360  -999.2500   -21.9510 
  113.2500    94.7600    23.6820     6.0660     5.0140     6.3960  -999.2500   -21.9600 
  113.3750    90.8920    23.6100     6.2360     5.5960     7.3820  -999.2500   -22.0330 
  113.5000    87.7640    23.3710     6.8490     6.4650     8.7060  -999.2500   -22.1740 
  113.6250    82.7790    23.3450     9.1580     7.5060    10.0900     2.5930   -22.3640 
  113.7500    73.5100    23.2990    14.1960     8.4080    11.1270     2.5930   -22.5610 
  113.8750    67.0620    23.3310    18.4560     8.8600    11.4730     2.6060   -22.7800 
  114.0000    68.9420    23.3550    17.5630     8.6750    10.9720     2.5970   -23.0460 
  114.1250    75.2920    23.4470    11.9670     7.9250     9.7860     2.5340   -23.3690 
  114.2500    79.4930    23.4610     8.3630     7.0310     8.4670     2.4430   -23.7050 
  114.3750    80.4030    23.4120     7.5320     6.2580     7.4050     2.3610   -24.0260 
  114.5000    80.5380    23.5640     7.4520     5.7770     6.8690     2.3260   -24.3080 
  114.6250    80.9170    23.4200     6.9220     5.7350     6.9910     2.3330   -24.5630 
  114.7500    79.4340    23.4640     6.5930     6.0610     7.6120     2.3230   -24.8540 
  114.8750    75.6930    23.3660     7.3000     6.6900     8.5540     2.2780   -25.2010 
  115.0000    73.2280    23.3370     8.6320     7.5110     9.6220     2.2180   -25.5530 
  115.1250    74.9550    23.3180     9.8450     8.3890    10.6190     2.1770   -25.8940 
  115.2500    74.7750    23.2790    10.4450     9.2010    11.4570     2.1530   -26.2150 
  115.3750    70.6060    23.2760    10.6340     9.8670    12.0630     2.1430   -26.4760 
  115.5000    67.0270    23.2770    10.6680    10.2690    12.3380     2.1430   -26.6570 
  115.6250    66.2140    23.0720    10.7590    10.2510    12.1580     2.1440   -26.6970 
  115.7500    66.2680    23.0730    10.8520     9.8620    11.6110     2.1440   -26.6140 
  115.8750    68.1740    23.0140    10.8490     9.1690    10.7460     2.1490   -26.4500 
  116.0000    72.2000    22.8530    10.5580     8.2750     9.6710     2.1730   -26.2670 
  116.1250    76.3290    22.8520     9.7870     7.3610     8.5990     2.2210   -26.1200 
  116.2500    79.8750    23.0210     8.1560     6.6090     7.7640     2.2810   -26.0710 
  116.3750    82.9240    23.1750     6.5940     6.1370     7.3510     2.3300   -26.1510 
  116.5000    83.8920    23.2170     6.0890     6.0310     7.4630     2.3460   -26.3340 
  116.6250    80.7710    23.1580     6.8180     6.3820     8.1740     2.3170   -26.5820 
  116.7500    76.1190    23.0440     8.0490     7.1080     9.2830     2.2740   -26.8580 
  116.8750    71.7330    23.0470     9.5020     8.1170    10.6120     2.2420   -27.1620 
  117.0000    68.6760    23.1800    11.0530     9.2640    11.9690     2.2230   -27.4800 
  117.1250    67.4510    23.1520    11.7630    10.3320    13.0910     2.2070   -27.8110 
  117.2500    66.5920    23.0450    11.6420    11.1550    13.8510     2.1940   -28.0970 
  117.3750    67.2090    22.9000    11.3540    11.6700    14.2480     2.1910   -28.3040 
  117.5000    68.7250    22.6950    11.0850    11.9160    14.4130     2.1950   -28.4560 
  117.6250    67.5830    22.8910    10.8880    11.9600    14.4420     2.1950   -28.5620 
  117.7500    65.9100    23.1130    10.9900    11.9020    14.4000     2.1980   -28.6090 
  117.8750    69.1150    23.3710    11.5440    11.7740    14.2930     2.2110   -28.5880 
  118.0000    77.0180    23.2720    12.3600    11.5880    14.0990     2.2260   -28.5050 
  118.1250    78.5790    23.3390    12.5160    11.3280    13.7980     2.2230   -28.3790 
  118.2500    73.5710    23.3720    12.1030    11.0310    13.4450     2.2040   -28.2430 
  118.3750    70.0300    23.2800    11.6520    10.7610    13.1300     2.1810   -28.1440 
  118.5000    71.1850    23.2340    11.2350    10.5590    12.8700     2.1680   -28.0600 
  118.6250    71.7470    23.2500    11.0200    10.4240    12.6640     2.1730   -27.9930 
  118.7500    69.9950    23.2960    11.1280    10.3240    12.5180     2.1860   -27.9200 
  118.8750    70.2850    23.2500    11.3220    10.2430    12.3850     2.1940   -27.8190 
  119.0000    73.4340    23.2260    11.3410    10.1080    12.1620     2.1920   -27.7060 
  119.1250    75.1530    23.2380    11.4320     9.8490    11.7630     2.1960   -27.5690 
  119.2500    75.9570    23.2930    11.3540     9.4880    11.2630     2.2130   -27.4350 
  119.3750    78.9130    23.3820    10.7930     9.0700    10.7180     2.2300   -27.3100 
  119.5000    83.4820    23.2510    10.1880     8.6600    10.1930     2.2360   -27.2120 
  119.6250    83.8050    23.2540    10.0290     8.3330     9.8090     2.2410   -27.1340 
  119.7500    80.4710    23.3750     9.8380     8.1310     9.5770     2.2600   -27.1050 
  119.8750    76.9710    23.4790     9.2730     8.0660     9.5150     2.2830   -27.1180 
  120.0000    74.2210    23.2760     8.6900     8.1370     9.6140     2.2860   -27.1210 
  120.1250    70.9280    23.2660     9.0740     8.3220     9.8050     2.2610   -27.1220 
