~V
VERS. 2.00: Ver 2.00
~W
STRT.M 56.0000:
STOP.M 263.0000:
STEP.M 0.1250:
NULL. -999.2500:
UWI. DF3034:
~C
DEPT.M :
DEN.GM/CC :
GR.API :
RML.OHMM :
RI. :
RXO.OHMM :
CALI.CM :
SP.MV :
~A
# ...
  123.5000     2.3200    98.8360     7.3630     6.3190     6.0150    23.4960   -15.6130 
  123.6250     2.3070   100.5630     7.1230     6.0810     5.4160    23.5800   -15.6520 
  123.7500     2.2830   106.4030     6.9660     5.9150     5.2420    23.6180   -15.7900 
  123.8750     2.2620   112.3440     6.8770     5.8180     5.4080    23.6770   -16.0280 
  124.0000     2.2510   109.8710     6.8610     5.7980     5.6390    23.6810   -16.4180 
  124.1250     2.2590   101.4620     6.9800     5.9010     5.8880    23.8390   -16.9050 
  124.2500     2.2800    96.4590     7.2600     6.1440     6.1970    23.9080   -17.4680 
  124.3750     2.3030    94.7510     7.7130     6.5340     6.6650    23.5330   -18.0080 
  124.5000     2.3160    92.3780     8.2890     7.0370     7.3490    23.1300   -18.4630 
  124.6250     2.3100    89.4710     8.8530     7.5520     8.1750    22.9100   -18.7260 
  124.7500     2.2950    87.2270     9.2270     7.9320     9.0290    22.6620   -18.8450 
  124.8750     2.2800    84.5470     9.2880     8.0650     9.4340    22.2450   -18.7390 
  125.0000     2.2720    82.6300     9.0070     7.9030     9.3290    22.0610   -18.3900 
  125.1250     2.2680    85.2500     8.4540     7.4720     8.7980    22.3020   -17.9410 
  125.2500     2.2620    91.0020     7.8470     6.9470     8.2380    22.7700   -17.3100 
  125.3750     2.2510    96.6590     7.3230     6.4540     7.3850    23.2440   -16.6920 
  125.5000     2.2430    98.8420     6.9650     6.0760     6.4630    23.7200   -16.0640 
  125.6250     2.2450    97.3280     6.8210     5.8770     6.2800    23.9470   -15.5970 
  125.7500     2.2570    96.8840     6.8230     5.8170     6.2470    24.0820   -15.1550 
  125.8750     2.2750    98.2310     6.9110     5.8590     6.1920    24.2350   -14.8820 
  126.0000     2.2930   100.7500     7.0140     5.9470     6.2180    24.4860   -14.6480 
  126.1250     2.3050   103.5120     7.0460     6.0130     6.3430    24.2280   -14.4420 
  126.2500     2.3130   104.6070     6.9710     6.0060     6.3070    24.0020   -14.3710 
  126.3750     2.3150   104.2330     6.7930     5.9130     6.0960    23.9740   -14.3540 
  126.5000     2.3120   105.3860     6.5580     5.7540     5.8300    23.9960   -14.3860 
  126.6250     2.3010   109.6430     6.3560     5.5810     5.7250    24.0060   -14.4470 
  126.7500     2.2890   112.8660     6.2550     5.4560     5.6210    24.1420   -14.5780 
  126.8750     2.2810   111.2380     6.2720     5.4060     5.5140    24.2550   -14.7870 
  127.0000     2.2800   104.8790     6.3680     5.4200     5.5490    24.3670   -15.1310 
  127.1250     2.2870    98.1980     6.4510     5.4540     5.7750    24.1910   -15.5580 
  127.2500     2.2950    93.7770     6.4420     5.4530     6.2620    23.7900   -16.0160 
  127.3750     2.3010    91.0810     6.3210     5.4030     6.5850    23.3410   -16.5010 
  127.5000     2.3070    89.6800     6.1740     5.3510     6.5920    23.2370   -17.0230 
  127.6250     2.3280    90.2370     6.2630     5.4670     6.5910    23.4750   -17.5510 
  127.7500     2.3730    90.8670     6.8410     5.9280     6.9010    23.6780   -18.0880 
  127.8750     2.4370    90.2070     8.0650     6.8690     8.0140    23.7110   -18.5520 
  128.0000     2.4990    87.3470     9.9170     8.2890    10.0090    23.7780   -19.1220 
  128.1250     2.5220    82.6280    11.9990     9.9650    13.1140    23.8590   -19.7270 
  128.2500     2.4970    77.5030    13.5880    11.3820    17.6110    23.8630   -20.3980 
  128.3750     2.4370    74.2620    14.0840    12.1010    22.8050    23.8640   -21.1100 
  128.5000     2.3670    73.9720    13.4800    11.9260    22.0090    24.0190   -21.7830 
  128.6250     2.3120    76.1750    12.1700    11.0210    15.7380    23.7720   -22.4030 
  128.7500     2.2780    78.3120    10.9620    10.0240    11.8300    23.6510   -22.9370 
  128.8750     2.2650    79.4590    10.1910     9.2670    10.5050    23.5690   -23.4660 
  129.0000     2.2670    78.9470     9.9210     8.8880    10.2030    23.3550   -23.7910 
  129.1250     2.2750    76.6400    10.0490     8.8740    10.0280    23.0040   -24.0780 
  129.2500     2.2770    74.5540    10.3430     9.0560     9.8150    22.9510   -24.2430 
  129.3750     2.2620    74.2630    10.6220     9.2840     9.8950    23.2310   -24.3530 
  129.5000     2.2310    75.1330    10.6880     9.3900    10.3820    23.7130   -24.4380 
  129.6250     2.1920    75.0040    10.5440     9.3440    10.7060    23.7750   -24.5060 
  129.7500     2.1620    72.8840    10.2700     9.1870    10.6880    23.7590   -24.5420 
  129.8750     2.1490    69.2800     9.9200     8.9480    10.4580    23.7080   -24.5280 
  130.0000     2.1560    66.8750     9.5580     8.6700    10.1250    23.6400   -24.4690 
  130.1250     2.1790    68.8580     9.2480     8.4040     9.6960    23.5470   -24.3620 
  130.2500     2.2040    73.2580     9.0210     8.1890     9.5150    23.4860   -24.1910 
  130.3750     2.2210    76.7570     8.8930     8.0470     9.3540    23.4130   -23.9520 
  130.5000     2.2280    76.7990     8.8750     7.9930     9.1130    23.2510   -23.6750 
  130.6250     2.2240    73.5670     8.9880     8.0440     8.9290    23.0730   -23.3720 
  130.7500     2.2140    73.9220     9.1930     8.1670     8.8350    22.9900   -23.0710 
  130.8750     2.2010    77.1230     9.4370     8.3230     8.9100    22.9990   -22.7840 
  131.0000     2.1870    78.1190     9.6250     8.4410     9.1750    23.1710   -22.4730 
  131.1250     2.1760    76.2650     9.5800     8.3880     9.4120    23.3960   -22.0580 
  131.2500     2.1760    76.9740     9.2250     8.1040     9.3550    23.4150   -21.6220 
  131.3750     2.1940    82.7300     8.5740     7.5870     9.0660    23.3510   -21.0940 
  131.5000     2.2350    89.4570     7.7790     6.9380     8.7380    23.4560   -20.6050 
  131.6250     2.2950    93.2350     7.1430     6.3700     8.1430    23.6700   -20.1130 
  131.7500     2.3550    95.1600     6.8810     6.0580     7.1830    23.7790   -19.8270 
  131.8750     2.3960    94.1940     7.0510     6.0680     6.6060    23.6900   -19.6650 
  132.0000     2.4050    89.9780     7.5710     6.3710     6.9610    23.6540   -19.7270 
  132.1250     2.3720    83.7220     8.2510     6.8660     8.4310    23.7270   -20.0840 
  132.2500     2.3140    78.1740     8.8260     7.3540    10.1120    23.6770   -20.5960 
  132.3750     2.2490    74.3720     9.1610     7.7160    10.0780    23.4330   -21.3150 
  132.5000     2.1920    71.6320     9.2540     7.9110     9.0440    22.9900   -22.0820 
  132.6250     2.1580    70.6290     9.2250     7.9860     8.5500    22.6880   -22.8900 
  132.7500     2.1460    71.5130     9.2440     8.0650     8.8970    22.4090   -23.5560 
  132.8750     2.1510    74.2540     9.3700     8.2060     9.1880    22.2840   -24.0950 
  133.0000     2.1670    75.2500     9.5810     8.4070     9.3060    22.2430   -24.4810 
  133.1250     2.1840    71.7380     9.7990     8.6110     9.4620    22.1860   -24.7250 
  133.2500     2.1940    68.8750     9.9500     8.7530     9.5840    22.0920   -24.8840 
  133.3750     2.1970    70.9480    10.0060     8.8010     9.8990    21.9910   -24.9790 
  133.5000     2.1950    75.0190     9.9750     8.7580    10.4020    21.9450   -25.0300 
  133.6250     2.1900    74.8990     9.8910     8.6520    10.8970    22.0080   -25.0870 
  133.7500     2.1870    70.9190     9.8150     8.5390    10.8450    22.0920   -25.0950 
  133.8750     2.1850    67.0560     9.7850     8.4600    10.5720    22.1000   -25.1570 
  134.0000     2.1840    65.9580     9.8200     8.4360    10.1340    21.9320   -25.2010 
  134.1250     2.1800    67.4150     9.9150     8.4750    10.4540    21.9650   -25.2330 
  134.2500     2.1750    66.3650    10.0250     8.5440    10.9080    21.8280   -25.2780 
  134.3750     2.1720    64.3140    10.1160     8.6180    11.1720    21.8310   -25.3170 
  134.5000     2.1740    67.0530    10.1680     8.6780    10.9250    22.1760   -25.3300 
  134.6250     2.1810    74.6850    10.1790     8.7120    10.3440    22.4860   -25.3170 
