~V
VERS. 2.00: Ver 2.00
~W
STRT.M 65.0000:
STOP.M 270.0000:
STEP.M 0.1250:
NULL. -999.2500:
UWI. DF3062:
~C
DEPT.M :
SP.MV :
GR.API :
CALI.CM :
RXO.OHMM :
RI. :
RML.OHMM :
DEN.GM/CC :
~A
# ...
  233.7500   -24.9950    56.8240    21.5940     3.8950     7.7610     8.8460     2.3480 
  233.8750   -25.0760    60.0320    21.6700     3.1750     7.7450     8.9660     2.3460 
  234.0000   -25.1990    65.3240    22.3020     3.6320     7.7340     9.0630     2.3480 
  234.1250   -25.3440    73.7750    22.8270     5.3070     7.8220     9.2870     2.3520 
  234.2500   -25.4830    82.5890    23.2270     6.8660     8.0220     9.6550     2.3570 
  234.3750   -25.6030    91.4460    23.6310     7.8930     8.3000    10.1230     2.3640 
  234.5000   -25.7180    99.3070    23.7540     8.6650     8.5990    10.6230     2.3740 
  234.6250   -25.8300   102.0780    23.7890     8.8380     8.8350    11.0750     2.3850 
  234.7500   -25.9340   100.1120    23.7890     8.8670     8.9780    11.4280     2.3950 
  234.8750   -26.0200    97.1480    23.7670     8.8820     9.0060    11.6500     2.4030 
  235.0000   -26.0770    97.0060    23.7590     8.9160     8.9600    11.7830     2.4040 
  235.1250   -26.1130   100.7190    23.7670     8.8820     8.8770    11.8770     2.3960 
  235.2500   -26.1320   105.5110    23.7890     8.8800     8.8030    11.9660     2.3830 
  235.3750   -26.1340   109.3560    23.7910     8.9470     8.7410    12.0460     2.3680 
  235.5000   -26.1020   109.3160    23.7880     9.0750     8.6690    12.1110     2.3550 
  235.6250   -26.0550   108.4320    23.7410     8.9980     8.5980    12.1790     2.3470 
  235.7500   -26.0040   109.8040    23.6270     8.8810     8.5560    12.2770     2.3490 
  235.8750   -25.9490   109.2660    23.6100     8.8290     8.5540    12.4180     2.3570 
  236.0000   -25.8640   104.3400    23.6340     8.8340     8.5720    12.6010     2.3660 
  236.1250   -25.7560    99.3010    23.5760     8.8560     8.6570    12.8580     2.3730 
  236.2500   -25.6440   102.1890    23.4940     8.9670     8.7900    13.1420     2.3810 
  236.3750   -25.5510   110.1110    23.4550     9.2230     8.9260    13.3870     2.3940 
  236.5000   -25.4860   112.6480    23.4550     9.7830     9.0290    13.5500     2.4070 
  236.6250   -25.4400   105.0630    23.4940     9.9170     9.0650    13.5670     2.4150 
  236.7500   -25.4310    97.5470    23.4610     9.8870     9.0240    13.4530     2.4180 
  236.8750   -25.4490    95.6700    23.4350    10.8730     8.9310    13.2340     2.4190 
  237.0000   -25.5410    97.1570    23.4280    11.5250     8.8330    13.0100     2.4210 
  237.1250   -25.7020    97.2350    23.4290    11.1410     8.8340    13.0090     2.4200 
  237.2500   -25.9160    95.3490    23.4290     9.8250     9.0770    13.4990     2.4130 
  237.3750   -26.1610    94.3320    23.4250     9.3670     9.7630    14.8010     2.3990 
  237.5000   -26.4250    96.6870    23.3940    10.0780    11.0570    17.2430     2.3790 
  237.6250   -26.6970    98.6630    23.3130    10.6000    13.4650    21.5580     2.3520 
  237.7500   -26.9470    94.0840    23.0030    11.5350    17.1120    27.6400     2.3170 
  237.8750   -27.1740    83.4040    22.8710    16.3070    22.2100    35.4560     2.2810 
  238.0000   -27.3710    73.6020    22.8130    28.3030    28.8000    44.7460     2.2550 
  238.1250   -27.5130    69.6160    22.6470    42.4810    36.5780    54.6300     2.2390 
  238.2500   -27.5900    68.3610    22.7370    52.6650    44.3180    63.8100     2.2240 
  238.3750   -27.6040    67.6650    23.0450    56.9330    51.1470    71.5050     2.2030 
  238.5000   -27.5480    67.4350    23.3850    52.4450    56.8620    77.6550     2.1760 
  238.6250   -27.4300    67.0970    23.5760    48.2880    61.1920    82.1440     2.1570 
  238.7500   -27.2980    66.4110    23.6220    51.6090    64.8170    85.7800     2.1620 
  238.8750   -27.1420    67.0500    23.5030    60.5560    68.0730    89.0790     2.1970 
  239.0000   -26.9440    67.9220    23.4440    65.7120    70.4240    91.1260     2.2320 
  239.1250   -26.7040    65.5870    23.5660    70.6600    70.7120    90.2180     2.2460 
  239.2500   -26.4440    61.3980    23.6370    73.9170    68.7720    86.1590     2.2390 
  239.3750   -26.1640    59.8370    23.5910    73.4660    64.4380    78.9300     2.2300 
  239.5000   -25.8950    61.5100    23.5530    68.5080    57.9400    69.3390     2.2290 
  239.6250   -25.6400    63.2770    23.4550    59.9410    50.5660    59.3600     2.2280 
  239.7500   -25.3700    64.6540    23.4330    48.4890    43.9290    50.7080     2.2210 
  239.8750   -25.1090    65.1290    23.4820    38.5410    38.4770    43.7490     2.2160 
  240.0000   -24.8940    65.2310    23.5030    34.1870    34.3390    38.5670     2.2240 
  240.1250   -24.7450    66.4360    23.4800    29.4330    31.7310    35.4210     2.2390 
  240.2500   -24.6590    69.1830    23.4070    22.6610    30.1450    33.5930     2.2500 
  240.3750   -24.6290    70.9070    23.4250    17.7670    29.1890    32.5890     2.2480 
  240.5000   -24.6320    69.3470    23.4650    19.2180    28.5210    31.9430     2.2410 
  240.6250   -24.6440    66.3410    23.4750    22.2460    27.7670    31.1620     2.2350 
  240.7500   -24.6840    65.8340    23.4840    22.7750    26.6370    29.9590     2.2380 
  240.8750   -24.7420    68.1460    23.4490    22.1600    25.2700    28.5050     2.2490 
  241.0000   -24.7900    70.7040    23.4210    19.5260    24.0310    27.2550     2.2630 
  241.1250   -24.8450    70.8360    23.4160    16.3170    23.3780    26.8240     2.2740 
  241.2500   -24.9000    69.4340    23.4600    14.0200    23.7250    27.9480     2.2800 
  241.3750   -24.9370    67.6290    23.4870    13.4280    25.6200    31.3610     2.2780 
  241.5000   -24.9550    65.4760    23.4670    13.6780    29.6650    37.6500     2.2690 
  241.6250   -24.9760    63.9580    23.4890    18.3520    36.7840    47.6660     2.2570 
  241.7500   -24.9890    64.0720    23.4930    34.4990    46.9710    61.0370     2.2450 
  241.8750   -25.0050    66.5260    23.4720    59.4850    60.1430    77.4130     2.2330 
  242.0000   -25.0220    68.2910    23.4570    81.1370    75.0260    95.2900     2.2170 
  242.1250   -25.0150    67.8390    23.4490    90.2950    88.4520   110.6280     2.1910 
  242.2500   -24.9700    68.9180    23.4570    94.7240    97.2220   119.6040     2.1560 
  242.3750   -24.9220    69.7310    23.4650    97.0080    99.5730   120.6140     2.1380 
  242.5000   -24.8640    67.4110    23.5420    96.0460    96.0770   114.8540     2.1520 
  242.6250   -24.7950    64.1250    23.3910    92.4410    88.9650   105.8340     2.1890 
  242.7500   -24.7230    63.3400    23.0460    84.9320    81.8150    97.6660     2.2240 
  242.8750   -24.6420    64.4180    22.8600    73.4290    76.0530    91.8100     2.2380 
  243.0000   -24.5830    65.6460    22.8330    59.3690    72.4440    88.7120     2.2400 
  243.1250   -24.5510    66.1810    22.9660    58.7030    71.4280    88.5010     2.2380 
  243.2500   -24.5620    65.7020    23.0050    62.0450    72.3590    90.1890     2.2440 
  243.3750   -24.6130    64.6410    22.9560    68.4360    74.7320    92.8090     2.2660 
  243.5000   -24.7050    64.0450    23.2410    75.0990    77.8830    95.7080     2.2880 
  243.6250   -24.8160    63.5320    23.8890    77.6560    81.0810    97.8670     2.2880 
  243.7500   -24.9150    61.5810    24.0160    73.5800    82.9690    97.8010     2.2610 
  243.8750   -25.0010    58.8920    24.0270    65.3110    81.8140    93.8140     2.2280 
  244.0000   -25.0410    56.7020    24.0470    61.8290    76.3390    85.2090     2.2120 
  244.1250   -25.0270    57.2330    24.0520    68.2530    66.2490    72.7660     2.2060 
  244.2500   -24.9760    60.0440    24.0990    74.3120    54.0370    58.8460     2.2010 
  244.3750   -24.8900    63.3900    24.1620    69.5640    41.9770    45.3680     2.2030 
  244.5000   -24.7600    68.1340    24.1080    49.6310    31.7250    33.8200     2.2170 
  244.6250   -24.5810    73.8620    24.1730    24.7100    24.3990    25.4280     2.2350 
  244.7500   -24.3880    75.6790    23.9160    13.5340    19.5840    19.8900     2.2470 
  244.8750   -24.1800    73.1490    23.7240    10.7970    16.8730    16.8210     2.2530 
