~V
VERS. 2.00: Ver 2.00
~W
STRT.M 54.0000:
STOP.M 250.0000:
STEP.M 0.1250:
NULL. -999.2500:
UWI. DF3016:
~C
DEPT.M :
GR.API :
RML.OHMM :
RI. :
RXO.OHMM :
CALI.CM :
DEN.GM/CC :
SP.MV :
~A
# ...
  144.0000    62.9180    20.5710    18.7580    17.7200    24.1160     2.4940   -14.7030 
  144.1250    61.6580    21.3150    19.4670    18.5020    24.0610     2.4970   -14.7450 
  144.2500    59.3670    21.6370    19.8290    19.3480    24.0320     2.5040   -14.8100 
  144.3750    58.0720    21.5340    19.8080    20.2300    24.0560     2.5130   -14.7980 
  144.5000    58.4000    21.1580    19.5050    20.6940    24.1750     2.5170   -14.7950 
  144.6250    61.2310    20.7530    19.1120    20.6550    24.3560     2.5130   -14.7830 
  144.7500    63.3490    20.5080    18.8130    19.7950    24.4140     2.5080   -14.8070 
  144.8750    62.6530    20.4550    18.6610    18.8980    24.3620     2.5070   -14.8450 
  145.0000    60.2970    20.5250    18.6280    19.3880    24.2860     2.5130   -14.8680 
  145.1250    58.8050    20.6000    18.6370    19.6730    24.2740     2.5250   -14.9020 
  145.2500    59.3840    20.6140    18.6250    19.2680    24.3080     2.5370   -14.9110 
  145.3750    59.3510    20.5830    18.5910    18.5090    24.3540     2.5440   -14.9340 
  145.5000    57.6030    20.5650    18.5690    18.2310    24.3630     2.5480   -14.9780 
  145.6250    55.6650    20.6320    18.6170    18.5230    24.3770     2.5460   -15.0340 
  145.7500    56.4010    20.7870    18.7370    18.8340    24.4020     2.5410   -15.0910 
  145.8750    58.7140    20.9960    18.9060    19.6500    24.4160     2.5370   -15.1470 
  146.0000    59.7860    21.2150    19.0840    20.0700    24.4220     2.5370   -15.2100 
  146.1250    59.8710    21.3940    19.2290    20.0730    24.4330     2.5420   -15.2220 
  146.2500    61.3220    21.5220    19.3290    19.5620    24.4430     2.5510   -15.2740 
  146.3750    63.3440    21.6050    19.3880    19.2520    24.4390     2.5610   -15.3490 
  146.5000    63.8140    21.6650    19.4260    20.0470    24.4310     2.5660   -15.4300 
  146.6250    63.5890    21.7390    19.4730    20.8650    24.4080     2.5660   -15.5140 
  146.7500    64.1130    21.8590    19.5570    20.8020    24.3990     2.5640   -15.5580 
  146.8750    65.0530    22.0470    19.7000    20.2250    24.4140     2.5650   -15.6250 
  147.0000    65.4940    22.2990    19.9060    20.4530    24.4400     2.5730   -15.6740 
  147.1250    64.8370    22.5580    20.1400    20.6910    24.4750     2.5870   -15.7820 
  147.2500    64.7340    22.7140    20.3180    20.6600    24.4880     2.5960   -15.8630 
  147.3750    65.9980    22.6740    20.3580    20.4890    24.4730     2.5930   -15.9480 
  147.5000    68.6700    22.3940    20.2080    20.5050    24.4340     2.5720   -16.0460 
  147.6250    71.4120    21.8810    19.8500    21.2220    24.4250     2.5380   -16.1320 
  147.7500    72.0830    21.2740    19.3810    20.8960    24.4610     2.5070   -16.2440 
  147.8750    68.7860    20.6570    18.8690    19.2610    24.4760     2.4910   -16.3070 
  148.0000    63.2730    20.0670    18.3530    18.1140    24.5130     2.4960   -16.3570 
  148.1250    59.8310    19.4940    17.8450    18.1130    24.5350     2.5170   -16.3410 
  148.2500    60.1420    18.9050    17.3350    18.5600    24.6170     2.5410   -16.3020 
  148.3750    62.5180    18.2880    16.8180    18.2200    24.6690     2.5570   -16.2190 
  148.5000    64.2620    17.6630    16.3050    17.2680    24.6810     2.5610   -16.0830 
  148.6250    64.0010    17.0820    15.8360    16.3770    24.6730     2.5560   -15.9070 
  148.7500    61.2770    16.5740    15.4370    16.0180    24.6520     2.5460   -15.7620 
  148.8750    58.4210    16.1280    15.1100    15.7810    24.6380     2.5360   -15.6310 
  149.0000    57.2550    15.7040    14.8260    14.9980    24.6340     2.5280   -15.5580 
  149.1250    55.3620    15.2700    14.5570    14.3970    24.6370     2.5230   -15.4830 
  149.2500    52.2230    14.8610    14.3060    14.2750    24.6270     2.5180   -15.4970 
  149.3750    50.1170    14.5590    14.1250    14.1570    24.6280     2.5130   -15.5430 
  149.5000    50.7630    14.4580    14.0830    13.4670    24.6440     2.5080   -15.6620 
  149.6250    52.6610    14.6720    14.2820    12.9840    24.6140     2.5090   -15.7610 
  149.7500    54.0450    15.1520    14.7010    13.3440    24.5400     2.5180   -15.8750 
  149.8750    55.4930    15.8090    15.2780    14.7220    24.4000     2.5340   -15.9580 
  150.0000    57.5910    16.4850    15.8800    15.5150    24.2010     2.5490   -16.0640 
  150.1250    59.6620    16.9040    16.2470    15.1720    24.0170     2.5560   -16.1240 
  150.2500    61.1290    16.8680    16.1910    14.9400    24.0250     2.5520   -16.1380 
  150.3750    62.6600    16.2830    15.6100    15.0620    24.1620     2.5440   -16.1510 
  150.5000    64.4990    15.2170    14.5630    15.1550    24.2900     2.5360   -16.1680 
  150.6250    65.1450    13.9040    13.3270    14.8170    24.3310     2.5300   -16.2830 
  150.7500    64.5260    13.0960    12.4180    13.7790    24.3180     2.5220   -16.4400 
  150.8750    64.0340    13.5540    12.4130    12.7650    24.2520     2.5070   -16.6930 
  151.0000    64.1070    16.5210    14.0420    13.3610    24.1430     2.4800   -17.0100 
  151.1250    63.9760    23.1380    18.5800    18.2890    24.0000     2.4360   -17.4800 
  151.2500    66.2620    33.1980    25.9570    28.9060    23.8870     2.3850   -18.0790 
  151.3750    71.2180    45.1190    35.4130    47.8060    23.8100     2.3350   -18.7550 
  151.5000    76.2430    55.1830    44.9980    72.0610    23.7660     2.2950   -19.4640 
  151.6250    78.6670    60.1010    51.1820    88.1120    23.7330     2.2720   -20.1380 
  151.7500    79.2700    59.3520    52.3780    84.4720    23.7180     2.2640   -20.7430 
  151.8750    79.5240    54.2600    49.1480    71.4370    23.7150     2.2670   -21.2460 
  152.0000    81.1470    47.7160    43.8380    57.1380    23.7150     2.2780   -21.6120 
  152.1250    84.9650    42.6870    39.1560    47.7610    23.7010     2.2930   -21.9010 
  152.2500    87.0600    40.0330    36.2710    41.2230    23.6610     2.3070   -22.0820 
  152.3750    86.5310    39.6690    35.3330    36.6500    23.6060     2.3150   -22.1860 
  152.5000    85.5970    41.1480    36.1260    36.0170    23.5790     2.3130   -22.2110 
  152.6250    83.0420    44.0520    38.4620    38.8550    23.6200     2.3030   -22.2400 
  152.7500    80.1680    47.7000    41.7420    42.9330    23.6780     2.2920   -22.2170 
  152.8750    79.8850    52.0010    45.8290    47.3420    23.6840     2.2840   -22.2030 
  153.0000    81.8420    57.2570    50.8820    49.5050    23.5940     2.2810   -22.1620 
  153.1250    82.0490    64.3230    57.5710    50.1820    23.4140     2.2800   -22.1790 
  153.2500    79.5010    73.0810    65.7910    53.8710    23.2470     2.2750   -22.1190 
  153.3750    76.2710    82.3980    74.7440    65.0810    23.3520     2.2610   -22.0370 
  153.5000    72.8220    90.1200    82.5560    84.9940    23.8230     2.2420   -21.9180 
  153.6250    70.5800    92.4240    85.6960   110.7790    24.2790     2.2240   -21.7450 
  153.7500    71.2050    88.3500    82.8290   131.5710    24.3890     2.2150   -21.5970 
  153.8750    72.8690    78.8980    74.4110   122.9020    24.3380     2.2200   -21.4350 
  154.0000    74.3280    67.7680    63.0980    91.6490    24.3470     2.2380   -21.2770 
  154.1250    75.5560    58.8650    52.9370    73.8200    24.4930     2.2680   -21.0690 
  154.2500    76.7410    53.6300    46.3550    50.9480    24.6110     2.2970   -20.9110 
  154.3750    76.6620    51.8140    44.0540    35.8670    24.6420     2.3170   -20.7980 
  154.5000    74.2040    54.7080    45.8220    33.3170    24.6380     2.3210   -20.7210 
  154.6250    71.6810    61.4650    51.2290    44.3790    24.6510     2.3090   -20.6880 
  154.7500    71.9100    69.5480    58.2200    57.5890    24.6720     2.2920   -20.6660 
  154.8750    73.6400    76.9960    65.0990    64.7500    24.6810     2.2810   -20.6590 
  155.0000    75.2860    82.1930    70.2940    68.1020    24.6820     2.2810   -20.6730 
  155.1250    77.3130    84.0880    72.5630    73.0900    24.6830     2.2930   -20.6130 
