~V
VERS. 2.00: Ver 2.00
~W
STRT.M 60.0000:
STOP.M 275.0000:
STEP.M 0.1250:
NULL. -999.2500:
UWI. DF3003:
~C
DEPT.M :
DEN.GM/CC :
SP.MV :
AC.US/MT :
GR.API :
RML.OHMM :
RI. :
RXO.OHMM :
CALI.CM :
~A
# ...
  130.0000     2.2790   -11.3600   427.3250    90.3980     4.8580     4.1090     4.4260    23.4770 
  130.1250     2.2770   -12.0960   419.1730    92.8520     5.4430     4.4780     4.9300    23.2380 
  130.2500     2.2790   -12.8650   407.8100    89.8840     6.3280     5.1670     5.7320    23.1010 
  130.3750     2.2950   -13.6290   390.7230    85.2770     7.4500     6.2070     7.3730    23.2140 
  130.5000     2.3240   -14.4860   366.6560    82.2900     8.8470     7.5290     9.8820    23.5570 
  130.6250     2.3560   -15.3200   340.7260    79.9480    10.2380     8.9110    12.9010    23.8850 
  130.7500     2.3710   -16.0910   325.6580    77.4500    11.2410    10.0150    15.3590    24.0130 
  130.8750     2.3590   -16.7520   331.3190    74.5030    11.6040    10.5980    15.4680    23.9050 
  131.0000     2.3200   -17.2750   355.1620    69.6640    11.3310    10.5970    12.8260    23.6470 
  131.1250     2.2690   -17.6030   380.3860    63.4860    10.7090    10.1520    10.6290    23.4740 
  131.2500     2.2220   -17.7670   394.2550    59.5260    10.1770     9.6370     9.9250    23.4130 
  131.3750     2.1890   -17.8520   398.8210    58.0430     9.9020     9.2430     9.7890    23.4050 
  131.5000     2.1690   -17.7520   401.4170    58.3110     9.8750     9.0260     9.7530    23.4050 
  131.6250     2.1660   -17.4800   404.7870    60.6860     9.9710     8.9410     9.7430    23.4050 
  131.7500     2.1740   -17.1290   404.0330    63.2970    10.0040     8.8640     9.7820    23.4070 
  131.8750     2.1870   -16.7010   397.8660    64.7750     9.8910     8.7270     9.8000    23.4110 
  132.0000     2.1960   -16.2510   390.8940    64.1380     9.6440     8.5280     9.7730    23.4190 
  132.1250     2.1920   -15.7430   389.7600    64.2640     9.4170     8.3650     9.5810    23.4370 
  132.2500     2.1810   -15.3110   390.9750    66.7140     9.4580     8.4160     9.3500    23.4620 
  132.3750     2.1770   -14.8520   387.5450    68.7540     9.9860     8.8640     9.2700    23.4850 
  132.5000     2.1990   -14.3590   371.8520    66.0050    11.1000     9.8190     9.6280    23.5150 
  132.6250     2.2620   -13.9490   335.4190    60.0020    12.6860    11.2580    10.5830    23.5710 
  132.7500     2.3460   -13.5350   290.4270    58.6870    14.1540    12.7280    11.7950    23.7000 
  132.8750     2.4200   -13.1360   258.5510    60.5020    14.8650    13.6950    13.0430    23.9060 
  133.0000     2.4520   -12.7420   257.4190    60.7770    14.2980    13.6490    13.6250    24.0710 
  133.1250     2.4210   -12.4520   288.6940    63.9040    12.3400    12.2440    12.6390    24.1730 
  133.2500     2.3600   -12.1780   329.4030    73.5880    10.0070    10.1600    11.4890    24.2680 
  133.3750     2.2930   -12.0130   365.5700    84.6820     8.0270     8.0880     9.6720    24.3600 
  133.5000     2.2350   -12.0100   391.3190    89.4460     6.7330     6.5310     7.3340    24.3840 
  133.6250     2.1930   -12.1410   404.8400    87.7860     6.2920     5.7960     5.9400    24.2580 
  133.7500     2.1650   -12.3800   409.8610    83.5960     6.4950     5.7180     6.3580    24.0180 
  133.8750     2.1490   -12.5990   409.5600    76.4770     7.1800     6.1520     7.5680    23.7710 
  134.0000     2.1410   -12.8040   408.0270    68.9480     8.0930     6.8830     8.6910    23.6520 
  134.1250     2.1410   -12.8470   408.9390    66.2720     8.8280     7.5920     9.0270    23.6500 
  134.2500     2.1480   -12.7160   409.4450    68.0520     9.0800     7.9700     8.8360    23.6910 
  134.3750     2.1630   -12.3920   402.9050    72.4900     8.7570     7.8710     8.3240    23.7840 
  134.5000     2.1890   -11.8710   390.0570    77.5010     7.9960     7.3310     7.5460    23.9530 
  134.6250     2.2250   -11.2070   382.0210    84.8300     7.0780     6.5270     6.6200    24.2040 
  134.7500     2.2620   -10.4490   386.4400    93.4080     6.1870     5.7160     5.6330    24.4090 
  134.8750     2.2910    -9.6720   399.1780   100.3830     5.3940     5.0140     4.8610    24.5390 
  135.0000     2.3030    -8.9110   412.2180   104.8910     4.7330     4.4620     4.4350    24.6220 
  135.1250     2.2990    -8.3170   422.0630   109.0580     4.2370     4.0760     4.0210    24.7000 
  135.2500     2.2900    -7.9470   428.6980   113.5070     4.0860     3.8020     3.7840    24.7320 
  135.3750     2.2810    -7.7270   432.7860   113.5740     3.9870     3.6160     3.7420    24.7330 
  135.5000     2.2730    -7.7030   434.2270   109.8870     3.9440     3.5160     3.8350    24.7160 
  135.6250     2.2600    -7.8200   432.2010   108.2880     4.0220     3.5550     3.9930    24.6690 
  135.7500     2.2430    -8.1390   425.7480   107.7340     4.2760     3.7610     4.2250    24.5830 
  135.8750     2.2290    -8.6510   412.5070   102.7350     4.7380     4.1580     4.5900    24.4540 
  136.0000     2.2300    -9.2530   391.1470    92.3490     5.3850     4.7320     5.2420    24.2350 
  136.1250     2.2510    -9.8200   365.3530    81.6720     6.1150     5.4140     6.2990    23.8700 
  136.2500     2.2760   -10.3100   347.8050    75.3780     6.7440     6.0490     7.4860    23.4770 
  136.3750     2.2880   -10.7860   348.7270    74.3490     7.1360     6.5110     8.2630    23.2240 
  136.5000     2.2780   -11.1460   368.2880    77.0060     7.2430     6.7260     8.0620    23.0440 
  136.6250     2.2510   -11.3790   393.1240    79.2570     7.1170     6.6800     7.5630    22.8980 
  136.7500     2.2250   -11.4390   408.4260    81.0650     6.9290     6.5060     7.1900    22.8780 
  136.8750     2.2060   -11.2930   413.0570    81.9400     6.7510     6.2910     6.8510    23.0280 
  137.0000     2.1960   -11.0000   412.6740    82.5440     6.6010     6.0850     6.5380    23.3070 
  137.1250     2.1990   -10.5450   412.1910    83.8800     6.4600     5.9180     6.5070    23.5190 
  137.2500     2.2140   -10.0510   411.2620    86.4360     6.3210     5.7820     6.4450    23.7330 
  137.3750     2.2410    -9.5290   407.6200    88.4660     6.1890     5.6670     6.2650    23.9960 
  137.5000     2.2730    -9.0590   399.9340    88.4060     6.0560     5.5620     6.0220    24.2980 
  137.6250     2.2960    -8.6140   391.1490    89.1910     5.9490     5.4550     5.9340    24.5050 
  137.7500     2.3030    -8.1380   387.5650    92.2100     5.8440     5.3410     5.9230    24.5730 
  137.8750     2.2960    -7.7350   391.2360    93.8340     5.7640     5.2290     5.5330    24.5660 
  138.0000     2.2850    -7.3690   397.6020    92.6170     5.6750     5.1360     5.1210    24.5220 
  138.1250     2.2830    -7.2460   399.1750    91.8490     5.5960     5.0730     5.1390    24.3870 
  138.2500     2.2890    -7.2470   395.1270    92.6120     5.5300     5.0270     5.3600    24.2640 
  138.3750     2.3010    -7.2580   388.9550    92.4550     5.4620     4.9800     5.5170    24.1850 
  138.5000     2.3090    -7.2110   384.5560    89.7700     5.3930     4.9110     5.5320    24.2160 
  138.6250     2.3100    -7.0550   383.4390    90.0840     5.3050     4.8000     5.3110    24.3480 
  138.7500     2.3070    -6.9610   386.8780    94.2110     5.1880     4.6590     4.8210    24.5660 
  138.8750     2.3030    -6.8430   395.6180    98.1520     5.0580     4.5150     4.5040    24.6560 
  139.0000     2.3010    -6.7540   405.8710    99.6240     4.9230     4.3930     4.4030    24.7200 
  139.1250     2.3000    -6.6120   410.5490    99.2410     4.8480     4.3140     4.3910    24.8320 
  139.2500     2.2970    -6.4240   409.0900    99.7000     4.8170     4.2720     4.3920    25.0200 
  139.3750     2.2920    -6.2690   406.5570   102.7770     4.8000     4.2570     4.4190    25.1520 
  139.5000     2.2840    -6.1130   406.9720   106.8940     4.7870     4.2510     4.4530    25.2060 
  139.6250     2.2780    -6.0660   409.6510   106.2920     4.7540     4.2390     4.4640    25.2530 
  139.7500     2.2780    -6.0280   411.3990   101.0050     4.7060     4.2140     4.4420    25.2080 
  139.8750     2.2840    -6.0490   411.9430    99.2470     4.6560     4.1730     4.3830    25.0880 
