~V
VERS. 2.00: Ver 2.00
~W
STRT.M 64.0000:
STOP.M 259.0000:
STEP.M 0.1250:
NULL. -999.2500:
UWI. DF3067:
~C
DEPT.M :
DEN.GM/CC :
GR.API :
CALI.CM :
RXO.OHMM :
RI. :
RML.OHMM :
SP.MV :
~A
# ...
  142.7500     2.5790    68.9940    23.9690    25.4560    22.9160    23.8510   -23.4960 
  142.8750     2.5610    71.4150    23.8120    23.0020    22.4920    23.0220   -23.5570 
  143.0000     2.5200    72.1000    23.6250    18.8470    21.4970    21.6910   -23.6390 
  143.1250     2.4810    70.4690    23.4910    17.6930    20.3070    20.3770   -23.7320 
  143.2500     2.4690    68.9680    23.4340    18.1210    19.2920    19.4140   -23.8210 
  143.3750     2.4790    69.0510    23.4270    17.9680    18.5790    18.8460   -23.9070 
  143.5000     2.4940    68.8560    23.4210    18.2030    18.1280    18.5340   -23.9820 
  143.6250     2.5090    67.9430    23.4190    17.6800    17.7400    18.1820   -24.0250 
  143.7500     2.5270    68.0920    23.4170    16.3340    17.2030    17.5840   -24.0290 
  143.8750     2.5440    68.9160    23.3700    14.5730    16.4970    16.7740   -24.0130 
  144.0000     2.5540    70.1990    23.2680    13.2370    15.7400    15.9510   -24.0040 
  144.1250     2.5610    71.1590    23.3040    11.9110    15.1330    15.3910   -24.0160 
  144.2500     2.5690    71.4640    23.6060    12.2100    14.7970    15.1960   -24.0330 
  144.3750     2.5750    69.1510    24.0170    14.4640    14.7930    15.3910   -24.0330 
  144.5000     2.5750    64.2490    24.2710    16.2500    15.1090    15.9120   -24.0190 
  144.6250     2.5780    60.9160    24.2860    16.4960    15.6760    16.6170   -24.0150 
  144.7500     2.5870    60.2960    24.2540    16.1820    16.2660    17.2510   -24.0340 
  144.8750     2.5950    62.1740    24.2400    17.1750    16.6950    17.6440   -24.0650 
  145.0000     2.5990    65.3570    24.2350    19.4590    16.8780    17.7570   -24.0860 
  145.1250     2.5980    67.9570    24.2770    19.2670    16.8900    17.7450   -24.0870 
  145.2500     2.5980    68.1640    24.3520    16.8050    16.9690    17.9010   -24.0840 
  145.3750     2.6020    65.9990    24.4200    15.4570    17.2640    18.3930   -24.0850 
  145.5000     2.6120    62.2590    24.4350    16.8050    17.8080    19.2110   -24.0930 
  145.6250     2.6220    59.0990    24.3770    20.3340    18.4640    20.0980   -24.1070 
  145.7500     2.6250    58.7080    24.3020    22.8280    18.8960    20.6020   -24.1280 
  145.8750     2.6110    59.3440    24.2560    21.6610    18.8360    20.4130   -24.1590 
  146.0000     2.5800    58.6610    24.2340    18.8720    18.2300    19.5450   -24.1980 
  146.1250     2.5470    58.4370    24.1840    17.0470    17.2950    18.3930   -24.2300 
  146.2500     2.5290    60.8890    24.1230    15.8620    16.4540    17.4870   -24.2400 
  146.3750     2.5230    63.6810    24.0910    15.3880    15.9370    17.0490   -24.2260 
  146.5000     2.5190    64.3620    24.0910    15.8480    15.8150    17.0890   -24.2020 
  146.6250     2.5090    63.3350    24.0940    16.5270    16.0410    17.4790   -24.1880 
  146.7500     2.5030    62.1890    24.0890    17.1250    16.3780    17.9160   -24.1950 
  146.8750     2.5040    62.3260    24.0830    17.6490    16.6750    18.2250   -24.2190 
  147.0000     2.5080    64.2830    24.0800    17.7320    16.8400    18.3300   -24.2540 
  147.1250     2.5080    65.1350    24.0800    17.0010    16.8330    18.2380   -24.3070 
  147.2500     2.5060    64.4940    24.0770    16.9340    16.7280    18.0690   -24.3860 
  147.3750     2.5050    64.9310    24.0790    15.9080    16.5800    17.8910   -24.4900 
  147.5000     2.5020    67.1100    24.0850    14.8810    16.4320    17.7370   -24.5940 
  147.6250     2.5030    67.4190    24.0300    14.0660    16.3130    17.6130   -24.6750 
  147.7500     2.5150    67.0560    23.9200    14.3020    16.2180    17.5000   -24.7350 
  147.8750     2.5330    68.8150    23.8380    14.8410    16.1180    17.3680   -24.7920 
  148.0000     2.5360    70.9950    23.8620    15.4330    15.9780    17.1840   -24.8710 
  148.1250     2.5230    70.2070    23.9650    15.9030    15.7500    16.8920   -24.9820 
  148.2500     2.5210    68.1810    24.0430    15.1480    15.4180    16.4650   -25.1030 
  148.3750     2.5400    66.3620    24.0790    14.0840    14.9640    15.8950   -25.2090 
  148.5000     2.5620    64.7460    24.0940    13.6460    14.4010    15.2220   -25.2890 
  148.6250     2.5600    63.2040    24.0630    13.2420    13.7900    14.5400   -25.3510 
  148.7500     2.5410    61.8400    23.9600    12.0740    13.2470    13.9740   -25.4100 
  148.8750     2.5260    61.4970    23.8120    11.1190    12.8700    13.6130   -25.4850 
  149.0000     2.5240    62.8690    23.6750    10.7670    12.7210    13.4940   -25.5840 
  149.1250     2.5280    65.3020    23.4700    10.7470    12.8390    13.6050   -25.7070 
  149.2500     2.5350    65.9020    23.1010    11.2230    13.1110    13.7970   -25.8510 
  149.3750     2.5420    64.3850    22.6530    12.3050    13.4080    13.9350   -26.0130 
  149.5000     2.5430    62.7360    22.3350    13.5310    13.5950    13.9010   -26.1840 
  149.6250     2.5320    59.7000    22.3780    13.7730    13.5510    13.6280   -26.3500 
  149.7500     2.5190    55.2020    22.7330    13.1470    13.3330    13.2340   -26.5060 
  149.8750     2.5160    51.3890    23.2610    12.4010    13.0300    12.8340   -26.6670 
  150.0000     2.5270    50.9960    23.7560    12.1410    12.7320    12.5050   -26.8570 
  150.1250     2.5450    53.4760    24.0260    12.1900    12.4870    12.2710   -27.0910 
  150.2500     2.5570    53.5770    24.1160    12.2450    12.2530    12.0630   -27.3670 
  150.3750     2.5510    51.8440    24.1380    11.8020    11.9710    11.8180   -27.6840 
  150.5000     2.5250    53.7980    24.1940    11.0600    11.5980    11.4900   -28.0490 
  150.6250     2.4890    60.6780    24.2940    10.6610    11.1020    11.0470   -28.4770 
  150.7500     2.4620    64.3570    24.3660    10.4260    10.5180    10.5330   -28.9500 
  150.8750     2.4430    63.0110    24.3710     9.8500     9.9250    10.0520   -29.4500 
  151.0000     2.4270    61.7560    24.3350     9.3800     9.4810     9.8090   -29.9580 
  151.1250     2.4150    63.7720    24.3200     9.1140     9.5000    10.2280   -30.4510 
  151.2500     2.4050    65.1210    24.3580     9.2050    10.2370    11.6050   -30.9150 
  151.3750     2.3890    64.5470    24.4480    10.9100    12.1040    14.3130   -31.3350 
  151.5000     2.3590    64.0950    24.5590    19.2090    15.6640    18.7370   -31.7140 
  151.6250     2.3180    66.6930    24.6550    37.9080    21.9570    25.5370   -32.0740 
  151.7500     2.2820    71.9710    24.7140    54.3580    30.6660    34.1980   -32.4530 
  151.8750     2.2600    76.4400    24.7340    60.4020    40.7150    43.6550   -32.8660 
  152.0000     2.2520    77.9300    24.7440    59.4710    50.0670    52.0200   -33.3040 
  152.1250     2.2530    77.9230    24.7650    59.2150    56.7630    56.1020   -33.7300 
  152.2500     2.2560    78.4970    24.7920    62.8620    57.5700    58.3230   -34.1180 
  152.3750     2.2610    78.1470    24.8050    66.4910    54.5090    56.6110   -34.4590 
  152.5000     2.2720    77.1710    24.7970    63.7650    48.1380    51.2450   -34.7490 
  152.6250     2.2930    78.9600    24.7840    50.8910    39.8950    43.2240   -34.9640 
  152.7500     2.3220    82.0070    24.7530    31.7060    32.3450    35.2270   -35.1010 
  152.8750     2.3510    84.2330    24.6830    17.3580    26.8960    28.9580   -35.1640 
  153.0000     2.3680    85.7890    24.5950    14.4030    24.1270    25.2260   -35.1830 
  153.1250     2.3600    87.5500    24.5480    17.2030    24.6940    24.7980   -35.2120 
  153.2500     2.3340    88.5000    24.5510    21.6820    28.3480    27.6330   -35.2700 
  153.3750     2.2980    86.2800    24.5690    30.1140    35.4410    34.3860   -35.3430 
  153.5000     2.2610    81.2860    24.5830    51.1090    46.1340    45.4110   -35.4060 
  153.6250     2.2330    76.5410    24.5860    83.7940    59.3470    59.5240   -35.4720 
  153.7500     2.2200    75.0660    24.5880   106.4170    70.3980    71.8060   -35.5710 
  153.8750     2.2230    76.2960    24.5950   109.4650    75.2690    78.2760   -35.7230 
