~V
VERS. 2.00: Ver 2.00
~W
STRT.M 61.0000:
STOP.M 318.0000:
STEP.M 0.1250:
NULL. -999.2500:
UWI. DF302:
~C
DEPT.M :
DEN.GM/CC :
SP.MV :
AC.US/MT :
GR.API :
CALI.CM :
RXO.OHMM :
RI. :
RML.OHMM :
~A
# ...
  191.0000     2.3420   -14.4320   392.9960    94.8670    25.0620     5.8520     5.4680     5.3160 
  191.1250     2.3460   -14.5680   389.6710    95.8790    25.0600     5.9390     5.4000     5.2750 
  191.2500     2.3560   -14.7880   386.0010    97.0140    25.0610     6.2740     5.4460     5.4040 
  191.3750     2.3520   -15.0850   382.0130    94.3940    25.0520     6.8860     5.6360     5.7370 
  191.5000     2.3200   -15.4390   379.1330    88.3780    24.9880     7.7590     5.9930     6.2920 
  191.6250     2.2720   -15.8260   379.9700    83.5120    24.8350     8.9220     6.5590     7.1030 
  191.7500     2.2330   -16.2250   384.2410    80.6530    24.6680    10.2870     7.3000     8.1170 
  191.8750     2.2090   -16.6340   389.8490    77.9920    24.5680    11.7610     8.1910     9.2990 
  192.0000     2.1960   -17.0320   394.1070    75.0900    24.5400    13.2310     9.1790    10.5830 
  192.1250     2.1910   -17.4060   395.0940    72.9700    24.5020    14.6520    10.1540    11.8060 
  192.2500     2.1890   -17.7430   394.6420    71.6350    24.4270    15.9530    10.9560    12.7510 
  192.3750     2.1850   -18.0350   394.8710    69.9990    24.3620    16.8090    11.4260    13.2030 
  192.5000     2.1810   -18.2920   396.2620    67.8320    24.3340    16.6320    11.4520    13.0320 
  192.6250     2.1860   -18.5180   397.4710    67.1500    24.3300    15.0600    10.9890    12.2290 
  192.7500     2.2040   -18.7250   397.0850    68.8360    24.3450    13.1060    10.2960    11.1930 
  192.8750     2.2260   -18.9070   394.8320    73.5660    24.3920    11.6140     9.6050    10.2670 
  193.0000     2.2440   -19.0650   391.5850    78.9810    24.4470    10.8520     9.1190     9.7220 
  193.1250     2.2460   -19.1960   388.7140    80.1380    24.4700    11.0250     9.0340     9.7970 
  193.2500     2.2290   -19.3210   386.7230    79.1300    24.4790    12.2310     9.3490    10.4220 
  193.3750     2.1960   -19.4420   385.2600    79.3720    24.5000    14.3420    10.0520    11.5220 
  193.5000     2.1640   -19.5640   384.0740    80.2050    24.5260    16.5440    11.0760    12.9430 
  193.6250     2.1530   -19.6920   384.6390    79.1620    24.5420    17.8240    12.2690    14.4080 
  193.7500     2.1570   -19.8220   387.8890    78.3170    24.5310    18.5870    13.3700    15.5910 
  193.8750     2.1650   -19.9500   393.4740    80.5030    24.4860    19.4770    14.2260    16.3540 
  194.0000     2.1740   -20.0770   399.8910    84.5160    24.4370    20.0350    14.8530    16.8180 
  194.1250     2.1800   -20.2170   404.6100    84.0090    24.4610    18.8390    15.4620    17.3920 
  194.2500     2.1790   -20.3710   406.0980    79.1660    24.5450    16.9990    16.3320    18.4690 
  194.3750     2.1720   -20.5350   404.3340    72.9340    24.6280    17.0800    17.6510    20.2570 
  194.5000     2.1590   -20.7090   400.5350    67.8900    24.6900    20.9450    19.4710    22.7230 
  194.6250     2.1460   -20.8970   396.3010    63.0130    24.7500    27.2350    21.5730    25.3980 
  194.7500     2.1360   -21.1010   392.4280    59.6580    24.7870    31.1910    23.2910    27.3270 
  194.8750     2.1330   -21.3150   388.9460    60.7350    24.7670    30.9970    24.0230    27.7820 
  195.0000     2.1420   -21.5160   385.6690    65.4700    24.6900    28.3520    23.5610    26.7150 
  195.1250     2.1600   -21.6850   383.2340    67.4450    24.5660    25.3990    22.2470    24.8470 
  195.2500     2.1770   -21.8230   383.6340    67.0920    24.4170    22.9560    20.9450    23.2790 
  195.3750     2.1800   -21.9480   388.1660    68.8290    24.2620    21.5950    20.1110    22.4770 
  195.5000     2.1670   -22.0360   395.4340    72.2520    24.1180    21.7230    19.8920    22.5020 
  195.6250     2.1450   -22.0850   401.2910    71.5750    23.9820    23.0150    20.2450    23.1710 
  195.7500     2.1310   -22.0960   402.2100    66.6430    23.8410    24.2960    20.7970    23.9520 
  195.8750     2.1310   -22.0890   397.3440    61.6870    23.7020    24.7680    21.2910    24.5120 
  196.0000     2.1370   -22.0790   388.4380    59.8750    23.5830    24.1980    21.6040    24.7530 
  196.1250     2.1380   -22.0690   379.4400    61.5710    23.5080    23.3140    21.8340    24.9020 
  196.2500     2.1370   -22.0560   373.9690    65.7870    23.4600    23.5090    22.2400    25.3350 
  196.3750     2.1390   -22.0430   373.6640    69.2070    23.4350    25.6210    22.9810    26.2350 
  196.5000     2.1420   -22.0410   378.3180    68.1430    23.4470    29.2830    24.0660    27.5590 
  196.6250     2.1430   -22.0620   386.2670    63.1280    23.4960    32.2420    25.3240    29.0190 
  196.7500     2.1420   -22.1150   394.4420    59.9220    23.5460    32.7950    26.4040    30.1640 
  196.8750     2.1380   -22.1880   401.6380    59.6550    23.5810    31.8210    27.0370    30.6950 
  197.0000     2.1300   -22.2760   407.8300    59.8660    23.6180    31.4180    27.1050    30.5410 
  197.1250     2.1170   -22.3740   413.2430    61.9090    23.6970    31.8500    26.6270    29.8250 
  197.2500     2.1070   -22.4890   417.3610    66.7320    23.8200    31.2800    25.8750    28.8970 
  197.3750     2.1020   -22.6140   419.1340    70.9870    23.9640    29.6000    25.0040    27.9320 
  197.5000     2.1020   -22.7370   418.1160    70.9410    24.0800    28.2390    24.1350    27.0340 
  197.6250     2.1070   -22.8560   415.2160    68.3810    24.1080    27.9400    23.3910    26.3000 
  197.7500     2.1160   -22.9590   412.1620    68.5850    24.0680    27.6830    22.8330    25.7630 
  197.8750     2.1340   -23.0550   409.3700    71.2820    24.0170    27.2490    22.4960    25.4520 
  198.0000     2.1590   -23.1340   406.8350    72.5810    24.0140    27.2410    22.3530    25.3180 
  198.1250     2.1760   -23.1950   404.1480    69.8440    24.0730    27.9370    22.3170    25.2360 
  198.2500     2.1720   -23.2300   401.3310    65.2100    24.1440    28.5740    22.2820    25.0860 
  198.3750     2.1510   -23.2430   399.2880    62.3250    24.1860    28.6570    22.2450    24.8830 
  198.5000     2.1290   -23.2490   399.1200    63.8410    24.1870    28.2310    22.2810    24.7660 
  198.6250     2.1310   -23.2420   401.1420    68.5970    24.1740    27.8200    22.5940    25.0530 
  198.7500     2.1520   -23.2150   403.3270    72.8090    24.1830    28.1370    23.3030    25.8980 
  198.8750     2.1770   -23.1530   404.0690    73.1060    24.2100    29.7060    24.4140    27.2680 
  199.0000     2.1870   -23.0530   402.7890    68.5370    24.2130    32.6900    25.7150    28.8280 
  199.1250     2.1730   -22.9000   399.9150    62.5920    24.1600    35.7900    26.6400    29.8060 
  199.2500     2.1530   -22.6900   397.2600    60.0730    24.1070    35.9420    26.6900    29.6200 
  199.3750     2.1430   -22.4060   395.8500    60.7990    24.1030    31.9570    25.6410    28.0860 
  199.5000     2.1480   -22.0410   395.1800    61.6330    24.1350    26.1680    23.6720    25.5260 
  199.6250     2.1640   -21.5820   391.9090    63.7010    24.1670    22.5180    21.3160    22.6770 
  199.7500     2.1790   -21.0610   382.2920    68.3720    24.1910    21.2960    19.2470    20.3340 
  199.8750     2.2010   -20.4920   363.9150    71.9510    24.1840    21.4040    17.8120    18.8880 
  200.0000     2.2470   -19.9140   337.1300    70.4180    24.1110    22.4030    17.1600    18.4820 
  200.1250     2.3230   -19.3490   306.8440    64.8750    24.0510    24.9800    17.4330    19.2150 
  200.2500     2.4080   -18.8230   281.1360    59.1790    24.1460    28.4540    18.3650    20.6570 
  200.3750     2.4830   -18.3490   263.8620    55.3660    24.3920    30.7570    19.7110    22.4110 
  200.5000     2.5320   -17.9420   254.3850    54.6930    24.6460    30.3170    21.1440    24.0260 
  200.6250     2.5360   -17.6100   249.5160    56.0090    24.7830    27.9600    22.2520    25.0190 
  200.7500     2.5130   -17.3480   245.7590    56.4170    24.8310    26.5280    22.9010    25.4060 
  200.8750     2.4920   -17.1600   242.9860    55.2380    24.8300    26.9420    23.1740    25.4350 
