~V
VERS. 2.00: Ver 2.00
~W
STRT.M 60.0000:
STOP.M 266.0000:
STEP.M 0.1250:
NULL. -999.2500:
UWI. DF3052:
~C
DEPT.M :
GR.API :
CALI.CM :
RXO.OHMM :
RI. :
RML.OHMM :
DEN.GM/CC :
SP.MV :
~A
   60.0000    51.8680    25.5370     2.4680     0.1810     0.6200  -999.2500    44.9670 
   60.1250    49.6860    25.5370     2.4300     0.1820     0.6160  -999.2500    44.1370 
   60.2500    48.7360    25.5370     2.3730     0.1900     0.6470  -999.2500    43.3680 
   60.3750    47.3950    25.5370     2.3160     0.1980     0.6480  -999.2500    42.6040 
   60.5000    44.7250    25.5370     2.2830     0.2080     0.6120  -999.2500    41.8900 
   60.6250    43.1280    25.5370     2.2700     0.2160     0.5730  -999.2500    41.0890 
   60.7500    44.2160    25.5370     2.2380     0.2200     0.5280  -999.2500    40.2560 
   60.8750    46.4850    25.5370     2.1660     0.2230     0.4660  -999.2500    39.3480 
   61.0000    47.3490    25.5370     2.0640     0.2240     0.4010  -999.2500    38.3630 
   61.1250    45.8540    25.5370     1.9750     0.2210     0.3160  -999.2500    37.2620 
   61.2500    44.5420    25.5370     1.9160     0.2170     0.2560  -999.2500    36.0880 
   61.3750    44.9170    25.5370     1.8680     0.2170     0.2770  -999.2500    34.9190 
   61.5000    45.9270    25.5370     1.8040     0.2190     0.3120  -999.2500    33.6930 
   61.6250    45.3180    25.5370     1.7260     0.2230     0.3220  -999.2500    32.4800 
   61.7500    43.3350    25.5370     1.6660     0.2300     0.3260  -999.2500    31.2570 
   61.8750    41.3640    25.5370     1.6250     0.2370     0.3230  -999.2500    30.0920 
   62.0000    40.4060    25.5370     1.5890     0.2450     0.3190  -999.2500    29.0180 
   62.1250    40.5350    25.5370     1.5410     0.2530     0.2890  -999.2500    28.1220 
   62.2500    40.8680    25.5370     1.4800     0.2610     0.2670  -999.2500    27.4000 
   62.3750    40.8170    25.5370     1.4090     0.2830     0.2210  -999.2500    26.7400 
   62.5000    40.4430    25.5370     1.3330     0.3210     0.1800  -999.2500    26.0490 
   62.6250    40.9730    25.4750     1.2530     0.3830     0.2120  -999.2500    25.0150 
   62.7500    43.1480    25.4210     1.1680     0.4710     0.2350  -999.2500    23.4860 
   62.8750    46.8680    25.3350     1.1260     0.5950     0.2450  -999.2500    21.0440 
   63.0000    51.4630    25.0480     1.3520     0.7680     0.2590  -999.2500    17.4650 
   63.1250    56.3370    24.3160     2.3610     1.0210     0.3640  -999.2500    12.7010 
   63.2500    61.2660    23.3600     4.1070     1.3940     0.7050  -999.2500     7.2990 
   63.3750    66.3170    22.5430     5.8840     1.9640     1.4490  -999.2500     1.6260 
   63.5000    70.6860    22.1400     6.9860     2.6960     2.6340  -999.2500    -4.0910 
   63.6250    72.0840    22.1320     7.4020     3.5350     3.7870  -999.2500    -9.4710 
   63.7500    70.4360    22.2190     7.5580     4.3090     4.5400  -999.2500   -14.3400 
   63.8750    67.4850    22.3140     7.5360     4.9450     5.0150  -999.2500   -18.2720 
   64.0000    65.0380    22.4290     7.3320     5.4570     5.2870  -999.2500   -21.0550 
   64.1250    63.9420    22.5610     7.0810     5.8650     5.4770  -999.2500   -22.6810 
   64.2500    64.3050    22.6270     7.0470     6.2120     5.6680  -999.2500   -23.7010 
   64.3750    65.9930    22.6030     7.4350     6.4980     5.8720  -999.2500   -24.4160 
   64.5000    67.5380    22.5410     8.4800     6.6850     6.0300  -999.2500   -24.9120 
   64.6250    67.4110    22.4860    10.0120     6.7180     6.0630  -999.2500   -25.3070 
   64.7500    66.2760    22.4460    10.8090     6.6440     6.0140  -999.2500   -25.5340 
   64.8750    64.5310    22.4290    10.0240     6.5120     5.9260  -999.2500   -25.6370 
   65.0000    62.2380    22.4540     8.2540     6.3710     5.8440  -999.2500   -25.6040 
   65.1250    61.2800    22.4950     7.1560     6.2620     5.7930  -999.2500   -25.3980 
   65.2500    63.0920    22.5110     6.7670     6.2050     5.7790  -999.2500   -25.0770 
   65.3750    66.6720    22.5330     6.7580     6.2050     5.8080  -999.2500   -24.6140 
   65.5000    70.6000    22.5640     6.8160     6.2600     5.8880  -999.2500   -24.0180 
   65.6250    75.4340    22.5410     6.8040     6.3450     5.9860  -999.2500   -23.2150 
   65.7500    81.2410    22.4830     6.7480     6.4170     6.0690  -999.2500   -22.3370 
   65.8750    86.9460    22.4870     6.7260     6.4520     6.1110  -999.2500   -21.3960 
   66.0000    92.3020    22.5860     6.7670     6.4270     6.1330  -999.2500   -20.4340 
   66.1250    97.7610    22.6680     6.8020     6.3410     6.1180  -999.2500   -19.5370 
   66.2500   102.3310    22.6540     6.7490     6.2410     6.0650  -999.2500   -18.6790 
   66.3750   104.7760    22.6120     6.6000     6.2030     6.0710  -999.2500   -17.9690 
   66.5000   104.9380    22.6590     6.3940     6.3610     6.2430  -999.2500   -17.4200 
   66.6250   103.3010    22.8800     6.1280     6.9210     6.7750  -999.2500   -17.1300 
   66.7500   100.4900    23.2260     5.8890     7.8810     7.6650  -999.2500   -17.0360 
   66.8750    96.1260    23.6250     5.9010     9.1980     8.8690  -999.2500   -17.1900 
   67.0000    89.9690    23.9730     6.8520    10.7160    10.2780  -999.2500   -17.6100 
   67.1250    83.5430    24.1510     9.9150    12.0010    11.4900  -999.2500   -18.2800 
   67.2500    79.5460    24.1600    14.0820    12.6800    12.0680  -999.2500   -19.1620 
   67.3750    78.6010    24.0130    16.2760    12.5820    11.7870  -999.2500   -20.1010 
   67.5000    79.3020    23.7810    14.7010    11.7870    10.8170  -999.2500   -21.0680 
   67.6250    79.9620    23.5910    11.3520    10.5600     9.6250  -999.2500   -21.9100 
   67.7500    79.9420    23.4730     9.1690     9.3880     8.6630  -999.2500   -22.6440 
   67.8750    78.9880    23.3760     8.2910     8.5390     8.0800  -999.2500   -23.2170 
   68.0000    77.3220    23.2610     8.0490     8.1050     7.8640  -999.2500   -23.6060 
   68.1250    76.0500    23.1410     8.0490     8.1220     7.9900  -999.2500   -23.7770 
   68.2500    76.1540    23.0040     8.0940     8.3630     8.2630  -999.2500   -23.7860 
   68.3750    77.2020    22.8440     8.1610     8.6110     8.5210  -999.2500   -23.7290 
   68.5000    78.5330    22.6780     8.2620     8.7380     8.6460  -999.2500   -23.6310 
   68.6250    80.4020    22.5140     8.3350     8.6820     8.5830  -999.2500   -23.5560 
   68.7500    82.6950    22.3950     8.2840     8.5160     8.4170  -999.2500   -23.4820 
   68.8750    84.2250    22.3470     8.1200     8.3020     8.2400  -999.2500   -23.4410 
   69.0000    84.0670    22.3290     7.9210     8.1150     8.1130  -999.2500   -23.4470 
   69.1250    82.9490    22.2930     7.7570     8.0090     8.0860  -999.2500   -23.5150 
   69.2500    81.7390    22.2800     7.7240     7.9690     8.1310  -999.2500   -23.6440 
   69.3750    79.8230    22.3320     7.8230     7.9780     8.2050  -999.2500   -23.7390 
   69.5000    76.9250    22.4090     7.9840     8.0120     8.2770  -999.2500   -23.8530 
   69.6250    73.6950    22.4950     8.0630     8.0440     8.3320  -999.2500   -23.9100 
   69.7500    70.9950    22.5950     8.0090     8.0640     8.3450  -999.2500   -24.0050 
   69.8750    69.6070    22.6570     7.9020     8.0660     8.3250  -999.2500   -24.0910 
   70.0000    70.6230    22.6160     7.8350     8.0510     8.2820  -999.2500   -24.1570 
   70.1250    74.2630    22.5140     7.8610     8.0310     8.2310  -999.2500   -24.1510 
   70.2500    78.0900    22.4620     7.9070     8.0130     8.1940  -999.2500   -24.1130 
   70.3750    81.0920    22.4690     7.9350     8.0010     8.2070  -999.2500   -24.0510 
   70.5000    83.1810    22.5100     7.9800     7.9850     8.2370  -999.2500   -23.9540 
   70.6250    83.1410    22.5890     8.0740     7.9560     8.2500  -999.2500   -23.7910 
   70.7500    80.6330    22.7300     8.1030     7.9080     8.2480  -999.2500   -23.5580 
   70.8750    76.6220    22.9120     8.0190     7.8460     8.2300  -999.2500   -23.2110 
   71.0000    72.4430    23.0570     7.8830     7.7650     8.1770  -999.2500   -22.7360 
   71.1250    69.3000    23.0940     7.7980     7.6470     8.0640  -999.2500   -22.2080 
