~V
VERS. 2.00: Ver 2.00
~W
STRT.M 55.0000:
STOP.M 272.0000:
STEP.M 0.1250:
NULL. -999.2500:
UWI. DF3078:
~C
DEPT.M :
GR.API :
CALI.CM :
RXO.OHMM :
RI. :
RML.OHMM :
DEN.GM/CC :
SP.MV :
~A
# ...
  133.7500    67.1460    24.4660     9.6820     7.7310     9.5680     2.1670   -11.3800 
  133.8750    65.8560    24.5250     9.8440     7.7820     9.5730     2.1600   -11.3400 
  134.0000    64.2250    24.5880     9.9010     7.8150     9.5520     2.1570   -11.2550 
  134.1250    65.1000    24.6260     9.8590     7.8200     9.5000     2.1530   -11.0750 
  134.2500    68.2530    24.6200     9.7460     7.8070     9.4270     2.1460   -10.8340 
  134.3750    70.4000    24.5320     9.5710     7.7930     9.3450     2.1440   -10.5290 
  134.5000    70.3430    24.3880     9.4060     7.7930     9.2570     2.1530   -10.1380 
  134.6250    68.4460    24.3360     9.3620     7.7980     9.1300     2.1690    -9.6720 
  134.7500    68.8660    24.3410     9.4240     7.7570     8.9200     2.1820    -9.1070 
  134.8750    74.1860    24.3330     9.4140     7.6090     8.5890     2.1910    -8.4740 
  135.0000    81.8440    24.3010     9.1920     7.3230     8.1420     2.2060    -7.7960 
  135.1250    87.8010    24.3120     8.5160     6.9150     7.6230     2.2370    -7.0940 
  135.2500    87.8010    24.4050     7.5040     6.4710     7.1070     2.2720    -6.3990 
  135.3750    81.8830    24.5220     6.6540     6.0530     6.6350     2.2920    -5.7260 
  135.5000    76.7530    24.5910     6.5470     5.6940     6.2200     2.2900    -5.0940 
  135.6250    80.0380    24.6220     6.7230     5.4020     5.8630     2.2840    -4.4910 
  135.7500    87.7300    24.6740     6.4700     5.1480     5.5530     2.2960    -3.9590 
  135.8750    92.6990    24.7740     5.9640     4.9320     5.3100     2.3190    -3.5270 
  136.0000    93.6030    24.8740     5.6620     4.7750     5.1680     2.3280    -3.1900 
  136.1250    92.5170    24.9360     5.5580     4.7150     5.1610     2.3090    -3.0070 
  136.2500    89.8230    24.9380     5.4700     4.7430     5.2390     2.2870    -2.9100 
  136.3750    85.3520    24.9690     5.5030     4.8310     5.3400     2.2780    -2.8940 
  136.5000    81.4900    25.0910     5.6640     4.9320     5.4010     2.2780    -2.9520 
  136.6250    80.5500    25.2620     5.8120     4.9870     5.3890     2.2830    -3.1400 
  136.7500    81.0410    25.2210     5.6890     4.9910     5.3500     2.2960    -3.4190 
  136.8750    82.0860    25.0440     5.4810     4.9710     5.3330     2.3160    -3.7480 
  137.0000    83.2230    24.7410     5.4110     4.9550     5.3680     2.3340    -4.1300 
  137.1250    83.6670    24.4920     5.4810     4.9700     5.4650     2.3330    -4.5080 
  137.2500    83.5740    24.3510     5.6110     5.0190     5.6090     2.3170    -4.9100 
  137.3750    82.4200    24.2870     5.8240     5.1000     5.7900     2.2980    -5.3130 
  137.5000    80.8810    24.2540     6.0030     5.2040     6.0040     2.2860    -5.7100 
  137.6250    79.3930    24.2250     6.1170     5.3360     6.2570     2.2750    -6.0830 
  137.7500    79.0960    24.2240     6.3660     5.5020     6.5450     2.2570    -6.4140 
  137.8750    79.4340    24.1760     6.8360     5.7150     6.8620     2.2350    -6.7040 
  138.0000    79.8150    24.0850     7.5140     5.9780     7.2020     2.2250    -6.9300 
  138.1250    79.7860    24.0080     8.5370     6.3280     7.6180     2.2400    -7.0700 
  138.2500    78.0030    24.0310     9.5970     6.8080     8.2060     2.2740    -7.1340 
  138.3750    74.6940    24.0730    10.0800     7.4980     9.1040     2.3260    -7.1290 
  138.5000    72.0890    24.1030    10.2660     8.5040    10.4430     2.3990    -7.0940 
  138.6250    70.6840    24.2050    12.0710    10.0070    12.3650     2.4880    -7.0410 
  138.7500    68.7100    24.3630    15.6270    11.9360    14.6490     2.5690    -7.0450 
  138.8750    65.8850    24.5600    19.6960    14.0420    16.8880     2.6220    -7.1190 
  139.0000    63.4970    24.7420    22.5070    15.7870    18.4160     2.6330    -7.3020 
  139.1250    62.5860    24.8370    22.8980    16.2970    18.3520     2.6020    -7.6570 
  139.2500    64.3150    24.8770    21.6460    15.5580    16.9800     2.5460    -8.1400 
  139.3750    68.7920    24.8620    18.6930    14.0240    14.9820     2.4740    -8.7430 
  139.5000    72.1000    24.7510    14.9590    12.3430    13.1010     2.3940    -9.3940 
  139.6250    70.2080    24.5260    12.3140    11.0890    11.9240     2.3180   -10.0730 
  139.7500    67.2330    24.3640    11.6390    10.3930    11.4550     2.2570   -10.6870 
  139.8750    65.5720    24.3050    12.1450    10.2470    11.5830     2.2180   -11.2150 
  140.0000    64.3540    24.3150    13.3680    10.5640    12.1200     2.2000   -11.6390 
  140.1250    64.2940    24.3400    14.4230    11.1960    12.7870     2.2050   -11.9120 
  140.2500    67.2460    24.3270    14.6570    11.8060    13.2470     2.2240   -12.0840 
  140.3750    70.0740    24.3000    13.7160    12.1490    13.3210     2.2460   -12.1650 
  140.5000    69.6330    24.2850    12.1640    12.1280    13.0230     2.2510   -12.1940 
  140.6250    68.9110    24.2870    11.2660    11.7810    12.4980     2.2340   -12.1830 
  140.7500    70.8010    24.3000    10.9810    11.3240    11.9670     2.2150   -12.1700 
  140.8750    74.1760    24.3290    11.0440    10.8860    11.5370     2.2070   -12.1690 
  141.0000    76.9220    24.3510    11.1270    10.5370    11.2480     2.2110   -12.1570 
  141.1250    77.5160    24.3580    11.1960    10.2880    11.0810     2.2190   -12.1820 
  141.2500    75.8370    24.3500    11.2370    10.0920    10.9700     2.2250   -12.1970 
  141.3750    73.1210    24.3290    11.2230     9.9420    10.9120     2.2270   -12.1980 
  141.5000    72.8230    24.3070    11.2280     9.8580    10.9450     2.2290   -12.1940 
  141.6250    73.9980    24.3150    11.4170     9.9310    11.1970     2.2340   -12.1530 
  141.7500    73.8370    24.3340    11.8920    10.2510    11.7540     2.2360   -12.0780 
  141.8750    72.1390    24.3240    12.8530    10.8860    12.6550     2.2310   -11.9530 
  142.0000    70.0010    24.2710    14.4960    11.8180    13.8240     2.2250   -11.8160 
  142.1250    67.8740    24.1720    16.7680    12.9100    15.0420     2.2290   -11.6190 
  142.2500    65.7520    24.0510    18.5360    13.8890    16.0220     2.2460   -11.4100 
  142.3750    66.8590    23.9650    18.4420    14.5720    16.6180     2.2680   -11.2150 
  142.5000    71.3440    23.9730    17.1720    14.9520    16.8910     2.2880   -11.0350 
  142.6250    74.6280    24.1100    18.0940    15.1960    17.0800     2.3010   -10.9110 
  142.7500    74.7350    24.2660    20.4660    15.4940    17.3540     2.2970   -10.8310 
  142.8750    73.4240    24.3710    21.9580    15.8330    17.6330     2.2730   -10.8050 
  143.0000    72.7590    24.4070    22.5010    16.0560    17.6800     2.2330   -10.8210 
  143.1250    72.4700    24.3840    22.7560    15.8800    17.1700     2.2000   -10.8810 
  143.2500    71.0430    24.3340    21.4010    15.3100    16.2150     2.1850   -10.9590 
  143.3750    70.1140    24.2800    18.4960    14.5300    15.1180     2.1830   -11.0090 
  143.5000    69.9020    24.1810    15.8990    13.7900    14.1990     2.1830   -11.0290 
  143.6250    69.5870    24.0450    14.9780    13.3030    13.6790     2.1850   -10.9820 
  143.7500    67.8530    23.9210    14.7850    13.0460    13.4300     2.1940   -10.8890 
  143.8750    67.2150    23.8730    14.5470    12.8880    13.2430     2.2070   -10.7410 
  144.0000    69.6390    23.8520    13.7080    12.6060    12.8590     2.2140   -10.5160 
  144.1250    74.0970    23.8380    12.8910    11.9430    12.0540     2.2160   -10.2450 
  144.2500    77.0220    23.8170    12.4060    10.9610    10.9550     2.2280    -9.9130 
  144.3750    78.3690    23.8040    11.5690     9.8240     9.7670     2.2560    -9.5710 
  144.5000    78.4180    23.8090     9.9550     8.7300     8.6970     2.2890    -9.2230 
  144.6250    77.8000    23.7940     8.3920     7.8900     7.9580     2.3070    -8.8910 
  144.7500    79.3350    23.7870     8.1780     7.3640     7.5910     2.3060    -8.5610 
  144.8750    83.6480    23.7680     8.6230     7.2010     7.6440     2.2950    -8.2370 
