~V
VERS. 2.00: Ver 2.00
~W
STRT.M 65.0000:
STOP.M 252.0000:
STEP.M 0.1250:
NULL. -999.2500:
UWI. DF3012:
~C
DEPT.M :
GR.API :
RML.OHMM :
RI. :
RXO.OHMM :
CALI.CM :
DEN.GM/CC :
SP.MV :
~A
# ...
  143.7500    56.0510    23.2270    23.8820    26.0970    24.2070     2.5950   -18.6130 
  143.8750    58.1860    23.1570    24.0290    25.4220    24.1090     2.6070   -18.6160 
  144.0000    60.3430    22.9430    23.9860    25.1680    24.0430     2.6130   -18.5490 
  144.1250    60.7090    22.8370    23.6680    24.1930    23.9910     2.6060   -18.6420 
  144.2500    61.0480    22.6640    23.0660    23.0310    23.9720     2.5890   -18.6580 
  144.3750    62.9500    22.4720    22.1690    22.5400    23.9750     2.5690   -18.5330 
  144.5000    64.9650    22.1840    21.0350    22.0910    23.9940     2.5550   -18.5180 
  144.6250    65.2530    20.8140    19.8200    20.5200    24.0360     2.5520   -18.5070 
  144.7500    65.6530    19.5750    18.7500    18.5590    24.0610     2.5570   -18.3620 
  144.8750    67.4410    18.7020    18.0120    17.4110    24.0950     2.5640   -18.3140 
  145.0000    69.3930    18.4230    17.7760    17.6210    24.1660     2.5670   -18.3100 
  145.1250    70.2440    19.0710    18.3250    18.7620    24.1970     2.5650   -18.1320 
  145.2500    69.9800    20.5750    19.6400    19.9080    24.1550     2.5640   -18.0390 
  145.3750    68.2670    22.7790    21.6340    21.2000    24.0720     2.5690   -18.0280 
  145.5000    65.0850    25.2760    23.9900    23.5950    24.0000     2.5830   -17.8950 
  145.6250    61.6450    27.2600    26.0020    27.5740    23.9850     2.6010   -17.7860 
  145.7500    59.6800    28.0420    26.9650    30.6670    24.0300     2.6150   -17.8310 
  145.8750    60.2120    27.2500    26.4540    30.0420    24.1560     2.6180   -17.8270 
  146.0000    62.0940    25.0180    24.5190    26.0290    24.2680     2.6070   -17.7370 
  146.1250    65.3700    21.9670    21.6790    21.4940    24.3150     2.5860   -17.6830 
  146.2500    67.8930    19.1330    18.9130    17.9200    24.2520     2.5600   -17.6600 
  146.3750    68.9810    17.0900    16.7640    15.2970    24.1190     2.5380   -17.6280 
  146.5000    69.9310    16.0730    15.4760    13.5760    24.0090     2.5250   -17.5720 
  146.6250    69.8720    16.1580    15.1750    12.9800    24.0080     2.5310   -17.4870 
  146.7500    68.0370    16.8960    15.5340    13.4660    24.0900     2.5500   -17.3890 
  146.8750    65.2310    17.9370    16.2960    14.9490    24.1850     2.5790   -17.2640 
  147.0000    63.6930    18.9300    17.1650    17.0110    24.2340     2.6050   -17.1870 
  147.1250    63.1330    19.5180    17.8130    18.8420    24.2470     2.6170   -17.2270 
  147.2500    60.5450    19.6630    18.1140    19.5600    24.2630     2.6080   -17.1330 
  147.3750    56.8680    19.4820    18.1040    19.3000    24.2880     2.5840   -17.0420 
  147.5000    54.4400    19.2080    17.9400    18.9610    24.3330     2.5520   -17.1140 
  147.6250    54.7120    19.1280    17.8450    19.0620    24.3540     2.5280   -17.1280 
  147.7500    57.0160    19.3390    17.9440    19.1810    24.3560     2.5160   -17.0680 
  147.8750    58.4370    19.7850    18.2290    19.2020    24.3390     2.5170   -17.1230 
  148.0000    57.5840    20.2790    18.5780    19.7720    24.3160     2.5220   -17.1690 
  148.1250    56.1740    20.4870    18.7360    21.0260    24.2640     2.5260   -17.0840 
  148.2500    56.2290    20.2280    18.5320    21.4400    24.2710     2.5250   -17.1330 
  148.3750    56.3530    19.4700    17.9150    20.2150    24.3480     2.5210   -17.1680 
  148.5000    55.7470    18.3580    16.9800    18.1540    24.4240     2.5180   -17.0530 
  148.6250    56.9320    17.1800    15.9470    16.1680    24.4760     2.5130   -17.0870 
  148.7500    60.4670    16.2350    15.0720    14.5180    24.5290     2.5040   -17.1720 
  148.8750    64.0320    15.6690    14.4910    13.5820    24.5890     2.4890   -17.1160 
  149.0000    67.5970    15.5000    14.2500    13.4980    24.6320     2.4670   -17.1390 
  149.1250    71.9520    15.6730    14.3460    13.8290    24.6630     2.4410   -17.3290 
  149.2500    73.2030    15.9780    14.6180    14.0760    24.6900     2.4150   -17.4010 
  149.3750    71.6610    16.2750    14.9470    14.3380    24.7100     2.3950   -17.4090 
  149.5000    71.0510    16.4710    15.2280    14.7240    24.7220     2.3830   -17.5600 
  149.6250    72.2260    16.5190    15.3800    15.0350    24.7090     2.3850   -17.7320 
  149.7500    70.8350    16.4670    15.4070    14.9640    24.6210     2.3970   -17.7980 
  149.8750    67.9410    16.3370    15.3150    14.5260    24.5340     2.4190   -17.9140 
  150.0000    68.3690    16.1110    15.0940    14.0860    24.5260     2.4450   -18.0850 
  150.1250    70.8770    15.7070    14.6820    13.9420    24.5560     2.4710   -18.2080 
  150.2500    70.8250    15.1070    14.0890    13.8600    24.5670     2.4910   -18.3590 
  150.3750    68.2470    14.3440    13.3560    13.4950    24.5410     2.5000   -18.6840 
  150.5000    68.3080    13.5410    12.5860    12.6870    24.5140     2.4940   -19.0310 
  150.6250    75.5820    12.9660    11.9950    11.7440    24.4770     2.4740   -19.2750 
  150.7500    84.8320    12.8370    11.7610    11.2570    24.4240     2.4440   -19.6870 
  150.8750    90.6680    13.3120    12.0270    11.6550    24.3750     2.4130   -20.1860 
  151.0000    92.6470    14.4110    12.8530    13.2520    24.2900     2.3830   -20.5500 
  151.1250    93.8680    15.9760    14.1960    15.9360    24.2000     2.3580   -20.9320 
  151.2500    95.0200    17.4700    15.6390    18.9580    24.1230     2.3370   -21.3260 
  151.3750    94.4150    18.4110    16.7510    22.4390    24.0690     2.3240   -21.5680 
  151.5000    92.8630    18.4640    17.1500    25.7950    24.0320     2.3220   -21.8020 
  151.6250    93.8740    17.5220    16.5850    24.5870    23.9900     2.3340   -22.0630 
  151.7500    99.0850    16.1970    15.5100    19.2750    23.9800     2.3550   -22.1500 
  151.8750   105.8370    15.0720    14.4330    15.2090    24.0180     2.3780   -22.2140 
  152.0000   108.4180    14.6000    13.7970    14.6960    24.1310     2.3940   -22.4060 
  152.1250   104.1320    15.0050    13.9010    16.1010    24.2470     2.3930   -22.4550 
  152.2500    99.9860    15.8260    14.4840    16.8300    24.3850     2.3790   -22.4760 
  152.3750    98.3180    16.5630    15.1920    17.5460    24.5190     2.3610   -22.6300 
  152.5000    97.8020    16.7830    15.6410    20.1220    24.6050     2.3500   -22.7780 
  152.6250    98.1300    16.2980    15.5460    23.2010    24.6350     2.3590   -22.8500 
  152.7500   102.0680    15.6440    15.2030    20.6950    24.6510     2.3810   -22.9580 
  152.8750   107.5540    15.4180    15.0800    15.5790    24.6900     2.4040   -23.1080 
  153.0000   108.0150    16.0230    15.5740    14.7520    24.7390     2.4160   -23.2420 
  153.1250   100.2880    17.5070    16.8740    19.2040    24.7670     2.4050   -23.4190 
  153.2500    91.8260    19.2020    18.5300    26.2390    24.7340     2.3840   -23.6910 
  153.3750    88.1250    20.4920    20.0150    32.0300    24.6770     2.3640   -23.9810 
  153.5000    90.1370    20.9410    20.8270    30.0160    24.6490     2.3590   -24.1940 
  153.6250    94.4990    20.4420    20.6570    22.2390    24.6610     2.3730   -24.5180 
  153.7500    97.3240    19.6270    20.0090    17.7490    24.6780     2.3970   -24.9660 
  153.8750    98.6830    18.9710    19.3610    17.0240    24.6590     2.4180   -25.3010 
  154.0000    97.8340    18.6600    18.9800    18.5380    24.6110     2.4270   -25.5430 
  154.1250    93.5930    18.5400    18.8920    20.9180    24.5860     2.4180   -25.8830 
  154.2500    88.3420    18.5140    18.9290    22.9510    24.6180     2.4040   -26.1080 
  154.3750    87.5060    18.6450    19.0800    23.1370    24.6730     2.3920   -26.2400 
  154.5000    92.1140    19.5160    19.5110    21.7150    24.7410     2.3830   -26.4830 
  154.6250    95.4780    21.4990    20.6290    22.3530    24.7900     2.3760   -26.6310 
  154.7500    92.8330    24.8750    22.5230    25.9050    24.8000     2.3640   -26.7060 
  154.8750    86.2090    29.0760    25.0530    31.3940    24.7780     2.3440   -26.9130 
