~V
VERS. 2.00: Ver 2.00
~W
STRT.M 60.0000:
STOP.M 251.0000:
STEP.M 0.1250:
NULL. -999.2500:
UWI. DF3020:
~C
DEPT.M :
GR.API :
RML.OHMM :
RI. :
RXO.OHMM :
CALI.CM :
DEN.GM/CC :
SP.MV :
~A
# ...
  138.7500    97.1470     6.0780     5.3520     5.6390    25.8710     2.2860   -28.0580 
  138.8750    95.5410     5.9890     5.2480     5.8210    25.4990     2.2910   -27.9530 
  139.0000    94.9000     6.2380     5.4190     6.3280    25.2880     2.3020   -27.7990 
  139.1250    92.9880     7.0960     6.0950     7.0830    25.2150     2.3180   -27.5850 
  139.2500    87.8310     8.6480     7.3380     8.4610    25.1500     2.3460   -27.3260 
  139.3750    79.9400    10.9330     9.1890    10.4230    25.1040     2.3920   -27.0480 
  139.5000    71.4090    13.8540    11.5360    13.7770    25.0650     2.4560   -26.7430 
  139.6250    64.9610    16.8660    14.0290    19.3650    25.0480     2.5240   -26.4680 
  139.7500    60.7170    19.2240    16.1260    23.9630    25.0420     2.5790   -26.1820 
  139.8750    56.7080    20.3730    17.4670    24.0900    25.0160     2.6060   -25.8900 
  140.0000    53.1420    20.5930    17.9910    21.7590    25.0060     2.6070   -25.6380 
  140.1250    51.6950    20.2970    17.9360    20.7480    25.0270     2.5930   -25.4380 
  140.2500    51.8930    20.1010    17.8230    19.3110    25.0930     2.5840   -25.2780 
  140.3750    53.6150    20.2290    17.8890    18.6210    25.1270     2.5850   -25.1320 
  140.5000    55.3070    20.6570    18.1810    19.6130    25.1370     2.5970   -25.0520 
  140.6250    55.8840    21.2180    18.6240    21.3540    25.1550     2.6090   -24.9460 
  140.7500    55.5420    21.7170    19.0710    22.4130    25.1950     2.6120   -24.9180 
  140.8750    55.0930    22.0620    19.4360    21.8910    25.2100     2.6040   -24.9000 
  141.0000    55.2290    22.2170    19.6700    21.0150    25.2700     2.5920   -24.8880 
  141.1250    55.6980    22.1310    19.7080    20.2930    25.3450     2.5820   -24.8600 
  141.2500    56.3930    21.7990    19.5330    20.0520    25.3980     2.5740   -24.8020 
  141.3750    56.3890    21.1860    19.1090    19.5200    25.4440     2.5650   -24.7490 
  141.5000    56.5010    20.3260    18.4530    18.6540    25.4630     2.5510   -24.6620 
  141.6250    57.6210    19.3670    17.6740    17.0000    25.4670     2.5310   -24.5960 
  141.7500    59.5620    18.5550    16.9850    15.2260    25.4670     2.5110   -24.5120 
  141.8750    61.3880    18.0400    16.5300    13.6240    25.4670     2.4960   -24.4420 
  142.0000    63.0620    17.8540    16.3610    13.1050    25.4670     2.4880   -24.3570 
  142.1250    66.2030    17.9070    16.4290    13.8680    25.4670     2.4880   -24.2850 
  142.2500    68.8300    17.9460    16.5160    14.9180    25.4670     2.4950   -24.2350 
  142.3750    67.9090    17.7980    16.4610    15.8120    25.4670     2.5070   -24.1930 
  142.5000    63.4560    17.3940    16.1760    16.0930    25.4670     2.5230   -24.1920 
  142.6250    58.8730    16.7850    15.6770    16.4630    25.4560     2.5380   -24.2010 
  142.7500    57.4080    16.1810    15.1450    16.2420    25.4000     2.5490   -24.1980 
  142.8750    59.5320    15.7370    14.7220    14.9380    25.3410     2.5530   -24.2180 
  143.0000    62.5410    15.5410    14.4970    14.2690    25.3190     2.5460   -24.2410 
  143.1250    61.5610    15.6360    14.5200    13.9410    25.2530     2.5280   -24.2910 
  143.2500    57.5330    15.9240    14.7110    13.9460    25.2090     2.5050   -24.3260 
  143.3750    54.8470    16.3440    15.0200    14.2690    25.2010     2.4840   -24.3750 
  143.5000    56.9350    16.8460    15.4070    14.6950    25.2000     2.4740   -24.3990 
  143.6250    60.9000    17.3880    15.8430    15.0060    25.2000     2.4790   -24.4020 
  143.7500    61.5440    17.9160    16.2860    15.2300    25.2000     2.4910   -24.4150 
  143.8750    58.1670    18.3710    16.6880    15.7390    25.1980     2.5030   -24.3580 
  144.0000    53.9290    18.6830    16.9870    16.5480    25.1790     2.5090   -24.3140 
  144.1250    52.7580    18.7730    17.1080    17.0940    25.0630     2.5060   -24.1960 
  144.2500    54.1230    18.7020    17.0840    17.6700    24.9130     2.4990   -24.1060 
  144.3750    57.0680    18.5620    16.9800    17.6590    24.8910     2.4920   -23.9890 
  144.5000    60.3980    18.4730    16.8880    16.7560    24.8430     2.4870   -23.8380 
  144.6250    60.9300    18.5500    16.9120    16.2680    24.8180     2.4840   -23.6760 
  144.7500    60.0370    18.7710    17.0560    16.3960    24.8050     2.4810   -23.5080 
  144.8750    60.1110    19.0590    17.2740    16.7870    24.7920     2.4780   -23.3910 
  145.0000    61.1260    19.3110    17.4910    17.3240    24.7700     2.4760   -23.2700 
  145.1250    59.1420    19.4090    17.6080    17.9620    24.7430     2.4760   -23.2080 
  145.2500    56.0380    19.3340    17.5880    17.6970    24.7090     2.4840   -23.1660 
  145.3750    56.0090    19.1030    17.4280    17.0080    24.6820     2.4970   -23.1570 
  145.5000    59.9680    18.7710    17.1650    16.7810    24.6700     2.5100   -23.2150 
  145.6250    63.1400    18.4330    16.8750    16.6700    24.6670     2.5100   -23.3160 
  145.7500    64.5850    18.1970    16.6550    16.5930    24.6700     2.4940   -23.4320 
  145.8750    67.4860    18.1320    16.5650    15.8070    24.6680     2.4660   -23.5660 
  146.0000    70.9560    18.2670    16.6300    14.9390    24.6600     2.4390   -23.6790 
  146.1250    71.0340    18.5830    16.8480    15.6900    24.6580     2.4270   -23.7910 
  146.2500    69.2220    18.9650    17.1370    16.6260    24.6610     2.4310   -23.8590 
  146.3750    69.6600    19.3270    17.4350    17.3480    24.6640     2.4440   -23.9190 
  146.5000    72.6510    19.6120    17.6930    17.1400    24.6700     2.4550   -23.9350 
  146.6250    72.9100    19.8030    17.8810    16.6390    24.6720     2.4580   -23.9340 
  146.7500    69.6770    19.9480    18.0200    16.6530    24.6780     2.4530   -23.9200 
  146.8750    66.3460    20.0820    18.1340    16.7790    24.6960     2.4440   -23.8650 
  147.0000    65.9790    20.2160    18.2370    16.9620    24.7350     2.4380   -23.8440 
  147.1250    65.8320    20.3270    18.3220    17.3260    24.7540     2.4380   -23.7780 
  147.2500    64.1130    20.3910    18.3760    17.6880    24.7570     2.4450   -23.7520 
  147.3750    63.7690    20.4030    18.3920    17.8110    24.7540     2.4560   -23.7080 
  147.5000    67.0380    20.3790    18.3790    17.2770    24.7760     2.4700   -23.6730 
  147.6250    70.8500    20.3360    18.3410    17.1500    24.8200     2.4870   -23.6500 
  147.7500    72.0170    20.2860    18.2880    17.0280    24.8320     2.5080   -23.6520 
  147.8750    71.9590    20.2330    18.2170    16.8940    24.7610     2.5340   -23.6760 
  148.0000    71.8310    20.1700    18.1210    16.8910    24.6640     2.5590   -23.6550 
  148.1250    70.0950    20.0720    17.9740    17.1190    24.6520     2.5720   -23.6620 
  148.2500    66.7430    19.8990    17.7490    17.0000    24.7120     2.5690   -23.6550 
  148.3750    62.9220    19.6020    17.4170    16.5160    24.7990     2.5540   -23.6420 
  148.5000    60.9630    19.1500    16.9650    16.5140    24.8840     2.5350   -23.6300 
  148.6250    61.1200    18.5510    16.4150    16.5430    24.9400     2.5210   -23.6060 
  148.7500    62.1350    17.9270    15.8650    16.0580    24.9550     2.5140   -23.5810 
  148.8750    63.2480    17.4010    15.4070    15.3490    24.9430     2.5120   -23.5570 
  149.0000    63.5900    17.0740    15.1110    14.5460    24.9220     2.5120   -23.5750 
  149.1250    62.2760    17.0300    15.0400    14.3580    24.9060     2.5110   -23.6150 
  149.2500    60.0940    17.1840    15.1330    14.7390    24.9030     2.5120   -23.6610 
  149.3750    59.7050    17.4430    15.3230    14.9900    24.9050     2.5150   -23.7340 
  149.5000    60.5360    17.6960    15.5250    14.7220    24.9000     2.5170   -23.7770 
  149.6250    59.0720    17.8330    15.6400    14.9630    24.9050     2.5110   -23.8180 
  149.7500    56.5010    17.8440    15.6420    15.3850    24.9020     2.4970   -23.8320 
  149.8750    57.6280    17.7650    15.5490    15.6840    24.8990     2.4810   -23.8500 
