~V
VERS. 2.00: Ver 2.00
~W
STRT.M 60.0000:
STOP.M 270.0000:
STEP.M 0.1250:
NULL. -999.2500:
UWI. DF3075:
~C
DEPT.M :
GR.API :
RML.OHMM :
RI. :
RXO.OHMM :
CALI.CM :
DEN.GM/CC :
SP.MV :
~A
# ...
   82.5000    69.8960     9.7680     8.3010    10.6970    25.1510  -999.2500   -32.2860 
   82.6250    68.3400     9.6920     8.2550    10.6770    25.0570  -999.2500   -32.3320 
   82.7500    71.1690     9.6080     8.1810    10.5700    24.9600  -999.2500   -32.2860 
   82.8750    73.6310     9.5470     8.1030    10.5000    24.8660  -999.2500   -32.1810 
   83.0000    71.7860     9.5180     8.0320    10.6140    24.7000  -999.2500   -32.0060 
   83.1250    69.3200     9.5040     7.9570    10.6330    24.6170  -999.2500   -31.8100 
   83.2500    68.2370     9.4670     7.8860    10.4830    24.6450  -999.2500   -31.5600 
   83.3750    67.2350     9.3840     7.8210     9.9200    24.9570  -999.2500   -31.2460 
   83.5000    67.1640     9.2670     7.7740     9.1610    25.4010  -999.2500   -30.8640 
   83.6250    70.5340     9.1820     7.7640     8.8310    25.5110  -999.2500   -30.4450 
   83.7500    74.6110     9.1550     7.7810     9.0080    25.2640  -999.2500   -30.0010 
   83.8750    76.7760     9.1630     7.8190     9.2760    24.8050  -999.2500   -29.5470 
   84.0000    78.4340     9.1670     7.8710     9.5940    24.2880  -999.2500   -29.0880 
   84.1250    80.2300     9.1540     7.9410     9.8370    23.9550  -999.2500   -28.5630 
   84.2500    80.1030     9.1710     8.0330     9.9800    23.8350  -999.2500   -28.0600 
   84.3750    78.2620     9.2530     8.1400    10.1720    23.8360  -999.2500   -27.4550 
   84.5000    77.6430     9.3900     8.2500    10.4700    23.8680  -999.2500   -26.8360 
   84.6250    76.7640     9.4980     8.3320    10.5890    23.9290  -999.2500   -25.9800 
   84.7500    73.4760     9.4920     8.3520    10.3840    24.0430  -999.2500   -25.0380 
   84.8750    71.4620     9.3410     8.2720     9.8910    24.2260  -999.2500   -23.8630 
   85.0000    73.7980     9.0650     8.0730     9.3090    24.4820  -999.2500   -22.5820 
   85.1250    78.8670     8.6700     7.7390     8.8090    24.7180  -999.2500   -21.1990 
   85.2500    83.0640     8.2050     7.3290     8.4170    24.8380  -999.2500   -19.8570 
   85.3750    87.7860     7.7300     6.8990     7.5270    24.7910  -999.2500   -18.6790 
   85.5000    92.9290     7.3140     6.5150     6.1890    24.5950  -999.2500   -17.6560 
   85.6250    94.8630     7.0460     6.2410     5.3920    24.5760  -999.2500   -16.8750 
   85.7500    96.4720     6.9290     6.0810     5.3470    24.7090  -999.2500   -16.2740 
   85.8750    99.2810     6.9420     6.0220     5.5780    24.9220  -999.2500   -15.8880 
   86.0000   100.1240     7.0300     6.0420     5.7010    25.0610  -999.2500   -15.7210 
   86.1250    98.7780     7.1440     6.1050     5.4880    25.0010  -999.2500   -15.7500 
   86.2500    97.7410     7.2500     6.1660     5.3290    24.6530  -999.2500   -15.8560 
   86.3750    95.8660     7.3280     6.1880     5.3660    24.3760  -999.2500   -16.0160 
   86.5000    91.7010     7.3520     6.1370     5.5710    24.2730  -999.2500   -16.2400 
   86.6250    91.9900     7.2710     5.9920     5.6810    24.2680  -999.2500   -16.5940 
   86.7500    97.7650     7.0770     5.7870     5.8930    24.2840  -999.2500   -17.0580 
   86.8750   102.6100     6.8090     5.5520     5.9210    24.3180  -999.2500   -17.7000 
   87.0000   103.4160     6.5690     5.3390     5.8430    24.3400  -999.2500   -18.4070 
   87.1250   101.8740     6.5250     5.2800     5.8030    24.3750  -999.2500   -19.3210 
   87.2500    98.0460     6.7800     5.4900     5.9560    24.3840  -999.2500   -20.2500 
   87.3750    90.9500     7.4650     6.1360     6.3230    24.3670  -999.2500   -21.2440 
   87.5000    82.9510     8.7280     7.3900     7.2870    24.3950  -999.2500   -22.2160 
   87.6250    78.4740    10.7510     9.4310     9.1140    24.4750  -999.2500   -23.2150 
   87.7500    75.7650    13.2520    11.9800    12.8130    24.5600  -999.2500   -24.2110 
   87.8750    73.7030    15.7580    14.6280    18.6820    24.5520  -999.2500   -25.1300 
   88.0000    72.3950    17.5890    16.7770    27.1550    24.4970  -999.2500   -26.0730 
   88.1250    73.4970    17.8670    17.5920    41.4600    24.3230  -999.2500   -26.8690 
   88.2500    76.3140    16.7630    17.0310    45.2690    24.1140  -999.2500   -27.6870 
   88.3750    77.6130    14.8400    15.4230    30.5070    23.9360  -999.2500   -28.4090 
   88.5000    76.6110    12.8130    13.3650    15.8190    23.8830  -999.2500   -29.1000 
   88.6250    72.7860    11.2710    11.4780    11.8050    23.9000  -999.2500   -29.6430 
   88.7500    68.6730    10.2740    10.0500    10.7920    23.8690  -999.2500   -30.1230 
   88.8750    67.3530     9.7610     9.1110    10.7540    23.7610  -999.2500   -30.5330 
   89.0000    69.1650     9.6280     8.5890    10.6410    23.6110  -999.2500   -30.9010 
   89.1250    71.1920     9.7430     8.4120    10.3430    23.4890  -999.2500   -31.2110 
   89.2500    70.6440     9.8950     8.3900    10.0480    23.4600  -999.2500   -31.4870 
   89.3750    70.0060     9.9710     8.4340     9.9080    23.5220  -999.2500   -31.7810 
   89.5000    70.6820     9.9520     8.4950    10.1560    23.6530  -999.2500   -32.0790 
   89.6250    70.8580     9.8940     8.5530    10.5540    23.8560  -999.2500   -32.3640 
   89.7500    69.4930     9.8570     8.6040    10.6850    24.2110  -999.2500   -32.6070 
   89.8750    66.8160     9.8410     8.6340    10.6170    24.7110  -999.2500   -32.7760 
   90.0000    65.1010     9.8120     8.6370    10.6140    25.1780  -999.2500   -32.8540 
   90.1250    66.8710     9.7790     8.6190    10.6190    25.5500  -999.2500   -32.8230 
   90.2500    69.5910     9.7790     8.5900    10.5890    25.5340  -999.2500   -32.7560 
   90.3750    69.3270     9.8340     8.5590    10.7110    25.1990  -999.2500   -32.6070 
   90.5000    65.7690     9.9240     8.5270    11.0110    24.9170  -999.2500   -32.4140 
   90.6250    64.1800     9.9880     8.4970    11.2840    24.7740  -999.2500   -32.2730 
   90.7500    65.8370    10.0130     8.4750    11.3680    24.6620  -999.2500   -32.0450 
   90.8750    67.5550    10.0250     8.4610    11.1810    24.5710  -999.2500   -31.9000 
   91.0000    66.7520    10.0590     8.4490    11.1120    24.5260  -999.2500   -31.7250 
   91.1250    65.3680    10.1080     8.4260    10.7790    24.4500  -999.2500   -31.6550 
   91.2500    65.2230    10.1340     8.4050    10.0130    24.3930  -999.2500   -31.5570 
   91.3750    67.2890    10.1320     8.4000     9.3620    24.3210  -999.2500   -31.4910 
   91.5000    70.5650    10.1270     8.4180     9.0980    24.2780  -999.2500   -31.3950 
   91.6250    72.4030    10.1530     8.4670     9.0980    24.2900  -999.2500   -31.2780 
   91.7500    70.4280    10.2070     8.5410     9.2650    24.3310  -999.2500   -31.1750 
   91.8750    66.7850    10.2610     8.6290     9.6300    24.3800  -999.2500   -31.0050 
   92.0000    65.7720    10.3000     8.7270    10.2110    24.4330  -999.2500   -30.7850 
   92.1250    66.3140    10.3250     8.8130    10.8040    24.4330  -999.2500   -30.4280 
   92.2500    65.7890    10.3370     8.8510    10.7220    24.5140  -999.2500   -29.9390 
   92.3750    65.5040    10.2960     8.8080    10.3380    24.6800  -999.2500   -29.3410 
   92.5000    66.6980    10.1500     8.6550    10.2020    24.8770  -999.2500   -28.6360 
   92.6250    69.9070     9.8470     8.3690    10.3990    25.2010  -999.2500   -27.7790 
   92.7500    74.6140     9.4570     7.9920    10.2440    25.4000  -999.2500   -26.8970 
   92.8750    80.2190     9.0570     7.5710     9.6520    25.2650  -999.2500   -26.0240 
   93.0000    84.5300     8.7140     7.1690     8.5940    24.9850  -999.2500   -25.2980 
   93.1250    86.9720     8.4740     6.8430     7.5190    24.6730  -999.2500   -24.7240 
   93.2500    91.6440     8.3130     6.6220     7.0910    24.3940  -999.2500   -24.3490 
   93.3750    96.3890     8.2300     6.5090     7.2180    24.2760  -999.2500   -24.1060 
   93.5000    96.4540     8.2340     6.4880     7.4860    24.3760  -999.2500   -24.0770 
   93.6250    92.7250     8.3270     6.5460     7.7730    24.6490  -999.2500   -24.2050 
