~V
VERS. 2.00: Ver 2.00
~W
STRT.M 130.0000:
STOP.M 279.0000:
STEP.M 0.1250:
NULL. -999.2500:
UWI. DF307:
~C
DEPT.M :
DEN.GM/CC :
AC.US/MT :
GR.API :
CALI.CM :
RXO.OHMM :
RI. :
RML.OHMM :
SP.MV :
~A
# ...
  230.0000     2.4320   375.3210    88.0140    25.4440     5.7620     5.8020     7.1870   -13.2700 
  230.1250     2.4240   371.6740    88.5960    25.4420     5.8760     5.8970     7.2910   -13.3560 
  230.2500     2.4190   368.9180    89.5220    25.4400     5.8130     5.8780     7.2160   -13.4600 
  230.3750     2.4150   367.0650    89.8260    25.4370     5.6220     5.7630     7.0100   -13.5620 
  230.5000     2.4070   366.6470    87.7230    25.4430     5.4170     5.6040     6.7690   -13.6720 
  230.6250     2.3970   367.9090    84.3050    25.4870     5.4030     5.4770     6.6260   -13.7760 
  230.7500     2.3860   371.0300    85.9360    25.5570     5.5870     5.4310     6.6360   -13.8740 
  230.8750     2.3750   375.4770    92.5630    25.6250     5.8420     5.4870     6.8220   -13.9850 
  231.0000     2.3670   379.5020    97.8640    25.6740     6.1010     5.6570     7.1940   -14.1070 
  231.1250     2.3660   381.4050    95.7730    25.6940     6.4530     5.9610     7.7770   -14.2460 
  231.2500     2.3640   380.9260    89.8830    25.6560     6.9470     6.3490     8.4730   -14.4190 
  231.3750     2.3560   379.2390    85.1200    25.5230     7.6170     6.7540     9.1590   -14.6270 
  231.5000     2.3440   378.0290    85.4770    25.3150     8.3800     7.0940     9.6810   -14.8710 
  231.6250     2.3380   377.2940    91.6900    25.1070     8.7540     7.2640     9.8500   -15.1640 
  231.7500     2.3470   375.3980    96.2370    24.9470     8.5400     7.2920     9.7560   -15.4880 
  231.8750     2.3680   370.3580    95.4300    24.8410     8.2200     7.3070     9.6850   -15.8550 
  232.0000     2.3960   360.8970    90.8590    24.7870     8.5080     7.5280    10.0810   -16.2460 
  232.1250     2.4290   349.2990    86.8460    24.7790     9.8700     8.3610    11.6630   -16.6550 
  232.2500     2.4580   338.0190    82.8150    24.7650    12.4890    10.1560    14.8630   -17.0850 
  232.3750     2.4730   329.2120    76.3030    24.7060    17.4450    13.4900    20.3390   -17.5440 
  232.5000     2.4640   325.2630    69.4650    24.6130    25.4980    19.0290    28.8080   -18.0230 
  232.6250     2.4350   326.4760    65.3330    24.5040    33.3490    27.4140    40.9440   -18.5110 
  232.7500     2.4010   332.7370    66.0140    24.3360    36.0260    36.9450    54.1730   -18.9940 
  232.8750     2.3710   342.5440    68.3680    24.0840    33.8750    45.1620    64.5570   -19.4360 
  233.0000     2.3400   352.8390    68.9160    23.8250    30.7590    50.1260    69.3440   -19.8550 
  233.1250     2.3030   360.5210    67.9400    23.6980    29.2570    51.6760    69.5120   -20.2490 
  233.2500     2.2730   364.5490    66.4050    23.6740    28.8270    52.1580    69.2030   -20.6120 
  233.3750     2.2560   365.8750    66.1340    23.6820    28.8580    52.8050    69.9590   -20.9370 
  233.5000     2.2440   366.8480    67.7860    23.6830    29.0650    53.9900    71.8550   -21.2290 
  233.6250     2.2330   369.0600    71.7280    23.6650    29.9030    55.6240    74.4280   -21.4850 
  233.7500     2.2290   372.1580    75.7020    23.6410    31.5850    57.3830    77.0460   -21.7120 
  233.8750     2.2340   375.0670    76.7120    23.6430    33.7860    59.1180    79.4380   -21.9360 
  234.0000     2.2430   377.2800    74.6090    23.6970    35.9060    60.7530    81.4800   -22.1430 
  234.1250     2.2460   379.5240    72.2110    23.8770    37.4450    62.1400    82.9530   -22.3280 
  234.2500     2.2370   382.1550    72.7880    24.2480    38.2920    63.1620    83.7900   -22.4930 
  234.3750     2.2230   384.6010    75.7440    24.7580    38.2500    63.7480    83.9740   -22.6300 
  234.5000     2.2200   385.3070    77.5700    25.2120    37.2210    63.9390    83.6370   -22.7410 
  234.6250     2.2340   384.0800    75.4750    25.4420    35.5670    63.8840    83.0470   -22.8150 
  234.7500     2.2500   382.0890    72.3690    25.5560    34.2000    63.9640    82.7250   -22.8520 
  234.8750     2.2460   381.2090    71.4280    25.6390    33.5150    64.5690    83.1590   -22.8610 
  235.0000     2.2260   382.8600    72.7320    25.6850    33.6840    65.9250    84.5500   -22.8440 
  235.1250     2.2080   385.7810    75.2470    25.6880    35.5140    67.7950    86.4060   -22.7730 
  235.2500     2.2060   388.3190    76.8750    25.6850    39.1450    69.2120    87.3310   -22.6790 
  235.3750     2.2050   389.2210    76.6710    25.6910    43.0730    69.2620    86.1210   -22.5950 
  235.5000     2.1980   388.0240    75.4600    25.7120    44.0320    67.4810    82.4350   -22.5150 
  235.6250     2.1960   386.1810    74.8530    25.7320    40.0620    64.1240    77.1530   -22.4710 
  235.7500     2.2110   385.3040    77.0890    25.7250    35.3390    60.5720    72.2390   -22.4720 
  235.8750     2.2350   386.5910    81.2060    25.7110    33.3690    57.7660    68.7610   -22.4830 
  236.0000     2.2490   390.0750    81.6900    25.7330    34.6900    56.1670    67.0440   -22.5190 
  236.1250     2.2480   393.4780    76.5400    25.7960    36.9600    55.8300    66.8950   -22.6070 
  236.2500     2.2400   394.8160    71.2660    25.8310    37.5040    55.9870    67.1810   -22.7050 
  236.3750     2.2420   393.3180    69.2090    25.8020    36.2550    55.9920    67.0430   -22.8160 
  236.5000     2.2560   389.9480    68.3480    25.7550    34.6990    55.3930    65.9870   -22.9420 
  236.6250     2.2750   387.1880    66.9480    25.7370    34.2750    54.0990    64.0740   -23.0720 
  236.7500     2.2820   386.4960    68.8160    25.7290    34.6330    52.6920    62.1810   -23.2240 
  236.8750     2.2730   388.4390    73.0360    25.7070    34.7480    51.8160    61.1440   -23.4070 
  237.0000     2.2550   392.9920    75.5520    25.6800    34.0830    52.1980    61.8040   -23.6120 
  237.1250     2.2390   398.3450    74.9380    25.6990    33.9410    55.1210    65.5900   -23.8720 
  237.2500     2.2340   402.5930    72.2080    25.7750    36.7700    61.0940    72.9790   -24.1800 
  237.3750     2.2290   404.0680    68.4820    25.8870    44.2820    70.4430    84.4040   -24.5240 
  237.5000     2.2220   401.8250    66.2030    25.9750    55.3380    82.4760    99.1960   -24.8760 
  237.6250     2.2100   397.7340    67.6490    25.9940    63.8180    94.3830   113.6670   -25.1830 
  237.7500     2.1980   393.7370    69.8950    25.9930    66.0480   102.0940   121.9510   -25.4160 
  237.8750     2.1930   391.3550    69.7460    26.0020    63.7630   103.3720   121.3450   -25.5940 
  238.0000     2.1980   391.2470    69.1220    26.0140    59.8980    99.1410   114.4500   -25.7090 
  238.1250     2.2090   392.3070    69.4770    26.0160    55.7430    92.7800   106.6940   -25.7010 
  238.2500     2.2120   393.6590    68.9160    26.0070    52.7440    87.7890   101.5320   -25.6170 
  238.3750     2.2090   394.6010    67.3460    25.9910    52.5560    85.2960    99.5470   -25.4620 
  238.5000     2.2080   394.3030    66.5390    25.9840    55.8700    85.2510   100.2430   -25.2730 
  238.6250     2.2140   392.5850    67.0100    25.9970    60.9970    87.1300   102.7880   -25.1170 
  238.7500     2.2200   389.5220    66.5760    26.0060    64.5450    89.7450   105.8430   -25.0170 
  238.8750     2.2250   385.3370    64.7990    25.9950    66.2930    92.5590   108.8720   -24.9520 
  239.0000     2.2290   380.2870    63.2900    25.9830    68.1820    95.3850   111.7940   -24.9230 
  239.1250     2.2350   375.4560    62.9490    25.9930    69.8190    98.3230   114.8800   -24.9730 
  239.2500     2.2370   372.2560    63.8420    25.9800    68.2480   101.5160   118.3530   -25.0660 
  239.3750     2.2370   371.9000    64.9100    25.8920    63.5700   104.8810   122.0630   -25.1970 
  239.5000     2.2360   375.0470    65.8720    25.7260    59.2730   107.8940   125.2760   -25.3590 
  239.6250     2.2310   380.0410    66.8180    25.5450    59.2940   109.2940   126.2930   -25.5190 
  239.7500     2.2190   385.2330    66.9410    25.4180    62.4130   108.3430   124.1990   -25.6790 
  239.8750     2.2090   389.0540    65.2420    25.3570    65.1260   104.7160   118.7450   -25.8360 
