~V
VERS. 2.00: Ver 2.00
~W
STRT.M 67.0000:
STOP.M 279.0000:
STEP.M 0.1250:
NULL. -999.2500:
UWI. DF3057:
~C
DEPT.M :
GR.API :
CALI.CM :
RXO.OHMM :
RI. :
RML.OHMM :
DEN.GM/CC :
SP.MV :
~A
# ...
  269.5000    98.4440    25.3680     8.3750     8.1140     8.7000     2.3160   -15.9090 
  269.6250    98.4440    25.4240    10.1060     7.7240     8.3230     2.3110   -15.3370 
  269.7500    98.4440    25.4530    10.0150     7.4940     8.1080     2.3390   -14.8780 
  269.8750    98.4440    25.4050     8.3870     7.3900     8.0140     2.3820   -14.6110 
  270.0000    98.4440    25.4180     7.4640     7.3890     8.0250     2.4140   -14.5120 
  270.1250    98.4440    25.6670     7.5070     7.4850     8.1330     2.4110   -14.3640 
  270.2500    98.4440    25.7570     8.0500     7.6290     8.2750     2.3920   -14.2190 
  270.3750    98.4440    25.6480     8.9870     7.7850     8.4350     2.3820   -14.2070 
  270.5000    98.4440    25.5620    10.3270     7.9360     8.5790     2.3940   -14.2680 
  270.6250    98.4440    25.3880    11.5670     8.0140     8.6680     2.4110   -14.3910 
  270.7500    98.4440    25.3710    11.2060     8.0160     8.6680     2.4180   -14.5420 
  270.8750    98.4440    25.4220     9.5680     7.9430     8.5730     2.4190   -14.6110 
  271.0000    98.4440    25.3790     8.1660     7.8260     8.4230     2.4260   -14.6090 
  271.1250    98.4440    25.4130     7.6990     7.6930     8.2800     2.4370   -14.7220 
  271.2500    98.4440    25.3680     7.5760     7.5680     8.1710     2.4300   -14.8600 
  271.3750    98.4440    25.3790     7.4920     7.4660     8.0960     2.4070   -14.9100 
  271.5000    98.4440    25.4960     7.3770     7.3800     8.0540     2.3840   -14.9390 
  271.6250    98.4440    25.4980     7.3480     7.3170     8.0340     2.3800   -14.9830 
  271.7500    98.4440    25.5410     7.5760     7.2620     8.0040     2.3870   -15.0120 
  271.8750    98.4440    25.5950     7.9790     7.1970     7.9600     2.3950   -15.0550 
  272.0000    98.4440    25.4110     8.2400     7.1210     7.8840     2.3990   -15.1280 
  272.1250    98.4440    25.4220     8.0260     7.0330     7.8020     2.4000   -15.1460 
  272.2500    98.4440    25.4230     7.6520     6.9560     7.7130     2.3950   -15.1620 
  272.3750    98.4440    25.4040     7.4780     6.8830     7.6270     2.3850   -15.1950 
  272.5000    98.4440    25.4120     7.1850     6.8120     7.5570     2.3760   -15.2190 
  272.6250    98.4440    25.6430     6.8650     6.7460     7.5160     2.3760   -15.2650 
  272.7500    98.4440    25.7780     6.7210     6.6950     7.4950     2.3860   -15.2930 
  272.8750    98.4440    25.9510     6.8410     6.6580     7.4730     2.4010   -15.3480 
  273.0000    98.4440    25.9260     6.8670     6.6350     7.4590     2.4150   -15.3480 
  273.1250    98.4440    25.7700     6.7660     6.6320     7.4530     2.4120   -15.3980 
  273.2500    98.4440    25.2770     6.6960     6.6480     7.4540     2.3950   -15.4390 
  273.3750    98.4440    24.4330     6.5030     6.6740     7.4680     2.3810   -15.5260 
  273.5000    98.4440    23.8910     6.3050     6.6990     7.4660     2.3810   -15.5920 
  273.6250    98.4440    23.7320     6.3650     6.6990     7.4660     2.3900   -15.5670 
  273.7500    98.4440    23.5940     6.3330     6.6990     7.4660     2.4000   -15.6040 
  273.8750    98.4440    23.4910     6.2280     6.6990     7.4660     2.4130   -15.6180 
  274.0000    98.4440    23.3570     6.1900     6.6990     7.4660     2.4300   -15.6890 
  274.1250    98.4440    23.2010     6.1770     6.6990     7.4660     2.4440   -15.7320 
  274.2500    98.4440    23.1690     6.1390     6.6990     7.4660     2.4480   -15.7990 
  274.3750    98.4440    23.1210     6.1030     6.6990     7.4660     2.4450   -15.9480 
  274.5000    98.4440    23.0460     6.1800     6.6990     7.4660     2.4310   -16.1100 
  274.6250    98.4440    23.0100     6.2930     6.6990     7.4660     2.4020   -16.2990 
  274.7500    98.4440    23.0310     6.1910     6.6990     7.4660     2.3740   -16.4640 
  274.8750    98.4440    22.9170     6.0390     6.6990     7.4660     2.3630   -16.6240 
  275.0000    98.4440    22.6640     5.9730     6.6990     7.4660     2.3770   -16.8120 
  275.1250    98.4440    22.7440     5.9400     6.6990     7.4660     2.4080   -16.9790 
  275.2500    98.4440    22.6120     5.9300     6.6990     7.4660     2.4310   -17.0800 
  275.3750    98.4440    22.5980     5.9880     6.6990     7.4660     2.4370   -17.0800 
  275.5000    98.4440    22.5350     5.9500     6.6990     7.4660     2.4310   -17.0800 
  275.6250    98.4440    22.6310     6.0760     6.6990     7.4660     2.4260  -999.2500 
  275.7500    98.4440    22.8110     6.6350     6.6990     7.4660     2.4240  -999.2500 
  275.8750    98.4440    22.7770     7.2450     6.6990     7.4660     2.4240  -999.2500 
  276.0000    98.4440    22.3350     7.5840     6.6990     7.4660     2.4310  -999.2500 
  276.1250    98.4440    22.2540     7.9980     6.6990     7.4660     2.4460  -999.2500 
  276.2500    98.4440    22.1120     8.2080     6.6990     7.4660     2.4540  -999.2500 
  276.3750    98.4440    22.0320     8.0710     6.6990     7.4660     2.4460  -999.2500 
  276.5000    98.4440    21.7960     7.7410     6.6990     7.4660     2.4300  -999.2500 
  276.6250    98.4440    21.8510     7.6480     6.6990     7.4660     2.4220  -999.2500 
  276.7500    98.4440    21.5700     7.8750     6.6990     7.4660     2.4160  -999.2500 
  276.8750    98.4440    21.1380     7.7360     6.6990     7.4660     2.3920  -999.2500 
  277.0000    98.4440    20.6090     7.1780     6.6990     7.4660     2.3420  -999.2500 
  277.1250    98.4440    20.3420     6.7780     6.6990     7.4660     2.2690  -999.2500 
  277.2500    98.4440    19.7370     6.3990     6.6990     7.4660     2.1920  -999.2500 
  277.3750    98.4440    18.2600     6.0630     6.6990     7.4660     2.1200  -999.2500 
  277.5000    98.4440    16.2470     5.8820     6.6990     7.4660     2.0660  -999.2500 
  277.6250    98.4440    15.5720     5.8450     6.6990     7.4660     2.0400  -999.2500 
  277.7500    98.4440    15.7030     5.8470     6.6990     7.4660     2.0320  -999.2500 
  277.8750    98.4440    15.7000     5.8480     6.6990     7.4660     2.0360  -999.2500 
  278.0000    98.4440    15.5270     5.8470     6.6990     7.4660     2.0480  -999.2500 
  278.1250    98.4440    15.4470     5.8410     6.6990     7.4660     2.0580  -999.2500 
  278.2500    98.4440    15.4730     5.8370     6.6990     7.4660     2.0720  -999.2500 
  278.3750    98.4440    15.4630     5.8360     6.6990     7.4660     2.0970  -999.2500 
  278.5000    98.4440    15.4640     5.8340     6.6990     7.4660     1.8870  -999.2500 
  278.6250    98.4440    15.4720     5.8340     6.6990     7.4660     1.1960  -999.2500 
  278.7500    98.4440    15.4720     5.8340     6.6990     7.4660     0.4280  -999.2500 
  278.8750    98.4440    15.4720     5.8340     6.6990     7.4660     0.0100  -999.2500 
  279.0000    98.4440    15.4720     5.8340     6.6990     7.4660    -0.0280  -999.2500 
