~V
VERS. 2.00: Ver 2.00
~W
STRT.M 59.0000:
STOP.M 281.0000:
STEP.M 0.1250:
NULL. -999.2500:
UWI. DF3005:
~C
DEPT.M :
DEN.GM/CC :
SP.MV :
AC.US/MT :
GR.API :
CALI.CM :
RXO.OHMM :
RI. :
RML.OHMM :
~A
# ...
  169.0000     2.4380   -24.5320   352.1570    61.4110    28.4370     7.5240     8.4900     8.9250 
  169.1250     2.4060   -25.1610   354.5540    60.7060    28.5960     7.3300     8.5780     9.2820 
  169.2500     2.3550   -25.8710   361.1910    62.2210    28.7880     7.4490     9.2190    10.5040 
  169.3750     2.3010   -26.6610   376.1100    65.2720    28.9730     9.7830    10.7070    12.9250 
  169.5000     2.2610   -27.5110   396.8510    69.1380    29.1480    15.8000    13.4290    16.8430 
  169.6250     2.2400   -28.3810   414.2900    72.5250    29.3760    27.8350    18.0480    22.6910 
  169.7500     2.2270   -29.2500   422.8940    74.7940    29.6410    36.7830    24.2010    29.8270 
  169.8750     2.2240   -30.0940   423.0280    75.7570    29.8460    41.6510    30.9860    37.1850 
  170.0000     2.2330   -30.9060   417.5150    74.1780    29.9480    43.2310    37.0690    43.3590 
  170.1250     2.2480   -31.6870   409.2490    70.0970    30.0240    40.1990    41.5240    47.5390 
  170.2500     2.2530   -32.4400   402.8080    67.4470    30.1480    35.4920    45.3160    51.1030 
  170.3750     2.2440   -33.1750   401.8570    67.9780    30.2820    28.2730    49.6290    55.4150 
  170.5000     2.2240   -33.8740   408.1880    69.8840    30.3880    27.6520    55.3750    61.3720 
  170.6250     2.1990   -34.5010   417.0030    69.1530    30.4930    48.2490    63.0390    69.4010 
  170.7500     2.1810   -35.0730   427.2510    66.9890    30.6470    79.2520    71.4470    78.2150 
  170.8750     2.1800   -35.5890   445.1250    66.5300    30.8210    94.0490    78.9080    85.8660 
  171.0000     2.1940   -36.0610   467.4110    67.3630    30.9510    87.1910    83.5960    90.1400 
  171.1250     2.2130   -36.4970   470.1830    68.1400    31.0300    76.0470    84.0190    89.4120 
  171.2500     2.2240   -36.9110   451.2260    67.2470    31.1220    69.7890    81.6520    85.7800 
  171.3750     2.2290   -37.3170   431.0460    64.7330    31.2400    61.2460    78.0800    81.2320 
  171.5000     2.2340   -37.7050   425.8740    61.3700    31.3720    52.6540    74.6610    77.2410 
  171.6250     2.2390   -38.0400   428.3890    59.5090    31.5120    50.7040    72.3640    74.7990 
  171.7500     2.2420   -38.3380   426.7820    59.8900    31.6260    47.7010    71.4730    74.0620 
  171.8750     2.2360   -38.6060   423.8660    59.6820    31.6820    43.8980    72.4150    75.3640 
  172.0000     2.2170   -38.8500   424.7740    59.4840    31.7110    41.7930    75.7220    79.1370 
  172.1250     2.1940   -39.0280   430.0180    61.7490    31.7990    45.1370    82.5530    86.4710 
  172.2500     2.1790   -39.1240   434.7100    64.4610    31.9420    53.1940    92.8410    97.2640 
  172.3750     2.1700   -39.1750   436.2900    64.9110    32.0930    62.8420   106.1430   111.0820 
  172.5000     2.1630   -39.2210   434.7690    61.7220    32.2310    74.1570   120.3860   125.6400 
  172.6250     2.1580   -39.3010   431.6770    57.8090    32.3780    85.6650   130.7470   134.5620 
  172.7500     2.1590   -39.4300   429.1030    56.1470    32.5240    91.9550   132.4640   135.2530 
  172.8750     2.1680   -39.5780   427.9090    56.8940    32.6280    91.1820   123.5470   129.9230 
  173.0000     2.1780   -39.7150   427.9170    57.9500    32.6740    80.8300   110.2030   119.0850 
  173.1250     2.1790   -39.8320   428.0980    57.8130    32.6790    58.8660    97.0690   106.6600 
  173.2500     2.1760   -39.9310   427.6760    59.6700    32.7060    53.9450    86.3090    95.7120 
  173.3750     2.1760   -40.0300   426.9000    62.5430    32.7850    62.0920    78.1680    87.0120 
  173.5000     2.1820   -40.1400   426.7110    64.9310    32.8880    56.4760    72.4010    80.5050 
  173.6250     2.1940   -40.2700   427.2230    66.1850    32.9610    43.3320    69.1640    76.3970 
  173.7500     2.2020   -40.4110   427.2160    66.7470    32.9960    38.7100    68.0410    74.3580 
  173.8750     2.2020   -40.5380   426.4140    65.6900    33.0150    40.6390    69.1520    74.6100 
  174.0000     2.1920   -40.6560   425.6750    62.2160    33.0330    39.9310    72.8550    77.6880 
  174.1250     2.1730   -40.7750   426.1640    58.0900    33.0660    43.0120    80.3290    85.0270 
  174.2500     2.1480   -40.8690   427.5550    56.5640    33.1260    49.8420    91.7360    96.7170 
  174.3750     2.1230   -40.9220   429.0300    58.2970    33.1910    66.7700   107.6450   113.1340 
  174.5000     2.1020   -40.9110   429.7130    60.8050    33.2300    85.6800   128.4130   134.2530 
  174.6250     2.0930   -40.8680   429.1460    59.4100    33.2390   105.2580   154.0340   159.3350 
  174.7500     2.0930   -40.8600   428.1570    55.1250    33.2710   112.8840   180.8520   184.5120 
  174.8750     2.0960   -40.9020   427.0970    51.4860    33.3500   129.2570   204.1030   205.4930 
  175.0000     2.0980   -40.9710   425.8240    50.4520    33.4420   145.9500   218.6130   218.2060 
  175.1250     2.1000   -40.9990   424.1650    50.0240    33.4880   153.4580   219.6930   219.1000 
  175.2500     2.1040   -41.0000   422.4320    50.0840    33.4940   141.2840   211.8850   211.9950 
  175.3750     2.1040   -41.0120   420.8660    51.2540    33.4920   115.2870   200.5090   201.0960 
  175.5000     2.1020   -41.0420   419.5240    54.0540    33.4920    88.1070   190.3500   190.5860 
  175.6250     2.0990   -41.0980   418.4440    56.7480    33.4920    82.0590   184.9440   184.1290 
  175.7500     2.0970   -41.1430   418.0320    58.2230    33.4920    88.7240   184.0240   182.1490 
  175.8750     2.0950   -41.1740   418.6760    57.4120    33.4920   112.7940   186.3480   183.9060 
  176.0000     2.0930   -41.2000   419.8760    53.5080    33.4920   128.3450   189.6580   187.5340 
  176.1250     2.0950   -41.2080   420.4720    51.0220    33.4920   145.8770   190.7370   190.0530 
  176.2500     2.0990   -41.1990   420.2130    52.0370    33.4920   126.2380   188.2330   189.3910 
  176.3750     2.1030   -41.1540   419.8470    54.2310    33.4920   101.7600   182.3600   185.0730 
  176.5000     2.1050   -41.0600   419.9140    56.5840    33.4920    89.6030   174.1920   177.8340 
  176.6250     2.1070   -40.9370   419.6040    59.4290    33.4920    88.9730   164.9660   168.8620 
  176.7500     2.1090   -40.7850   417.9460    60.1920    33.4950    92.0100   156.1250   159.8870 
  176.8750     2.1100   -40.6160   415.0540    57.2660    33.4730    87.7950   148.6950   152.1210 
  177.0000     2.1130   -40.4550   412.5550    53.9540    33.4020    78.8280   143.4690   146.5570 
  177.1250     2.1200   -40.3120   412.7090    55.5440    33.3040    74.9860   141.2430   144.2700 
  177.2500     2.1270   -40.1900   414.7320    57.3790    33.2200    81.7570   141.3800   144.7480 
  177.3750     2.1310   -40.0800   416.8180    55.6440    33.1440   101.3240   143.2690   147.4070 
  177.5000     2.1320   -39.9630   417.4530    51.9040    33.0520   119.4290   146.1790   151.4200 
  177.6250     2.1330   -39.8130   416.6700    50.3480    32.9560   123.7050   149.5220   156.0010 
  177.7500     2.1390   -39.6080   416.0460    51.1730    32.8660   110.3110   152.9150   160.5220 
  177.8750     2.1520   -39.3820   415.9980    52.1240    32.7600   104.8230   156.4460   164.8960 
  178.0000     2.1670   -39.1990   416.1100    51.8580    32.6240   118.9680   160.4460   169.4170 
  178.1250     2.1770   -39.0770   415.2360    50.3420    32.4380   143.8060   164.5650   174.0240 
  178.2500     2.1780   -38.9720   412.2030    50.3450    32.2140   154.6800   165.7490   176.3160 
  178.3750     2.1740   -38.8300   406.4810    53.4610    31.9790   152.4920   158.9200   171.7360 
  178.5000     2.1740   -38.6160   399.0180    57.4770    31.7720   154.4030   140.9420   156.5150 
  178.6250     2.1870   -38.3750   393.1400    58.9670    31.6090   156.2870   115.0970   131.2390 
  178.7500     2.2120   -38.1510   390.5340    59.3310    31.3880   128.4520    91.0170   104.8340 
  178.8750     2.2440   -37.9640   390.2210    61.1780    31.0530    75.6550    73.3930    83.3260 
