~V
VERS. 2.00: Ver 2.00
~W
STRT.M 60.0000:
STOP.M 280.0000:
STEP.M 0.1250:
NULL. -999.2500:
UWI. DF3041:
~C
DEPT.M :
SP.MV :
GR.API :
RML.OHMM :
RI. :
RXO.OHMM :
CALI.CM :
DEN.GM/CC :
~A
# ...
  183.7500   -19.3660    73.4610   125.6440    97.1940   113.3030    24.1390     2.2810 
  183.8750   -19.0720    74.9830   113.4120    85.8670    93.7030    24.1530     2.2900 
  184.0000   -18.7320    76.8980   107.5570    79.8820    90.0340    24.1610     2.2890 
  184.1250   -18.4220    79.0490   106.5230    78.1680    89.8340    24.1620     2.2780 
  184.2500   -18.0910    78.1020   107.6370    78.5920    90.6760    24.1410     2.2650 
  184.3750   -17.7690    74.5910   109.4940    80.0610    95.5630    24.1000     2.2550 
  184.5000   -17.4190    72.1920   111.1030    81.7920   101.0160    24.0730     2.2500 
  184.6250   -17.0990    75.0630   111.8010    83.3240   102.4610    24.0670     2.2530 
  184.7500   -16.7080    79.1890   111.7460    84.6600   102.8470    24.0740     2.2610 
  184.8750   -16.3310    81.3700   111.3440    85.9980   103.7520    24.0850     2.2690 
  185.0000   -15.9550    80.4910   111.1320    87.5470   104.3150    24.0930     2.2770 
  185.1250   -15.5610    78.2820   111.4070    89.2250   103.4660    24.0990     2.2800 
  185.2500   -15.1920    76.3100   111.3540    90.2210   101.7640    24.1160     2.2780 
  185.3750   -14.8410    73.9810   109.3390    89.2080    99.2350    24.1470     2.2720 
  185.5000   -14.5450    72.2120   103.3830    84.6830    97.2220    24.1740     2.2630 
  185.6250   -14.2670    72.5090    91.3680    75.0070    95.2390    24.1940     2.2520 
  185.7500   -14.0620    74.5560    75.2440    61.7940    88.6340    24.1810     2.2460 
  185.8750   -13.8720    77.3640    57.8910    47.3710    74.5680    24.1280     2.2500 
  186.0000   -13.7270    79.6590    42.3740    34.3680    55.8560    24.0820     2.2680 
  186.1250   -13.6290    82.8590    31.1930    25.0580    36.1990    24.0590     2.3030 
  186.2500   -13.5830    87.4090    23.9460    19.0740    20.7950    24.0310     2.3450 
  186.3750   -13.6020    93.0120    20.2790    15.9230    13.9910    24.0170     2.3840 
  186.5000   -13.6350    97.7280    20.0490    15.3260    12.7770    24.0160     2.4100 
  186.6250   -13.6630    98.2900    24.1100    18.0320    14.8220    24.0240     2.4150 
  186.7500   -13.7150    95.1460    31.8820    24.0080    19.7260    24.0510     2.4010 
  186.8750   -13.7340    90.5210    42.4060    32.9700    29.3990    24.1130     2.3760 
  187.0000   -13.7510    87.1140    53.4150    43.3970    45.8850    24.1860     2.3460 
  187.1250   -13.7620    85.5170    60.6790    51.7790    66.9900    24.4120     2.3220 
  187.2500   -13.7540    84.2300    61.7130    55.1490    76.6690    24.5650     2.3100 
  187.3750   -13.7470    83.9920    56.4840    52.6050    69.7570    24.2550     2.3080 
  187.5000   -13.7330    85.2660    47.7450    45.8730    54.7780    23.8700     2.3150 
  187.6250   -13.7190    85.5940    39.4310    38.1980    41.6280    23.7000     2.3250 
  187.7500   -13.6900    84.5180    33.3300    31.8690    35.0190    23.7230     2.3340 
  187.8750   -13.7020    83.9860    29.3260    27.2230    32.5510    23.7380     2.3440 
  188.0000   -13.7450    84.5670    26.7900    23.9540    28.1280    23.8750     2.3540 
  188.1250   -13.8080    86.1400    25.1520    21.7490    21.1520    24.1820     2.3650 
  188.2500   -13.9070    88.8250    23.7690    20.0440    17.4730    24.2490     2.3780 
  188.3750   -14.0060    92.0950    22.3990    18.5760    14.2100    23.6730     2.3910 
  188.5000   -14.1600    94.5500    21.0480    17.2280    12.3520    23.2590     2.4060 
  188.6250   -14.4290    96.0390    20.1350    16.1210    12.6630    23.3280     2.4220 
  188.7500   -14.8500    97.1690    20.2770    15.5780    13.0660    23.5890     2.4340 
  188.8750   -15.3900    96.6030    22.3720    16.4070    12.6620    23.7510     2.4330 
  189.0000   -16.0340    92.5980    28.0080    20.4190    15.6140    23.5470     2.4110 
  189.1250   -16.7560    84.4720    42.4820    32.8140    28.2950    23.2110     2.3660 
  189.2500   -17.5630    74.8930    70.9790    57.6680    54.4640    23.2790     2.3140 
  189.3750   -18.4390    67.2950   119.2000    98.4990   103.6970    23.6180     2.2690 
  189.5000   -19.2990    64.7420   189.2850   155.0520   178.7780    23.8180     2.2380 
  189.6250   -20.1570    66.3940   276.7910   221.1150   257.9010    23.9720     2.2240 
  189.7500   -20.8920    67.9830   361.6390   281.8770   319.1460    24.0340     2.2180 
  189.8750   -21.5410    66.6730   424.8750   326.2270   384.6000    24.0610     2.2170 
  190.0000   -22.0700    62.1910   456.4610   349.6140   433.0210    24.0640     2.2180 
  190.1250   -22.5310    59.8320   456.8400   351.6660   454.7340    24.0670     2.2220 
  190.2500   -22.8700    62.7140   438.3390   339.6510   439.5750    24.0740     2.2270 
  190.3750   -23.1170    67.4130   404.2140   316.0850   393.3290    24.0850     2.2330 
  190.5000   -23.2970    68.1180   358.0390   283.6440   347.7970    24.0940     2.2350 
  190.6250   -23.3810    64.6360   305.6570   245.9060   317.2750    24.1000     2.2360 
  190.7500   -23.3860    62.8850   255.5110   208.5640   292.0290    24.1030     2.2360 
  190.8750   -23.3670    64.7160   212.5520   175.3130   251.0840    24.1050     2.2400 
  191.0000   -23.3400    68.3770   179.1030   148.4320   190.3130    24.1070     2.2460 
  191.1250   -23.2740    68.8900   156.3670   129.5750   138.5910    24.1140     2.2540 
  191.2500   -23.2240    67.3860   140.7330   116.4900   114.2750    24.1310     2.2600 
  191.3750   -23.1640    67.1820   129.9460   107.5620   105.2550    24.1620     2.2620 
  191.5000   -23.1200    69.0750   122.1010   101.2630    99.0870    24.2200     2.2610 
  191.6250   -23.1230    69.5040   116.3590    96.7900    93.7350    24.3070     2.2610 
  191.7500   -23.2180    69.9360   112.5440    93.7990    92.7200    24.3790     2.2640 
  191.8750   -23.3440    73.7750   111.7270    93.0930    86.0820    24.2970     2.2680 
  192.0000   -23.5050    77.3950   115.3710    95.9250    81.8610    24.0410     2.2690 
  192.1250   -23.6530    73.3230   125.7180   104.2740    84.3920    23.9120     2.2630 
  192.2500   -23.8010    67.7510   141.6940   117.3450    93.7990    23.8460     2.2520 
  192.3750   -23.9120    67.0220   161.1720   133.4080   114.9330    23.7820     2.2380 
  192.5000   -24.0230    68.2340   180.0710   149.1530   138.4060    23.7300     2.2270 
  192.6250   -24.1260    65.3040   191.4970   159.1650   148.0080    23.6940     2.2210 
  192.7500   -24.1940    61.8360   192.3230   161.0080   146.9740    23.5990     2.2190 
  192.8750   -24.2220    60.6610   182.7810   154.6920   151.6490    23.5220     2.2220 
  193.0000   -24.1760    60.9810   166.8800   142.9330   142.7410    23.5620     2.2320 
  193.1250   -24.1850    62.1690   150.8590   130.1960   118.4730    23.6780     2.2470 
  193.2500   -24.1640    64.5450   139.1990   120.3660   100.2540    23.7830     2.2640 
  193.3750   -24.2110    65.9270   133.1650   114.9060    90.4860    23.8760     2.2750 
  193.5000   -24.2550    65.3060   132.0120   113.6260    85.3340    23.9630     2.2780 
  193.6250   -24.2860    66.6880   133.4300   115.0210    89.8400    23.9440     2.2700 
  193.7500   -24.2980    69.6490   133.5970   115.9350   100.8040    23.9220     2.2590 
  193.8750   -24.2780    71.3020   130.1510   114.2480   116.7830    23.9460     2.2510 
  194.0000   -24.2680    69.4580   122.5320   109.1280   121.5940    24.0960     2.2500 
  194.1250   -24.2430    66.2310   112.3480   101.3330   107.9490    24.2660     2.2580 
  194.2500   -24.2800    64.3400   103.1200    93.6680    88.9180    24.3860     2.2720 
  194.3750   -24.2980    64.3080    96.9000    88.0710    76.6840    24.4110     2.2850 
  194.5000   -24.3410    66.8100    94.3250    85.4680    76.8530    24.3880     2.2920 
  194.6250   -24.3710    69.9390    95.1070    85.9610    81.0920    24.3360     2.2900 
  194.7500   -24.4350    71.4140    97.3200    87.9280    88.5480    24.2560     2.2820 
  194.8750   -24.6000    70.5320    99.8360    90.3090    94.4540    24.2230     2.2750 
