~V
VERS. 2.00: Ver 2.00
~W
STRT.M 63.0000:
STOP.M 272.0000:
STEP.M 0.1250:
NULL. -999.2500:
UWI. DF3013:
~C
DEPT.M :
DEN.GM/CC :
SP.MV :
AC.US/MT :
GR.API :
CALI.CM :
RXO.OHMM :
RI. :
RML.OHMM :
~A
# ...
  193.0000     2.3210   -15.8230   409.5740    69.6000    24.8610    29.8780    35.4550    38.5180 
  193.1250     2.3310   -15.6120   410.7840    71.9640    24.8110    20.7600    32.9820    35.8790 
  193.2500     2.3460   -15.4030   412.6280    75.8690    24.7670    15.0950    31.0530    34.0960 
  193.3750     2.3600   -15.1910   411.1130    79.9010    24.7430    13.4670    31.2230    34.8160 
  193.5000     2.3660   -14.9720   402.7140    81.5560    24.7160    16.8890    34.9770    39.2250 
  193.6250     2.3570   -14.7420   391.9830    78.0540    24.6660    43.0710    44.6350    49.4280 
  193.7500     2.3370   -14.5100   388.8790    71.5950    24.6310    83.8890    59.5360    65.5670 
  193.8750     2.3230   -14.2860   389.0400    66.2330    24.6600   108.7320    76.4450    85.5040 
  194.0000     2.3370   -14.0740   374.1260    63.3870    24.7500   104.6530    87.6170    99.5680 
  194.1250     2.3990   -13.8660   329.5940    62.1850    24.8430    95.9840    83.0540    92.3490 
  194.2500     2.4900   -13.6490   281.3200    60.2340    24.8850    85.0250    67.9450    73.0330 
  194.3750     2.5820   -13.4170   256.9050    58.7790    24.8900    67.1430    50.6090    53.8340 
  194.5000     2.6410   -13.1690   261.6770    59.5640    24.8930    41.5940    36.4210    39.4880 
  194.6250     2.6520   -12.9170   275.2500    62.7670    24.9180    28.5060    27.1400    30.2970 
  194.7500     2.6460   -12.6720   280.4310    65.8000    24.9520    18.4380    21.0060    24.1140 
  194.8750     2.6440   -12.4450   285.6190    66.8650    24.9770    15.4680    17.0220    20.0340 
  195.0000     2.6400   -12.2490   303.6150    66.7870    24.9720    12.5810    14.5060    17.4520 
  195.1250     2.6170   -12.0990   332.3550    68.4640    24.8920    10.2240    13.1520    16.0840 
  195.2500     2.5850   -11.9840   353.7600    73.3180    24.7600    10.0220    12.4530    15.3990 
  195.3750     2.5620   -11.8940   358.6420    78.7980    24.6500    12.1950    12.1320    15.0870 
  195.5000     2.5520   -11.8160   353.7780    80.4470    24.6310    14.5210    11.9160    14.8270 
  195.6250     2.5380   -11.7330   355.2560    81.2510    24.6900    14.8420    11.4940    14.2440 
  195.7500     2.5130   -11.6340   370.0100    86.2680    24.7350    13.3930    10.7360    13.2260 
  195.8750     2.4840   -11.5090   392.8430    93.1050    24.7580    11.2380     9.6800    11.8630 
  196.0000     2.4660   -11.3550   413.0330    97.8870    24.7860     8.7190     8.5120    10.4330 
  196.1250     2.4640   -11.1650   423.7420    99.4130    24.8350     7.6640     7.5240     9.3410 
  196.2500     2.4750   -10.9530   426.6460    99.8350    24.8740     6.8260     6.8790     8.7550 
  196.3750     2.4960   -10.7230   420.6780    97.2860    24.8710     6.1630     6.6360     8.7200 
  196.5000     2.5280   -10.4760   402.0240    92.6050    24.8050     6.1490     6.7980     9.1960 
  196.6250     2.5550   -10.2230   373.4370    89.7180    24.7320     8.3580     7.3690    10.1190 
  196.7500     2.5600    -9.9740   353.5210    90.3430    24.7300    10.8240     8.1560    11.1680 
  196.8750     2.5430    -9.7380   352.1920    92.6280    24.7360    11.2630     8.9150    11.9810 
  197.0000     2.5220    -9.5090   362.4600    94.9670    24.6510    10.0400     9.3120    12.1550 
  197.1250     2.5210    -9.2730   367.0690    95.4820    24.5260     9.4510     8.9590    11.3320 
  197.2500     2.5380    -9.0320   365.4760    94.5590    24.5140     9.5670     8.0240     9.8770 
  197.3750     2.5510    -8.8020   369.0350    92.0640    24.6100     8.6270     6.8130     8.2450 
  197.5000     2.5370    -8.5950   384.5800    85.8610    24.7200     6.5660     5.6480     6.8390 
  197.6250     2.4870    -8.4150   404.7420    75.2960    24.8400     4.6160     4.7850     5.9580 
  197.7500     2.4250    -8.2470   415.0270    64.5400    25.0040     3.8510     4.2410     5.5500 
  197.8750     2.3740    -8.0920   412.2120    59.9250    25.1600     3.7660     4.0030     5.5220 
  198.0000     2.3500    -7.9700   402.9490    61.3760    25.2130     4.1060     4.0260     5.7270 
  198.1250     2.3600    -7.9290   397.5910    63.2280    25.0990     4.6490     4.2310     5.9690 
  198.2500     2.3820    -7.9800   396.9190    64.4140    24.9310     4.8080     4.4460     6.0820 
  198.3750     2.4010    -8.1190   397.6470    66.6450    24.8350     4.7840     4.5590     6.0130 
  198.5000     2.4170    -8.3280   398.2090    70.7290    24.8560     4.7820     4.5220     5.7930 
  198.6250     2.4350    -8.5880   399.9730    76.1080    24.8850     4.4020     4.3380     5.4880 
  198.7500     2.4500    -8.8620   402.4740    80.3180    24.8220     3.9400     4.0950     5.1830 
  198.8750     2.4510    -9.1340   404.2480    83.6720    24.7410     3.8540     3.8500     4.9290 
  199.0000     2.4420    -9.3900   403.6650    87.4320    24.7380     4.0680     3.6450     4.7720 
  199.1250     2.4310    -9.6240   399.3610    90.0950    24.7630     3.8760     3.5420     4.7910 
  199.2500     2.4230    -9.8490   393.9010    91.1270    24.7070     3.5570     3.5810     5.0140 
  199.3750     2.4170   -10.0860   390.7220    91.8800    24.5830     3.8690     3.8060     5.4770 
  199.5000     2.4160   -10.3530   388.6910    92.8660    24.4600     4.6230     4.2400     6.1950 
  199.6250     2.4280   -10.6510   380.0090    90.0140    24.3580     5.9470     4.8840     7.1350 
  199.7500     2.4430   -10.9480   365.6720    84.6170    24.2470     7.1180     5.5850     8.0610 
  199.8750     2.4490   -11.2080   357.1240    81.7770    24.1360     7.7090     6.1320     8.6890 
  200.0000     2.4370   -11.4050   364.0210    82.0730    24.0400     7.3430     6.3400     8.8100 
  200.1250     2.4110   -11.5370   383.3610    83.5360    23.9590     6.4340     6.1760     8.4680 
  200.2500     2.3860   -11.6440   399.1320    84.8410    23.8940     5.7920     5.9310     8.1150 
  200.3750     2.3690   -11.7600   404.0080    85.5870    23.8640     5.3830     5.8420     8.1180 
  200.5000     2.3600   -11.9080   398.5470    86.5810    23.8780     5.9610     6.1000     8.7390 
  200.6250     2.3590   -12.1060   388.1340    88.2880    23.9030     8.6210     6.9660    10.2640 
  200.7500     2.3550   -12.3530   381.2830    87.9550    23.9110    11.8460     8.4540    12.5610 
  200.8750     2.3440   -12.6500   382.0150    85.6110    23.9010    13.9100    10.4910    15.3960 
  201.0000     2.3290   -12.9930   388.9420    82.0620    23.8910    16.5870    12.7450    18.2270 
  201.1250     2.3230   -13.3670   395.9820    78.8750    23.8960    18.6550    14.5080    20.0800 
  201.2500     2.3280   -13.7430   399.3240    77.5460    23.9060    18.2860    15.4180    20.6900 
  201.3750     2.3390   -14.0910   399.5780    79.0400    23.9140    15.1430    15.5940    20.4350 
  201.5000     2.3420   -14.3970   397.8390    81.6270    23.9420    13.2460    15.4480    20.0230 
  201.6250     2.3310   -14.6550   395.4840    82.0680    24.0440    15.4030    15.4550    20.1700 
  201.7500     2.3200   -14.8830   394.0900    82.1410    24.2010    19.1860    15.9160    21.1280 
  201.8750     2.3160   -15.0980   394.2070    82.8110    24.3710    20.2630    17.0430    23.0660 
  202.0000     2.3160   -15.3160   395.7800    81.3500    24.5300    19.0810    19.0330    26.1490 
  202.1250     2.3090   -15.5410   398.1500    78.1140    24.6650    25.8300    22.2710    30.7790 
  202.2500     2.2930   -15.7630   399.6480    75.9150    24.7510    37.0710    26.6640    36.7900 
  202.3750     2.2760   -15.9740   398.8130    76.2640    24.7800    43.2980    32.0310    43.9180 
  202.5000     2.2620   -16.1710   396.9190    77.9030    24.7790    46.0760    37.8150    51.3880 
  202.6250     2.2510   -16.3510   397.8270    78.3070    24.7770    45.7740    42.7900    57.4260 
  202.7500     2.2430   -16.5280   402.0920    75.9320    24.7780    47.3640    46.1230    61.0130 
  202.8750     2.2370   -16.7140   406.9980    72.6880    24.7770    50.8560    47.9100    62.5580 
