~V
VERS. 2.00: Ver 2.00
~W
STRT.M 62.0000:
STOP.M 282.0000:
STEP.M 0.1250:
NULL. -999.2500:
UWI. DF3054:
~C
DEPT.M :
DEN.GM/CC :
GR.API :
CALI.CM :
RXO.OHMM :
RI. :
RML.OHMM :
SP.MV :
~A
# ...
  264.5000     2.4370    67.8750    25.3300    13.5820    13.0530    14.3850    -5.7970 
  264.6250     2.4310    68.9070    25.3430    14.3790    13.1860    14.5210    -5.8930 
  264.7500     2.4250    70.7460    25.3210    14.5760    13.3530    14.6910    -5.9270 
  264.8750     2.4270    71.8210    25.3230    14.3220    13.5320    14.8800    -5.7970 
  265.0000     2.4460    69.0490    25.3850    14.3800    13.7150    15.0740    -5.5570 
  265.1250     2.4710    64.3760    25.3440    15.0650    13.8930    15.2580    -5.3860 
  265.2500     2.4920    63.1200    25.2210    16.0460    14.0510    15.4250    -5.3720 
  265.3750     2.5090    64.6420    25.1640    16.9770    14.1840    15.5720    -5.4800 
  265.5000     2.5270    65.9370    25.2110    18.4800    14.3050    15.7040    -5.6150 
  265.6250     2.5340    66.4280    25.2210    19.4280    14.4220    15.8270    -5.6700 
  265.7500     2.5200    66.6730    25.1940    19.2480    14.5310    15.9380    -5.6490 
  265.8750     2.4780    66.4670    25.1560    19.2260    14.6160    16.0220    -5.6200 
  266.0000     2.4220    65.7280    25.0850    19.9560    14.6570    16.0600    -5.6640 
  266.1250     2.3890    67.1840    25.0950    19.3180    14.6260    16.0310    -5.8250 
  266.2500     2.3920    69.4530    25.1890    17.6760    14.5440    15.9460    -6.0060 
  266.3750     2.4200    69.1220    25.2480    16.1100    14.4170    15.8110    -6.1040 
  266.5000     2.4530    66.0450    25.2190    14.8750    14.2480    15.6310    -6.0680 
  266.6250     2.4820    64.1610    25.2080    14.4270    14.0360    15.4090    -5.9290 
  266.7500     2.4990    66.1220    25.2060    14.3080    13.8000    15.1640    -5.8110 
  266.8750     2.4980    69.6400    25.2300    14.2830    13.5600    14.9140    -5.7940 
  267.0000     2.4820    71.5450    25.2720    14.2600    13.3310    14.6730    -5.8740 
  267.1250     2.4690    71.2880    25.2670    14.4080    13.1260    14.4500    -5.9200 
  267.2500     2.4670    70.5800    25.2270    14.8210    12.9310    14.2350    -5.8280 
  267.3750     2.4740    70.9140    25.1780    16.2430    12.7250    14.0090    -5.6160 
  267.5000     2.4840    71.2410    25.1450    19.4490    12.4910    13.7580    -5.3780 
  267.6250     2.4910    68.9630    25.0910    19.7730    12.2190    13.4750    -5.2300 
  267.7500     2.4930    65.5160    25.0420    16.5900    11.9390    13.1900    -5.1990 
  267.8750     2.4930    63.8760    24.9740    12.5920    11.6910    12.9390    -5.2400 
  268.0000     2.4970    66.0350    24.9680    10.6430    11.5160    12.7620    -5.2690 
  268.1250     2.5010    68.8150    25.0700    10.8780    11.4640    12.7060    -5.2060 
  268.2500     2.4990    68.5120    25.1500    11.8610    11.5170    12.7580    -5.0840 
  268.3750     2.4940    67.0270    25.1640    13.0130    11.6600    12.9010    -4.9860 
  268.5000     2.4900    67.1980    25.1650    14.3060    11.8630    13.1000    -4.9900 
  268.6250     2.4860    68.7530    25.1770    14.7410    12.0680    13.2970    -5.1000 
  268.7500     2.4830    69.2920    25.1630    14.1000    12.2030    13.4290    -5.1740 
  268.8750     2.4910    69.6820    25.0780    12.7860    12.2350    13.4700    -5.0990 
  269.0000     2.5030    70.1210    24.9650    11.8960    12.1830    13.4340    -4.8690 
  269.1250     2.4940    67.8820    25.0780    11.4540    12.1030    13.3660    -4.6410 
  269.2500     2.4580    65.0130    25.2620    11.5480    12.0570    13.3220    -4.5800 
  269.3750     2.4200    64.4660    25.2950    12.0140    12.0580    13.3090    -4.6740 
  269.5000     2.4130    66.9430    25.2120    12.6980    12.0650    13.2910    -4.7600 
  269.6250     2.4310    69.0440    25.1410    12.7080    11.9840    13.1860    -4.6420 
  269.7500     2.4510    69.3160    25.0850    12.4190    11.7670    12.9540    -4.3950 
  269.8750     2.4610    66.2800    25.0470    12.4770    11.4140    12.5990    -4.1890 
  270.0000     2.4670    60.5400    25.0320    13.8860    10.9880    12.1790    -4.1480 
  270.1250     2.4840    58.7100    25.0250    14.9020    10.6050    11.7940    -4.2700 
  270.2500     2.5060    62.6750    25.0360    14.3780    10.3380    11.5110    -4.3770 
  270.3750     2.5100    67.6000    25.0650    12.9210    10.1950    11.3450    -4.3460 
  270.5000     2.4790    68.4780    25.0890    11.6980    10.1390    11.2690    -4.1930 
  270.6250     2.4420    68.4780    25.0960    10.8040    10.1250    11.2470    -4.1010 
  270.7500     2.4290    68.4780    25.0900     9.8520    10.1190    11.2420    -4.1850 
  270.8750     2.4480    68.4780    25.0720     9.1840    10.1220    11.2460    -4.3650 
  271.0000     2.4780    68.4780    25.0340     9.2920    10.1350    11.2540    -4.4580 
  271.1250     2.4920    68.4780    25.0030    10.3160    10.1390    11.2510    -4.3210 
  271.2500     2.4830    68.4780    24.9720    11.3730    10.1110    11.2180    -4.0910 
  271.3750     2.4630    68.4780    24.9470    12.3600    10.0410    11.1430    -3.9580 
  271.5000     2.4520    68.4780    24.9140    12.9510     9.9290    11.0300    -4.0180 
  271.6250     2.4490    68.4780    24.8890    12.4880     9.7940    10.8940    -4.1760 
  271.7500     2.4420    68.4780    24.8810    11.2400     9.6640    10.7630    -4.2360 
  271.8750     2.4280    68.4780    24.9060    10.2920     9.5610    10.6560    -4.1870 
  272.0000     2.4230    68.4780    24.9420     9.9840     9.4940    10.5820    -4.1730 
  272.1250     2.4320    68.4780    24.9530     9.5960     9.4620    10.5430    -4.2990 
  272.2500     2.4500    68.4780    24.9350     8.6760     9.4450    10.5200    -4.4370 
  272.3750     2.4630    68.4780    24.8840     7.7250     9.4290    10.5010    -4.4840 
  272.5000     2.4670    68.4780    24.8640     7.3140     9.4070    10.4740    -4.4560 
  272.6250     2.4690    68.4780    24.9480     7.3430     9.3610    10.4180    -4.4520 
  272.7500     2.4680    68.4780    25.0430     7.4580     9.2710    10.3160    -4.4770 
  272.8750     2.4600    68.4780    25.0980     7.6030     9.1210    10.1560    -4.4390 
  273.0000     2.4480    68.4780    25.1010     7.8090     8.9090     9.9330    -4.2530 
  273.1250     2.4410    68.4780    25.0940     7.9650     8.6370     9.6490    -3.9810 
  273.2500     2.4380    68.4780    25.1030     8.0490     8.3340     9.3320    -3.8150 
  273.3750     2.4250    68.4780    25.1340     8.0050     8.0220     9.0070    -3.7880 
  273.5000     2.4060    68.4780    25.1940     7.8220     7.7260     8.7040    -3.7530 
  273.6250     2.4020    68.4780    25.3130     7.6400     7.5010     8.4800    -3.5270 
  273.7500     2.4190    68.4780    25.5060     7.5530     7.3880     8.3720    -3.2090 
  273.8750     2.4400    68.4780    25.6350     7.5600     7.4250     8.4100    -2.9880 
  274.0000     2.4460    68.4780    25.4480     7.7690     7.6070     8.5890    -2.9600 
  274.1250     2.4520    68.4780    25.2190     8.8840     7.8940     8.8670    -3.0400 
  274.2500     2.4660    68.4780    25.0980    11.1420     8.1770     9.1390    -3.0260 
  274.3750     2.4750    68.4780    25.0570    13.0910     8.3660     9.3180    -2.8820 
  274.5000     2.4720    68.4780    25.0360    13.3680     8.3950     9.3440    -2.7440 
  274.6250     2.4760    68.4780    25.0320    12.0340     8.2200     9.1750    -2.7770 
  274.7500     2.4920    68.4780    25.0530    10.7690     7.9250     8.8890    -2.8810 
  274.8750     2.4980    68.4780    25.0810     9.4160     7.5940     8.5580    -2.9070 
  275.0000     2.4790    68.4780    25.1220     8.0300     7.2950     8.2530    -2.8160 
  275.1250     2.4610    68.4780    25.1990     7.2040     7.0880     8.0330    -2.6830 
  275.2500     2.4650    68.4780    25.2680     6.6990     6.9650     7.8930    -2.5990 
  275.3750     2.4880    68.4780    25.2710     6.5840     6.9010     7.8140    -2.5930 
  275.5000     2.4990    68.4780    25.2330     6.6700     6.8650     7.7710    -2.6500 
  275.6250     2.4840    68.4780    25.2130     6.7230     6.8410     7.7430    -2.6920 
