~V
VERS. 2.00: Ver 2.00
~W
STRT.M 140.0000:
STOP.M 286.0000:
STEP.M 0.1250:
NULL. -999.2500:
UWI. DF3059:
~C
DEPT.M :
SP.MV :
GR.API :
RML.OHMM :
RI. :
RXO.OHMM :
CALI.CM :
DEN.GM/CC :
~A
# ...
  207.5000   -27.3620    75.5810    76.5360    59.5240    58.5010    25.1950     2.2670 
  207.6250   -26.8520    72.7790    80.4360    62.0250    60.9040    25.1700     2.2580 
  207.7500   -26.3400    71.8610    88.0390    67.5950    62.6140    25.1330     2.2530 
  207.8750   -25.8410    71.1800    98.2960    75.3070    67.8400    25.0780     2.2620 
  208.0000   -25.2500    69.3480   109.2950    83.6050    79.6640    25.0210     2.2920 
  208.1250   -24.6750    67.0120   117.4030    89.6870    98.4360    24.9890     2.3340 
  208.2500   -24.0080    65.5130   119.4910    91.2080   119.9030    24.9800     2.3660 
  208.3750   -23.3780    66.6180   113.0410    86.4340   133.5380    24.9790     2.3790 
  208.5000   -22.6620    69.2550    97.6750    75.0670   111.0840    24.9660     2.3850 
  208.6250   -22.0470    70.0030    75.4400    58.7480    76.7200    24.9160     2.4050 
  208.7500   -21.4480    70.7570    53.1460    42.3900    65.6090    24.8200     2.4460 
  208.8750   -20.9170    74.6200    34.6430    29.0860    55.7920    24.7240     2.4940 
  209.0000   -20.5260    81.4130    21.4840    19.9710    32.3400    24.6540     2.5250 
  209.1250   -20.1690    89.0560    15.3130    14.9550    15.8870    24.6790     2.5240 
  209.2500   -19.9190    96.0200    12.7410    12.1900    11.1180    24.6940     2.5080 
  209.3750   -19.7280    99.6680    11.5600    10.8050    10.1840    24.6910     2.4920 
  209.5000   -19.6840    99.2910    11.1960    10.2680    10.1400    24.6740     2.4810 
  209.6250   -19.6900    98.7100    11.3290    10.3100     9.8720    24.6910     2.4750 
  209.7500   -19.7480    99.1200    11.6680    10.6220     9.3750    24.7010     2.4660 
  209.8750   -19.7690    97.6620    12.1330    11.0840     9.0580    24.6980     2.4570 
  210.0000   -19.8490    93.6860    12.6950    11.6270     9.4870    24.6750     2.4480 
  210.1250   -19.9050    92.0860    13.3080    12.1880    10.1230    24.6250     2.4450 
  210.2500   -19.9770    94.8790    13.8450    12.6500    10.8100    24.5860     2.4470 
  210.3750   -19.9710    98.8170    14.1590    12.8830    11.3220    24.5420     2.4500 
  210.5000   -19.9460   101.0070    14.1350    12.7780    11.8440    24.4300     2.4520 
  210.6250   -19.8730   100.3870    13.7190    12.2730    12.4380    24.3340     2.4510 
  210.7500   -19.7630   100.2050    13.1370    11.5750    12.4520    24.2620     2.4490 
  210.8750   -19.6850   100.5020    12.6380    10.9010    11.6040    24.2280     2.4470 
  211.0000   -19.5190   101.5780    12.4800    10.4730    10.3270    24.1900     2.4440 
  211.1250   -19.4560   102.3400    12.9690    10.5570     9.7280    24.1300     2.4420 
  211.2500   -19.3050    98.8290    14.0820    11.1780    10.4040    24.0320     2.4440 
  211.3750   -19.1730    90.4110    15.7540    12.3420    12.2270    23.9040     2.4560 
  211.5000   -18.9820    83.6000    17.8500    13.9850    14.5490    23.8320     2.4790 
  211.6250   -18.7550    83.9490    20.2790    16.0520    17.3280    23.8410     2.5130 
  211.7500   -18.5030    85.1470    22.9530    18.3830    21.1120    23.8860     2.5490 
  211.8750   -18.1410    83.7370    25.8970    20.9160    24.3830    23.9130     2.5790 
  212.0000   -17.7980    82.5330    29.0190    23.5280    25.1270    23.9520     2.6010 
  212.1250   -17.2870    82.1030    31.7170    25.7490    26.2910    24.0130     2.6160 
  212.2500   -16.8300    81.4730    33.0350    26.8780    29.2050    24.0610     2.6290 
  212.3750   -16.3560    81.2830    32.0480    26.2000    31.7970    24.0780     2.6410 
  212.5000   -15.9180    82.4670    28.4180    23.4150    33.8040    24.0780     2.6480 
  212.6250   -15.4720    81.7180    22.7270    18.9410    33.2360    24.0460     2.6440 
  212.7500   -15.0300    76.5010    16.9830    14.3720    28.2980    23.9690     2.6250 
  212.8750   -14.6610    68.0440    12.4360    10.6740    17.7990    23.8750     2.5930 
  213.0000   -14.3130    59.5120     9.5440     8.1910     8.1450    23.8230     2.5550 
  213.1250   -14.0320    56.0470     8.2800     6.9490     5.7370    23.7620     2.5200 
  213.2500   -13.7600    58.2120     7.8890     6.4510     5.1830    23.7260     2.4960 
  213.3750   -13.5670    65.0980     7.9570     6.4360     5.2280    23.6930     2.4800 
  213.5000   -13.4090    75.1290     8.1750     6.6780     5.2720    23.6630     2.4690 
  213.6250   -13.3910    83.3460     8.3310     6.9890     5.3150    23.6430     2.4590 
  213.7500   -13.3270    88.1520     8.3720     7.2470     5.3480    23.7040     2.4500 
  213.8750   -13.3320    90.3190     8.3430     7.4390     5.3780    23.8330     2.4450 
  214.0000   -13.3060    90.0600     8.3180     7.6020     5.4460    24.0180     2.4460 
  214.1250   -13.3270    87.1290     8.3640     7.7740     5.6860    23.8790     2.4490 
  214.2500   -13.3940    85.3610     8.4750     7.9550     5.9740    23.7360     2.4500 
  214.3750   -13.4480    86.9420     8.6150     8.1090     6.1590    23.5220     2.4460 
  214.5000   -13.5620    88.7410     8.7350     8.1880     6.3450    23.1600     2.4340 
  214.6250   -13.5830    87.6640     8.7910     8.1420     6.6010    23.0520     2.4160 
  214.7500   -13.6990    86.7040     8.7980     8.0040     6.5920    23.3360     2.4000 
  214.8750   -13.7740    87.8120     8.7960     7.8250     6.3820    23.7250     2.3890 
  215.0000   -13.9280    91.3340     8.8240     7.6580     6.3520    23.9620     2.3870 
  215.1250   -14.0950    95.3400     8.8990     7.5370     6.5490    24.0390     2.3940 
  215.2500   -14.2730    98.8630     8.9870     7.4490     6.9020    24.0630     2.4050 
  215.3750   -14.4840   101.0110     9.0620     7.3780     7.2910    24.0510     2.4150 
  215.5000   -14.6550   100.2960     9.1290     7.3250     7.6830    24.0270     2.4190 
  215.6250   -14.9200    96.6290     9.2500     7.3310     8.1520    24.0030     2.4120 
  215.7500   -15.1670    95.3620     9.5110     7.4470     8.1700    24.0380     2.3980 
  215.8750   -15.4650    98.3910    10.0110     7.7420     8.5030    24.0400     2.3770 
  216.0000   -15.7100   100.8870    10.8890     8.3030     9.6970    23.9790     2.3520 
  216.1250   -15.9880    98.0680    12.4960     9.3820    11.9640    23.8820     2.3330 
  216.2500   -16.2540    93.8230    15.0810    11.1940    14.7130    23.8000     2.3260 
  216.3750   -16.5790    89.9220    18.9810    14.0710    17.5300    23.7670     2.3340 
  216.5000   -16.8760    84.5240    24.3880    18.2920    21.5920    23.7570     2.3540 
  216.6250   -17.1980    79.4220    31.2540    24.0450    30.4500    23.7650     2.3720 
  216.7500   -17.5020    79.7170    38.4800    30.4940    43.1930    23.8640     2.3720 
  216.8750   -17.8280    81.7130    44.8860    36.6200    54.0140    24.1790     2.3490 
  217.0000   -18.1640    80.6140    49.3780    41.3330    59.3420    24.5820     2.3070 
  217.1250   -18.4590    76.3180    51.1610    43.6640    60.9960    24.9100     2.2650 
  217.2500   -18.7410    74.7950    51.3850    44.3610    58.6960    25.0860     2.2330 
  217.3750   -18.9090    76.2890    51.3200    44.4360    53.9510    25.1830     2.2150 
  217.5000   -19.1280    77.6570    52.0330    44.8660    50.0710    25.2070     2.2070 
  217.6250   -19.2230    76.8680    54.1430    46.3540    49.7600    25.1670     2.2040 
  217.7500   -19.3270    77.0040    57.1190    48.6700    51.3150    25.1410     2.2040 
  217.8750   -19.4080    78.8720    60.3300    51.3910    54.9340    25.1700     2.2080 
  218.0000   -19.4460    79.1900    63.2080    54.0600    61.7630    25.2390     2.2160 
  218.1250   -19.4960    75.9760    65.5550    56.4510    67.5060    25.3270     2.2260 
  218.2500   -19.5100    73.4310    67.9570    58.9140    69.6310    25.4220     2.2350 
  218.3750   -19.5880    75.0590    71.1190    61.9790    67.1630    25.5340     2.2400 
  218.5000   -19.5800    78.5910    75.4960    66.0570    64.9190    25.6250     2.2390 
  218.6250   -19.6200    78.8590    80.9120    71.1180    72.1800    25.6700     2.2310 
