~V
VERS. 2.00: Ver 2.00
~W
STRT.M 100.0000:
STOP.M 258.0000:
STEP.M 0.1250:
NULL. -999.2500:
UWI. DF3025:
~C
DEPT.M :
AC.US/MT :
DEN.GM/CC :
GR.API :
CALI.CM :
RXO.OHMM :
RI. :
RML.OHMM :
SP.MV :
~A
# ...
  250.0000   264.9740     2.5090    67.3240    24.3630    17.4170    13.6450    14.1720   -16.7060 
  250.1250   269.8360     2.5140    67.3240    24.3540    16.6210    13.2580    13.6930   -16.7580 
  250.2500   273.4090     2.5170    67.3240    24.3650    15.7270    12.9350    13.3470   -16.8280 
  250.3750   273.2660     2.5140    67.3240    24.3540    14.8910    12.7040    13.1380   -16.9230 
  250.5000   270.9690     2.4980    67.3240    24.3130    14.0820    12.5710    13.0410   -17.0160 
  250.6250   269.2130     2.4750    67.3240    24.3160    14.0700    12.5300    13.0300   -17.0810 
  250.7500   269.7970     2.4640    67.3240    24.3730    14.3060    12.5340    13.0600   -17.1430 
  250.8750   272.2260     2.4730    67.3240    24.4310    14.4880    12.5520    13.1140   -17.2320 
  251.0000   273.9670     2.4840    67.3240    24.4610    14.0450    12.5550    13.1820   -17.3580 
  251.1250   273.1720     2.4840    67.3240    24.4570    13.0920    12.5330    13.2420   -17.4900 
  251.2500   269.7640     2.4780    67.3240    24.4230    13.9220    12.5050    13.2770   -17.5680 
  251.3750   265.3330     2.4740    67.3240    24.3870    15.6540    12.4900    13.2770   -17.5730 
  251.5000   262.4770     2.4720    67.3240    24.3720    15.8120    12.4990    13.2470   -17.5130 
  251.6250   262.1970     2.4760    67.3240    24.3480    15.3760    12.5250    13.1960   -17.3820 
  251.7500   263.5630     2.4880    67.3240    24.3170    14.0640    12.5530    13.1440   -17.1930 
  251.8750   264.7510     2.5070    67.3240    24.3220    13.6760    12.5720    13.1050   -16.9660 
  252.0000   264.5190     2.5230    67.3240    24.3520    13.9280    12.5820    13.0930   -16.7660 
  252.1250   261.9200     2.5340    67.3240    24.3540    12.5040    12.5870    13.1180   -16.6900 
  252.2500   256.7930     2.5390    67.3240    24.3510    11.3650    12.5890    13.1640   -16.7250 
  252.3750   250.8010     2.5390    67.3240    24.3710    12.9900    12.5870    13.2150   -16.8080 
  252.5000   246.6570     2.5330    67.3240    24.3930    17.0310    12.5850    13.2520   -16.8660 
  252.6250   245.3840     2.5270    67.3240    24.3970    19.2960    12.5880    13.2650   -16.8570 
  252.7500   246.2760     2.5220    67.3240    24.3930    18.9660    12.5970    13.2650   -16.8370 
  252.8750   247.5800     2.5210    67.3240    24.3900    18.9930    12.6070    13.2600   -16.8760 
  253.0000   247.8750     2.5180    67.3240    24.3880    20.2860    12.6110    13.2550   -17.0160 
  253.1250   246.9030     2.5120    67.3240    24.3910    20.7520    12.6080    13.2500   -17.2190 
  253.2500   246.0010     2.5120    67.3240    24.3900    19.4640    12.6080    13.2500   -17.3890 
  253.3750   247.6310     2.5230    67.3240    24.3830    18.4330    12.6080    13.2500   -17.4820 
  253.5000   250.8870     2.5380    67.3240    24.3760    17.5910    12.6080    13.2500   -17.4900 
  253.6250   253.4220     2.5410    67.3240    24.3670    18.5590    12.6080    13.2500   -17.4450 
  253.7500   253.6640     2.5270    67.3240    24.3510    19.9680    12.6080    13.2500   -17.3960 
  253.8750   252.3210     2.5050    67.3240    24.3480    20.9420    12.6080    13.2500   -17.3630 
  254.0000   251.2030     2.4930    67.3240    24.3720    20.0010    12.6080    13.2500   -17.3640 
  254.1250   250.3700     2.4930    67.3240    24.3890    18.3700    12.6080    13.2500   -17.4270 
  254.2500   249.9830     2.4970    67.3240    24.3700    17.1620    12.6080    13.2500   -17.5310 
  254.3750   249.7910     2.4950    67.3240    24.3400    16.5110    12.6080    13.2500   -17.6240 
  254.5000   249.5700     2.4960    67.3240    24.3040    15.4440    12.6080    13.2500   -17.6440 
  254.6250   249.2660     2.5080    67.3240    24.2540    13.8870    12.6080    13.2500   -17.6440 
  254.7500   249.1350     2.4670    67.3240    24.2340    12.6840    12.6080    13.2500  -999.2500 
  254.8750   249.4610     2.2360    67.3240    24.2550    12.6770    12.6080    13.2500  -999.2500 
  255.0000   249.8350     1.8830    67.3240    24.3310    13.3610    12.6080    13.2500  -999.2500 
  255.1250   249.9030     1.5880    67.3240    24.0820    12.5300    12.6080    13.2500  -999.2500 
  255.2500   249.7420     1.4670    67.3240    22.6330     9.3770    12.6080    13.2500  -999.2500 
  255.3750   249.7120     1.4810    67.3240    19.9480     6.2580    12.6080    13.2500  -999.2500 
  255.5000   249.8460     1.5040    67.3240    17.2780     5.2310    12.6080    13.2500  -999.2500 
  255.6250   249.8680     1.5110    67.3240    16.1650     5.1180    12.6080    13.2500  -999.2500 
  255.7500   249.8830     1.5110    67.3240    16.0840     5.1110    12.6080    13.2500  -999.2500 
  255.8750   250.1360     1.5120    67.3240    16.1480     5.1090    12.6080    13.2500  -999.2500 
  256.0000   250.2820     1.5090    67.3240    16.1450     5.1080    12.6080    13.2500  -999.2500 
  256.1250   249.8660     1.5030    67.3240    16.1450     5.1070    12.6080    13.2500  -999.2500 
  256.2500   249.1670     1.5020    67.3240    16.1450     5.1080    12.6080    13.2500  -999.2500 
  256.3750   249.2190     1.5080    67.3240    16.1440     5.1090    12.6080    13.2500  -999.2500 
  256.5000   249.6490     1.5130    67.3240    16.1420     5.1090    12.6080    13.2500  -999.2500 
  256.6250   249.7870     1.5320    67.3240    16.1380     5.1090    12.6080    13.2500  -999.2500 
  256.7500   249.6830     1.5470    67.3240    16.1330     5.1090    12.6080    13.2500  -999.2500 
  256.8750   249.6850     1.2940    67.3240    16.1290     5.1090    12.6080    13.2500  -999.2500 
  257.0000   249.6660     0.7560    67.3240    16.1280     5.1090    12.6080    13.2500  -999.2500 
  257.1250   249.6160     0.2190    67.3240    16.1280     5.1080    12.6080    13.2500  -999.2500 
  257.2500   249.8970    -0.0310    67.3240    16.1280     5.1060    12.6080    13.2500  -999.2500 
  257.3750   250.3080    -0.0140    67.3240    16.1280     5.1040    12.6080    13.2500  -999.2500 
  257.5000   250.3030  -999.2500    67.3240    16.1280     5.1020    12.6080    13.2500  -999.2500 
  257.6250   250.1950  -999.2500    67.3240    16.1280     5.1020    12.6080    13.2500  -999.2500 
  257.7500  -999.2500  -999.2500    67.3240    16.1280     5.1010    12.6080    13.2500  -999.2500 
  257.8750  -999.2500  -999.2500    67.3240    16.1280     5.1010    12.6080    13.2500  -999.2500 
  258.0000  -999.2500  -999.2500    67.3240    16.1290     5.1000    12.6080    13.2500  -999.2500 
