~V
VERS. 2.00: Ver 2.00
~W
STRT.M 130.0000:
STOP.M 279.0000:
STEP.M 0.1250:
NULL. -999.2500:
UWI. DF307:
~C
DEPT.M :
DEN.GM/CC :
AC.US/MT :
GR.API :
CALI.CM :
RXO.OHMM :
RI. :
RML.OHMM :
SP.MV :
~A
# ...
  160.0000     2.3580   331.3000    85.5230    25.1740    10.6900    13.5730    13.9270   -15.1700 
  160.1250     2.4110   314.7530    83.2410    24.6520     8.8480    11.4550    12.0630   -14.9450 
  160.2500     2.4430   305.2800    77.2150    24.3050     9.8060    10.5510    11.5670   -14.7840 
  160.3750     2.4420   310.3980    74.6760    24.1220    11.9730    10.4360    11.9020   -14.6930 
  160.5000     2.4020   332.2300    79.2350    24.0910    13.3300    10.6820    12.4650   -14.6620 
  160.6250     2.3410   362.9990    85.7160    24.2840    12.2480    10.7350    12.4440   -14.7120 
  160.7500     2.2900   388.5280    88.7690    24.6150    10.0670    10.2840    11.5780   -14.8390 
  160.8750     2.2660   404.2380    87.9250    24.9360     8.3700     9.3930    10.1550   -15.0180 
  161.0000     2.2650   412.3340    85.4450    25.1230     7.7350     8.3390     8.6700   -15.2170 
  161.1250     2.2790   415.2920    86.0710    25.1440     7.5270     7.4250     7.5280   -15.4400 
  161.2500     2.2960   415.6420    90.0700    25.0150     6.9280     6.7860     6.8120   -15.6530 
  161.3750     2.3030   415.6110    91.9650    24.6600     6.1160     6.4850     6.5630   -15.8430 
  161.5000     2.2900   416.6830    89.6220    24.1300     5.7300     6.5410     6.7920   -15.9990 
  161.6250     2.2570   418.5140    86.3190    23.7140     6.3290     6.9710     7.4950   -16.0490 
  161.7500     2.2250   418.7290    85.0960    23.5520     7.5200     7.5760     8.3680   -15.9540 
  161.8750     2.2110   415.7330    85.8410    23.5370     8.4720     8.0850     8.9890   -15.7500 
  162.0000     2.2210   410.0020    88.8360    23.5910     8.4060     8.1570     8.8970   -15.4860 
  162.1250     2.2610   404.3910    95.7660    23.9040     7.3280     7.5380     7.8680   -15.1590 
  162.2500     2.3140   401.2670   102.9410    24.5200     6.1680     6.5680     6.5060   -14.7950 
  162.3750     2.3620   400.1020   106.7910    25.1450     5.2820     5.5820     5.2810   -14.4270 
  162.5000     2.3920   398.4010   107.7010    25.3900     4.7170     4.8000     4.4260   -14.1030 
  162.6250     2.3940   393.5100   108.0430    25.1690     4.5150     4.3460     4.0290   -13.8880 
  162.7500     2.3820   386.5030   107.8850    24.8980     4.5580     4.1510     3.9510   -13.8000 
  162.8750     2.3670   379.7200   107.4770    24.7690     4.7290     4.1670     4.1240   -13.8300 
  163.0000     2.3610   375.3580   106.6100    24.6850     4.9640     4.3470     4.4800   -13.9410 
  163.1250     2.3640   375.1560   104.9180    24.5180     5.2820     4.6500     4.9440   -14.1250 
  163.2500     2.3600   378.3060   102.0790    24.4240     5.6350     4.9930     5.3970   -14.3550 
  163.3750     2.3430   383.7610    97.9540    24.6180     5.9410     5.3210     5.7660   -14.6100 
  163.5000     2.3150   389.9390    92.1770    25.0950     6.1600     5.6030     6.0250   -14.8670 
  163.6250     2.2840   394.1620    87.0840    25.5350     6.3320     5.8330     6.2050   -15.1110 
  163.7500     2.2550   394.3450    86.3890    25.7210     6.5010     6.0580     6.4160   -15.3280 
  163.8750     2.2360   389.7470    87.2680    25.7200     6.6800     6.3340     6.7600   -15.4950 
  164.0000     2.2290   381.6910    85.5820    25.6740     6.9520     6.7260     7.3330   -15.6060 
  164.1250     2.2260   373.5610    83.9070    25.6510     7.4750     7.2970     8.2010   -15.6360 
  164.2500     2.2170   368.7110    84.1300    25.6450     8.2070     7.9650     9.1950   -15.6230 
  164.3750     2.2040   368.5300    84.5110    25.6580     9.1330     8.5570    10.0420   -15.5620 
  164.5000     2.1990   372.3540    87.1650    25.6890    10.2330     8.8440    10.4040   -15.4440 
  164.6250     2.2150   377.0650    95.2200    25.7050    10.7440     8.5880     9.9610   -15.2890 
  164.7500     2.2470   378.0930   102.0020    25.6470     9.9050     7.9610     9.0130   -15.1450 
  164.8750     2.2800   371.8320   101.1510    25.4980     8.1480     7.2160     7.9680   -15.0200 
  165.0000     2.3020   356.9080    94.2090    25.3160     6.7250     6.6110     7.2150   -14.9010 
  165.1250     2.3170   335.9060    90.0960    25.1930     6.4780     6.4000     7.1170   -14.8140 
  165.2500     2.3470   313.2870    91.1810    25.1250     6.9540     6.6590     7.7410   -14.7500 
  165.3750     2.4000   289.2940    92.6610    25.0640     8.5750     7.4820     9.1940   -14.7110 
  165.5000     2.4660   264.3780    89.5700    24.9860    11.3770     8.9700    11.5740   -14.6920 
  165.6250     2.5270   243.8150    79.0570    24.9150    15.2240    11.3080    15.0370   -14.6850 
  165.7500     2.5720   232.2690    67.4590    24.8660    18.8370    14.2500    19.1360   -14.6640 
  165.8750     2.5970   229.6790    60.1350    24.8330    21.5500    17.4030    23.2270   -14.6380 
  166.0000     2.6070   232.5970    59.2060    24.8010    23.2570    20.1500    26.4300   -14.6190 
  166.1250     2.6040   235.8440    63.2760    24.7620    23.1820    21.7190    27.7920   -14.6110 
  166.2500     2.5980   235.8890    66.9540    24.7240    21.6270    22.1790    27.7060   -14.5770 
  166.3750     2.5950   232.9210    69.1790    24.6850    19.8580    21.8750    26.8360   -14.5230 
  166.5000     2.5970   229.3740    70.4420    24.6380    18.9030    21.2340    25.8150   -14.4740 
  166.6250     2.5990   228.5740    71.7730    24.5550    18.5140    20.5630    25.0090   -14.4260 
  166.7500     2.5940   230.9080    73.1950    24.4450    18.0840    20.0050    24.4520   -14.3740 
  166.8750     2.5840   234.9880    73.5510    24.3320    17.6600    19.6030    24.1020   -14.3220 
  167.0000     2.5690   238.8930    72.0760    24.2530    17.3150    19.3330    23.8550   -14.2740 
  167.1250     2.5560   241.0110    69.1500    24.2420    17.0940    19.1360    23.6120   -14.2200 
  167.2500     2.5500   241.2110    66.9470    24.2670    17.1820    18.9830    23.3860   -14.2030 
  167.3750     2.5530   239.6020    68.1130    24.2930    17.4360    18.9140    23.2560   -14.2150 
  167.5000     2.5570   236.6210    71.6090    24.2760    17.3660    18.9700    23.2740   -14.2310 
  167.6250     2.5540   233.3420    73.2580    24.1610    17.1040    19.1660    23.4510   -14.2530 
  167.7500     2.5470   231.3090    72.1580    23.9730    17.4560    19.4270    23.6850   -14.2890 
  167.8750     2.5470   231.4400    69.7860    23.7900    18.2340    19.6580    23.8520   -14.3370 
  168.0000     2.5550   233.6490    68.6610    23.6830    18.3770    19.7620    23.8420   -14.3850 
  168.1250     2.5630   236.7410    68.6870    23.6520    17.4710    19.6620    23.5970   -14.4360 
  168.2500     2.5650   239.0700    69.6670    23.6470    16.7110    19.4350    23.2480   -14.4760 
  168.3750     2.5610   240.1300    71.6040    23.6600    16.6990    19.1610    22.9070   -14.5140 
  168.5000     2.5550   240.4100    73.0790    23.6870    17.0190    18.9010    22.6400   -14.5510 
  168.6250     2.5520   241.0720    72.0210    23.7000    16.8310    18.6630    22.4250   -14.5820 
  168.7500     2.5510   242.7780    69.8860    23.6840    16.1100    18.3860    22.1400   -14.6070 
  168.8750     2.5510   245.4920    68.7830    23.6570    15.2130    18.0000    21.6780   -14.6250 
  169.0000     2.5450   248.7500    68.8050    23.6470    14.3610    17.4820    21.0110   -14.6410 
  169.1250     2.5360   251.7830    69.6180    23.6550    13.6230    16.8790    20.2280   -14.6640 
  169.2500     2.5390   254.0510    70.8870    23.6570    13.0760    16.3160    19.5140   -14.6640 
  169.3750     2.5560   255.3700    71.3500    23.6450    12.8160    15.8830    18.9980   -14.6450 
  169.5000     2.5700   255.7540    68.8130    23.6420    12.8650    15.6530    18.7690   -14.6280 
  169.6250     2.5640   255.2590    65.1630    23.6550    13.1960    15.7000    18.8970   -14.6160 
  169.7500     2.5510   254.5900    63.5050    23.6580    13.6870    15.9230    19.2190   -14.5870 
  169.8750     2.5400   254.6600    63.6120    23.6450    14.2690    16.1750    19.5230   -14.5330 
