~V
VERS. 2.00: Ver 2.00
~W
STRT.M 60.0000:
STOP.M 232.0000:
STEP.M 0.1250:
NULL. -999.2500:
UWI. DF3065:
~C
DEPT.M :
GR.API :
CALI.CM :
RXO.OHMM :
RI. :
RML.OHMM :
DEN.GM/CC :
SP.MV :
~A
# ...
  150.0000    73.1590    25.0470   118.4640    99.2120   126.3220     2.2270   -24.5140 
  150.1250    70.4830    25.0590   121.7990   101.2320   129.2650     2.2250   -24.5100 
  150.2500    67.2440    25.0740   121.8200   104.5960   133.8600     2.2330   -24.5020 
  150.3750    65.8770    25.0500   124.1790   110.1110   140.5650     2.2470   -24.5220 
  150.5000    64.5400    25.0670   137.0280   117.9280   149.2640     2.2580   -24.5190 
  150.6250    61.3360    25.0750   161.0560   126.6860   158.2070     2.2600   -24.5100 
  150.7500    61.1900    25.0940   188.0440   133.8220   164.5300     2.2480   -24.4870 
  150.8750    64.1360    25.0700   221.5120   137.7400   166.0020     2.2320   -24.4790 
  151.0000    65.1580    25.0270   238.5700   137.2980   161.5550     2.2270   -24.4900 
  151.1250    65.4030    24.8140   208.4230   130.9160   149.8430     2.2410   -24.4980 
  151.2500    68.3200    24.7770   146.3010   119.7370   133.6030     2.2680   -24.5200 
  151.3750    71.5820    24.4690    91.8220   104.8310   114.9550     2.2910   -24.5040 
  151.5000    72.4380    24.1810    73.0090    88.2940    96.0230     2.3090   -24.4920 
  151.6250    72.9160    24.1540    78.1220    72.0450    78.4010     2.3260   -24.4910 
  151.7500    76.5570    24.1480    77.5380    57.3390    62.6760     2.3430   -24.4930 
  151.8750    81.8910    24.1710    55.8960    44.7290    49.2230     2.3520   -24.4880 
  152.0000    86.4270    24.1560    31.4340    34.8030    38.5310     2.3520   -24.4660 
  152.1250    87.9640    24.2440    20.9540    28.3370    31.4630     2.3480   -24.4550 
  152.2500    88.0660    24.2670    16.8110    24.5180    27.4430     2.3460   -24.4290 
  152.3750    89.2610    24.1980    16.6820    23.0300    26.4610     2.3550   -24.4030 
  152.5000    89.1470    24.1340    18.3620    23.9140    28.8200     2.3720   -24.4050 
  152.6250    82.8320    24.1540    28.0160    27.8300    35.0910     2.3850   -24.4120 
  152.7500    75.9770    24.2100    58.7610    34.4270    44.4210     2.3720   -24.4500 
  152.8750    73.1970    24.3030    95.4060    43.5450    56.1240     2.3390   -24.4880 
  153.0000    73.1920    24.4120   103.6290    54.6680    69.1930     2.3070   -24.5310 
  153.1250    71.8350    24.5720    90.3050    66.1630    81.8130     2.2870   -24.5650 
  153.2500    70.2490    24.8620    79.0020    75.8320    92.3520     2.2770   -24.5810 
  153.3750    69.3670    25.0280    77.5330    82.7860   100.0530     2.2690   -24.5950 
  153.5000    67.9780    25.0520    80.8250    87.0800   105.0980     2.2620   -24.5860 
  153.6250    66.2240    25.0550    90.2730    90.0580   108.9850     2.2560   -24.5770 
  153.7500    64.8690    25.0830    97.4300    93.6220   114.1930     2.2490   -24.5680 
  153.8750    64.5070    25.1150    99.1800    98.5970   121.5510     2.2450   -24.5920 
  154.0000    64.6640    25.0810   108.4290   104.3640   130.2760     2.2450   -24.6300 
  154.1250    66.3580    25.0740   129.3820   109.9640   138.5140     2.2440   -24.7110 
  154.2500    67.7920    25.0720   142.1820   114.7060   144.8870     2.2390   -24.8470 
  154.3750    67.1990    25.0710   141.5510   118.0420   148.9650     2.2340   -24.9890 
  154.5000    65.4950    25.0690   141.0860   119.6430   150.6880     2.2380   -25.1670 
  154.6250    64.1720    25.0540   142.3370   119.5900   150.5970     2.2470   -25.3520 
  154.7500    63.8760    25.0640   139.1220   118.9330   150.1230     2.2520   -25.5390 
  154.8750    63.9780    25.0610   138.8550   118.4720   150.1350     2.2490   -25.7080 
  155.0000    65.3820    25.0230   131.4660   119.1790   151.9930     2.2430   -25.8550 
  155.1250    68.9810    24.9570   117.4930   122.8990   157.9490     2.2420   -25.9490 
  155.2500    72.1630    24.8940   115.0160   130.3330   168.4200     2.2480   -26.0210 
  155.3750    75.1340    24.9530   137.0350   141.4560   182.7550     2.2540   -26.0710 
  155.5000    76.7390    24.7790   168.8920   155.3040   199.2360     2.2550   -26.0390 
  155.6250    74.8040    24.8090   214.0140   169.1420   214.0240     2.2510   -25.9920 
  155.7500    71.5100    24.9100   272.8880   178.6240   221.2320     2.2350   -25.8790 
  155.8750    68.1280    24.9920   316.4220   178.6130   215.0240     2.2100   -25.7360 
  156.0000    64.6440    25.0150   299.0970   166.2210   193.8360     2.1870   -25.5790 
  156.1250    62.0780    25.0630   243.1490   143.3310   162.6770     2.1790   -25.4190 
  156.2500    62.9600    25.1130   176.0800   118.1710   131.7100     2.1890   -25.2600 
  156.3750    68.4970    25.1710   116.5880    95.5870   105.9150     2.2040   -25.1260 
  156.5000    76.9340    25.3010    63.9110    78.4580    87.5180     2.2170   -25.0330 
  156.6250    82.1060    25.2410    32.8460    68.6570    77.8990     2.2330   -24.9670 
  156.7500    79.8910    24.9520    31.8970    64.3340    74.3450     2.2580   -24.9720 
  156.8750    72.6950    24.7460    52.0240    64.3070    75.4250     2.2820   -25.0530 
  157.0000    68.7960    24.4360    72.7240    67.3310    79.6030     2.2890   -25.1930 
  157.1250    70.3060    24.1950    82.2240    72.0790    85.6630     2.2730   -25.3700 
  157.2500    72.1360    24.1970    82.3310    77.3290    92.2760     2.2450   -25.6250 
  157.3750    72.3580    24.1520    77.8040    82.7070    99.1380     2.2280   -25.9340 
  157.5000    73.2040    24.1450    73.7840    87.8930   106.1270     2.2270   -26.2710 
  157.6250    74.8980    24.1480    81.8810    92.8380   113.2120     2.2330   -26.6020 
  157.7500    73.3160    24.1590   102.9200    98.0860   121.0070     2.2300   -26.9310 
  157.8750    69.4280    24.1980   131.1420   103.8230   129.6850     2.2200   -27.2210 
  158.0000    66.9910    24.2920   141.7080   109.6390   138.3460     2.2090   -27.4880 
  158.1250    67.3020    24.4280   130.4480   114.6340   145.8100     2.2020   -27.7490 
  158.2500    68.1210    24.4490   119.5710   118.4100   151.4680     2.2020   -27.9520 
  158.3750    68.6740    24.4540   120.0360   120.8620   155.0650     2.2040   -28.0970 
  158.5000    69.3690    24.4710   127.7130   122.1580   156.8770     2.2060   -28.2000 
  158.6250    70.7710    24.5650   132.8770   122.4140   157.4050     2.2050   -28.2610 
  158.7500    72.5610    24.7460   131.3330   122.0980   157.3910     2.2010   -28.2600 
  158.8750    73.0210    24.8060   120.5450   121.5780   157.0870     2.2030   -28.2000 
  159.0000    70.6050    24.6300   106.2780   120.7190   156.3060     2.2100   -28.0860 
  159.1250    67.6780    24.5080   100.3320   119.1940   154.5660     2.2180   -27.9260 
  159.2500    65.5860    24.5610   101.0700   117.3680   152.2290     2.2210   -27.7430 
  159.3750    63.8820    24.5940   103.6530   115.1110   149.2890     2.2270   -27.5690 
  159.5000    63.8290    24.7200   107.0220   111.9530   145.0920     2.2350   -27.4230 
  159.6250    68.4900    24.7820   112.8820   107.6070   139.1100     2.2380   -27.3100 
  159.7500    75.0490    24.8090   118.7130   102.5710   132.3480     2.2280   -27.2590 
  159.8750    78.2490    24.9290   112.1500    97.3180   125.4870     2.2180   -27.2820 
  160.0000    75.3010    24.9810    91.3750    92.6010   119.6110     2.2150   -27.3690 
  160.1250    69.5030    24.9520    70.6650    90.1370   116.9880     2.2200   -27.4930 
  160.2500    66.7050    24.9490    69.2820    90.7800   118.2820     2.2260   -27.6710 
  160.3750    67.0060    25.0480    95.5970    94.6690   123.4180     2.2310   -27.8620 
  160.5000    66.9520    25.0640   134.2780   101.3900   131.6850     2.2370   -28.0520 
  160.6250    66.0100    25.0650   153.1970   110.0120   141.5220     2.2410   -28.2370 
  160.7500    65.0330    25.0560   152.0890   118.5710   150.6320     2.2390   -28.3620 
  160.8750    64.7350    25.0650   147.1320   125.7370   157.2890     2.2350   -28.4170 
  161.0000    66.5310    25.0650   146.5040   130.3980   160.4890     2.2310   -28.4400 
  161.1250    68.2890    25.0700   137.4220   131.2750   159.0160     2.2280   -28.4440 
