~V
VERS. 2.00: Ver 2.00
~W
STRT.M 64.0000:
STOP.M 259.0000:
STEP.M 0.1250:
NULL. -999.2500:
UWI. DF3067:
~C
DEPT.M :
DEN.GM/CC :
GR.API :
CALI.CM :
RXO.OHMM :
RI. :
RML.OHMM :
SP.MV :
~A
# ...
  199.0000     2.1990    63.5520    24.1170   130.4420   208.1280   213.6420   -42.7700 
  199.1250     2.1880    65.6340    24.0830   127.8440   210.4590   219.5980   -42.7060 
  199.2500     2.1810    68.3490    24.0740   123.9480   208.4060   221.2470   -42.6630 
  199.3750     2.1770    68.5060    24.0760   121.3790   202.7260   219.1120   -42.6230 
  199.5000     2.1740    67.0890    24.0760   119.5710   192.6850   212.6370   -42.5620 
  199.6250     2.1710    67.2160    24.0760   117.8550   175.1040   198.6180   -42.4710 
  199.7500     2.1710    67.6500    24.0760   118.4500   151.0800   177.0240   -42.3560 
  199.8750     2.1720    66.3230    24.0760   117.8170   124.2830   150.1530   -42.2320 
  200.0000     2.1840    65.6940    24.0760   109.1080    99.6240   122.7340   -42.1040 
  200.1250     2.1930    66.5010    24.0760    87.0370    81.4720   100.4110   -41.9780 
  200.2500     2.2020    66.1720    24.0760    64.1230    69.5920    84.7220   -41.8580 
  200.3750     2.2120    66.2010    24.0760    54.1480    63.3780    75.6510   -41.7610 
  200.5000     2.2220    67.5710    24.0760    55.2490    62.1010    72.5490   -41.6940 
  200.6250     2.2270    68.4660    24.0760    57.3980    65.9610    75.7500   -41.6530 
  200.7500     2.2230    68.4300    24.0760    62.5060    73.8850    84.0320   -41.6310 
  200.8750     2.2110    69.8060    24.0760    70.7180    85.3750    96.8800   -41.6270 
  201.0000     2.1940    72.2610    24.0740    86.5700    99.1100   112.7450   -41.6350 
  201.1250     2.1800    71.0820    24.0720   104.5740   111.4760   127.3850   -41.6610 
  201.2500     2.1790    67.7040    24.0720   113.0920   118.2980   135.8670   -41.7050 
  201.3750     2.1900    66.5110    24.0740   109.7050   117.9560   136.0690   -41.7720 
  201.5000     2.2050    67.7130    24.0760   102.0100   112.6310   129.9080   -41.8430 
  201.6250     2.2160    68.5770    24.0760    86.6370   107.1110   122.3250   -41.8940 
  201.7500     2.2180    69.0320    24.0760    73.0860   105.1880   118.1960   -41.9030 
  201.8750     2.2140    70.0510    24.0760    77.3920   108.2120   119.6350   -41.8680 
  202.0000     2.2080    70.1770    24.0750    96.7130   116.0500   126.8420   -41.8110 
  202.1250     2.2060    66.9960    24.0780   109.5620   127.5050   138.7840   -41.7760 
  202.2500     2.2040    64.1900    24.0890   111.2450   138.5280   151.2060   -41.7750 
  202.3750     2.2010    63.9890    24.0750   108.3870   144.3090   159.2420   -41.8120 
  202.5000     2.1970    65.4800    24.0250   106.3930   140.2660   157.9050   -41.8600 
  202.6250     2.1990    66.2330    23.9500    98.1400   124.5120   143.8550   -41.8970 
  202.7500     2.2100    65.0600    23.8070    85.1210   104.3460   123.2870   -41.9060 
  202.8750     2.2210    64.7140    23.5890    69.5650    85.6130   102.1910   -41.8900 
  203.0000     2.2230    66.5080    23.3820    52.6160    71.8660    85.1860   -41.8520 
  203.1250     2.2130    70.0400    23.3090    42.6390    65.1430    75.5710   -41.8100 
  203.2500     2.2020    72.1340    23.3160    40.0340    63.8870    72.3070   -41.7840 
  203.3750     2.1990    71.2470    23.3230    48.0720    67.1990    74.5850   -41.7950 
  203.5000     2.2020    68.1190    23.3240    56.6120    74.0340    81.3040   -41.8500 
  203.6250     2.2070    64.5120    23.3240    67.8700    83.1180    91.1250   -41.9360 
  203.7500     2.2100    62.1560    23.3180    74.0090    92.0580   101.1990   -42.0370 
  203.8750     2.2160    61.4850    23.3230    80.5930    99.0650   109.3640   -42.1380 
  204.0000     2.2230    63.4070    23.4230    82.1670   103.1060   114.2490   -42.2280 
  204.1250     2.2280    66.7230    23.6900    85.0270   103.9810   115.3510   -42.3000 
  204.2500     2.2320    68.0480    24.0030    90.7200   103.3880   114.4580   -42.3480 
  204.3750     2.2350    67.2880    24.2540    97.5870   102.5830   112.9550   -42.3700 
  204.5000     2.2330    66.8400    24.4320    94.7410   102.5730   112.0240   -42.3790 
  204.6250     2.2280    67.0110    24.5330    87.2480   104.2720   112.8030   -42.3910 
  204.7500     2.2220    65.8830    24.5370    91.3230   107.3790   115.1970   -42.4110 
  204.8750     2.2130    64.8230    24.4790   107.1180   111.0830   118.5380   -42.4400 
  205.0000     2.2050    65.3470    24.4350   122.1810   114.1460   121.6800   -42.4830 
  205.1250     2.2060    67.0580    24.4340   125.8680   115.0540   123.1250   -42.5420 
  205.2500     2.2100    67.7820    24.4390   118.3620   113.9110   122.6330   -42.6050 
  205.3750     2.2110    66.8350    24.4460   110.9100   111.6390   120.8250   -42.6640 
  205.5000     2.2080    65.2390    24.4610   109.0530   109.5800   118.9500   -42.7120 
  205.6250     2.2110    64.8700    24.4720   109.7190   108.8220   118.2640   -42.7510 
  205.7500     2.2130    65.4190    24.4830   111.3050   108.7760   118.4280   -42.7860 
  205.8750     2.2070    64.9980    24.5000   115.6570   108.1170   118.1960   -42.8140 
  206.0000     2.1930    63.3810    24.5310   123.4150   105.4520   116.0740   -42.8150 
  206.1250     2.1840    64.9070    24.6080   119.5770   100.0820   111.0030   -42.7850 
  206.2500     2.1840    68.3800    24.6630   104.3270    93.7910   104.4960   -42.7250 
  206.3750     2.1930    70.0640    24.5840    86.4300    88.4750    98.4810   -42.6510 
  206.5000     2.2060    68.7910    24.3680    76.6220    85.6740    94.8050   -42.5810 
  206.6250     2.2210    67.5110    24.1810    83.3910    86.6780    95.1030   -42.5320 
  206.7500     2.2320    66.0490    24.1150    95.2980    90.6170    98.4950   -42.5140 
  206.8750     2.2370    62.9730    24.1020   108.5980    96.3280   103.6330   -42.5240 
  207.0000     2.2340    60.6850    24.0880   124.2450   102.0080   108.6350   -42.5440 
  207.1250     2.2230    62.3340    24.0840   127.7610   105.2750   111.3060   -42.5560 
  207.2500     2.2120    66.0520    24.0880   115.6590   105.7720   111.4370   -42.5400 
  207.3750     2.2070    69.1820    24.0900   101.2310   104.3750   109.8100   -42.4980 
  207.5000     2.2090    70.6940    24.0890    98.9750   102.2960   107.5020   -42.4060 
  207.6250     2.2120    70.6880    24.0890   104.1380   100.1370   105.1100   -42.2690 
  207.7500     2.2140    68.5240    24.0890   111.4910    97.8780   102.6640   -42.0840 
  207.8750     2.2130    66.8320    24.0860   111.4690    95.5330   100.1470   -41.8550 
  208.0000     2.2110    67.0740    24.0800   102.9580    93.4870    97.8440   -41.5810 
  208.1250     2.2100    68.4520    24.0770    92.7550    92.6230    96.5860   -41.2770 
  208.2500     2.2100    67.8570    24.0760    85.7960    93.1290    96.7000   -40.9570 
  208.3750     2.2080    65.2220    24.0770    87.4280    94.2270    97.5490   -40.6470 
  208.5000     2.2060    63.2200    24.0730    97.2830    93.8320    97.2390   -40.3610 
  208.6250     2.2110    63.5830    24.0530   103.6100    88.8210    92.7860   -40.1030 
  208.7500     2.2240    65.6010    24.0250    98.6050    80.1380    84.5090   -39.8620 
  208.8750     2.2360    68.1350    23.9930    80.9610    70.5660    74.5790   -39.6250 
  209.0000     2.2430    68.8150    23.9570    56.7380    62.9300    65.8350   -39.3860 
  209.1250     2.2520    68.9930    23.9280    44.8210    59.6610    60.8060   -39.1440 
  209.2500     2.2610    70.0410    23.9160    55.9640    60.3180    59.7830   -38.9040 
  209.3750     2.2640    70.5030    23.9250    76.5260    63.4020    63.6000   -38.6770 
  209.5000     2.2540    68.8750    23.9460    85.1160    69.4100    70.1250   -38.4810 
  209.6250     2.2370    67.4450    23.9890    88.9370    76.8340    77.9290   -38.3300 
  209.7500     2.2180    69.0640    24.0340    93.9940    83.2430    84.5340   -38.2190 
  209.8750     2.2000    73.4850    24.1200    93.4660    87.0970    88.3030   -38.1230 
  210.0000     2.1890    78.4770    24.2820    85.7270    88.0740    89.0520   -38.0060 
  210.1250     2.1940    78.2570    24.3260    82.5500    86.7650    87.6920   -37.8440 
