~V
VERS. 2.00: Ver 2.00
~W
STRT.M 64.0000:
STOP.M 264.0000:
STEP.M 0.1250:
NULL. -999.2500:
UWI. DF3031:
~C
DEPT.M :
DEN.GM/CC :
AC.US/MT :
GR.API :
CALI.CM :
RXO.OHMM :
RI. :
RML.OHMM :
SP.MV :
~A
   64.0000  -999.2500  -999.2500    81.9220    27.4920     3.6970     1.2590     0.6750    54.6040 
   64.1250  -999.2500  -999.2500    85.1130    27.6220     5.2330     1.5370     1.0950    45.0090 
   64.2500  -999.2500  -999.2500    85.8520    27.4040     6.7150     2.0730     2.0820    34.9350 
   64.3750  -999.2500  -999.2500    84.9740    26.8770     7.8290     2.9960     3.9210    24.7620 
   64.5000  -999.2500  -999.2500    81.6570    26.3220     8.4830     4.3420     6.4190    14.9470 
   64.6250  -999.2500  -999.2500    77.0770    26.0810     8.5940     5.8460     8.1350     6.1270 
   64.7500  -999.2500  -999.2500    74.4030    26.0260     8.4080     7.0390     8.5990    -1.3510 
   64.8750  -999.2500  -999.2500    73.7390    25.9270     8.2040     7.7570     8.3680    -7.0550 
   65.0000  -999.2500  -999.2500    74.4520    25.7580     8.1300     8.0410     7.9120   -11.0790 
   65.1250  -999.2500  -999.2500    76.5280    25.6280     8.1510     7.9710     7.4700   -13.8250 
   65.2500  -999.2500  -999.2500    78.4250    25.5620     8.1900     7.7580     7.1380   -15.9670 
   65.3750  -999.2500  -999.2500    78.4280    25.5130     8.2130     7.5450     6.9490   -17.6420 
   65.5000  -999.2500  -999.2500    75.8350    25.4380     8.1890     7.4450     6.9360   -18.9660 
   65.6250  -999.2500  -999.2500    73.2550    25.3450     8.1190     7.5470     7.1680   -19.9740 
   65.7500  -999.2500  -999.2500    73.2080    25.3070     8.2660     7.8110     7.5920   -20.7720 
   65.8750  -999.2500  -999.2500    74.0090    25.3730     9.1770     8.1740     8.1280   -21.4060 
   66.0000  -999.2500  -999.2500    73.7740    25.4710    11.2370     8.5380     8.6280   -21.8900 
   66.1250  -999.2500  -999.2500    73.3920    25.3710    13.1140     8.7330     8.8490   -22.2650 
   66.2500  -999.2500  -999.2500    74.3920    25.0620    12.8170     8.6850     8.7260   -22.5660 
   66.3750  -999.2500  -999.2500    74.3760    24.7290    10.6260     8.4160     8.3440   -22.8370 
   66.5000  -999.2500  -999.2500    71.9180    24.5370     8.4500     8.0390     7.9000   -23.0950 
   66.6250  -999.2500  -999.2500    70.0570    24.5040     7.5680     7.7090     7.5990   -23.3870 
   66.7500  -999.2500  -999.2500    71.0670    24.5120     7.3950     7.5040     7.4890   -23.7260 
   66.8750  -999.2500  -999.2500    73.2920    24.5210     7.4380     7.4270     7.5300   -24.1000 
   67.0000  -999.2500  -999.2500    74.2410    24.5220     7.4980     7.4330     7.6340   -24.5110 
   67.1250  -999.2500  -999.2500    72.5660    24.5630     7.6180     7.4500     7.6830   -24.9170 
   67.2500  -999.2500  -999.2500    71.7140    24.6980     7.8360     7.4230     7.6310   -25.3070 
   67.3750  -999.2500  -999.2500    73.2390    24.9070     8.0930     7.3460     7.5060   -25.6470 
   67.5000  -999.2500  -999.2500    76.1090    25.1110     8.2560     7.2450     7.3820   -25.9380 
   67.6250  -999.2500  -999.2500    77.8370    25.2340     8.2200     7.1820     7.3680   -26.1500 
   67.7500  -999.2500  -999.2500    77.7560    25.2990     8.1440     7.2110     7.5090   -26.2990 
   67.8750  -999.2500  -999.2500    75.2810    25.3180     8.2120     7.3540     7.8110   -26.4120 
   68.0000  -999.2500  -999.2500    72.1020    25.2830     8.4390     7.5880     8.2210   -26.4870 
   68.1250  -999.2500  -999.2500    74.6280    25.1820     8.5960     7.8220     8.5950   -26.5450 
   68.2500  -999.2500  -999.2500    80.0790    25.0280     8.5680     7.9480     8.7940   -26.6050 
   68.3750  -999.2500  -999.2500    81.1680    24.8210     8.4620     7.9160     8.7730   -26.6970 
   68.5000  -999.2500  -999.2500    75.9880    24.5480     8.4010     7.7430     8.5750   -26.8200 
   68.6250  -999.2500  -999.2500    72.4770    24.2070     8.3810     7.4910     8.2910   -26.9920 
   68.7500  -999.2500  -999.2500    73.7370    23.8730     8.3320     7.2530     8.0330   -27.1970 
   68.8750  -999.2500  -999.2500    75.8140    23.6360     8.2330     7.0670     7.8420   -27.4250 
   69.0000  -999.2500  -999.2500    74.7200    23.5320     8.0910     6.9330     7.7190   -27.6730 
   69.1250  -999.2500  -999.2500    69.7050    23.5260     7.9430     6.8500     7.6760   -27.9340 
   69.2500  -999.2500  -999.2500    66.1780    23.5330     7.8160     6.8140     7.7130   -28.1950 
   69.3750  -999.2500  -999.2500    66.1140    23.5350     7.7340     6.8300     7.8240   -28.4580 
   69.5000  -999.2500  -999.2500    67.7980    23.5270     7.9150     6.8860     7.9790   -28.7050 
   69.6250  -999.2500  -999.2500    70.7140    23.5850     8.9540     6.9570     8.1220   -28.9120 
   69.7500  -999.2500  -999.2500    74.5030    23.8450    10.4650     7.0020     8.1970   -29.0820 
   69.8750  -999.2500  -999.2500    74.8810    24.3290    11.1460     6.9900     8.1640   -29.1980 
   70.0000  -999.2500  -999.2500    71.1640    24.8030    10.2340     6.9110     8.0280   -29.2650 
   70.1250  -999.2500  -999.2500    70.7680    24.9590     8.6790     6.7790     7.8430   -29.2860 
   70.2500  -999.2500  -999.2500    73.9340    24.9300     7.8920     6.6420     7.6910   -29.2850 
   70.3750  -999.2500  -999.2500    73.8660    24.9410     7.8350     6.5310     7.6150   -29.2410 
   70.5000  -999.2500  -999.2500    69.6020    25.0550     7.9740     6.4660     7.6270   -29.1740 
   70.6250  -999.2500  -999.2500    66.4640    25.2500     7.9920     6.4500     7.7060   -29.0810 
   70.7500  -999.2500  -999.2500    66.4810    25.5780     7.9920     6.4530     7.7930   -28.9670 
   70.8750  -999.2500  -999.2500    68.7480    26.0470     8.0730     6.4490     7.8520   -28.8620 
   71.0000  -999.2500  -999.2500    71.7470    26.4680     8.2050     6.4240     7.8690   -28.7600 
   71.1250  -999.2500  -999.2500    73.2190    26.4490     8.2800     6.3690     7.8490   -28.6720 
   71.2500  -999.2500  -999.2500    73.6660    26.0190     8.3140     6.3040     7.8270   -28.5960 
   71.3750  -999.2500  -999.2500    74.4940    25.4900     8.3690     6.2470     7.8330   -28.5630 
   71.5000  -999.2500  -999.2500    75.9840    25.1880     8.4400     6.2120     7.8810   -28.5660 
   71.6250  -999.2500  -999.2500    75.6310    25.2330     8.4420     6.2030     7.9680   -28.6180 
   71.7500  -999.2500  -999.2500    73.3600    25.4310     8.3600     6.1950     8.0440   -28.6930 
   71.8750  -999.2500  -999.2500    71.1340    25.7080     8.2460     6.1630     8.0580   -28.7650 
   72.0000  -999.2500  -999.2500    70.7120    26.0190     8.1450     6.0890     7.9680   -28.8190 
   72.1250  -999.2500  -999.2500    71.6840    26.2970     8.0450     5.9720     7.7700   -28.8230 
   72.2500  -999.2500  -999.2500    71.9330    26.5520     7.9290     5.8640     7.5820   -28.7580 
   72.3750  -999.2500  -999.2500    71.0120    26.8750     7.8270     5.8360     7.5620   -28.6040 
   72.5000  -999.2500  -999.2500    70.2470    27.2980     7.7800     5.9750     7.8850   -28.3470 
   72.6250  -999.2500  -999.2500    69.3640    27.7200     7.9060     6.4170     8.7820   -27.9870 
   72.7500  -999.2500  -999.2500    69.1090    28.2150     8.4400     7.1600    10.1690   -27.5960 
   72.8750  -999.2500  -999.2500    69.0570    29.0880     9.7460     8.1210    11.7990   -27.2220 
   73.0000  -999.2500  -999.2500    70.0050    30.2870    11.9550     9.0560    13.1650   -26.9160 
   73.1250  -999.2500  -999.2500    72.7860    31.0240    13.6460     9.4730    13.4290   -26.7450 
   73.2500  -999.2500  -999.2500    76.4700    30.7700    13.1640     9.2040    12.5170   -26.7230 
   73.3750  -999.2500  -999.2500    77.8270    29.7720    10.9000     8.4140    10.8900   -26.8530 
   73.5000  -999.2500  -999.2500    73.7380    28.7540     8.6620     7.4740     9.2600   -27.1460 
   73.6250  -999.2500  -999.2500    68.0040    28.3460     7.7680     6.7410     8.2260   -27.6150 
   73.7500  -999.2500  -999.2500    65.7630    28.4120     7.7240     6.3020     7.7830   -28.1800 
   73.8750  -999.2500  -999.2500    67.5570    28.6640     7.9090     6.1280     7.7750   -28.7900 
