~V
VERS. 2.00: Ver 2.00
~W
STRT.M 125.0000:
STOP.M 245.0000:
STEP.M 0.1250:
NULL. -999.2500:
UWI. DF3026:
~C
DEPT.M :
SP.MV :
GR.API :
CALI.CM :
RXO.OHMM :
RI. :
RML.OHMM :
DEN.GM/CC :
~A
# ...
  147.5000   -16.5310    50.2130    27.5070    14.7150    15.0670    17.8180     2.5580 
  147.6250   -16.5280    47.8380    27.5090    14.5730    14.9760    17.6790     2.5650 
  147.7500   -16.5130    48.0880    27.5120    14.3530    14.8280    17.4910     2.5690 
  147.8750   -16.5020    50.8830    27.5160    14.0530    14.6900    17.3480     2.5770 
  148.0000   -16.4880    53.7980    27.5200    13.7080    14.6040    17.3090     2.5860 
  148.1250   -16.4930    54.3190    27.5260    13.4910    14.5810    17.4040     2.5850 
  148.2500   -16.5190    53.5530    27.5360    13.6970    14.5830    17.5510     2.5770 
  148.3750   -16.5630    54.9240    27.5420    14.2710    14.5670    17.6440     2.5690 
  148.5000   -16.6160    57.5670    27.5410    14.6930    14.5040    17.5980     2.5650 
  148.6250   -16.6800    56.6200    27.5360    14.3440    14.3920    17.4000     2.5560 
  148.7500   -16.7570    53.4760    27.5280    13.9310    14.2890    17.1780     2.5420 
  148.8750   -16.8470    51.4930    27.5210    14.0030    14.2540    17.0550     2.5290 
  149.0000   -16.9460    51.7660    27.5180    14.4820    14.3340    17.1250     2.5250 
  149.1250   -17.0400    51.0610    27.5160    14.9750    14.5630    17.4490     2.5270 
  149.2500   -17.1140    51.3790    27.5120    15.3020    14.8720    17.9150     2.5290 
  149.3750   -17.1780    54.3390    27.5090    15.7170    15.1850    18.3960     2.5250 
  149.5000   -17.2260    55.9780    27.5070    16.3790    15.4190    18.7530     2.5180 
  149.6250   -17.2600    53.7580    27.5050    16.7530    15.4740    18.8310     2.5170 
  149.7500   -17.2750    51.7540    27.4850    16.4930    15.3550    18.6410     2.5230 
  149.8750   -17.2770    52.6420    27.4250    16.0120    15.0970    18.2480     2.5290 
  150.0000   -17.2570    54.2570    27.3320    15.6010    14.7630    17.7700     2.5290 
  150.1250   -17.2230    55.1270    27.2290    15.0500    14.4410    17.3550     2.5270 
  150.2500   -17.1750    57.3070    27.1380    14.5150    14.2110    17.1020     2.5260 
  150.3750   -17.1120    59.2500    27.0660    14.4220    14.1190    17.0480     2.5290 
  150.5000   -17.0430    59.7570    27.0330    14.7060    14.1750    17.1710     2.5370 
  150.6250   -16.9730    59.9190    27.0290    15.1190    14.3730    17.4400     2.5500 
  150.7500   -16.8940    61.0370    27.0310    15.4150    14.6420    17.7740     2.5580 
  150.8750   -16.8060    62.2940    27.0350    15.5120    14.8870    18.0640     2.5580 
  151.0000   -16.7200    61.1270    27.0390    15.5370    14.9520    18.1170     2.5490 
  151.1250   -16.6300    57.3630    27.0430    15.5630    14.6130    17.6490     2.5400 
  151.2500   -16.5460    53.9050    27.0500    15.5020    13.9030    16.7150     2.5390 
  151.3750   -16.4620    51.8540    27.0580    14.5870    12.9690    15.5080     2.5470 
  151.5000   -16.3850    50.5570    27.0610    12.5290    12.0400    14.3290     2.5590 
  151.6250   -16.3050    48.9760    27.0610    10.8060    11.3740    13.5300     2.5680 
  151.7500   -16.2440    48.8410    27.0610    10.5850    11.0270    13.1890     2.5740 
  151.8750   -16.1880    49.8050    27.0610    11.3520    10.9830    13.2770     2.5740 
  152.0000   -16.1280    50.0510    27.0590    11.9320    11.1780    13.6740     2.5690 
  152.1250   -16.0700    48.8230    27.0510    12.0500    11.5110    14.1840     2.5620 
  152.2500   -16.0280    46.5100    27.0390    12.2880    11.8310    14.5820     2.5630 
  152.3750   -16.0080    44.8560    27.0310    12.6300    12.0730    14.7970     2.5740 
  152.5000   -15.9940    45.2020    27.0290    12.8930    12.2390    14.8910     2.5850 
  152.6250   -15.9800    47.6250    27.0300    12.6030    12.3550    14.9660     2.5820 
  152.7500   -15.9670    49.8190    27.0330    12.1460    12.4410    15.0670     2.5690 
  152.8750   -15.9440    49.7290    27.0420    12.0120    12.4870    15.1710     2.5570 
  153.0000   -15.9330    48.0740    27.0480    12.2570    12.4750    15.2310     2.5530 
  153.1250   -15.9380    47.3570    27.0510    12.2750    12.3710    15.1630     2.5550 
  153.2500   -15.9670    47.9500    27.0520    12.0760    12.1750    14.9610     2.5580 
  153.3750   -16.0050    48.7450    27.0550    11.8820    11.8900    14.6490     2.5540 
  153.5000   -16.0730    48.2150    27.0550    11.5350    11.5410    14.2790     2.5420 
  153.6250   -16.2000    47.6890    27.0410    10.8760    11.1900    13.9250     2.5260 
  153.7500   -16.3690    48.2850    26.9810    10.2650    10.9050    13.6440     2.5120 
  153.8750   -16.6030    49.8010    26.8720     9.9810    10.7270    13.4700     2.4990 
  154.0000   -16.8790    50.8720    26.8200    10.0360    10.6810    13.4390     2.4740 
  154.1250   -17.2080    51.6810    26.9090    10.3400    10.8220    13.6390     2.4280 
  154.2500   -17.5500    54.7420    27.1520    10.5960    11.1480    14.0940     2.3780 
  154.3750   -17.9100    59.2620    27.4630    10.8870    11.6810    14.8420     2.3430 
  154.5000   -18.2940    62.4490    27.7070    11.6200    12.4430    15.9210     2.3310 
  154.6250   -18.6720    62.9270    27.7900    12.9800    13.5210    17.4570     2.3320 
  154.7500   -19.0260    62.9410    27.8100    14.3410    14.9250    19.4500     2.3300 
  154.8750   -19.3340    64.6490    27.8190    15.8210    16.6670    21.9000     2.3190 
  155.0000   -19.5990    66.4490    27.8190    18.4450    18.6300    24.6430     2.2980 
  155.1250   -19.7810    64.5130    27.8100    22.5040    20.4020    27.0910     2.2720 
  155.2500   -19.9100    61.9660    27.8050    25.5760    21.4930    28.5050     2.2480 
  155.3750   -19.9760    63.0140    27.8070    25.1230    21.6150    28.4320     2.2350 
  155.5000   -19.9590    65.8170    27.8130    21.8380    20.8650    27.0140     2.2380 
  155.6250   -19.8740    64.6670    27.8210    18.4850    19.6660    24.9650     2.2540 
  155.7500   -19.7400    62.7440    27.8150    16.8460    18.5780    23.2150     2.2690 
  155.8750   -19.5780    62.8910    27.8080    16.5380    17.8280    22.1280     2.2770 
  156.0000   -19.3920    63.1170    27.8040    16.8580    17.4460    21.7140     2.2800 
  156.1250   -19.2010    60.7760    27.8070    17.5550    17.3280    21.7440     2.2830 
  156.2500   -19.0080    58.2750    27.8100    17.9440    17.2150    21.7450     2.2890 
  156.3750   -18.8280    59.2610    27.8080    17.2820    16.9490    21.4300     2.2940 
  156.5000   -18.6660    64.8080    27.7970    15.7250    16.4780    20.7130     2.2980 
  156.6250   -18.5200    73.4990    27.7420    14.1320    15.8600    19.7150     2.3060 
  156.7500   -18.3950    78.5570    27.6290    13.2360    15.2640    18.7540     2.3190 
  156.8750   -18.2700    75.1760    27.5210    12.4240    14.8080    18.0160     2.3380 
  157.0000   -18.1540    65.9520    27.4690    11.7670    14.5560    17.5840     2.3550 
  157.1250   -18.0540    57.4810    27.4600    11.5990    14.5290    17.4560     2.3680 
  157.2500   -17.9550    57.1000    27.4510    11.5240    14.6050    17.4450     2.3800 
  157.3750   -17.8560    62.4540    27.4390    11.2740    14.6700    17.3990     2.3970 
  157.5000   -17.7390    65.3860    27.4270    11.1050    14.6360    17.2230     2.4180 
  157.6250   -17.6060    60.3420    27.4230    11.1230    14.4680    16.9070     2.4410 
  157.7500   -17.4670    53.2050    27.4210    10.8740    14.2380    16.5590     2.4630 
  157.8750   -17.3420    50.5870    27.4190    10.5890    13.9790    16.2510     2.4840 
  158.0000   -17.2260    52.7900    27.4160    10.4090    13.6780    15.9880     2.4950 
  158.1250   -17.1580    54.1760    27.4250    10.4290    13.2520    15.6510     2.4860 
  158.2500   -17.1410    53.1660    27.4550    10.5650    12.6680    15.1180     2.4690 
  158.3750   -17.1970    51.1530    27.4940    10.5270    11.9860    14.4080     2.4560 
  158.5000   -17.3420    50.2970    27.5370    10.1570    11.4040    13.7580     2.4480 
  158.6250   -17.5950    52.1350    27.6050     9.9090    11.3450    13.7390     2.4290 
