~V
VERS. 2.00: Ver 2.00
~W
STRT.M 60.0000:
STOP.M 250.0000:
STEP.M 0.1250:
NULL. -999.2500:
UWI. DF3018:
~C
DEPT.M :
DEN.GM/CC :
GR.API :
RML.OHMM :
RI. :
RXO.OHMM :
CALI.CM :
SP.MV :
~A
   60.0000  -999.2500  -999.2500  -999.2500  -999.2500  -999.2500  -999.2500    57.4640 
   60.1250  -999.2500  -999.2500  -999.2500  -999.2500  -999.2500  -999.2500    57.5620 
   60.2500  -999.2500  -999.2500  -999.2500  -999.2500  -999.2500  -999.2500    57.4580 
   60.3750  -999.2500  -999.2500  -999.2500  -999.2500  -999.2500  -999.2500    57.1900 
   60.5000  -999.2500     0.0000     0.0000     0.0000     0.0000     0.0000    56.7990 
   60.6250  -999.2500     0.0000     0.0000     0.0000     0.0000     0.0000    56.3540 
   60.7500  -999.2500     0.0000     0.0000     0.0000     0.0000     0.0000    55.8840 
   60.8750  -999.2500     0.0000     0.0000     0.0000     0.0000     0.0000    55.3630 
   61.0000  -999.2500     0.0000     0.0000     0.0000     0.0000     0.0000    54.7180 
   61.1250  -999.2500    15.4580     3.3640     0.2310     0.3120     6.3670    53.9630 
   61.2500  -999.2500    62.0900    13.2250     0.9360     1.5200    25.4670    53.1160 
   61.3750  -999.2500    62.1330    12.5690     0.9650     2.2970    25.4670    52.2510 
   61.5000  -999.2500    59.5760    11.8790     0.9880     3.1590    25.4670    51.3430 
   61.6250  -999.2500    55.6460    11.3350     1.0050     3.0660    25.4670    50.4010 
   61.7500  -999.2500    53.7600    10.9590     1.0170     2.2830    25.4670    49.4410 
   61.8750  -999.2500    52.1430    10.7520     1.0260     1.5110    25.4670    48.4910 
   62.0000  -999.2500    48.5800    10.7240     1.0350     1.0390    25.4670    47.6260 
   62.1250  -999.2500    44.3780    10.9120     1.0440     0.8060    25.4670    46.9190 
   62.2500  -999.2500    43.4490    11.2580     1.0540     0.7100    25.4670    46.3440 
   62.3750  -999.2500    45.3240    11.6810     1.0620     0.7010    25.4670    45.8830 
   62.5000  -999.2500    47.1680    12.0710     1.0670     0.7600    25.4670    45.5320 
   62.6250  -999.2500    47.0880    12.2940     1.0670     0.8250    25.4670    45.3340 
   62.7500  -999.2500    47.1210    12.3360     1.0640     0.8040    25.4670    45.2510 
   62.8750  -999.2500    49.8060    12.2490     1.0590     0.6310    25.4670    45.2880 
   63.0000  -999.2500    53.3630    12.1180     1.0550     0.4710    25.4670    45.3670 
   63.1250  -999.2500    53.8210    12.0140     1.0560     0.4880    25.4670    45.4360 
   63.2500  -999.2500    51.5730    11.9420     1.0630     0.5270    25.4670    45.4620 
   63.3750  -999.2500    50.6700    11.8660     1.0740     0.5590    25.4670    45.4100 
   63.5000  -999.2500    53.5480    11.7220     1.0890     0.5650    25.4670    45.2940 
   63.6250  -999.2500    56.4790    11.4310     1.1010     0.6170    25.4670    45.0700 
   63.7500  -999.2500    55.8790    11.0580     1.1100     0.7370    25.4670    44.8000 
   63.8750  -999.2500    52.8520    10.7780     1.1140     0.9460    25.4670    44.4520 
   64.0000  -999.2500    50.9450    10.7490     1.1170     1.2400    25.4670    43.9700 
   64.1250  -999.2500    51.0650    10.9750     1.1170     1.5480    25.4670    43.3000 
   64.2500  -999.2500    50.4150    11.0250     1.1050     1.8370    25.4630    42.4470 
   64.3750  -999.2500    49.0080    10.3700     1.0590     2.0320    25.4490    41.3920 
   64.5000  -999.2500    48.6650     8.5180     0.9580     2.1410    25.3480    40.1060 
   64.6250  -999.2500    49.3020     5.4710     0.7800     2.1910    25.2640    38.5380 
   64.7500  -999.2500    49.3040     2.7550     0.5570     2.2620    25.0110    36.6700 
   64.8750  -999.2500    49.2520     1.2260     0.3430     2.4130    24.8100    34.4310 
   65.0000  -999.2500    50.5590     0.5030     0.1830     2.6140    24.6530    31.7570 
   65.1250  -999.2500    52.3930     0.1960     0.1020     2.7500    24.4580    28.3250 
   65.2500  -999.2500    55.6480     0.0930     0.0930     2.8350    24.2310    24.2860 
   65.3750  -999.2500    61.9210     0.3130     0.1900     3.1410    24.1370    19.8300 
   65.5000  -999.2500    69.0570     0.8730     0.4540     4.0100    24.0910    15.2160 
   65.6250  -999.2500    75.1740     2.0680     0.9900     5.3200    23.9000    10.6410 
   65.7500  -999.2500    83.5300     3.5500     1.7670     6.7810    23.8590     6.2440 
   65.8750  -999.2500    95.8020     4.7440     2.7070     7.4650    23.7770     2.1580 
   66.0000  -999.2500   107.9920     5.3660     3.6580     6.8410    23.7330    -1.4830 
   66.1250  -999.2500   113.0800     5.5620     4.4300     6.3950    23.6790    -4.3260 
   66.2500  -999.2500   113.7900     5.6120     4.9870     6.0510    23.5530    -6.4760 
   66.3750  -999.2500   114.2520     5.6690     5.3610     6.0070    23.6550    -8.1080 
   66.5000  -999.2500   114.1070     5.7630     5.6000     6.0070    23.6830    -9.4790 
   66.6250  -999.2500   113.2180     5.8700     5.7400     6.0120    23.6680   -10.7330 
   66.7500  -999.2500   112.4810     5.9890     5.8520     5.8330    23.6650   -12.0090 
   66.8750  -999.2500   110.9560     6.1560     5.9900     5.6930    23.6650   -13.3480 
   67.0000  -999.2500   107.4870     6.4090     6.1930     5.8490    23.6380   -14.7220 
   67.1250  -999.2500   102.1310     6.7600     6.4720     6.2790    23.5780   -16.1380 
   67.2500  -999.2500    95.6330     7.1420     6.7770     7.0590    23.5170   -17.5750 
   67.3750  -999.2500    87.4700     7.4930     7.0600     8.1050    23.5720   -19.0220 
   67.5000  -999.2500    80.4140     7.7780     7.2870     8.6070    23.9070   -20.4590 
   67.6250  -999.2500    76.5680     7.9930     7.4510     8.7170    24.5250   -21.8720 
   67.7500  -999.2500    72.2090     8.1830     7.5900     8.4770    24.9930   -23.2090 
   67.8750  -999.2500    68.2990     8.3680     7.7270     8.5070    24.8900   -24.4310 
   68.0000  -999.2500    68.2330     8.5460     7.8680     8.9210    24.3310   -25.5370 
   68.1250  -999.2500    71.4960     8.6880     7.9870     9.7610    23.7300   -26.4340 
   68.2500  -999.2500    73.6900     8.7760     8.0540    10.6840    23.4030   -27.1790 
   68.3750  -999.2500    73.6910     8.8010     8.0420    11.2360    23.2880   -27.7450 
   68.5000  -999.2500    72.9230     8.7600     7.9430    11.3800    23.2400   -28.1250 
   68.6250  -999.2500    72.6690     8.6460     7.7570    11.3570    23.2200   -28.3130 
   68.7500  -999.2500    73.6260     8.4800     7.5230    11.2000    23.2000   -28.3570 
   68.8750  -999.2500    74.2190     8.2810     7.2750    10.9640    23.1680   -28.2960 
   69.0000  -999.2500    72.7820     8.0860     7.0460    10.8320    23.1410   -28.1250 
   69.1250  -999.2500    68.9360     7.9730     6.9050    10.9480    23.1340   -27.9070 
   69.2500  -999.2500    67.2980     8.0190     6.9060    11.2560    23.1330   -27.5970 
   69.3750  -999.2500    70.8300     8.2860     7.1020    11.8250    23.1330   -27.2190 
   69.5000  -999.2500    76.3180     8.7860     7.5090    12.7780    23.1440   -26.7460 
   69.6250  -999.2500    76.2570     9.4420     8.0800    14.3990    23.1930   -26.1110 
   69.7500  -999.2500    70.5840    10.0160     8.6250    16.8370    23.2660   -25.3390 
   69.8750  -999.2500    65.4200    10.2720     8.9550    20.4300    23.2550   -24.4200 
   70.0000  -999.2500    64.9930    10.0450     8.9170    22.8690    23.0870   -23.3830 
   70.1250  -999.2500    68.3430     9.3000     8.4160    20.1410    22.9030   -22.1860 
   70.2500  -999.2500    73.8090     8.3710     7.6620    15.0370    22.8080   -20.9560 
   70.3750  -999.2500    81.4960     7.5280     6.8560    10.7970    22.7850   -19.7770 
   70.5000  -999.2500    91.7960     6.9440     6.1780     8.2820    22.8420   -18.7560 
   70.6250  -999.2500   101.9290     6.7300     5.7800     6.8140    23.0460   -18.0070 
   70.7500  -999.2500   107.2120     6.8010     5.6480     6.0150    23.3420   -17.4930 
   70.8750  -999.2500   105.2370     7.0900     5.7520     5.9000    23.6580   -17.2300 
   71.0000  -999.2500    98.4550     7.5020     6.0360     6.2260    23.8110   -17.1870 
   71.1250  -999.2500    94.1200     7.9250     6.4230     6.8300    23.6910   -17.4100 
