~V
VERS. 2.00: Ver 2.00
~W
STRT.M 115.0000:
STOP.M 241.0000:
STEP.M 0.1250:
NULL. -999.2500:
UWI. DF3064:
~C
DEPT.M :
GR.API :
CALI.CM :
RXO.OHMM :
RI. :
RML.OHMM :
DEN.GM/CC :
SP.MV :
~A
# ...
  137.5000    60.2970    24.4550    13.9580    15.6290    18.5450     2.4160   -22.4420 
  137.6250    58.8930    24.2640    14.1260    15.7430    18.7280     2.4190   -22.4400 
  137.7500    54.8820    24.3630    13.6760    15.6330    18.6310     2.4430   -22.4600 
  137.8750    51.1400    24.4820    12.4480    15.4020    18.3820     2.4740   -22.4570 
  138.0000    52.3520    24.4650    11.2870    15.1960    18.1640     2.4870   -22.4600 
  138.1250    58.2200    24.2400    11.3090    15.1460    18.1530     2.4760   -22.4510 
  138.2500    62.3600    24.2670    11.8770    15.2630    18.3610     2.4640   -22.4420 
  138.3750    63.3960    24.3880    12.8170    15.5410    18.7980     2.4630   -22.4240 
  138.5000    63.1480    24.4830    13.2220    15.9550    19.3970     2.4730   -22.3930 
  138.6250    61.0420    24.3940    13.4340    16.4250    20.0630     2.4880   -22.3990 
  138.7500    57.3050    24.1050    13.4970    16.8990    20.7190     2.5050   -22.3870 
  138.8750    54.2310    23.8850    13.4700    17.3410    21.3360     2.5160   -22.3660 
  139.0000    53.5610    23.7830    13.2340    17.7290    21.8680     2.5160   -22.3630 
  139.1250    55.3910    23.7060    13.8820    18.0280    22.2370     2.5120   -22.3660 
  139.2500    58.0000    23.6440    14.7250    18.2080    22.4110     2.5190   -22.3870 
  139.3750    60.1390    23.8110    14.7210    18.2410    22.3520     2.5400   -22.4130 
  139.5000    60.0310    23.9280    14.4430    18.1060    22.0630     2.5660   -22.4540 
  139.6250    57.1200    24.1040    14.4580    17.8220    21.6120     2.5830   -22.5140 
  139.7500    54.8590    24.1620    14.3710    17.4710    21.1210     2.5900   -22.5820 
  139.8750    54.1950    24.1520    13.8320    17.1130    20.6750     2.5970   -22.6870 
  140.0000    54.0580    23.9510    12.8220    16.8030    20.3110     2.6110   -22.8320 
  140.1250    53.0680    23.9020    11.8090    16.5590    20.0530     2.6240   -23.0140 
  140.2500    52.5420    23.9040    12.1510    16.4080    19.8830     2.6190   -23.1950 
  140.3750    52.1000    23.8850    12.9610    16.3570    19.7920     2.5970   -23.3770 
  140.5000    50.1400    23.8540    13.2960    16.3950    19.7800     2.5790   -23.5340 
  140.6250    48.8920    23.8340    13.3960    16.5620    19.8770     2.5820   -23.7310 
  140.7500    52.0970    23.8910    13.3980    16.8570    20.0830     2.5950   -23.9420 
  140.8750    57.0090    23.8990    13.4750    17.2640    20.3700     2.6060   -24.1410 
  141.0000    57.8730    23.8870    14.2610    17.7370    20.7140     2.6150   -24.3270 
  141.1250    53.3750    23.7810    15.3690    18.2170    21.0080     2.6240   -24.5020 
  141.2500    50.1200    23.7050    15.6960    18.6090    21.1620     2.6310   -24.7050 
  141.3750    51.0690    23.6540    15.3660    18.8630    21.1340     2.6350   -24.9080 
  141.5000    53.5980    23.6540    15.0140    18.9850    20.9270     2.6310   -25.1560 
  141.6250    53.7580    23.8340    14.8960    18.9550    20.5790     2.6200   -25.3960 
  141.7500    52.2820    23.6980    14.6670    18.8260    20.2050     2.6070   -25.6260 
  141.8750    51.9290    23.5350    14.1890    18.6530    19.8730     2.6030   -25.8750 
  142.0000    53.8020    23.5090    14.0980    18.4790    19.5900     2.6050   -26.1260 
  142.1250    56.8490    23.5380    15.1210    18.2720    19.3160     2.5930   -26.3900 
  142.2500    59.0780    23.6190    15.9060    17.9700    18.9900     2.5640   -26.6450 
  142.3750    60.2160    23.8260    16.4920    17.5280    18.5630     2.5420   -26.9180 
  142.5000    59.7690    24.0140    16.3280    16.9170    17.9920     2.5440   -27.1690 
  142.6250    59.9930    24.0340    16.1660    16.1820    17.2960     2.5590   -27.4120 
  142.7500    61.2180    24.0140    16.1490    15.4970    16.6370     2.5590   -27.6730 
  142.8750    63.3570    24.0990    16.6330    15.0340    16.2620     2.5360   -27.9240 
  143.0000    65.9160    23.9270    16.4160    15.0040    16.5280     2.4960   -28.1880 
  143.1250    66.7560    23.9130    16.0710    15.8890    18.1810     2.4460   -28.4600 
  143.2500    67.5510    23.8960    16.0790    18.0780    21.6690     2.3920   -28.7580 
  143.3750    69.5520    24.0620    19.7610    22.2490    27.7150     2.3380   -29.0800 
  143.5000    71.5930    24.6640    29.7180    29.4080    37.1840     2.2880   -29.4390 
  143.6250    71.0970    25.0340    44.3290    41.8450    52.0070     2.2390   -29.8060 
  143.7500    68.1460    25.1860    60.9320    60.2800    72.5270     2.1920   -30.1550 
  143.8750    66.0350    25.1760   102.5590    85.0090    99.0280     2.1550   -30.5090 
  144.0000    65.4890    25.0550   163.0900   114.2720   130.0030     2.1380   -30.8290 
  144.1250    64.6080    25.0540   220.1380   142.2310   159.7220     2.1450   -31.1020 
  144.2500    62.3860    25.1350   241.4540   162.1020   179.9270     2.1670   -31.3230 
  144.3750    58.6440    25.3180   234.3760   170.3950   185.8320     2.1910   -31.5170 
  144.5000    55.9090    25.4150   209.4140   167.2690   178.6260     2.2030   -31.6890 
  144.6250    55.9370    25.4100   198.5470   155.6200   163.7610     2.2020   -31.8080 
  144.7500    58.4840    25.3640   187.5660   142.1960   148.8580     2.2040   -31.9060 
  144.8750    64.3410    25.3160   159.6520   130.5470   137.0510     2.2140   -31.9810 
  145.0000    70.2000    25.1190   124.7400   122.3240   129.4310     2.2190   -32.0680 
  145.1250    69.8740    24.4940    99.2530   118.6060   126.4170     2.2100   -32.1670 
  145.2500    64.7620    24.0940   101.0440   117.4420   125.4590     2.1960   -32.2780 
  145.3750    60.7470    23.8250   135.8270   117.1500   124.8320     2.1830   -32.4080 
  145.5000    60.7360    24.0140   167.5500   116.4380   123.3190     2.1730   -32.5130 
  145.6250    60.9160    24.2050   153.5080   113.8870   119.7820     2.1670   -32.6200 
  145.7500    59.5050    24.7570   128.1480   109.9640   115.1170     2.1670   -32.7200 
  145.8750    58.3200    25.1470   110.2290   105.9480   110.7700     2.1730   -32.8120 
  146.0000    57.5900    25.2230    96.1190   103.2250   107.9900     2.1830   -32.8910 
  146.1250    57.4580    25.2670    84.8670   102.7540   107.7630     2.1920   -32.9750 
  146.2500    60.0030    25.3460    84.0480   104.1520   109.5880     2.1930   -33.0380 
  146.3750    64.7530    25.3570    91.4120   106.7880   112.3090     2.1840   -33.0590 
  146.5000    67.1200    25.3710   107.6780   108.7400   113.6630     2.1740   -33.0800 
  146.6250    66.4340    25.2490   133.5050   107.1140   110.7640     2.1740   -33.1000 
  146.7500    67.2550    25.2520   147.4780   101.8830   104.0390     2.1850   -33.1500 
  146.8750    69.3660    25.3960   134.6780    94.0030    94.8480     2.1980   -33.2190 
  147.0000    70.1200    25.4860   100.8540    85.0580    85.0020     2.2100   -33.2940 
  147.1250    68.4460    25.4120    78.0210    77.3670    76.9860     2.2190   -33.3290 
  147.2500    65.4250    25.2490    66.3680    71.9430    71.5180     2.2260   -33.3670 
  147.3750    62.4790    25.2200    57.5250    68.6640    68.4060     2.2290   -33.4190 
  147.5000    62.0780    25.2290    52.2330    67.1300    67.1100     2.2260   -33.4710 
  147.6250    62.6580    25.2660    55.6190    66.8620    66.8050     2.2180   -33.5440 
  147.7500    60.5310    25.3440    65.2980    66.5550    66.2770     2.2150   -33.5990 
  147.8750    58.1360    25.3600    74.7880    65.4550    64.9530     2.2220   -33.6490 
  148.0000    60.4880    25.3800    71.9850    63.6450    63.0040     2.2380   -33.6960 
  148.1250    65.1670    25.1410    52.8280    61.3180    60.6310     2.2540   -33.7970 
  148.2500    66.7900    24.9570    38.4910    58.7000    58.1170     2.2670   -33.9280 
  148.3750    64.4950    24.9970    35.9580    56.3020    56.0330     2.2750   -34.0550 
  148.5000    60.7460    25.0150    38.5320    54.5030    54.7480     2.2770   -34.1970 
  148.6250    59.9830    25.0150    40.7210    53.5570    54.5510     2.2750   -34.3510 
