~V
VERS. 2.00: Ver 2.00
~W
STRT.M 105.0000:
STOP.M 269.0000:
STEP.M 0.1250:
NULL. -999.2500:
UWI. DF304:
~C
DEPT.M :
GR.API :
CALI.CM :
RXO.OHMM :
RI. :
RML.OHMM :
SP.MV :
DEN.GM/CC :
AC.US/MT :
~A
# ...
  125.0000    99.1010    24.9630     5.3950     5.3950     6.0250   -13.9510     2.3730   438.5370 
  125.1250    96.1820    25.2060     5.4090     4.8620     5.5500   -13.5160     2.3610   440.0910 
  125.2500    91.9710    25.2860     5.5990     4.4070     5.1170   -13.2250     2.3510   438.4940 
  125.3750    91.1660    25.3200     5.5600     4.0280     4.6880   -13.1070     2.3550   439.3110 
  125.5000    91.7280    25.3730     5.2370     3.8060     4.3870   -13.1820     2.3800   439.4770 
  125.6250    90.0370    25.4650     5.1160     3.9730     4.5990   -13.4760     2.4260   423.8920 
  125.7500    85.8450    25.4920     6.0820     4.7300     5.6690   -13.9110     2.4870   384.2160 
  125.8750    77.8000    25.4150    10.2290     6.3840     8.0070   -14.4370     2.5550   324.6760 
  126.0000    69.7400    25.1960    19.8150     9.2780    11.9480   -15.0490     2.6140   262.2200 
  126.1250    66.5630    24.9040    33.7550    13.6140    17.4200   -15.7590     2.6410   220.6950 
  126.2500    66.3820    24.7200    41.0260    17.7020    22.1500   -16.5220     2.6330   207.7450 
  126.3750    69.7930    24.6250    36.1720    19.0480    23.2390   -17.3120     2.5900   223.9040 
  126.5000    75.0450    24.5140    24.0550    16.9710    20.0350   -18.0930     2.5140   264.5260 
  126.6250    78.5690    24.3030    15.2890    13.5300    15.2570   -18.8540     2.4230   318.6330 
  126.7500    81.5610    24.1290    11.6100    10.7240    11.5900   -19.5690     2.3500   366.1890 
  126.8750    85.5490    24.0620    10.3160     8.8700     9.4340   -20.2610     2.3120   396.1520 
  127.0000    88.8800    24.0650     9.2260     7.8640     8.5450   -20.9350     2.3010   407.7470 
  127.1250    86.2850    24.0940     8.8460     7.6590     8.7230   -21.5880     2.3010   406.9430 
  127.2500    82.4910    24.1330     9.5550     7.9760     9.4790   -22.2190     2.2990   403.5600 
  127.3750    80.8770    24.1500    10.6330     8.6200    10.4920   -22.8140     2.2940   401.4080 
  127.5000    78.0630    24.1530    11.2000     9.3710    11.4540   -23.3630     2.2850   401.7020 
  127.6250    74.7620    24.1530    11.3160     9.9920    12.0800   -23.8340     2.2680   403.4160 
  127.7500    74.2020    24.1530    11.4700    10.3710    12.3310   -24.2410     2.2520   404.1230 
  127.8750    74.8500    24.1530    11.5820    10.4940    12.2590   -24.5570     2.2440   403.1090 
  128.0000    73.0760    24.1530    11.5340    10.4200    11.9900   -24.7660     2.2450   401.4340 
  128.1250    70.7900    24.1530    11.5710    10.2210    11.6500   -24.8350     2.2440   400.7810 
  128.2500    70.4220    24.1530    11.5460     9.9780    11.3240   -24.8150     2.2400   400.8420 
  128.3750    70.0090    24.1530    11.3510     9.7350    11.0570   -24.7260     2.2380   400.3420 
  128.5000    67.7500    24.1530    11.0440     9.5250    10.8760   -24.5950     2.2400   398.6350 
  128.6250    66.1690    24.1530    10.7770     9.3670    10.7850   -24.4690     2.2450   396.3590 
  128.7500    64.4330    24.1530    10.5660     9.2470    10.7310   -24.3630     2.2460   394.7980 
  128.8750    61.5490    24.1590    10.4180     9.1490    10.6760   -24.2900     2.2390   394.9680 
  129.0000    59.3680    24.1800    10.3630     9.0560    10.5890   -24.2470     2.2290   397.7220 
  129.1250    60.5510    24.2250    10.4760     8.9550    10.4600   -24.2540     2.2220   403.0510 
  129.2500    63.8760    24.2630    10.6120     8.8560    10.3280   -24.2990     2.2220   407.9730 
  129.3750    67.4850    24.3100    10.5650     8.7790    10.2370   -24.3860     2.2220   410.0430 
  129.5000    70.4510    24.3420    10.2920     8.7420    10.2160   -24.4980     2.2150   409.4220 
  129.6250    69.4130    24.3560    10.0860     8.7620    10.2850   -24.5980     2.2030   409.1560 
  129.7500    65.7070    24.3560    10.2150     8.8260    10.4160   -24.6620     2.1980   410.6140 
  129.8750    62.1890    24.3530    10.4960     8.9170    10.5750   -24.6810     2.2040   411.9320 
  130.0000    60.2100    24.3530    10.6470     9.0070    10.7230   -24.6500     2.2160   411.0530 
  130.1250    60.5090    24.3690    10.6190     9.0530    10.8030   -24.5560     2.2300   408.8640 
  130.2500    61.7670    24.4020    10.5990     9.0290    10.7860   -24.4000     2.2450   408.0100 
  130.3750    65.3860    24.4330    10.5430     8.9210    10.6580   -24.1940     2.2590   408.0710 
  130.5000    70.4910    24.4460    10.4110     8.7480    10.4460   -23.9490     2.2660   408.5730 
  130.6250    72.3690    24.4460    10.2040     8.5930    10.2590   -23.6590     2.2600   408.3020 
  130.7500    68.6600    24.4460     9.9950     8.5600    10.2380   -23.3660     2.2490   406.9180 
  130.8750    62.2360    24.4460     9.8990     8.7080    10.4630   -23.0780     2.2460   402.3620 
  131.0000    58.7860    24.4460    10.4920     9.0240    10.9170   -22.8080     2.2630   388.3850 
  131.1250    59.2330    24.4450    13.5790     9.4060    11.4560   -22.5730     2.2960   359.9510 
  131.2500    58.9740    24.4230    18.5950     9.6680    11.8240   -22.3840     2.3140   331.1310 
  131.3750    57.2380    24.3400    20.1750     9.6880    11.8520   -22.2220     2.3010   319.9880 
  131.5000    56.9260    24.1570    16.1740     9.4620    11.5330   -22.0820     2.2650   334.3790 
  131.6250    60.9430    24.0440    11.4480     9.1020    11.0430   -21.9750     2.2400   363.9430 
  131.7500    68.2420    23.9840     9.9030     8.7870    10.6460   -21.8750     2.2380   387.8920 
  131.8750    73.4940    23.9700     9.7250     8.6100    10.4660   -21.7880     2.2460   400.1500 
  132.0000    72.2630    23.9680     9.7470     8.6020    10.5150   -21.6980     2.2500   404.4350 
  132.1250    69.2140    23.9680     9.6560     8.7230    10.7110   -21.6020     2.2420   406.7400 
  132.2500    72.2230    23.9680     9.6380     8.8560    10.8870   -21.4840     2.2270   410.1180 
  132.3750    78.4550    23.9680     9.7730     8.9370    10.9700   -21.3480     2.2130   414.9600 
  132.5000    78.8150    23.9680     9.9260     8.9530    10.9560   -21.1790     2.2060   420.8320 
  132.6250    72.8320    23.9680     9.8420     8.9070    10.8610   -20.9670     2.2150   426.1300 
  132.7500    67.5240    23.9680     9.4540     8.8250    10.7170   -20.7190     2.2260   428.3700 
  132.8750    65.0350    23.9680     9.1600     8.7070    10.5260   -20.4240     2.2320   425.6630 
  133.0000    63.9110    23.9680     9.2130     8.5480    10.2770   -20.0870     2.2330   418.1770 
  133.1250    65.4060    23.9680     9.3110     8.3530     9.9720   -19.6830     2.2410   408.2850 
  133.2500    66.8980    23.9680     9.0890     8.1770     9.6910   -19.2240     2.2530   399.3070 
  133.3750    67.3800    23.9680     8.7150     8.1050     9.5640   -18.6970     2.2620   393.2290 
  133.5000    68.7780    23.9680     8.4550     8.2250     9.7250   -18.1290     2.2750   390.6490 
  133.6250    71.3900    24.0010     8.3190     8.5980    10.2550   -17.4960     2.3210   385.5020 
  133.7500    71.8700    24.1350     8.2410     9.0690    10.9080   -16.8180     2.4020   367.1640 
  133.8750    70.8790    24.3820     8.1880     9.3950    11.3340   -16.1120     2.4880   332.7140 
  134.0000    73.8600    24.5680     8.0280     9.3000    11.1660   -15.4090     2.5340   294.3940 
  134.1250    81.9070    24.6270     7.4850     8.5830    10.1570   -14.7600     2.5060   280.0120 
  134.2500    90.6570    24.6310     6.6690     7.5480     8.7420   -14.1670     2.4410   298.4800 
  134.3750    97.1510    24.6310     5.9840     6.5090     7.3760   -13.6660     2.3810   339.0460 
  134.5000    99.5850    24.6310     5.7020     5.6920     6.3740   -13.2550     2.3510   380.5540 
  134.6250   102.4820    24.6310     5.6130     5.2340     5.8960   -12.9750     2.3470   404.4020 
  134.7500   106.1860    24.6260     5.5540     5.0520     5.7730   -12.7890     2.3450   413.4950 
  134.8750   104.8770    24.6060     5.5910     5.0580     5.8530   -12.6800     2.3370   414.9750 
