~V
VERS. 2.00: Ver 2.00
~W
STRT.M 64.0000:
STOP.M 268.0000:
STEP.M 0.1250:
NULL. -999.2500:
UWI. DF3002:
~C
DEPT.M :
GR.API :
RML.OHMM :
RI. :
RXO.OHMM :
DEN.GM/CC :
SP.MV :
~A
# ...
  154.1250    62.8790    16.6790    14.3080    13.0380     2.5550   -24.7010 
  154.2500    64.8330    16.6820    14.2600    12.5320     2.5500   -24.8080 
  154.3750    63.7240    17.1290    14.5960    12.6070     2.5330   -24.8370 
  154.5000    64.5550    17.9030    15.2480    13.2100     2.5080   -24.8720 
  154.6250    70.0810    18.7980    16.0780    14.0430     2.4840   -24.9720 
  154.7500    74.3440    19.5680    16.8700    15.0500     2.4690   -24.9940 
  154.8750    76.5590    20.0780    17.4890    15.9020     2.4640   -25.0560 
  155.0000    77.2590    20.3040    17.8820    16.3290     2.4640   -25.2200 
  155.1250    78.4980    20.3090    18.0650    16.6130     2.4620   -25.1950 
  155.2500    79.7230    20.2820    18.1830    16.3040     2.4570   -25.1740 
  155.3750    79.0140    20.3370    18.3350    15.7530     2.4500   -25.2990 
  155.5000    77.3390    20.5170    18.5660    15.5270     2.4470   -25.3110 
  155.6250    77.5500    20.7740    18.8530    15.9530     2.4510   -25.2930 
  155.7500    80.0200    20.9850    19.0970    16.6540     2.4580   -25.4030 
  155.8750    82.6980    21.0560    19.2110    16.9350     2.4650   -25.4170 
  156.0000    85.0980    20.9240    19.1250    16.9660     2.4680   -25.4450 
  156.1250    85.7410    20.4960    18.7440    16.2290     2.4620   -25.6060 
  156.2500    83.5600    19.7760    18.0830    15.2360     2.4460   -25.7140 
  156.3750    82.3470    18.7760    17.1630    14.6200     2.4220   -25.8220 
  156.5000    83.5070    17.6090    16.0860    14.5890     2.3920   -25.9950 
  156.6250    83.5360    16.6180    15.1240    14.4020     2.3660   -26.2440 
  156.7500    81.8240    16.2240    14.6010    13.5430     2.3480   -26.5110 
  156.8750    82.2060    16.7870    14.8110    12.6590     2.3410   -26.8100 
  157.0000    84.4540    18.5250    15.9750    13.7780     2.3390   -27.1610 
  157.1250    83.7440    21.5960    18.3640    18.0670     2.3370   -27.5080 
  157.2500    81.1080    25.5190    21.6890    24.7790     2.3320   -27.8990 
  157.3750    79.8440    29.9340    25.6840    30.9240     2.3270   -28.3170 
  157.5000    79.7880    34.5810    30.0550    34.8960     2.3220   -28.7050 
  157.6250    79.6940    39.5400    34.6980    38.0430     2.3180   -29.0370 
  157.7500    81.9040    45.1170    39.7570    41.3220     2.3090   -29.3700 
  157.8750    86.1870    51.6110    45.5110    46.2430     2.2930   -29.6710 
  158.0000    86.8910    58.9530    52.0120    55.5970     2.2740   -29.8340 
  158.1250    80.3030    66.3900    58.7580    69.3470     2.2590   -30.0610 
  158.2500    75.0600    72.7380    64.7300    80.7870     2.2520   -30.3070 
  158.3750    75.3110    77.1790    69.1480    82.9680     2.2550   -30.3740 
  158.5000    77.6780    79.5420    71.7440    77.0720     2.2640   -30.5110 
  158.6250    78.2460    80.2350    72.7430    70.7020     2.2740   -30.6900 
  158.7500    78.8810    80.3100    73.0880    66.3880     2.2810   -30.7400 
  158.8750    79.8980    79.9400    73.0320    64.7900     2.2810   -30.8870 
  159.0000    78.3190    78.7200    72.3240    64.0350     2.2770   -31.0120 
  159.1250    77.1270    75.9240    70.3040    64.4660     2.2700   -31.0240 
  159.2500    78.7770    71.8100    67.1660    66.7520     2.2660   -31.0640 
  159.3750    81.4060    67.2950    63.6230    64.4890     2.2690   -31.0850 
  159.5000    83.0640    63.9920    60.8300    54.5650     2.2770   -31.0610 
  159.6250    82.3850    63.8800    60.4150    45.7360     2.2870   -31.0760 
  159.7500    80.6430    67.9830    62.8030    45.3460     2.2910   -31.0790 
  159.8750    78.7100    76.2160    67.9760    50.7170     2.2890   -31.0730 
  160.0000    78.1800    87.3960    75.2190    62.1430     2.2820   -31.0910 
  160.1250    79.2980    99.2270    83.0200    76.5140     2.2740   -31.1190 
  160.2500    80.4810   106.3470    89.4670    79.5830     2.2680   -31.1920 
  160.3750    81.6910   110.4400    93.4780    79.4530     2.2650   -31.3200 
  160.5000    81.4970   111.5240    94.9190    88.6940     2.2620   -31.4570 
  160.6250    78.0130   110.5250    94.3880    95.0130     2.2590   -31.5750 
  160.7500    75.0470   109.2240    93.3600    89.7030     2.2570   -31.6710 
  160.8750    74.0130   108.4550    92.5900    82.9990     2.2550   -31.7720 
  161.0000    74.5840   108.4450    92.3850    82.4820     2.2530   -31.9090 
  161.1250    74.7370   108.8520    92.6230    91.0480     2.2490   -31.9590 
  161.2500    73.1470   108.8370    92.6960    86.7020     2.2440   -31.9700 
  161.3750    70.5660   107.7640    92.0870    81.3370     2.2360   -32.0950 
  161.5000    68.8870   105.4250    90.5640    83.9400     2.2280   -32.1530 
  161.6250    69.3230   102.2720    88.3990    88.1930     2.2230   -32.0830 
  161.7500    69.7030    99.5500    86.5530    81.6000     2.2230   -32.1560 
  161.8750    70.9710    98.2090    85.8280    71.1960     2.2290   -32.1790 
  162.0000    74.2900    98.7660    86.7180    66.5980     2.2380   -32.1290 
  162.1250    77.3320   101.3790    89.4620    70.8480     2.2470   -32.2680 
  162.2500    78.1170   104.8780    93.1240    77.2300     2.2540   -32.3240 
  162.3750    78.7650   107.9720    96.6070    81.6070     2.2560   -32.2340 
  162.5000    79.8430   109.2000    98.5940    83.2960     2.2540   -32.2330 
  162.6250    79.4530   106.8200    97.4000    82.7700     2.2490   -32.2570 
  162.7500    78.5160   101.1900    93.1290    80.7850     2.2430   -32.2970 
  162.8750    77.6060    93.2560    86.4570    77.2430     2.2370   -32.3500 
  163.0000    75.7120    84.5280    78.6620    71.0120     2.2340   -32.4340 
  163.1250    72.4330    76.7750    71.3360    61.7340     2.2370   -32.5530 
  163.2500    70.9430    70.9830    65.5470    53.0870     2.2440   -32.6990 
  163.3750    72.5430    67.8370    61.9870    49.4200     2.2520   -32.9700 
  163.5000    74.6540    68.0670    61.3680    52.1740     2.2570   -33.2950 
  163.6250    74.8120    73.8000    65.6420    55.9900     2.2550   -33.6300 
  163.7500    74.5540    86.1760    75.8730    58.0030     2.2460   -33.9320 
  163.8750    75.9380   106.5890    93.3340    66.8350     2.2320   -34.2250 
  164.0000    78.6820   134.7110   117.7460    94.0730     2.2170   -34.4850 
  164.1250    78.8910   166.8850   145.8830   140.7550     2.2050   -34.7060 
  164.2500    76.6900   194.5600   170.2440   179.2800     2.1990   -34.8940 
  164.3750    74.2800   210.0440   184.2630   197.2440     2.1970   -34.9490 
  164.5000    72.8820   209.3180   184.5270   204.5670     2.1990   -34.9730 
  164.6250    73.4100   194.7570   172.5410   185.6250     2.2010   -35.0340 
  164.7500    74.6960   178.6330   158.2520   153.1310     2.2030   -34.9700 
  164.8750    74.4510   168.4800   148.2590   123.0750     2.2060   -34.9470 
  165.0000    71.6630   167.8520   146.1890   105.7720     2.2070   -35.0220 
  165.1250    67.5860   178.3800   154.0950   104.5840     2.2040   -34.9140 
  165.2500    64.6970   195.0420   168.0630   116.6550     2.1950   -34.8750 
  165.3750    63.3050   211.8100   183.2280   131.6280     2.1840   -34.9330 
  165.5000    62.1850   220.9540   193.1040   142.0230     2.1750   -34.8570 
  165.6250    60.9760   212.7130   189.1570   157.8640     2.1750   -34.8830 
  165.7500    61.3600   188.6860   171.5680   168.4140     2.1860   -34.9730 
  165.8750    63.9290   155.5570   144.7770   155.8150     2.2050   -34.9810 
  166.0000    69.4760   123.1140   116.5250   112.6460     2.2300   -35.0220 
  166.1250    76.9680   100.4780    95.1650    77.0550     2.2560   -35.0510 
  166.2500    81.4660    88.3800    82.7640    62.4100     2.2760   -35.0490 
  166.3750    78.6730    85.7840    79.0510    62.7750     2.2850   -35.0750 
  166.5000    71.5710    90.7540    82.5620    68.2330     2.2840   -35.1070 
  166.6250    68.8260   101.4540    91.8070    87.1400     2.2730   -35.1210 
  166.7500    69.7770   114.2710   103.3940   107.6490     2.2610   -35.1010 
  166.8750    70.8160   127.1090   115.2700   123.7760     2.2540   -35.1040 
