~V
VERS. 2.00: Ver 2.00
~W
STRT.M 115.0000:
STOP.M 288.0000:
STEP.M 0.1250:
NULL. -999.2500:
UWI. DF3049:
~C
DEPT.M :
GR.API :
CALI.CM :
RXO.OHMM :
RI. :
RML.OHMM :
SP.MV :
DEN.GM/CC :
AC.US/MT :
~A
# ...
  135.0000    78.6330    24.2420     6.3310     5.3360     6.2090   -22.0580     2.3100   385.2380 
  135.1250    74.6080    24.2420     6.3980     5.5230     6.4460   -22.4980     2.3010   392.5950 
  135.2500    71.6710    24.2590     6.8680     5.9250     6.9930   -22.9180     2.3030   394.6220 
  135.3750    69.0320    24.3290     8.5950     6.5030     7.7800   -23.2780     2.3230   386.8100 
  135.5000    66.7750    24.4600    11.8800     7.1750     8.6750   -23.5890     2.3580   369.8780 
  135.6250    66.2870    24.5800    14.8640     7.8180     9.4970   -23.8620     2.3910   350.1070 
  135.7500    68.6690    24.6500    14.5230     8.3010    10.0680   -24.0370     2.3970   340.8690 
  135.8750    71.4910    24.6980    12.2920     8.6380    10.4430   -24.1480     2.3760   345.9530 
  136.0000    71.5600    24.7240    10.6670     8.8880    10.7390   -24.2170     2.3490   357.3440 
  136.1250    67.5100    24.7520    10.6570     9.1070    11.0450   -24.1930     2.3440   362.1850 
  136.2500    62.4260    24.8180    11.4190     9.2760    11.3160   -24.1260     2.3700   353.6160 
  136.3750    60.4830    24.8890    11.7530     9.3180    11.3790   -24.0310     2.3970   342.4400 
  136.5000    61.5460    24.9630    11.6750     9.1900    11.1310   -23.8820     2.3980   339.2000 
  136.6250    62.7780    25.0260    12.0110     8.9740    10.6870   -23.6600     2.3710   347.4460 
  136.7500    62.0670    25.0810    12.9090     8.9490    10.4830   -23.3870     2.3330   362.3520 
  136.8750    62.2370    25.0970    12.9570     9.3810    10.9240   -23.0370     2.3110   373.4440 
  137.0000    63.0200    25.1000    12.9530    10.4640    12.2600   -22.6130     2.3210   373.8750 
  137.1250    60.9200    25.1000    15.4480    12.2390    14.5190   -22.1370     2.3700   360.2490 
  137.2500    58.6210    25.1000    21.1880    14.3500    17.1820   -21.6030     2.4520   333.1390 
  137.3750    61.1780    25.0930    25.6280    15.6920    18.7140   -21.0420     2.5270   304.1730 
  137.5000    67.3300    25.0690    25.1710    15.2940    17.8070   -20.4590     2.5660   285.3380 
  137.6250    72.9560    25.0220    20.2730    13.1880    14.6750   -19.8280     2.5630   285.2280 
  137.7500    76.3190    24.9950    14.1710    10.4310    11.0050   -19.2180     2.5320   306.1570 
  137.8750    78.9700    24.9710     9.4410     8.0600     8.1080   -18.6580     2.4940   335.9930 
  138.0000    82.3160    24.9370     6.5900     6.3110     6.1530   -18.1720     2.4570   366.0450 
  138.1250    88.3200    24.9120     5.3100     5.1310     4.9570   -17.7970     2.4260   391.2990 
  138.2500    97.3840    24.9050     4.8300     4.4500     4.3470   -17.5470     2.4040   409.3410 
  138.3750   103.8360    24.9050     4.4680     4.0950     4.0900   -17.3970     2.3890   422.2970 
  138.5000   103.7790    24.9050     4.2090     4.0230     4.1430   -17.3610     2.3830   431.3480 
  138.6250    98.7950    24.9050     4.0980     4.2080     4.4920   -17.4900     2.3860   436.2290 
  138.7500    92.4640    24.9050     4.4680     4.6220     5.1150   -17.7080     2.3860   433.4220 
  138.8750    86.6880    24.9030     5.5250     5.0990     5.8000   -17.9950     2.3750   422.8990 
  139.0000    83.1320    24.8980     6.8410     5.4700     6.3050   -18.2940     2.3620   408.1590 
  139.1250    84.3530    24.8860     7.2800     5.6190     6.4570   -18.5730     2.3630   395.7290 
  139.2500    87.6940    24.8760     6.5370     5.6050     6.3460   -18.8400     2.3840   391.7860 
  139.3750    87.7360    24.8720     5.8710     5.6910     6.3890   -19.1340     2.4100   392.4220 
  139.5000    88.5630    24.8720     6.2030     6.0790     6.8970   -19.5020     2.4380   388.8940 
  139.6250    90.2580    24.8740     7.9570     6.8900     8.0390   -19.9810     2.4760   372.1630 
  139.7500    84.0950    24.8820    12.2840     8.1850     9.8900   -20.5780     2.5260   338.2770 
  139.8750    72.4780    24.8950    17.9230     9.6700    12.0020   -21.2680     2.5630   300.9680 
  140.0000    65.8820    24.9020    22.3080    10.9890    13.8140   -22.0450     2.5560   276.0340 
  140.1250    67.6410    24.9050    22.6610    11.8530    14.8640   -22.8830     2.4940   274.5420 
  140.2500    69.5790    24.9050    18.8900    12.1950    15.1040   -23.6920     2.3940   299.0970 
  140.3750    68.1840    24.9050    15.5720    12.3150    15.0870   -24.4150     2.3020   333.8950 
  140.5000    65.6760    24.8960    14.6120    12.3380    15.0440   -24.9920     2.2410   366.5580 
  140.6250    64.1290    24.8700    14.9200    12.2320    14.8960   -25.3500     2.2130   389.2660 
  140.7500    67.7870    24.8340    14.6940    11.8230    14.3260   -25.4920     2.2050   399.0810 
  140.8750    72.7510    24.8490    13.7190    11.1470    13.3540   -25.4640     2.2030   402.0620 
  141.0000    74.1220    24.8860    12.3290    10.3870    12.2700   -25.2720     2.2050   402.4360 
  141.1250    72.0330    24.9050    10.7800     9.7810    11.4480   -24.8930     2.2120   402.5150 
  141.2500    70.2660    24.9050     9.6080     9.5010    11.1330   -24.3820     2.2250   402.3380 
  141.3750    69.9860    24.9080     9.1890     9.4100    11.0860   -23.7290     2.2450   399.8230 
  141.5000    71.1710    24.9320     9.6720     9.2850    10.9630   -22.9670     2.2810   392.1350 
  141.6250    75.0020    24.9930    10.5970     8.8940    10.4270   -22.1230     2.3310   378.4610 
  141.7500    80.4090    25.0620    10.4160     8.1010     9.3090   -21.2680     2.3860   364.1470 
  141.8750    83.1160    25.0910     8.6160     7.1380     7.9860   -20.4440     2.4220   358.6040 
  142.0000    83.7680    25.0990     6.5930     6.2400     6.8130   -19.6790     2.4260   365.7890 
  142.1250    85.2880    25.1000     5.6310     5.5660     6.0030   -19.0380     2.4030   381.2230 
  142.2500    87.0880    25.1020     5.4950     5.2000     5.6360   -18.5350     2.3690   394.0450 
  142.3750    87.3610    25.1140     5.5990     5.0460     5.5290   -18.1870     2.3450   398.7550 
  142.5000    87.1830    25.1450     5.6510     5.0240     5.5460   -17.9950     2.3400   397.4150 
  142.6250    91.1830    25.1740     5.5450     5.0640     5.5930   -17.9190     2.3540   394.8400 
  142.7500    97.8050    25.1850     5.3350     5.1420     5.6550   -17.9310     2.3750   394.4660 
  142.8750    98.9270    25.1870     5.1950     5.2450     5.7480   -18.0030     2.3890   395.4290 
  143.0000    92.8310    25.1870     5.3160     5.3570     5.8640   -18.1170     2.3970   395.6380 
  143.1250    87.8110    25.1870     5.7980     5.4390     5.9490   -18.2410     2.4020   393.6930 
  143.2500    92.4120    25.1870     6.1730     5.4310     5.9100   -18.3400     2.4080   390.6290 
  143.3750    99.1650    25.1870     5.8950     5.3440     5.7570   -18.4480     2.4120   389.6340 
  143.5000   102.0510    25.1870     5.2810     5.2350     5.5790   -18.5740     2.4040   391.9450 
  143.6250    98.8110    25.1870     4.9560     5.1780     5.4920   -18.7380     2.3820   395.8220 
  143.7500    90.7820    25.1870     4.9820     5.2610     5.6240   -18.9010     2.3500   397.7510 
  143.8750    84.3220    25.1870     5.1580     5.4770     5.9510   -19.0270     2.3210   397.0200 
  144.0000    88.2600    25.1870     5.4650     5.7640     6.3740   -19.0990     2.3000   394.9380 
  144.1250   101.4750    25.1870     5.8980     6.0150     6.7400   -19.0950     2.2850   392.7840 
  144.2500   105.8770    25.1870     6.2920     6.1060     6.8860   -19.0530     2.2780   390.4880 
  144.3750   100.0530    25.1870     6.5350     6.0430     6.8310   -18.9300     2.2840   387.8260 
  144.5000    93.9750    25.1870     6.5470     5.8690     6.6380   -18.7210     2.3100   385.7510 
  144.6250    92.1500    25.2020     6.3440     5.6470     6.3940   -18.4600     2.3450   384.9790 
  144.7500    89.3590    25.2800     6.2560     5.4620     6.2090   -18.1600     2.3690   384.9300 
  144.8750    85.6970    25.4280     6.3310     5.3800     6.1650   -17.8590     2.3760   384.1150 
