~V
VERS. 2.00: Ver 2.00
~W
STRT.M 67.0000:
STOP.M 279.0000:
STEP.M 0.1250:
NULL. -999.2500:
UWI. DF3057:
~C
DEPT.M :
GR.API :
CALI.CM :
RXO.OHMM :
RI. :
RML.OHMM :
DEN.GM/CC :
SP.MV :
~A
# ...
  179.5000    69.7110    23.8320    63.8690   122.2630   146.1670     2.2770   -37.6070 
  179.6250    70.3380    23.4890    61.7650   110.3250   130.3250     2.2760   -37.5360 
  179.7500    70.7010    23.2740    53.3870    98.3900   115.0890     2.2890   -37.5520 
  179.8750    73.3180    23.3720    47.2410    87.8480   102.1440     2.3110   -37.6400 
  180.0000    75.9090    23.8440    44.1550    79.8510    92.7090     2.3320   -37.6980 
  180.1250    76.1160    24.2830    42.4430    75.2390    87.4490     2.3380   -37.6250 
  180.2500    77.1720    24.7820    43.8740    72.9960    84.9330     2.3290   -37.4880 
  180.3750    78.9630    25.1190    48.7120    72.5990    84.4260     2.3150   -37.3500 
  180.5000    77.9150    25.1700    53.0030    73.2830    85.0190     2.3060   -37.3140 
  180.6250    72.0520    25.1250    53.4350    74.0360    85.4820     2.3080   -37.4140 
  180.7500    65.3480    25.1460    52.8130    74.2710    85.3640     2.3160   -37.5270 
  180.8750    61.9130    25.2630    51.7070    73.9490    84.7030     2.3250   -37.5210 
  181.0000    63.6620    25.2440    51.7600    73.2330    83.6870     2.3340   -37.3990 
  181.1250    68.3110    25.1560    52.7200    72.4980    82.9440     2.3410   -37.3000 
  181.2500    71.3640    25.1330    53.2660    72.4120    83.1150     2.3440   -37.3110 
  181.3750    72.5400    25.1410    54.2700    73.1290    84.3410     2.3390   -37.4400 
  181.5000    72.5710    25.2430    55.7600    74.6840    86.5690     2.3210   -37.5820 
  181.6250    71.3350    25.1410    54.4960    77.0750    89.7260     2.3000   -37.6230 
  181.7500    69.9900    25.1290    52.6210    79.9540    93.3390     2.2920   -37.5580 
  181.8750    69.3220    25.1280    53.7690    82.8540    96.8420     2.3030   -37.4690 
  182.0000    70.9250    25.1440    60.5440    85.2720    99.7970     2.3260   -37.4720 
  182.1250    73.6350    25.1630    67.4890    86.7030   101.5380     2.3430   -37.5710 
  182.2500    75.1150    25.1660    69.6060    87.0990   102.0590     2.3430   -37.6920 
  182.3750    74.9060    25.1370    68.1690    86.5870   101.5550     2.3260   -37.7440 
  182.5000    72.9160    25.0860    67.6740    85.3810   100.2650     2.3030   -37.7100 
  182.6250    71.3570    24.9400    63.9340    84.0690    99.1090     2.2970   -37.6310 
  182.7500    70.8710    24.6390    60.8500    83.7030    99.3060     2.3120   -37.6130 
  182.8750    70.3820    24.5930    58.5670    85.0550   101.7280     2.3320   -37.7090 
  183.0000    67.2750    24.5180    58.2520    88.8470   107.0470     2.3400   -37.8570 
  183.1250    64.0600    24.5530    65.2440    95.9420   116.3040     2.3320   -37.9890 
  183.2500    64.5120    24.8850    74.0510   106.1300   129.1210     2.3230   -38.0370 
  183.3750    65.8030    25.4130    84.5320   118.6200   144.5590     2.3090   -38.0010 
  183.5000    64.2260    25.5870    98.1040   132.1590   161.1610     2.2780   -37.9420 
  183.6250    60.9340    25.6010   113.1230   144.5600   176.3540     2.2370   -37.9480 
  183.7500    59.1240    25.4350   121.3660   153.7170   187.2600     2.2100   -38.0210 
  183.8750    58.6140    25.4090   123.3580   158.5550   192.6920     2.1990   -38.1080 
  184.0000    58.6450    25.3780   117.2730   159.2560   192.9270     2.1900   -38.1370 
  184.1250    59.4870    25.3670   109.1000   156.4520   188.9750     2.1880   -38.0640 
  184.2500    61.5920    25.4460   106.0130   152.0840   183.3050     2.2040   -37.9360 
  184.3750    65.0960    25.6220   105.9310   147.3680   177.2530     2.2310   -37.8490 
  184.5000    67.2720    25.7100   104.4390   142.8920   171.3420     2.2520   -37.8750 
  184.6250    64.8100    25.5890   100.1390   138.6340   165.5240     2.2560   -37.9510 
  184.7500    62.1240    25.4850    94.3020   134.6360   160.0050     2.2560   -37.9600 
  184.8750    63.9980    25.4030    93.5550   130.9930   154.9790     2.2610   -37.8600 
  185.0000    69.7820    25.1640    94.7050   127.8710   150.7370     2.2750   -37.6680 
  185.1250    74.6860    25.1520    90.5440   125.9510   147.9550     2.2880   -37.4370 
  185.2500    75.6910    25.2210    83.9100   125.4570   146.9820     2.2890   -37.2590 
  185.3750    72.0590    25.3950    79.9850   126.5890   147.9890     2.2820   -37.1440 
  185.5000    65.2080    25.4250    83.1280   129.1020   150.6800     2.2840   -37.0450 
  185.6250    59.2290    25.4860    87.6950   132.6450   154.2040     2.2960   -36.8990 
  185.7500    58.9000    25.5980    89.1720   136.0360   157.3410     2.2980   -36.6920 
  185.8750    61.7690    25.6710    88.1760   138.7510   159.5630     2.2800   -36.4430 
  186.0000    61.8280    25.7150    90.7890   140.0760   159.9580     2.2500   -36.2520 
  186.1250    57.1380    25.6540    99.5830   138.7700   157.3180     2.2200   -36.1640 
  186.2500    55.0400    25.5610   104.4720   135.3240   152.3650     2.2060   -36.1760 
  186.3750    59.0520    25.6490    94.7910   130.5390   146.1730     2.2130   -36.2020 
  186.5000    64.3780    25.7250    72.5590   124.9810   139.5060     2.2350   -36.1420 
  186.6250    62.8150    25.6430    77.8900   119.1310   133.0760     2.2500   -35.9870 
  186.7500    58.9790    25.4980    89.2090   113.6950   127.3320     2.2490   -35.8530 
  186.8750    61.6320    25.6370    85.9690   109.0110   122.5250     2.2400   -35.8190 
  187.0000    71.1510    25.8100    75.6130   105.2100   118.8350     2.2380   -35.8740 
  187.1250    75.2630    25.7880    76.2740   102.8790   116.9330     2.2580   -35.9790 
  187.2500    70.1030    25.7580    74.4770   101.9940   116.7630     2.2840   -36.0110 
  187.3750    63.3340    25.7450    68.5300   102.9880   118.7590     2.3010   -35.9520 
  187.5000    61.9490    25.7400    66.1330   106.2270   123.4550     2.3020   -35.8500 
  187.6250    63.0820    25.7340    71.2640   112.2480   131.5980     2.2950   -35.8130 
  187.7500    62.6830    25.7660    77.8490   120.4270   142.4620     2.2860   -35.8740 
  187.8750    61.3410    25.7920    82.9200   130.0600   155.1900     2.2710   -35.9990 
  188.0000    61.2440    25.9600    92.5290   139.9190   168.4790     2.2510   -36.1000 
  188.1250    63.2710    25.7790   103.6460   148.3820   180.1380     2.2380   -36.1270 
  188.2500    63.1250    25.7800   105.7740   154.3520   188.3590     2.2330   -36.0970 
  188.3750    59.0330    25.8670    98.0190   156.8900   191.7150     2.2340   -36.0430 
  188.5000    53.9020    25.9730    91.3560   155.6060   189.5570     2.2390   -36.0210 
  188.6250    54.6840    25.7860    93.0540   150.6590   182.1230     2.2510   -36.0920 
  188.7500    59.0470    25.8030    93.9950   143.3000   171.5600     2.2630   -36.1910 
  188.8750    62.6550    25.8480    91.5130   134.4880   159.2090     2.2670   -36.2360 
  189.0000    63.7790    25.8920    85.6970   125.1720   146.3110     2.2650   -36.2280 
  189.1250    63.4800    25.7650    80.0100   115.8630   133.6430     2.2730   -36.1730 
  189.2500    65.1350    25.7530    73.4080   106.4510   121.3520     2.2910   -36.1120 
  189.3750    68.0750    25.7720    67.7140    97.0390   109.3940     2.3030   -36.0780 
  189.5000    70.2980    25.8720    64.4630    87.8450    97.9430     2.3020   -36.1000 
  189.6250    71.6240    25.8010    61.5630    78.9780    87.1470     2.2910   -36.1260 
  189.7500    72.3280    25.7550    56.5460    70.5630    77.1690     2.2850   -36.1120 
  189.8750    69.7310    25.7530    50.1930    63.0970    68.5390     2.2890   -36.0390 
  190.0000    64.5740    25.7940    43.2970    57.1180    61.7800     2.3060   -35.9290 
  190.1250    65.2400    25.7220    36.9980    53.3330    57.6640     2.3250   -35.8360 
  190.2500    71.2960    25.5560    32.6790    51.6500    56.0530     2.3330   -35.8470 
  190.3750    75.6950    25.4160    31.5520    52.2060    57.0540     2.3260   -35.9810 
  190.5000    75.9050    25.3790    32.6790    54.8260    60.4390     2.3110   -36.1670 
  190.6250    74.3950    25.4720    35.9960    59.5000    66.0680     2.2970   -36.2720 
