~V
VERS. 2.00: Ver 2.00
~W
STRT.M 130.0000:
STOP.M 279.0000:
STEP.M 0.1250:
NULL. -999.2500:
UWI. DF307:
~C
DEPT.M :
DEN.GM/CC :
AC.US/MT :
GR.API :
CALI.CM :
RXO.OHMM :
RI. :
RML.OHMM :
SP.MV :
~A
  130.0000     2.2520   417.9800    98.0590    26.9480     5.2540     4.6700     5.3350   -12.6040 
  130.1250     2.2950   419.2560    99.2130    26.9570     5.1920     4.4640     5.0950   -12.4030 
  130.2500     2.3230   417.2480   100.1830    26.9380     5.0910     4.3130     4.9560   -12.2820 
  130.3750     2.3250   413.2210    98.9490    26.9050     5.0190     4.2290     4.9130   -12.2460 
  130.5000     2.3130   408.0310    95.9610    26.8330     5.0590     4.2060     4.9300   -12.2840 
  130.6250     2.3090   400.9290    91.2640    26.6790     5.2810     4.2430     4.9870   -12.3820 
  130.7500     2.3150   389.9570    87.5860    26.4980     5.5440     4.3490     5.1160   -12.5190 
  130.8750     2.3230   372.2930    86.6640    26.3720     5.7320     4.5780     5.4300   -12.6940 
  131.0000     2.3360   346.0380    85.5880    26.3320     6.0310     5.0250     6.1060   -12.9370 
  131.1250     2.3720   311.8360    80.9360    26.3400     7.2460     5.9030     7.4670   -13.2760 
  131.2500     2.4220   277.7280    74.9780    26.3590     9.9280     7.2750     9.5710   -13.6930 
  131.3750     2.4590   252.7550    71.1300    26.3930    14.1550     9.1180    12.3240   -14.1970 
  131.5000     2.4730   244.0550    70.3190    26.4310    18.7300    11.1080    15.1430   -14.8030 
  131.6250     2.4690   260.5610    71.6850    26.4390    19.9650    12.3280    16.4690   -15.5200 
  131.7500     2.4420   299.6700    73.7700    26.3230    16.9630    12.2590    15.7070   -16.2740 
  131.8750     2.3760   349.7220    74.1650    25.9760    12.2480    11.1700    13.6400   -17.0280 
  132.0000     2.2850   391.3680    71.5370    25.4350     8.9100     9.7770    11.5340   -17.7410 
  132.1250     2.2190   409.7550    67.9300    24.9530     7.9890     8.6990    10.2290   -18.3760 
  132.2500     2.1880   414.7850    65.5030    24.6960     8.3350     8.0610     9.6640   -18.9170 
  132.3750     2.1690   416.1070    65.4370    24.6120     9.2690     7.8080     9.6450   -19.3620 
  132.5000     2.1450   416.6250    70.1710    24.6060     9.9870     7.8130     9.9080   -19.6790 
  132.6250     2.1250   416.8570    76.3280    24.6310     9.6770     7.9160    10.1520   -19.8800 
  132.7500     2.1220   416.1820    77.2680    24.6390     8.8660     7.9770    10.2190   -20.0530 
  132.8750     2.1370   414.1740    72.2770    24.6100     8.3050     7.9730    10.1380   -20.2390 
  133.0000     2.1640   411.5940    66.2530    24.5780     8.1750     7.9390    10.0180   -20.3540 
  133.1250     2.1810   410.7170    65.4100    24.5840     8.1900     7.9310     9.9710   -20.4700 
  133.2500     2.1790   412.7940    69.2610    24.6050     8.1820     7.9740    10.0140   -20.6790 
  133.3750     2.1660   417.2920    74.2850    24.6270     8.2510     8.0580    10.1210   -20.9160 
  133.5000     2.1560   422.1630    75.1840    24.6560     8.4710     8.1630    10.2520   -21.1650 
  133.6250     2.1550   424.7580    69.5570    24.7090     8.8200     8.2630    10.3800   -21.4060 
  133.7500     2.1580   424.7250    64.7400    24.7750     9.1350     8.3470    10.4910   -21.6070 
  133.8750     2.1580   422.8830    63.0810    24.8470     9.3060     8.4080    10.5700   -21.7550 
  134.0000     2.1540   420.3870    62.9270    24.9180     9.3120     8.4380    10.6020   -21.8400 
  134.1250     2.1450   418.1330    65.8100    24.9560     9.2140     8.4200    10.5570   -21.8520 
  134.2500     2.1390   416.5580    70.4820    24.9530     9.1020     8.3450    10.4280   -21.8100 
  134.3750     2.1380   416.1930    74.1370    24.9380     8.9840     8.2070    10.2130   -21.7210 
  134.5000     2.1380   417.8750    75.3690    24.9470     8.8180     8.0150     9.9320   -21.5920 
  134.6250     2.1340   422.9410    75.4610    24.9810     8.5690     7.8010     9.6380   -21.4860 
  134.7500     2.1260   430.5730    76.8360    24.9980     8.3240     7.6180     9.4060   -21.4090 
  134.8750     2.1160   438.7100    76.9760    24.9500     8.1930     7.5060     9.2870   -21.3510 
  135.0000     2.1060   444.1910    74.2570    24.8480     8.2090     7.4900     9.3090   -21.3150 
  135.1250     2.1000   443.2340    71.4120    24.8350     8.3460     7.5910     9.4850   -21.3140 
  135.2500     2.1030   436.5310    71.1090    24.8760     8.5710     7.7740     9.7510   -21.3380 
  135.3750     2.1200   426.2360    75.3660    24.7990     8.8950     8.0070    10.0570   -21.3950 
  135.5000     2.1440   415.4220    80.0140    24.6030     9.2480     8.2560    10.3580   -21.4770 
  135.6250     2.1640   407.5630    80.3930    24.5470     9.4590     8.4900    10.6250   -21.5300 
  135.7500     2.1720   404.0180    77.5050    24.6870     9.5220     8.6920    10.8520   -21.5540 
  135.8750     2.1670   405.0750    73.7940    24.8340     9.5800     8.8450    11.0110   -21.5490 
  136.0000     2.1530   409.7770    70.6340    24.8750     9.7500     8.9060    11.0330   -21.5030 
  136.1250     2.1410   415.7120    67.4660    24.9150     9.9480     8.7890    10.7840   -21.3900 
  136.2500     2.1430   419.7990    68.5100    25.0450     9.8870     8.4880    10.2700   -21.2100 
  136.3750     2.1640   420.7900    76.2080    25.2150     9.3520     8.0380     9.5690   -20.9860 
  136.5000     2.1930   419.2520    84.3300    25.3300     8.4290     7.5270     8.8380   -20.7640 
  136.6250     2.2100   417.1310    84.8710    25.3380     7.5960     7.0870     8.2870   -20.6080 
  136.7500     2.2070   416.4750    82.1830    25.2960     7.2400     6.7960     8.0020   -20.5100 
  136.8750     2.1920   418.1510    80.8650    25.2340     7.3350     6.6800     7.9890   -20.4660 
  137.0000     2.1750   422.0380    82.4610    25.1810     7.6260     6.7250     8.1900   -20.4740 
  137.1250     2.1640   426.7390    84.0230    25.1650     7.8660     6.8860     8.4980   -20.5650 
  137.2500     2.1550   429.4900    83.4610    25.1670     8.0150     7.0710     8.7700   -20.7150 
  137.3750     2.1420   428.0240    80.9240    25.1760     8.1110     7.2290     8.9380   -20.8740 
  137.5000     2.1240   421.6200    79.2710    25.1940     8.1630     7.3330     8.9960   -20.9950 
  137.6250     2.1170   411.9940    80.4300    25.1850     8.1250     7.3810     8.9740   -21.0570 
  137.7500     2.1320   403.4970    80.9930    25.1290     8.0240     7.3930     8.9250   -21.0670 
  137.8750     2.1580   398.6180    80.8090    25.0540     7.9290     7.3810     8.8700   -21.0170 
  138.0000     2.1740   397.5240    81.8460    24.9880     7.8780     7.3560     8.8210   -20.9130 
  138.1250     2.1630   398.2930    83.0190    24.9180     7.8430     7.3300     8.7910   -20.7470 
  138.2500     2.1470   398.3880    81.6460    24.8480     7.8240     7.3150     8.7900   -20.5420 
  138.3750     2.1390   397.5340    79.2280    24.8080     7.8750     7.3140     8.8230   -20.3110 
  138.5000     2.1400   397.0100    79.5940    24.8120     8.0050     7.3230     8.8780   -20.0590 
  138.6250     2.1360   398.6010    81.2170    24.8200     8.1400     7.3230     8.9170   -19.7320 
  138.7500     2.1260   401.8490    80.5120    24.7960     8.2090     7.2900     8.8970   -19.3740 
  138.8750     2.1220   405.3620    79.7370    24.7500     8.1490     7.2090     8.7910   -19.0330 
  139.0000     2.1300   407.7440    81.2450    24.7620     7.9770     7.0820     8.6040   -18.7490 
  139.1250     2.1460   407.9800    83.4750    24.9000     7.9100     6.9390     8.3930   -18.5840 
  139.2500     2.1620   406.6410    82.8140    25.0340     8.1040     6.8430     8.2560   -18.5560 
  139.3750     2.1750   404.6590    81.9860    25.0270     8.3880     6.8430     8.2690   -18.6630 
  139.5000     2.1830   403.3330    82.6840    24.8900     8.5050     6.9700     8.4690   -18.9110 
  139.6250     2.1810   404.3060    82.4260    24.7420     8.5120     7.2400     8.8600   -19.3090 
  139.7500     2.1690   407.6360    81.4500    24.6080     8.6690     7.5830     9.3200   -19.7800 
  139.8750     2.1550   412.4630    81.0460    24.4680     8.9170     7.9310     9.7320   -20.2890 
