~V
VERS. 2.00: Ver 2.00
~W
STRT.M 125.0000:
STOP.M 275.0000:
STEP.M 0.1250:
NULL. -999.2500:
UWI. DF3074:
~C
DEPT.M :
GR.API :
CALI.CM :
RXO.OHMM :
RI. :
RML.OHMM :
DEN.GM/CC :
SP.MV :
~A
# ...
  136.2500    74.2490    23.6330     9.2430     8.7830    10.4670     2.1830   -13.5020 
  136.3750    76.6950    23.5090     8.6050     8.5740    10.0560     2.1870   -13.2470 
  136.5000    76.7130    23.4110     8.1200     8.3500     9.6680     2.1980   -13.0520 
  136.6250    73.3790    23.3400     7.8650     8.2310     9.4890     2.2010   -12.8800 
  136.7500    70.6570    23.3620     7.7760     8.2550     9.5400     2.1960   -12.6930 
  136.8750    70.0370    23.4640     7.8090     8.3770     9.7240     2.1900   -12.4350 
  137.0000    70.1750    23.5770     7.9270     8.4690     9.8310     2.1890   -12.1290 
  137.1250    70.7760    23.6740     8.0560     8.3120     9.5330     2.1940   -11.7030 
  137.2500    73.0590    23.7670     7.9610     7.8450     8.7780     2.2080   -11.1960 
  137.3750    76.2730    23.9190     7.3920     7.1340     7.7050     2.2380   -10.6070 
  137.5000    80.0380    24.1790     6.5290     6.3390     6.5800     2.2840    -9.9920 
  137.6250    84.3910    24.5350     5.8460     5.6610     5.7000     2.3320    -9.3950 
  137.7500    87.7030    24.9280     5.5850     5.1890     5.1540     2.3580    -8.7840 
  137.8750    90.8490    25.2510     5.5440     4.9420     4.9380     2.3520    -8.3050 
  138.0000    93.8550    25.4350     5.5370     4.8860     4.9690     2.3260    -7.9790 
  138.1250    93.5270    25.5320     5.5910     4.9590     5.1290     2.3080    -7.8310 
  138.2500    90.9350    25.5460     5.7510     5.0570     5.2760     2.3130    -7.7960 
  138.3750    90.3420    25.4410     5.8820     5.1300     5.3530     2.3340    -7.9200 
  138.5000    93.5170    25.3190     5.8820     5.1670     5.3650     2.3550    -8.1180 
  138.6250    94.7470    25.3020     5.8080     5.1890     5.3620     2.3530    -8.4200 
  138.7500    91.1270    25.3330     5.8530     5.2300     5.3970     2.3280    -8.8350 
  138.8750    86.8890    25.3290     6.0380     5.2980     5.4790     2.2950    -9.3000 
  139.0000    85.5470    25.2830     6.2850     5.3960     5.6040     2.2720    -9.8890 
  139.1250    85.0560    25.1080     6.4760     5.5650     5.8260     2.2630   -10.5790 
  139.2500    82.9880    24.8050     6.6340     5.8540     6.2180     2.2550   -11.3640 
  139.3750    79.4650    24.5100     6.8770     6.3250     6.8690     2.2460   -12.1330 
  139.5000    74.6810    24.3620     7.5920     7.0240     7.8380     2.2540   -12.8830 
  139.6250    71.1530    24.3470     9.5640     7.9880     9.1480     2.2900   -13.5550 
  139.7500    71.4110    24.3680    11.9320     9.0870    10.5800     2.3260   -14.1970 
  139.8750    74.5050    24.3570    13.0120    10.1530    11.8750     2.3330   -14.7350 
  140.0000    76.7110    24.2220    12.2240    10.9960    12.7890     2.3010   -15.1300 
  140.1250    76.1040    23.9830    11.5130    11.4250    13.1460     2.2530   -15.4270 
  140.2500    74.1050    23.8140    11.4770    11.5080    13.1310     2.2200   -15.5810 
  140.3750    71.7370    23.7450    11.5210    11.3510    12.9290     2.2080   -15.7230 
  140.5000    70.5640    23.7230    10.9490    11.0760    12.7000     2.2120   -15.8330 
  140.6250    70.5120    23.7200    10.1270    10.7670    12.5140     2.2210   -15.9470 
  140.7500    69.0330    23.7130     9.6110    10.4520    12.3260     2.2240   -15.9870 
  140.8750    67.2730    23.6990     9.4880    10.1130    12.0450     2.2130   -16.0050 
  141.0000    67.7460    23.6720     9.5900     9.7260    11.5830     2.1940   -15.9500 
  141.1250    69.5490    23.6870     9.8080     9.3220    10.9550     2.1800   -15.8420 
  141.2500    71.4570    23.7440    10.0360     9.0520    10.4480     2.1830   -15.7090 
  141.3750    73.2300    23.8050    10.3550     9.1430    10.4510     2.2000   -15.5040 
  141.5000    73.8120    23.8380    11.5040     9.8850    11.3960     2.2330   -15.2620 
  141.6250    71.0960    23.9190    16.1460    11.8660    14.0130     2.3010   -14.9350 
  141.7500    66.6740    24.1250    25.3430    15.2470    18.4260     2.4150   -14.6070 
  141.8750    63.0010    24.3920    37.2970    19.8150    24.3170     2.5530   -14.2630 
  142.0000    61.0310    24.5430    46.7080    24.1990    29.7530     2.6560   -13.9740 
  142.1250    60.2430    24.5750    46.2940    25.2540    30.2690     2.6560   -13.7760 
  142.2500    59.9760    24.5650    36.1360    22.6910    26.0300     2.5740   -13.6590 
  142.3750    60.9020    24.4910    22.9640    18.5200    20.3420     2.4580   -13.6350 
  142.5000    62.4690    24.3300    14.0810    14.7770    15.8340     2.3460   -13.7180 
  142.6250    64.3620    24.1060    11.1790    12.4790    13.4840     2.2630   -13.8840 
  142.7500    66.8440    23.9610    10.9220    11.3300    12.6530     2.2100   -14.1130 
  142.8750    69.2740    23.9130    11.7200    11.0390    12.8750     2.1860   -14.3800 
  143.0000    69.8410    23.9070    12.6600    11.2630    13.6050     2.1810   -14.6470 
  143.1250    68.3480    23.8860    12.5900    11.5730    14.1400     2.1840   -14.8390 
  143.2500    67.6750    23.8400    11.6650    11.6280    14.1090     2.1860   -15.0320 
  143.3750    67.5930    23.7940    10.5930    11.3940    13.6000     2.1850   -15.1800 
  143.5000    68.2450    23.7810     9.7780    11.0130    12.9260     2.1870   -15.2910 
  143.6250    70.6600    23.7910     9.2690    10.6620    12.3880     2.2090   -15.3700 
  143.7500    72.0810    23.7910     8.9830    10.4180    12.0580     2.2490   -15.3980 
  143.8750    70.8570    23.7660     8.9640    10.2620    11.8830     2.2890   -15.4310 
  144.0000    68.0690    23.7250     9.0330    10.1410    11.7650     2.2990   -15.4010 
  144.1250    66.6940    23.7050     9.0020    10.0100    11.6370     2.2710   -15.3170 
  144.2500    66.8730    23.6910     8.8980     9.8690    11.4980     2.2330   -15.2810 
  144.3750    68.3550    23.6710     8.8670     9.7370    11.3640     2.2060   -15.2660 
  144.5000    70.3810    23.6400     8.9080     9.6350    11.2570     2.1910   -15.2180 
  144.6250    70.6770    23.6140     9.0120     9.5930    11.2040     2.1840   -15.2380 
  144.7500    70.7190    23.6140     9.1510     9.6080    11.2000     2.1820   -15.2480 
  144.8750    72.1240    23.6570     9.2810     9.6730    11.2470     2.1850   -15.2680 
  145.0000    73.8390    23.7700     9.3240     9.7790    11.3540     2.1920   -15.3650 
  145.1250    73.7960    23.9290     9.2910     9.9210    11.5450     2.2020   -15.5060 
  145.2500    72.1230    24.1160     9.3220    10.0650    11.7710     2.2090   -15.5920 
  145.3750    70.0870    24.2980     9.3870    10.1480    11.9370     2.2080   -15.6340 
  145.5000    68.5620    24.4420     9.3830    10.0730    11.8870     2.2000   -15.6870 
  145.6250    69.5620    24.5370     9.2690     9.6870    11.3930     2.1990   -15.6480 
  145.7500    71.8090    24.5800     8.9650     9.0200    10.4940     2.2090   -15.5840 
  145.8750    73.6910    24.6080     8.3320     8.1790     9.3560     2.2270   -15.4100 
  146.0000    75.1950    24.6360     7.4870     7.3430     8.2420     2.2520   -15.1670 
  146.1250    79.0710    24.7150     6.8680     6.7340     7.4770     2.2810   -14.9550 
  146.2500    83.7640    24.7730     6.7570     6.4280     7.1650     2.2990   -14.7640 
  146.3750    86.9410    24.6910     7.0860     6.4490     7.3300     2.2970   -14.6510 
  146.5000    87.7390    24.4880     7.6750     6.7850     7.9280     2.2800   -14.5670 
  146.6250    85.5740    24.3560     8.3030     7.4360     8.8970     2.2630   -14.5760 
  146.7500    81.9190    24.3260     8.7440     8.2670    10.0170     2.2520   -14.6030 
  146.8750    78.3480    24.3390     9.2460     9.1430    11.0860     2.2470   -14.6750 
  147.0000    75.3330    24.3450    10.1790     9.8950    11.8900     2.2530   -14.7420 
  147.1250    72.2060    24.3300    11.7060    10.3250    12.2200     2.2740   -14.7350 
  147.2500    70.0320    24.3540    12.6600    10.4770    12.2110     2.2920   -14.6510 
  147.3750    70.9400    24.4180    11.7640    10.4820    12.0860     2.2930   -14.5060 
