~V
VERS. 2.00: Ver 2.00
~W
STRT.M 120.0000:
STOP.M 268.0000:
STEP.M 0.1250:
NULL. -999.2500:
UWI. DF3028:
~C
DEPT.M :
DEN.GM/CC :
GR.API :
CALI.CM :
RXO.OHMM :
RI. :
RML.OHMM :
SP.MV :
~A
  120.0000     2.2250    66.8960    26.4550     7.4570     6.2150     7.7890   -28.3780 
  120.1250     2.2120    63.0300    26.4810     7.4160     6.1840     7.7780   -28.3440 
  120.2500     2.2020    65.3690    26.4930     7.4020     6.1990     7.8690   -28.1010 
  120.3750     2.1940    70.8260    26.5150     7.3540     6.2560     8.0560   -27.6330 
  120.5000     2.1860    74.1690    26.5530     7.2300     6.3380     8.3030   -26.9440 
  120.6250     2.1830    73.1290    26.5780     7.0630     6.3820     8.4640   -26.0240 
  120.7500     2.1890    71.4460    26.5770     6.9190     6.2910     8.3340   -24.9540 
  120.8750     2.2020    73.3410    26.5620     6.7780     5.9830     7.7700   -23.8390 
  121.0000     2.2180    79.6430    26.6060     6.4840     5.4560     6.8080   -22.7890 
  121.1250     2.2360    87.6760    26.8850     5.7920     4.8180     5.7210   -21.9680 
  121.2500     2.2570    91.6500    27.3690     4.8700     4.2710     4.8830   -21.4990 
  121.3750     2.2760    89.2820    27.8220     4.1430     3.9500     4.5010   -21.4470 
  121.5000     2.2790    83.3420    27.9700     4.0050     3.9310     4.6660   -21.8030 
  121.6250     2.2690    79.2140    27.7160     4.6800     4.2990     5.4770   -22.5590 
  121.7500     2.2650    78.4210    27.3560     5.9130     4.9680     6.7410   -23.5680 
  121.8750     2.2660    78.0170    27.0870     7.3680     5.8220     8.2010   -24.7050 
  122.0000     2.2600    75.7430    26.9820     8.4560     6.6480     9.4290   -25.8330 
  122.1250     2.2400    72.1090    27.0610     8.6020     7.1280     9.8790   -26.8090 
  122.2500     2.2200    68.5350    27.2110     8.2390     7.2130     9.6560   -27.5350 
  122.3750     2.2060    65.3770    27.2820     7.9050     7.0110     9.0800   -27.9730 
  122.5000     2.1920    64.2310    27.1660     7.8100     6.6870     8.4630   -28.1350 
  122.6250     2.1800    66.4050    26.9280     7.8470     6.3780     7.9860   -28.0400 
  122.7500     2.1760    70.4160    26.7610     7.8670     6.1520     7.6840   -27.8110 
  122.8750     2.1830    73.5690    26.7050     7.8560     6.0560     7.6230   -27.5200 
  123.0000     2.1930    74.5810    26.6990     7.9350     6.1490     7.9050   -27.2470 
  123.1250     2.2000    72.7330    26.6860     8.9330     6.5290     8.6810   -27.0520 
  123.2500     2.2080    70.0760    26.6700    12.5100     7.1500     9.8330   -26.9740 
  123.3750     2.2220    67.6180    26.6650    21.0640     7.9070    11.1370   -27.0210 
  123.5000     2.2350    66.5930    26.6770    32.7380     8.5860    12.1720   -27.1740 
  123.6250     2.2400    67.7250    26.6730    34.7290     8.8360    12.2890   -27.4190 
  123.7500     2.2360    69.4470    26.6250    25.7110     8.5950    11.5180   -27.7140 
  123.8750     2.2300    70.3170    26.5520    15.0130     8.0100    10.2630   -28.0290 
  124.0000     2.2290    71.1870    26.4930     9.4540     7.3370     9.0590   -28.3400 
  124.1250     2.2350    72.6390    26.4660     8.0880     6.8220     8.3360   -28.6100 
  124.2500     2.2390    73.9990    26.4450     7.9400     6.5240     8.0780   -28.7990 
  124.3750     2.2380    73.7350    26.4370     7.9950     6.4200     8.1620   -28.9010 
  124.5000     2.2340    72.0290    26.4540     7.9460     6.4410     8.4120   -28.9250 
  124.6250     2.2300    71.2230    26.4770     7.8310     6.5160     8.6530   -28.8840 
  124.7500     2.2290    72.4760    26.4830     7.7110     6.5900     8.8100   -28.7930 
  124.8750     2.2340    74.7180    26.4800     7.5930     6.6530     8.8890   -28.6530 
  125.0000     2.2430    74.7250    26.4790     7.5230     6.7050     8.9160   -28.4680 
  125.1250     2.2440    73.0120    26.4940     7.6460     6.7440     8.9030   -28.2290 
  125.2500     2.2350    73.4380    26.5140     7.9250     6.7700     8.8720   -27.9360 
  125.3750     2.2260    75.6860    26.5170     8.1710     6.7890     8.8500   -27.6060 
  125.5000     2.2240    77.6550    26.4950     8.2240     6.8220     8.8840   -27.2600 
  125.6250     2.2240    76.2180    26.4780     8.1470     6.9120     9.0440   -26.9120 
  125.7500     2.2250    72.6210    26.5140     8.3210     7.0660     9.3200   -26.5550 
  125.8750     2.2360    70.1940    26.6070     9.2340     7.2520     9.6390   -26.1990 
  126.0000     2.2630    70.9110    26.7300    11.3750     7.4100     9.8920   -25.8550 
  126.1250     2.2930    74.3820    26.8290    14.0690     7.4770     9.9640   -25.5460 
  126.2500     2.3110    76.4810    26.8490    14.8200     7.4610     9.8830   -25.3080 
  126.3750     2.3160    76.2750    26.7640    13.0080     7.3970     9.7320   -25.1410 
  126.5000     2.3190    75.0370    26.6060    10.5670     7.3300     9.6070   -25.0350 
  126.6250     2.3290    73.7590    26.4740     9.6940     7.2960     9.5620   -24.9750 
  126.7500     2.3410    71.8650    26.4160     9.6890     7.2850     9.5460   -24.9450 
  126.8750     2.3380    70.1940    26.4020     9.4870     7.2830     9.5210   -24.9470 
  127.0000     2.3130    70.2060    26.3880     8.8700     7.2950     9.4980   -24.9710 
  127.1250     2.2870    71.2880    26.3550     8.4870     7.3430     9.5470   -25.0370 
  127.2500     2.2860    71.8570    26.3390     8.6290     7.4280     9.6800   -25.1460 
  127.3750     2.3100    71.9850    26.3550     9.0460     7.5240     9.8350   -25.2900 
  127.5000     2.3440    70.7670    26.3710     9.2890     7.5650     9.8670   -25.4580 
  127.6250     2.3620    69.1810    26.3620     8.9870     7.4410     9.5670   -25.6350 
  127.7500     2.3530    69.7520    26.3580     8.4180     7.1540     8.9890   -25.8120 
  127.8750     2.3250    73.1550    26.3770     7.9000     6.7770     8.3060   -25.9610 
  128.0000     2.2930    76.5350    26.3940     7.5790     6.4200     7.7320   -26.0510 
  128.1250     2.2780    76.5810    26.3730     7.5210     6.2100     7.4810   -26.0140 
  128.2500     2.2760    75.3870    26.3480     7.6590     6.1810     7.5640   -25.8140 
  128.3750     2.2780    74.3960    26.3360     7.9200     6.3300     7.9370   -25.4510 
  128.5000     2.2790    73.7270    26.3280     8.2580     6.6100     8.4860   -24.9620 
  128.6250     2.2880    73.0800    26.3020     8.6710     6.9260     9.0110   -24.4090 
  128.7500     2.3150    72.3270    26.2760     8.9800     7.1480     9.2990   -23.8520 
  128.8750     2.3560    72.4910    26.2910     8.9930     7.1830     9.2150   -23.3460 
  129.0000     2.3950    72.7160    26.3620     8.7430     7.0090     8.7770   -22.9380 
  129.1250     2.4120    72.5580    26.4710     8.4160     6.7110     8.2120   -22.6800 
  129.2500     2.4010    72.0690    26.5620     8.0190     6.4890     7.8710   -22.5750 
  129.3750     2.3720    72.8920    26.5970     7.5800     6.4860     7.9700   -22.6470 
  129.5000     2.3490    76.4200    26.5900     7.5500     6.7850     8.6030   -22.8790 
  129.6250     2.3770    77.7430    26.6020     8.7960     7.4160     9.7510   -23.2640 
  129.7500     2.4480    74.7820    26.6560    10.8190     8.1760    11.0040   -23.7670 
  129.8750     2.5120    73.3690    26.7250    12.1330     8.8210    11.8980   -24.3210 
  130.0000     2.5150    76.9610    26.7660    11.7740     9.1130    12.0590   -24.8600 
  130.1250     2.4490    80.0750    26.7590    10.6390     8.9180    11.4150   -25.3240 
  130.2500     2.3740    78.2480    26.7330    10.2100     8.4690    10.5030   -25.6800 
  130.3750     2.3240    75.3470    26.7280    10.3450     7.9770     9.6840   -25.8780 
  130.5000     2.2940    73.6240    26.7550    10.3380     7.5980     9.1600   -25.8890 
  130.6250     2.2690    73.1830    26.7720     9.9310     7.4550     9.0560   -25.6880 
  130.7500     2.2510    72.3420    26.7590     9.4690     7.5080     9.2550   -25.3230 
  130.8750     2.2580    70.0470    26.7740     9.2830     7.6790     9.6220   -24.8680 
  131.0000     2.3000    67.2210    26.8860     9.8110     7.8450     9.9500   -24.4200 
  131.1250     2.3640    67.7340    27.0690    10.9060     7.8210     9.9080   -24.0700 
