~V
VERS. 2.00: Ver 2.00
~W
STRT.M 130.0000:
STOP.M 279.0000:
STEP.M 0.1250:
NULL. -999.2500:
UWI. DF307:
~C
DEPT.M :
DEN.GM/CC :
AC.US/MT :
GR.API :
CALI.CM :
RXO.OHMM :
RI. :
RML.OHMM :
SP.MV :
~A
# ...
  260.0000     2.3260   372.3910   106.6510    25.4930     7.5750     5.6320     7.1530   -13.1510 
  260.1250     2.3290   373.3650   109.7160    25.4530     6.6120     5.4180     6.6580   -13.1710 
  260.2500     2.3460   375.4550   113.1140    25.3970     5.7420     5.1460     6.1390   -13.1850 
  260.3750     2.3680   377.9350   115.2050    25.3550     5.4530     4.9150     5.7690   -13.1950 
  260.5000     2.3890   379.2850   112.8610    25.3410     5.5060     4.7820     5.6160   -13.1980 
  260.6250     2.3990   379.1060   106.4150    25.3450     5.5620     4.7650     5.6630   -13.2150 
  260.7500     2.3870   378.1930   102.2640    25.3390     5.5760     4.8050     5.7700   -13.2270 
  260.8750     2.3680   377.8340   103.1480    25.3030     5.5770     4.8540     5.8500   -13.2270 
  261.0000     2.3610   378.6690   107.3620    25.2200     5.5360     4.8810     5.8670   -13.2320 
  261.1250     2.3710   379.4140   109.9680    25.1100     5.4460     4.8780     5.8250   -13.2220 
  261.2500     2.3870   378.6670   107.6910    25.0270     5.3950     4.8520     5.7550   -13.2150 
  261.3750     2.3930   375.8890   102.7690    24.9930     5.4120     4.8120     5.6660   -13.2070 
  261.5000     2.3840   371.7400   101.6850    24.9910     5.4330     4.7620     5.5610   -13.2270 
  261.6250     2.3650   367.7170   105.1750    24.9830     5.4080     4.7240     5.4700   -13.2590 
  261.7500     2.3500   364.2700   106.1140    24.9570     5.3940     4.7320     5.4520   -13.3360 
  261.8750     2.3450   360.9500   102.6420    24.9280     5.4590     4.8250     5.5760   -13.4710 
  262.0000     2.3470   356.3710    98.9440    24.9020     5.7200     5.0420     5.9020   -13.6420 
  262.1250     2.3500   349.3250    97.6960    24.8740     6.4540     5.4520     6.5270   -13.8570 
  262.2500     2.3550   338.9430    95.0730    24.8470     7.6030     6.0680     7.4540   -14.0860 
  262.3750     2.3630   325.3710    90.7240    24.8400     8.9170     6.9140     8.6960   -14.3240 
  262.5000     2.3780   310.3280    87.4670    24.8610    10.2640     7.9760    10.2160   -14.5470 
  262.6250     2.3990   296.7970    87.2650    24.8930    12.0270     9.1950    11.8940   -14.7670 
  262.7500     2.4140   286.4810    86.6950    24.9000    14.1510    10.3860    13.4570   -14.9530 
  262.8750     2.4130   279.7370    83.9760    24.8930    15.7190    11.3840    14.6620   -15.1000 
  263.0000     2.4040   276.2220    81.9850    24.9430    16.0340    12.0740    15.3790   -15.2260 
  263.1250     2.4020   274.3210    82.0020    25.1100    15.7830    12.4550    15.6970   -15.3560 
  263.2500     2.4190   273.0100    81.7350    25.2960    16.0870    12.7970    16.0790   -15.5290 
  263.3750     2.4410   271.1270    80.8160    25.4050    16.8100    13.4090    16.9760   -15.7440 
  263.5000     2.4550   267.2900    81.9690    25.4270    17.5920    14.6530    18.8450   -16.0240 
  263.6250     2.4560   262.1880    83.2780    25.4220    19.4250    17.1970    22.4620   -16.3790 
  263.7500     2.4520   258.3420    78.9880    25.4230    24.0190    21.3790    28.1160   -16.8120 
  263.8750     2.4650   259.3800    70.6670    25.4180    32.7480    27.5530    36.1620   -17.3130 
  264.0000     2.4960   268.7900    64.1950    25.3970    44.4880    35.6340    46.4960   -17.8430 
  264.1250     2.5140   282.7840    63.8830    25.3360    52.7590    44.7010    57.8870   -18.3560 
  264.2500     2.4720   294.8260    64.8890    25.2450    53.0210    52.8460    67.7060   -18.8040 
  264.3750     2.3860   297.7840    66.0900    25.1530    47.7410    58.8890    74.3550   -19.1880 
  264.5000     2.3070   286.5290    71.0120    25.0920    43.0980    62.6570    77.9170   -19.4960 
  264.6250     2.2760   267.5880    80.7060    25.0860    44.0640    64.7140    79.6130   -19.7210 
  264.7500     2.3140   248.9030    87.7110    25.1060    47.2780    66.2060    80.9420   -19.8520 
  264.8750     2.3860   237.0930    88.3480    25.0990    47.4440    67.5010    82.2260   -19.8940 
  265.0000     2.4580   235.1910    84.5040    25.0550    43.5250    68.6680    83.4210   -19.8760 
  265.1250     2.4950   238.0190    81.0270    25.0570    40.0380    69.7800    84.5800   -19.8200 
  265.2500     2.4780   241.0850    80.0120    25.1300    38.1490    71.1100    86.0320   -19.7500 
  265.3750     2.4390   241.8910    80.9460    25.1490    35.5840    72.9990    88.1570   -19.6570 
  265.5000     2.4050   240.6980    81.3290    25.0250    32.4300    75.6420    91.1160   -19.5430 
  265.6250     2.3960   239.9830    79.9900    24.8490    32.2120    78.8350    94.5410   -19.4010 
  265.7500     2.4260   240.9960    78.5860    24.7400    36.4850    81.7380    97.3210   -19.2330 
  265.8750     2.4670   243.2160    78.2230    24.6840    44.2200    83.4990    98.3470   -19.0240 
  266.0000     2.4940   243.6420    77.7150    24.6440    50.9060    83.5290    97.0010   -18.7830 
  266.1250     2.5010   239.3790    75.4890    24.6420    50.9140    81.7390    93.5940   -18.5020 
  266.2500     2.5090   229.7090    75.0600    24.6280    47.2470    79.3840    89.9550   -18.2040 
  266.3750     2.5370   217.1010    77.4520    24.5160    44.6190    77.4330    87.2100   -17.8970 
  266.5000     2.5820   207.4070    78.6230    24.3260    44.5930    76.5210    85.9270   -17.5960 
  266.6250     2.6290   204.3140    74.7330    24.1850    46.2060    77.2770    86.5920   -17.2880 
  266.7500     2.6520   207.3110    71.3340    24.1440    46.8890    79.5200    88.8040   -17.0060 
  266.8750     2.6460   212.2970    72.4740    24.1410    44.8340    83.0600    92.3350   -16.7730 
  267.0000     2.6270   213.0450    76.3650    24.1240    41.5640    87.9460    97.3030   -16.5710 
  267.1250     2.6100   207.5130    77.7580    24.1140    42.1750    95.2280   104.7020   -16.4000 
  267.2500     2.5960   197.2940    76.6610    24.1230    46.0410   104.6190   113.6700   -16.2310 
  267.3750     2.5850   186.6040    75.6700    24.1360    48.6260   113.0230   119.0800   -16.0720 
  267.5000     2.5810   182.5480    76.5020    24.1400    48.5640   113.1250   110.3150   -15.9000 
  267.6250     2.5910   189.6110    76.5020    24.1400    48.1590    94.8270    81.7520   -15.7290 
  267.7500     2.6100   209.8120    76.5020    24.1450    43.0550    66.3170    51.8760   -15.5500 
  267.8750     2.6120   241.0060    76.5020    24.1470    30.2300    40.1660    30.6350   -15.3720 
  268.0000     2.5780   276.2830    76.5020    24.1440    15.8380    22.7090    17.9970   -15.1960 
  268.1250     2.5130   306.0130    76.5020    24.1430     8.6210    13.9510    11.5760   -15.0350 
  268.2500     2.4380   324.7490    76.5020    24.1430     6.0140     9.4010     8.0690   -14.8950 
  268.3750     2.3770   330.9830    76.5020    24.1450     5.3370     7.0820     6.2950   -14.7610 
  268.5000     2.3410   325.2890    76.5020    24.1550     5.2240     5.9490     5.5410   -14.6320 
  268.6250     2.3360   313.2800    76.5020    24.1810     5.3130     5.5180     5.3590   -14.4990 
  268.7500     2.3550   298.2260    76.5020    24.2100     5.6470     5.3410     5.2990   -14.3550 
  268.8750     2.3720   282.7630    76.5020    24.2200     5.9490     5.2570     5.2190   -14.1750 
  269.0000     2.3770   269.9410    76.5020    24.2000     5.8340     5.2230     5.1460   -13.9830 
  269.1250     2.3760   262.7550    76.5020    24.1830     5.8010     5.2880     5.2030   -13.7670 
  269.2500     2.3890   265.0500    76.5020    24.2090     7.3470     5.4470     5.3910   -13.5430 
  269.3750     2.4240   279.8210    76.5020    24.2790    11.0600     5.6380     5.6170   -13.3400 
  269.5000     2.4680   306.8060    76.5020    24.3710    13.8410     5.7410     5.7130   -13.1510 
  269.6250     2.4870   335.0100    76.5020    24.4440    11.7740     5.5870     5.4740   -12.9890 
  269.7500     2.4520   354.0020    76.5020    24.4780     7.6500     5.2150     4.9860   -12.8620 
  269.8750     2.4050   358.1700    76.5020    24.4890     5.2370     4.7540     4.4440   -12.7900 
