~V
VERS. 2.00: Ver 2.00
~W
STRT.M 120.0000:
STOP.M 271.0000:
STEP.M 0.1250:
NULL. -999.2500:
UWI. DF3037:
~C
DEPT.M :
GR.API :
RML.OHMM :
RI. :
RXO.OHMM :
CALI.CM :
SP.MV :
DEN.GM/CC :
AC.US/MT :
~A
# ...
  210.0000    70.1030   199.4190   166.7940   136.5210    25.0480    -6.3950     2.2100   417.4820 
  210.1250    69.7870   198.9930   167.4260   135.4730    25.0480    -6.1970     2.2060   417.9130 
  210.2500    67.2200   197.3770   166.9250   134.6860    25.0480    -6.0140     2.2040   417.9460 
  210.3750    62.7880   195.9490   166.3560   133.1270    25.0480    -5.7890     2.2040   417.3800 
  210.5000    60.3270   195.6420   166.5080   132.7780    25.0480    -5.5770     2.2060   416.2060 
  210.6250    62.6910   196.9660   167.8480   135.5760    25.0480    -5.3440     2.2100   414.7280 
  210.7500    65.7320   199.4130   170.0470   140.3990    25.0480    -5.0920     2.2150   413.4810 
  210.8750    65.8880   202.5610   172.8070   144.6220    25.0480    -4.8720     2.2180   412.8090 
  211.0000    64.4810   205.9790   175.8220   144.7940    25.0480    -4.6800     2.2190   412.9130 
  211.1250    63.8190   209.1500   178.7360   139.7130    25.0480    -4.5490     2.2150   413.9880 
  211.2500    62.0710   211.6100   181.1930   131.8630    25.0480    -4.5400     2.2080   415.7420 
  211.3750    61.3350   212.8750   182.8390   124.2520    25.0430    -4.5900     2.2030   417.8270 
  211.5000    64.6590   212.4540   183.3040   119.0690    25.0270    -4.7110     2.2030   419.7710 
  211.6250    69.1350   209.5690   181.9690   117.5980    24.9960    -5.0130     2.2080   420.9800 
  211.7500    69.5290   204.3550   178.8330   121.1340    24.9830    -5.3790     2.2150   421.3060 
  211.8750    66.3770   196.7770   173.7620   128.2630    24.9790    -5.9150     2.2220   420.8450 
  212.0000    64.1890   186.9670   166.7580   130.6650    24.9820    -6.4440     2.2260   419.9310 
  212.1250    64.5030   175.2050   157.9020   129.4000    24.9970    -7.1980     2.2250   419.0390 
  212.2500    64.5070   162.7580   148.1970   127.5060    25.0220    -7.8600     2.2200   418.5040 
  212.3750    64.9220   150.6620   138.4800   126.1480    25.0410    -8.5820     2.2140   418.3740 
  212.5000    64.9740   139.8420   129.5570   118.7400    25.0410    -9.2580     2.2100   418.5030 
  212.6250    62.6980   131.2240   122.2830   107.3760    25.0200    -9.8800     2.2070   418.6450 
  212.7500    60.1610   124.5100   116.5650   101.2370    24.9930   -10.5210     2.2060   418.6520 
  212.8750    61.9930   119.3250   112.1590    99.6520    24.9720   -11.0710     2.2060   418.5470 
  213.0000    67.2690   115.1930   108.6880    98.1380    24.9440   -11.5830     2.2070   418.3880 
  213.1250    69.7630   111.8280   105.9050    96.8200    24.8910   -12.0000     2.2090   418.1560 
  213.2500    69.0790   109.0180   103.6130    95.5950    24.8680   -12.3430     2.2090   417.8110 
  213.3750    68.1040   106.9750   101.9970    92.3520    24.8620   -12.6270     2.2070   417.3690 
  213.5000    66.6050   106.0830   101.4110    88.5450    24.8530   -12.8340     2.2050   416.8980 
  213.6250    64.8990   106.9270   102.4100    88.3750    24.8150   -12.9810     2.2010   416.3180 
  213.7500    64.1400   109.1010   104.6470    91.8140    24.7470   -13.0540     2.1970   415.3860 
  213.8750    64.3840   111.7950   107.3970    93.5550    24.6750   -13.0820     2.1930   413.9000 
  214.0000    64.4360   113.6800   109.4440    93.2810    24.5890   -13.1090     2.1920   411.8750 
  214.1250    63.0580   112.6870   108.8900    95.3360    24.5330   -13.0560     2.1970   409.5760 
  214.2500    61.6590   108.1940   105.1270    95.1670    24.5160   -13.0180     2.2060   407.3940 
  214.3750    60.4100   100.3980    98.2870    89.1360    24.4920   -13.0020     2.2160   405.5760 
  214.5000    60.4290    90.5310    89.4220    75.2820    24.4180   -12.9690     2.2190   404.3960 
  214.6250    62.3570    80.5790    80.2790    64.3680    24.3860   -12.9640     2.2070   404.4020 
  214.7500    65.7180    72.2180    72.4590    59.9640    24.4160   -12.9080     2.1870   405.6700 
  214.8750    70.2690    66.1610    66.7080    54.4750    24.4100   -12.8790     2.1690   407.9410 
  215.0000    74.2780    62.4510    63.1680    51.6330    24.3320   -12.8410     2.1680   410.3420 
  215.1250    75.4540    60.8520    61.7050    51.6790    24.1980   -12.8100     2.1960   411.3840 
  215.2500    72.3240    60.3170    61.3330    53.1490    24.1550   -12.8440     2.2370   410.5930 
  215.3750    68.8310    60.2730    61.4740    55.2600    24.1480   -12.7990     2.2750   408.5040 
  215.5000    69.6840    60.3320    61.7000    57.4670    24.1650   -12.7980     2.2930   406.4460 
  215.6250    72.5540    60.3380    61.7730    58.5670    24.2140   -12.7290     2.2870   406.0770 
  215.7500    73.7970    60.4060    61.7730    55.9120    24.2980   -12.6910     2.2710   407.4490 
  215.8750    73.3970    60.7500    61.9030    53.0420    24.3750   -12.6120     2.2550   409.6650 
  216.0000    74.5740    61.5950    62.4050    52.5260    24.3810   -12.4990     2.2420   411.3680 
  216.1250    75.6680    63.3650    63.6890    53.9350    24.4290   -12.4040     2.2310   411.2160 
  216.2500    74.4470    66.2440    65.9480    56.2860    24.5530   -12.2480     2.2200   409.3940 
  216.3750    72.0670    70.4270    69.3630    58.3680    24.6790   -12.1390     2.2100   406.5660 
  216.5000    70.3880    75.8970    73.9240    61.8570    24.6670   -12.0040     2.2050   403.6710 
  216.6250    69.1030    82.3960    79.4170    64.1870    24.6360   -11.8870     2.2070   401.7400 
  216.7500    67.7750    89.0830    85.1050    71.7290    24.6310   -11.8120     2.2130   400.9650 
  216.8750    67.1190    95.4080    90.4860    81.6480    24.6630   -11.7650     2.2230   400.9560 
  217.0000    66.4000   101.1990    95.3670    87.7020    24.6880   -11.7420     2.2330   400.8970 
  217.1250    64.9140   106.8290   100.0050    86.4760    24.6840   -11.7400     2.2420   399.9860 
  217.2500    63.9500   112.9200   104.9490    82.4650    24.6570   -11.7240     2.2470   398.5970 
  217.3750    64.9610   119.6330   110.4050    80.6750    24.6300   -11.7300     2.2490   397.6370 
  217.5000    65.8150   126.5500   116.1000    85.9320    24.6180   -11.7300     2.2520   397.8070 
  217.6250    64.2370   132.6300   121.2120    95.8120    24.6310   -11.7860     2.2600   398.8990 
  217.7500    62.9170   137.3180   125.1990   102.9230    24.6360   -11.7910     2.2680   399.7050 
  217.8750    62.8730   140.7280   128.0670   102.7080    24.5850   -11.8000     2.2680   399.6990 
  218.0000    62.9920   143.5860   130.3820    93.6640    24.5080   -11.8520     2.2550   399.3380 
  218.1250    62.7340   146.9750   133.1190    88.4520    24.4370   -11.8040     2.2260   399.9210 
  218.2500    64.2850   151.3650   136.8310    86.3760    24.3870   -11.8490     2.1940   401.8690 
  218.3750    66.6060   156.6840   141.5550    81.9950    24.2620   -11.8110     2.1710   404.6380 
  218.5000    67.3010   162.6240   147.0380    70.5290    24.0410   -11.8330     2.1590   407.2270 
  218.6250    67.3650   168.9700   153.0600    60.1330    23.8950   -11.7800     2.1560   408.9410 
  218.7500    67.4060   175.4920   159.3490    59.2360    23.9530   -11.7570     2.1480   410.4200 
  218.8750    65.2600   181.8250   165.5980    67.7370    24.2190   -11.6790     2.1300   412.5320 
  219.0000    60.9980   187.1530   171.1290    85.7770    24.6380   -11.5590     2.1060   415.7420 
  219.1250    59.0300   189.7340   174.4270   108.6840    25.0410   -11.3940     2.0960   419.5230 
  219.2500    60.5710   188.8730   174.7400   119.4830    25.2400   -11.2020     2.1120   422.3920 
  219.3750    63.5720   184.5430   171.8430   119.0430    25.2010   -11.0050     2.1540   423.3560 
  219.5000    66.2140   177.7140   166.3700   119.2760    24.9360   -10.7590     2.2020   422.3590 
  219.6250    66.2560   170.0240   159.5570   116.6070    24.6400   -10.4680     2.2290   420.4310 
  219.7500    65.1420   163.1950   153.0690   114.1670    24.5230   -10.1760     2.2260   419.0620 
  219.8750    65.5110   158.1270   147.8530   111.1770    24.6670    -9.9080     2.2040   418.5990 
