~V
VERS. 2.00: Ver 2.00
~W
STRT.M 125.0000:
STOP.M 254.0000:
STEP.M 0.1250:
NULL. -999.2500:
UWI. DF3068:
~C
DEPT.M :
SP.MV :
GR.API :
CALI.CM :
RXO.OHMM :
RI. :
RML.OHMM :
DEN.GM/CC :
~A
# ...
  192.5000   -16.4620    84.4540    24.7880     5.1740     5.5890     7.0630     2.5080 
  192.6250   -16.7420    86.3490    24.9640     5.1970     5.6410     7.0770     2.4970 
  192.7500   -16.9770    87.6690    25.0380     5.3130     5.6570     7.0840     2.4810 
  192.8750   -17.2120    87.5330    25.0550     5.3760     5.6370     7.0740     2.4650 
  193.0000   -17.5180    90.5370    25.0600     5.4190     5.5780     7.0220     2.4540 
  193.1250   -17.9550    94.0960    25.0790     5.4150     5.4610     6.8880     2.4510 
  193.2500   -18.4690    92.4560    25.0900     5.4940     5.2990     6.6980     2.4420 
  193.3750   -19.0010    89.1120    25.0920     5.4970     5.1260     6.5280     2.4270 
  193.5000   -19.5160    88.9150    25.0880     5.2050     5.0140     6.4930     2.4150 
  193.6250   -20.0370    90.8980    25.0760     5.0040     5.0660     6.7430     2.4170 
  193.7500   -20.5970    91.5040    25.0650     5.6450     5.3180     7.2960     2.4210 
  193.8750   -21.2200    91.2870    25.0630     7.4890     5.8040     8.1660     2.4200 
  194.0000   -21.9200    91.2710    25.0720     9.7790     6.5570     9.3380     2.4210 
  194.1250   -22.7040    90.9900    25.0800    10.5850     7.6160    10.7890     2.4320 
  194.2500   -23.5370    91.4960    25.0740    11.1050     8.9010    12.4240     2.4430 
  194.3750   -24.3760    90.1900    25.0590    14.7540    10.4140    14.2970     2.4400 
  194.5000   -25.1710    85.3600    25.0450    19.1430    12.2570    16.6070     2.4160 
  194.6250   -25.8900    80.2800    25.0260    20.7780    14.8350    19.9130     2.3840 
  194.7500   -26.5730    78.1640    24.9810    21.8380    18.6030    24.6810     2.3600 
  194.8750   -27.2660    78.6480    24.8980    30.2460    24.3480    31.6070     2.3470 
  195.0000   -27.9860    78.0240    24.7350    48.1840    32.9060    41.4400     2.3370 
  195.1250   -28.6860    74.3920    24.4110    68.7630    45.0100    55.1290     2.3190 
  195.2500   -29.3130    71.4750    24.0500    77.7220    58.7630    70.9740     2.2950 
  195.3750   -29.8420    71.4040    23.8450    78.9050    71.3660    85.6630     2.2720 
  195.5000   -30.3060    72.5380    23.9390    81.8230    79.9590    95.2100     2.2580 
  195.6250   -30.7660    71.4730    24.4030    80.7810    83.5010    98.4020     2.2560 
  195.7500   -31.2660    68.5540    24.9850    74.5450    85.3750   100.0810     2.2610 
  195.8750   -31.7800    65.7300    25.4240    69.8320    87.9640   103.1710     2.2640 
  196.0000   -32.2390    64.7090    25.5850    72.0810    92.2690   108.5650     2.2590 
  196.1250   -32.5770    66.8140    25.5670    79.6470    98.2640   115.8630     2.2490 
  196.2500   -32.8390    69.5280    25.5580    87.3220   104.7410   123.2700     2.2400 
  196.3750   -33.0910    71.2140    25.5600    88.8800   110.6500   129.3230     2.2360 
  196.5000   -33.3710    72.2280    25.5590    85.9290   115.2830   133.3320     2.2370 
  196.6250   -33.6570    71.6060    25.5600    85.9000   118.5870   135.7440     2.2400 
  196.7500   -33.9020    68.8920    25.5570    87.0910   121.6630   138.1970     2.2420 
  196.8750   -34.0910    65.9250    25.5450    90.2510   125.2620   141.5110     2.2400 
  197.0000   -34.2540    65.8030    25.5250    93.0310   129.3640   145.4260     2.2330 
  197.1250   -34.4270    67.9940    25.5170    95.5380   132.4050   147.7610     2.2230 
  197.2500   -34.6120    68.0690    25.5200    99.5170   132.4110   146.1110     2.2140 
  197.3750   -34.7880    66.4840    25.5130   105.0740   128.3410   139.6160     2.2060 
  197.5000   -34.9260    65.5350    25.4890   105.9490   121.0030   129.9900     2.2040 
  197.6250   -35.0040    65.7110    25.4640    93.3940   113.1620   121.0820     2.2120 
  197.7500   -35.0380    65.7360    25.4410    77.8170   108.0010   115.9260     2.2220 
  197.8750   -35.0590    66.1520    25.3900    67.1360   107.4470   115.9770     2.2300 
  198.0000   -35.0940    67.5250    25.2960    71.9730   112.4590   121.7720     2.2330 
  198.1250   -35.1520    67.7250    25.2010    84.1210   123.5080   133.6260     2.2310 
  198.2500   -35.2030    66.2580    25.1280    91.3990   137.4190   148.2250     2.2270 
  198.3750   -35.2130    62.9390    24.9720    81.3950   150.4920   161.3440     2.2200 
  198.5000   -35.1890    58.4650    24.6370    67.4210   158.7360   168.3720     2.2150 
  198.6250   -35.1650    57.0810    24.2470    60.5450   158.9340   166.3440     2.2090 
  198.7500   -35.1400    60.1230    24.0530    59.5750   154.0700   159.7140     2.2000 
  198.8750   -35.0640    64.3630    24.0050    59.6520   147.6540   152.5830     2.1910 
  199.0000   -34.8970    66.2790    23.8690    64.6260   142.6090   147.6100     2.1880 
  199.1250   -34.6690    65.2890    23.5700    69.5730   140.7860   146.1430     2.1910 
  199.2500   -34.4790    64.4690    23.3130    70.6240   141.5270   147.1890     2.1920 
  199.3750   -34.3860    64.5130    23.1910    70.4440   143.7920   149.5930     2.1880 
  199.5000   -34.3690    65.6560    23.1570    69.6070   146.0830   151.7170     2.1820 
  199.6250   -34.3450    66.0940    23.1480    68.8440   146.5490   151.5180     2.1810 
  199.7500   -34.2600    65.2150    23.1310    70.8980   144.9160   148.9800     2.1860 
  199.8750   -34.1300    64.7270    23.0800    70.2320   141.9440   145.2760     2.1960 
  200.0000   -33.9960    65.2890    23.0150    64.9020   139.0720   142.1900     2.2040 
  200.1250   -33.8890    64.4260    23.0460    63.1500   138.2620   141.8550     2.2050 
  200.2500   -33.8100    62.7820    23.2690    66.3010   140.2970   144.7620     2.2020 
  200.3750   -33.7330    64.5260    23.7210    75.0860   145.3240   150.8160     2.2020 
  200.5000   -33.6360    70.5220    24.3140    88.7600   152.7130   159.1670     2.2040 
  200.6250   -33.4990    73.2130    24.8190   105.2740   160.9800   167.9560     2.2000 
  200.7500   -33.3340    70.5340    25.0870   112.3560   167.8490   174.5980     2.1890 
  200.8750   -33.1660    66.7430    25.1090   110.2280   171.6080   177.2570     2.1770 
  201.0000   -33.0200    63.9950    24.9960   105.4970   171.3750   175.3310     2.1690 
  201.1250   -32.8800    61.6480    24.8800   102.3000   166.8980   169.1260     2.1660 
  201.2500   -32.6910    61.0810    24.8290    99.1390   160.1010   160.9220     2.1680 
  201.3750   -32.4300    62.8380    24.8270    94.0270   152.3840   152.1190     2.1740 
  201.5000   -32.1360    64.1520    24.8650    90.6500   143.7650   144.9480     2.1810 
  201.6250   -31.8830    64.7800    24.9630    93.4880   136.5910   138.7080     2.1830 
  201.7500   -31.7090    67.5370    25.0790    96.5560   130.4110   133.5050     2.1810 
  201.8750   -31.5920    72.1460    25.1520    98.1310   124.7690   128.8510     2.1800 
  202.0000   -31.4610    74.8280    25.1680   100.8310   118.8840   123.9560     2.1850 
  202.1250   -31.2500    72.5970    25.1650   101.0660   111.7740   117.7740     2.1910 
  202.2500   -30.9980    68.8980    25.1620    94.2990   103.6570   110.3190     2.1940 
  202.3750   -30.7740    66.0570    25.1400    85.8140    95.3810   102.2900     2.1950 
  202.5000   -30.6150    65.4970    25.0990    79.2890    87.7890    94.5930     2.1960 
  202.6250   -30.5030    66.0280    25.0640    70.2580    81.3750    87.8680     2.1990 
  202.7500   -30.3650    67.2360    25.0480    63.5130    75.8990    81.9760     2.2040 
  202.8750   -30.1710    68.8970    25.0450    66.1540    71.4420    76.9440     2.2110 
  203.0000   -29.9440    70.4510    25.0560    70.1060    68.3900    73.1050     2.2210 
  203.1250   -29.7350    71.0830    25.0790    63.4340    67.7340    71.5070     2.2270 
  203.2500   -29.5760    70.9110    25.0760    52.1240    69.7550    72.6770     2.2270 
  203.3750   -29.4640    71.2110    24.9180    48.8760    74.6890    77.1130     2.2210 
  203.5000   -29.3780    71.3320    24.4410    56.1050    82.0700    84.5280     2.2160 
  203.6250   -29.3040    71.0670    23.8470    70.4070    89.9490    93.0860     2.2150 
