~V
VERS. 2.00: Ver 2.00
~W
STRT.M 59.0000:
STOP.M 281.0000:
STEP.M 0.1250:
NULL. -999.2500:
UWI. DF3005:
~C
DEPT.M :
DEN.GM/CC :
SP.MV :
AC.US/MT :
GR.API :
CALI.CM :
RXO.OHMM :
RI. :
RML.OHMM :
~A
# ...
  229.0000     2.4120   -28.5110   408.0600   109.4810    23.7690     6.6720     7.0430     7.1280 
  229.1250     2.4130   -28.3990   404.7140   105.0890    23.8490     6.8380     6.9490     6.9890 
  229.2500     2.4190   -28.4020   402.1700   103.8500    23.8670     7.1730     6.9130     6.9660 
  229.3750     2.4240   -28.4930   401.1170   108.8390    23.8460     7.7680     6.9000     7.0420 
  229.5000     2.4250   -28.6050   400.7410   116.0820    23.8350     8.4350     6.8850     7.2080 
  229.6250     2.4250   -28.7040   400.0270   117.3610    23.8340    11.9580     6.8730     7.4290 
  229.7500     2.4270   -28.7840   399.5130   113.7920    23.8070    19.3750     6.8790     7.6460 
  229.8750     2.4270   -28.8400   399.2670   109.9770    23.7440    29.2610     6.9000     7.8250 
  230.0000     2.4220   -28.8910   398.4970   106.8600    23.6750    30.7080     6.9200     7.9590 
  230.1250     2.4130   -28.9800   396.6990   105.3690    23.6560    23.1400     6.9140     8.0570 
  230.2500     2.4060   -29.1000   395.1400   106.4570    23.6870    14.4380     6.8870     8.1280 
  230.3750     2.4050   -29.2260   395.2890   109.8810    23.7310    11.2580     6.8570     8.1670 
  230.5000     2.4090   -29.3390   397.5420   113.4260    23.7550    10.1300     6.8460     8.1770 
  230.6250     2.4110   -29.4260   400.9240   115.7950    23.7620     8.6760     6.8690     8.1700 
  230.7500     2.4050   -29.4860   403.8040   116.3260    23.8130     7.7840     6.9190     8.1550 
  230.8750     2.3950   -29.5510   404.7550   113.5110    23.9710     7.1970     6.9870     8.1150 
  231.0000     2.3870   -29.6750   402.9310   111.1050    24.2900     7.1480     7.0540     8.0400 
  231.1250     2.3860   -29.8720   399.1260   114.2210    24.7260     7.7500     7.0900     7.9570 
  231.2500     2.3830   -30.0700   396.8270   120.2020    25.0780     8.4320     7.0900     7.9290 
  231.3750     2.3750   -30.2280   398.6670   123.8450    25.2400     8.4450     7.0790     7.9970 
  231.5000     2.3600   -30.3510   404.3480   123.5730    25.2580     7.8740     7.1090     8.1760 
  231.6250     2.3470   -30.4650   409.5740   124.5550    25.2380     7.7470     7.2570     8.4890 
  231.7500     2.3410   -30.5930   409.9590   127.2400    25.1970     8.2800     7.5250     8.9080 
  231.8750     2.3400   -30.7540   405.5160   127.4010    25.0920     9.4250     7.8790     9.4120 
  232.0000     2.3390   -30.9240   400.1760   121.6440    24.9320    10.9080     8.2410     9.9440 
  232.1250     2.3400   -31.0640   398.2590   113.4420    24.7850    12.0850     8.4840    10.3330 
  232.2500     2.3480   -31.1990   398.9530   108.3710    24.6460    11.7790     8.5330    10.4250 
  232.3750     2.3650   -31.3720   399.8690   106.0960    24.4250    10.4360     8.3810    10.2030 
  232.5000     2.3850   -31.5860   400.1550   105.4610    24.1050     9.5460     8.1500     9.8800 
  232.6250     2.4000   -31.8050   399.4070   107.5710    23.8480     9.6300     8.1260     9.9640 
  232.7500     2.4060   -32.0110   393.8230   111.3200    23.7680     9.9840     8.5850    10.9020 
  232.8750     2.3980   -32.1870   381.2110   113.6720    23.8310    11.2710     9.8870    13.1620 
  233.0000     2.3720   -32.3260   365.3950   107.9960    23.9740    15.2510    12.5960    17.3010 
  233.1250     2.3370   -32.4810   356.5930    92.4260    24.1910    34.0120    18.0430    24.5860 
  233.2500     2.3110   -32.6970   357.1670    77.5690    24.4200    54.0540    26.7080    35.3630 
  233.3750     2.3040   -32.9550   363.0950    68.3520    24.5850    74.1840    38.4190    49.4350 
  233.5000     2.3070   -33.2200   371.4900    62.6900    24.6610    94.1990    51.2150    64.3480 
  233.6250     2.3050   -33.4550   381.2020    60.4890    24.6750   110.3550    60.7550    73.9860 
  233.7500     2.2960   -33.6410   388.4060    63.1910    24.6800   101.4480    65.1650    76.4440 
  233.8750     2.2840   -33.7820   389.4900    67.5220    24.6960    82.3590    65.3880    74.3770 
  234.0000     2.2690   -33.9250   385.9780    68.7460    24.7490    73.0060    63.6480    71.4500 
  234.1250     2.2530   -34.1020   385.5290    66.5770    24.8660    68.6930    62.1500    70.2460 
  234.2500     2.2410   -34.2530   389.7120    65.2850    25.0150    61.3680    62.3450    71.5180 
  234.3750     2.2350   -34.3270   394.5150    65.7230    25.1480    75.3580    65.0330    75.5960 
  234.5000     2.2380   -34.3250   396.7590    66.8540    25.2260   109.7300    70.3910    82.3270 
  234.6250     2.2490   -34.2680   396.5660    66.8660    25.2450   130.8520    78.0640    91.1120 
  234.7500     2.2640   -34.1980   396.2120    66.3600    25.2470   141.9970    86.3660   100.0820 
  234.8750     2.2750   -34.1560   396.0790    67.2660    25.2480   148.3480    93.8000   107.5170 
  235.0000     2.2770   -34.1660   396.1720    69.3350    25.2490   139.8880    99.0940   112.0940 
  235.1250     2.2610   -34.1960   396.5930    70.3040    25.2440   138.2190   101.3720   113.2290 
  235.2500     2.2280   -34.1870   397.4150    68.4810    25.2250   142.6210   101.5930   112.3770 
  235.3750     2.1930   -34.1170   398.5990    65.5260    25.2050   137.3870   100.4080   110.2690 
  235.5000     2.1770   -34.0040   399.3370    63.0590    25.2010   117.0020    98.2830   107.2970 
  235.6250     2.1930   -33.8890   398.3390    61.1380    25.0940    88.2580    95.3830   103.5200 
  235.7500     2.2160   -33.8050   396.2570    60.5150    24.7870    71.7770    91.6810    98.8280 
  235.8750     2.2330   -33.7620   394.6170    61.3470    24.3820    73.2800    86.8890    92.9900 
  236.0000     2.2460   -33.7390   394.0090    61.1770    24.0920    77.9620    81.1450    86.3700 
  236.1250     2.2580   -33.6830   393.4230    57.8450    24.0290    72.5490    75.4650    80.2960 
  236.2500     2.2680   -33.5960   392.0940    56.6050    24.0350    59.2300    71.2560    76.1180 
  236.3750     2.2730   -33.5250   390.7260    61.3480    24.0320    47.9540    69.5630    74.7280 
  236.5000     2.2740   -33.5120   390.2640    69.5730    24.0580    46.7430    70.9820    76.5600 
  236.6250     2.2630   -33.5630   390.6670    73.6800    24.2200    65.1540    76.0170    82.0600 
  236.7500     2.2440   -33.6520   391.2710    70.9430    24.5380    92.8980    83.3880    89.9130 
  236.8750     2.2280   -33.7630   391.8740    64.6130    24.9410   115.5330    91.7820    98.7100 
  237.0000     2.2230   -33.8460   392.4350    59.9510    25.2930   125.7870    99.5910   106.6650 
  237.1250     2.2310   -33.8490   392.5780    58.8690    25.4730   125.9350   104.9800   111.7710 
  237.2500     2.2400   -33.8090   391.8140    58.5680    25.5260   132.1280   107.6570   113.8760 
  237.3750     2.2460   -33.7510   390.3250    58.9560    25.5270   136.0400   107.6470   113.0790 
  237.5000     2.2490   -33.6640   389.3490    60.6610    25.5250   130.6140   105.1410   109.6220 
  237.6250     2.2510   -33.5550   389.8010    61.8620    25.5250   115.6900   100.2420   103.7920 
  237.7500     2.2630   -33.4390   387.6100    62.3050    25.5270   108.1250    94.1700    97.0510 
  237.8750     2.2880   -33.2810   375.8860    63.0750    25.5200    99.4080    87.9720    90.5070 
  238.0000     2.3150   -33.0700   353.2050    65.5420    25.4530    84.8340    82.6310    85.0700 
  238.1250     2.3240   -32.8580   328.0610    70.5250    25.2830    75.4380    79.1680    81.6540 
  238.2500     2.3220   -32.6760   315.9780    74.8730    25.0660    71.1000    77.6390    80.2090 
  238.3750     2.3250   -32.4860   316.5200    76.0510    24.8100    64.9840    77.9970    80.6790 
  238.5000     2.3420   -32.2560   319.0540    75.7470    24.4580    57.6860    79.9330    82.6780 
  238.6250     2.3680   -32.0010   316.2070    77.3200    24.0280    53.2160    82.9540    85.4570 
  238.7500     2.3900   -31.7540   312.2520    80.9220    23.7000    56.6670    86.2470    87.6830 
  238.8750     2.3970   -31.5470   313.5050    82.0470    23.5580    65.8160    87.9820    89.5020 
