~V
VERS. 2.00: Ver 2.00
~W
STRT.M 130.0000:
STOP.M 268.0000:
STEP.M 0.1250:
NULL. -999.2500:
UWI. DF3061:
~C
DEPT.M :
GR.API :
CALI.CM :
RXO.OHMM :
RI. :
RML.OHMM :
DEN.GM/CC :
SP.MV :
~A
  130.0000    68.3150    24.3260    12.0490    11.5810    13.3760     2.1810   -22.8320 
  130.1250    68.7960    24.1180    12.1710    11.7340    13.5530     2.1740   -22.5430 
  130.2500    67.2390    24.0070    12.2270    11.8640    13.7030     2.1610   -22.1920 
  130.3750    64.0600    23.8230    12.4220    11.9600    13.8140     2.1540   -21.7630 
  130.5000    62.6770    23.7490    12.2860    12.0140    13.8760     2.1570   -21.3440 
  130.6250    63.8610    23.8250    11.9360    12.0180    13.8810     2.1550   -21.0360 
  130.7500    64.6870    23.8230    11.4990    11.9630    13.8170     2.1430   -20.8320 
  130.8750    64.5200    23.7910    11.3200    11.8150    13.6470     2.1310   -20.6550 
  131.0000    66.1360    23.4630    11.2050    11.5400    13.3290     2.1310   -20.3860 
  131.1250    69.6680    23.1110    11.1060    11.1210    12.8450     2.1520   -19.9730 
  131.2500    70.0380    22.8980    10.8440    10.6060    12.2500     2.1910   -19.5290 
  131.3750    67.9760    22.8020    10.3340    10.0730    11.6340     2.2340   -19.1310 
  131.5000    69.2330    22.7890     9.7190     9.6300    11.1230     2.2620   -18.8250 
  131.6250    73.9820    22.8130     8.5940     9.3930    10.8490     2.2740   -18.6020 
  131.7500    75.7990    22.8890     7.4970     9.3540    10.8030     2.2950   -18.4070 
  131.8750    73.5020    22.9460     7.4570     9.4510    10.9160     2.3330   -18.1980 
  132.0000    72.0680    23.0190     8.7140     9.5510    11.0320     2.3680   -17.9580 
  132.1250    75.9120    23.0690    10.8400     9.4840    10.9540     2.3670   -17.7680 
  132.2500    80.2100    23.0150    11.5940     9.3140    10.7570     2.3360   -17.6720 
  132.3750    79.6070    22.9640     9.9320     9.1040    10.5150     2.2920   -17.6810 
  132.5000    75.1870    23.1330     7.4870     8.8980    10.2770     2.2530   -17.7570 
  132.6250    73.1210    22.9510     7.4950     8.8130    10.1790     2.2220   -17.8590 
  132.7500    74.5820    22.9340     7.8230     8.8980    10.2770     2.1950   -17.9580 
  132.8750    74.7800    22.9450     8.5880     9.1510    10.5690     2.1710   -18.0120 
  133.0000    72.8980    23.0050     9.6910     9.5260    11.0020     2.1620   -18.0440 
  133.1250    70.8090    23.0120    10.1550     9.9010    11.4360     2.1720   -18.0640 
  133.2500    68.3540    23.0040    10.0490    10.0740    11.6350     2.1850   -18.0680 
  133.3750    66.9120    23.1470     9.6180     9.9690    11.5140     2.1880   -18.0410 
  133.5000    66.5760    23.2190     9.2260     9.6490    10.3530     2.1810   -17.9340 
  133.6250    68.0520    23.2210     8.9840     9.1630     9.9160     2.1840   -17.6960 
  133.7500    70.5020    23.1410     8.8590     8.5970     9.4310     2.2050   -17.3360 
  133.8750    73.8570    23.0940     8.6940     8.0150     8.9740     2.2390   -16.9440 
  134.0000    79.1120    23.1240     8.1730     7.4900     8.6060     2.2690   -16.5980 
  134.1250    84.4560    23.2680     7.1640     7.0850     8.3350     2.2830   -16.3860 
  134.2500    88.3250    23.2980     6.4990     6.8120     8.1630     2.2870   -16.2500 
  134.3750    88.3120    23.2430     6.4410     6.7050     8.1080     2.2850   -16.1280 
  134.5000    85.5390    23.2310     6.4940     6.7590     8.1460     2.2800   -15.9940 
  134.6250    83.0440    23.2310     6.4270     6.9230     8.2620     2.2750   -15.8870 
  134.7500    82.2740    23.2240     6.4980     7.1090     8.3890     2.2730   -15.8750 
  134.8750    83.7320    23.1860     6.6230     7.2260     8.4600     2.2770   -15.9640 
  135.0000    85.3610    22.9570     6.9170     7.1780     8.3800     2.2870   -16.1470 
  135.1250    84.5060    22.8040     7.0190     6.9170     8.1710     2.3000   -16.3340 
  135.2500    81.5690    22.8610     6.6250     6.5130     7.8510     2.3140   -16.4670 
  135.3750    79.8060    22.9970     6.0730     6.0410     7.4510     2.3270   -16.5580 
  135.5000    81.4310    23.1530     5.6770     5.6230     7.0930     2.3410   -16.6230 
  135.6250    86.9440    23.2150     5.4230     5.4600     7.0250     2.3680   -16.7430 
  135.7500    89.8450    23.2140     5.2230     5.6460     7.5520     2.4160   -16.9550 
  135.8750    86.4900    23.2370     5.2280     6.2980     8.9660     2.4730   -17.2770 
  136.0000    79.8510    23.3110     5.8000     7.5120    11.1980     2.5060   -17.6780 
  136.1250    76.6510    23.7220     8.9230     9.2940    14.0140     2.4690   -18.1490 
  136.2500    75.6770    24.0750    15.9130    11.2830    16.8290     2.3780   -18.6930 
  136.3750    71.0480    24.3210    20.6840    13.1050    18.9550     2.2710   -19.2880 
  136.5000    63.3480    24.1490    18.8200    14.3060    19.6820     2.1870   -19.9290 
  136.6250    58.7180    23.8170    14.5480    14.4610    18.6060     2.1490   -20.5430 
  136.7500    59.2180    23.5910    12.9360    13.8610    16.5410     2.1440   -21.1000 
  136.8750    63.0730    23.5540    12.6520    12.8780    14.2240     2.1590   -21.5830 
  137.0000    66.2110    23.5900    12.3170    11.8830    12.5080     2.1820   -21.9050 
  137.1250    66.9930    23.5790    11.3730    11.2690    11.8050     2.2000   -22.0260 
  137.2500    67.9180    23.4460    11.2740    11.0840    11.6760     2.2000   -22.0150 
  137.3750    70.6700    23.2390    11.5720    11.2420    12.0150     2.1880   -21.9450 
  137.5000    72.8430    23.2870    11.9560    11.6720    12.7850     2.1950   -21.8870 
  137.6250    72.5090    23.5230    12.5240    12.3710    14.0000     2.2630   -21.8840 
  137.7500    72.1410    23.7100    14.4070    13.2400    15.5010     2.3660   -21.8720 
  137.8750    70.9670    24.0120    22.8380    14.1540    17.0130     2.4450   -21.7630 
  138.0000    67.7160    24.2760    26.6670    14.9290    18.2010     2.4490   -21.6250 
  138.1250    65.3350    24.3750    22.2950    15.3610    18.7700     2.3870   -21.5060 
  138.2500    64.2540    24.0430    13.9240    15.5680    19.0060     2.3500   -21.4170 
  138.3750    63.1190    23.9190    12.3250    15.6280    19.0380     2.3930   -21.3700 
  138.5000    62.9520    24.2690    12.1060    15.5620    18.9080     2.5020   -21.3130 
  138.6250    66.4320    24.4340    11.9060    15.3710    18.4900     2.5830   -21.2300 
  138.7500    69.4970    24.4640    11.6220    15.0790    17.9640     2.5670   -21.1360 
  138.8750    70.3630    24.4720    11.4760    14.6750    17.3580     2.4630   -21.0300 
  139.0000    71.6980    24.4850    11.5210    14.1610    16.6790     2.3260   -20.9290 
  139.1250    76.4900    24.6220    11.7150    13.5260    15.8340     2.2120   -20.8450 
  139.2500    79.7650    24.5930    11.8590    12.7940    14.8740     2.1500   -20.8010 
  139.3750    78.5730    24.3100    11.8090    12.0710    14.0030     2.1410   -20.7610 
  139.5000    74.1490    23.7810    11.7830    11.5100    13.4260     2.1620   -20.7100 
  139.6250    70.8490    23.5050    11.9920    11.2040    13.2410     2.1750   -20.6160 
  139.7500    69.1520    23.3590    12.0680    11.0790    13.2640     2.1670   -20.4410 
  139.8750    66.9610    23.2380    12.0280    11.1120    13.3790     2.1450   -20.2430 
  140.0000    64.6110    23.2160    11.8610    11.2810    13.5740     2.1250   -20.0320 
  140.1250    65.9460    23.2290    11.8760    11.5130    13.7420     2.1200   -19.8370 
  140.2500    68.9890    23.2310    11.8870    11.7040    13.8060     2.1310   -19.6420 
  140.3750    69.7570    23.2430    11.9790    11.7670    13.6600     2.1570   -19.3920 
  140.5000    67.7030    23.2960    12.1680    11.6000    13.2400     2.1980   -19.0630 
  140.6250    65.0520    23.5730    12.1730    11.0490    12.4560     2.2500   -18.6230 
  140.7500    65.7610    23.6250    11.5740    10.1960    11.4210     2.2930   -18.1870 
  140.8750    71.0990    23.3600     9.5790     9.1890    10.2970     2.3140   -17.8330 
  141.0000    79.0260    23.5040     7.1110     8.2000     9.2510     2.3180   -17.6110 
  141.1250    82.7470    23.6550     5.9780     7.4260     8.4620     2.3170   -17.4980 
