~V
VERS. 2.00: Ver 2.00
~W
STRT.M 70.0000:
STOP.M 278.0000:
STEP.M 0.1250:
NULL. -999.2500:
UWI. DF3060:
~C
DEPT.M :
SP.MV :
GR.API :
RML.OHMM :
RI. :
RXO.OHMM :
CALI.CM :
DEN.GM/CC :
~A
# ...
  250.0000   -15.2360    61.8120   154.0550   135.0110   161.6000    23.2230     2.2060 
  250.1250   -15.2100    60.5170   159.2030   141.6830   170.1990    23.2230     2.2040 
  250.2500   -15.1570    60.8080   153.4370   139.1390   168.3740    23.2230     2.2020 
  250.3750   -15.1020    62.4340   137.5490   127.4420   156.6580    23.2230     2.2030 
  250.5000   -15.0220    64.1080   115.1050   108.9660   139.8010    23.2230     2.2070 
  250.6250   -14.9520    65.8030    91.3980    87.7390   124.0460    23.2230     2.2170 
  250.7500   -14.8580    67.7950    70.8910    68.3610   100.4000    23.2230     2.2320 
  250.8750   -14.7370    69.5830    55.1080    52.9400    72.4500    23.2230     2.2480 
  251.0000   -14.5920    70.6630    43.9220    41.9080    50.6720    23.2230     2.2600 
  251.1250   -14.4290    71.3230    36.8370    35.0400    39.7530    23.2230     2.2660 
  251.2500   -14.2720    72.2130    32.1100    30.6110    33.3410    23.2230     2.2680 
  251.3750   -14.1110    73.6810    29.0090    27.8560    29.8040    23.2230     2.2730 
  251.5000   -13.9850    75.0120    27.1410    26.3250    28.2380    23.2220     2.2800 
  251.6250   -13.8860    75.6960    26.6320    26.0440    27.1790    23.2170     2.2870 
  251.7500   -13.8440    76.1250    27.4030    26.9010    26.5130    23.2070     2.2860 
  251.8750   -13.8550    76.5040    29.4260    28.9010    26.9890    23.1870     2.2760 
  252.0000   -13.9210    76.5870    32.3080    31.7390    29.2130    23.1530     2.2620 
  252.1250   -14.0280    76.9740    34.9930    34.4850    32.5860    23.1220     2.2540 
  252.2500   -14.1500    77.9420    36.1910    35.8680    35.6150    23.0950     2.2550 
  252.3750   -14.2900    79.1260    35.0570    34.9770    37.3100    23.0790     2.2640 
  252.5000   -14.4180    80.7580    31.5820    31.7000    35.1150    23.0720     2.2750 
  252.6250   -14.5460    82.3620    26.8820    27.0120    29.8180    23.0750     2.2860 
  252.7500   -14.6870    83.4040    23.0910    22.9240    23.8460    23.0860     2.2970 
  252.8750   -14.8670    82.8340    21.7360    20.7730    19.4410    23.1170     2.3090 
  253.0000   -15.0800    80.7600    23.8560    21.5270    22.1890    23.1890     2.3210 
  253.1250   -15.3400    78.5540    30.5510    26.5300    35.6370    23.2860     2.3260 
  253.2500   -15.6630    75.6560    40.5770    35.1990    55.8560    23.3010     2.3230 
  253.3750   -16.0260    70.7410    52.2570    46.3960    78.9300    23.2610     2.3140 
  253.5000   -16.4410    65.2320    63.0770    57.8120    95.4120    23.2210     2.3130 
  253.6250   -16.8840    64.3730    69.7030    65.8240    89.5970    23.1980     2.3240 
  253.7500   -17.3170    66.5490    71.8410    69.2600    76.5110    23.1810     2.3460 
  253.8750   -17.7060    67.7950    70.8660    69.0360    66.7520    23.1710     2.3720 
  254.0000   -18.0410    66.9570    68.7820    67.1220    61.7700    23.1710     2.3920 
  254.1250   -18.3020    66.8920    66.6960    64.8640    65.3890    23.1830     2.4060 
  254.2500   -18.4830    68.8620    64.4350    62.4110    74.3370    23.2070     2.4140 
  254.3750   -18.6110    71.4920    61.5910    59.4380    81.1990    23.2520     2.4230 
  254.5000   -18.7030    73.1440    58.1420    55.8960    73.3160    23.3190     2.4380 
  254.6250   -18.7710    72.7910    54.6080    52.2330    58.7150    23.3210     2.4630 
  254.7500   -18.8370    72.6950    51.7030    49.1450    48.5370    23.2690     2.4960 
  254.8750   -18.9030    74.3330    49.8860    47.0970    46.1220    23.2110     2.5280 
  255.0000   -18.9840    75.1490    49.3910    46.3390    46.6930    23.1640     2.5460 
  255.1250   -19.0830    72.2040    50.5110    47.1580    47.1080    23.1200     2.5390 
  255.2500   -19.2460    68.2330    52.9220    49.2340    51.1580    23.0620     2.5060 
  255.3750   -19.4460    66.7240    56.4340    52.3880    58.1180    22.9930     2.4620 
  255.5000   -19.6790    68.4190    60.7630    56.3650    64.8230    22.9500     2.4310 
  255.6250   -19.9270    70.3840    65.5290    60.8450    68.0760    23.0040     2.4260 
  255.7500   -20.1740    70.4340    70.1580    65.2890    71.1830    23.1550     2.4460 
  255.8750   -20.4510    68.3470    74.2250    69.2860    73.4660    23.3340     2.4790 
  256.0000   -20.7540    65.9100    77.3980    72.4920    78.3030    23.4540     2.5000 
  256.1250   -21.0920    65.5020    79.2990    74.4840    81.7270    23.5120     2.4930 
  256.2500   -21.4250    66.2500    80.1300    75.3840    85.8160    23.5370     2.4600 
  256.3750   -21.7940    68.5220    80.1250    75.3600    87.3260    23.5470     2.4090 
  256.5000   -22.1510    72.2170    79.6630    74.7420    77.5920    23.5340     2.3610 
  256.6250   -22.5170    75.1910    79.1500    73.9240    62.0750    23.4850     2.3300 
  256.7500   -22.8720    75.0970    78.7650    73.1970    57.9890    23.4190     2.3230 
  256.8750   -23.1660    72.2140    78.3930    72.5600    61.1340    23.3740     2.3460 
  257.0000   -23.3720    69.1380    77.8340    71.8900    63.4160    23.3540     2.3840 
  257.1250   -23.4960    68.3960    77.0130    71.1230    64.1600    23.3390     2.4240 
  257.2500   -23.5310    69.7330    76.3240    70.5170    62.5480    23.3050     2.4510 
  257.3750   -23.4510    71.4690    76.3540    70.5370    60.5300    23.2500     2.4560 
  257.5000   -23.3020    71.4740    77.6610    71.6870    61.7350    23.2010     2.4460 
  257.6250   -23.0610    70.0700    80.7880    74.5170    66.7500    23.1480     2.4300 
  257.7500   -22.7430    69.5020    85.3320    78.7140    74.4910    23.0800     2.4170 
  257.8750   -22.3130    70.7500    90.8920    83.9210    81.8520    23.0000     2.4150 
  258.0000   -21.7940    72.9550    96.8970    89.6100    86.1680    22.9380     2.4230 
  258.1250   -21.1790    74.2450   102.4820    95.0090    95.9250    22.9370     2.4380 
  258.2500   -20.4970    74.9330   106.8140    99.3770   110.4740    22.9440     2.4570 
  258.3750   -19.7790    75.3090   109.1530   102.0780   124.7230    22.9530     2.4700 
  258.5000   -19.0510    74.9040   109.0420   102.6650   138.8600    22.9670     2.4740 
  258.6250   -18.3230    74.2600   106.3540   100.8290   132.4860    22.9910     2.4710 
  258.7500   -17.5920    74.8450   102.4960    97.6120   118.0290    23.0180     2.4690 
  258.8750   -16.9560    75.9590    98.6270    93.9630    98.8170    23.0480     2.4760 
  259.0000   -16.4110    76.3090    95.5540    90.7090    87.9080    23.0910     2.4930 
  259.1250   -15.9900    75.5410    93.4680    88.2950    83.6660    23.1500     2.5160 
  259.2500   -15.6630    74.7490    91.5040    86.2240    76.9410    23.1970     2.5360 
  259.3750   -15.3990    74.4730    88.8370    83.8540    68.0860    23.1850     2.5430 
  259.5000   -15.1720    74.6910    85.0100    80.7160    61.8600    23.1170     2.5310 
  259.6250   -15.0090    74.6210    80.2400    76.8540    56.6420    23.0350     2.4990 
  259.7500   -14.8880    73.7800    75.7850    73.2270    52.6160    22.9990     2.4500 
  259.8750   -14.8040    72.9850    72.8790    70.9000    53.3790    23.0250     2.4040 
  260.0000   -14.7020    73.5470    72.4820    70.7540    57.0800    23.0600     2.3780 
  260.1250   -14.5590    74.4780    75.0840    73.2610    64.8750    23.0770     2.3800 
  260.2500   -14.4120    74.3320    78.8300    76.7780    74.2580    23.0730     2.4070 
  260.3750   -14.2300    73.3750    81.2540    79.0530    80.5750    23.0250     2.4480 
  260.5000   -13.9970    73.1730    79.4510    77.3680    79.2670    22.9640     2.4870 
  260.6250   -13.6950    73.3600    70.1850    68.6220    65.6460    22.9490     2.5140 
  260.7500   -13.3740    71.9390    55.7070    54.6230    46.7530    22.9720     2.5270 
  260.8750   -13.0330    69.0970    39.8280    38.8550    31.8670    23.0290     2.5230 
  261.0000   -12.7640    66.5910    26.3380    25.1490    22.0920    23.1140     2.5050 
  261.1250   -12.5830    64.7090    17.5200    16.0750    10.7480    23.1760     2.4760 
