~V
VERS. 2.00: Ver 2.00
~W
STRT.M 120.0000:
STOP.M 272.0000:
STEP.M 0.1250:
NULL. -999.2500:
UWI. DF3038:
~C
DEPT.M :
GR.API :
RML.OHMM :
RI. :
RXO.OHMM :
CALI.CM :
DEN.GM/CC :
SP.MV :
~A
# ...
  131.2500    97.2750     7.0780     6.5550     6.2880    24.9430     2.2970   -24.2230 
  131.3750   103.7720     6.8880     6.3660     6.1470    24.9230     2.3060   -24.3900 
  131.5000   103.4630     6.8210     6.2720     6.3040    24.8810     2.3150   -24.5440 
  131.6250    94.8440     6.8900     6.2920     6.3570    24.8360     2.3220   -24.7090 
  131.7500    86.7410     7.0590     6.3970     6.3040    24.7780     2.3270   -24.9160 
  131.8750    84.8730     7.3050     6.5630     6.3330    24.7440     2.3300   -25.1150 
  132.0000    87.7370     7.5810     6.7460     6.6780    24.7720     2.3300   -25.3740 
  132.1250    90.0570     7.7870     6.8610     6.7270    24.7860     2.3260   -25.6260 
  132.2500    89.5330     7.8200     6.8270     6.7230    24.7320     2.3210   -25.8070 
  132.3750    87.5170     7.6030     6.5890     6.8930    24.7160     2.3140   -25.9660 
  132.5000    88.7350     7.1270     6.1470     7.0660    24.8500     2.3090   -26.1190 
  132.6250    95.1020     6.4650     5.5660     6.4850    24.9830     2.3070   -26.2510 
  132.7500    99.4890     5.8420     5.0130     5.6740    24.9970     2.3090   -26.3660 
  132.8750    99.0350     5.4760     4.6420     5.3220    24.9720     2.3130   -26.5760 
  133.0000    96.5420     5.6250     4.6350     5.5700    24.9380     2.3250   -26.8080 
  133.1250    95.5610     6.7380     5.3640     6.6950    24.9670     2.3580   -27.1710 
  133.2500    92.4990     8.8800     6.9810     9.0410    24.9430     2.4160   -27.6410 
  133.3750    85.5940    11.9440     9.5310    13.0650    24.9110     2.4940   -28.1800 
  133.5000    77.8450    15.4280    12.7210    19.5760    24.8980     2.5720   -28.9020 
  133.6250    72.8500    18.2310    15.6930    27.5040    24.9020     2.6110   -29.6050 
  133.7500    69.3390    19.4320    17.4380    34.2140    24.8760     2.5950   -30.3540 
  133.8750    66.3090    18.7110    17.4200    33.7620    24.7630     2.5290   -31.0990 
  134.0000    64.3840    16.6110    15.9020    24.7770    24.5310     2.4400   -31.7770 
  134.1250    65.7140    14.2960    13.8150    16.1560    24.2020     2.3560   -32.4980 
  134.2500    69.0680    12.6240    12.0790    12.7170    23.9660     2.2930   -33.0580 
  134.3750    71.6780    11.7310    10.9360    11.7700    23.8910     2.2510   -33.6140 
  134.5000    71.2960    11.4560    10.3380    11.6490    23.9410     2.2310   -34.0960 
  134.6250    70.7100    11.5620    10.1620    11.5860    24.0620     2.2280   -34.4330 
  134.7500    71.4600    11.7310    10.1480    11.4310    24.1470     2.2340   -34.7670 
  134.8750    72.8570    11.8080    10.1570    11.3130    24.1870     2.2390   -35.0740 
  135.0000    74.0820    11.7380    10.1130    11.2890    24.1770     2.2360   -35.2920 
  135.1250    74.3120    11.5760    10.0250    11.3260    24.1660     2.2190   -35.3790 
  135.2500    73.9020    11.5080    10.0110    11.4310    24.1720     2.1990   -35.4780 
  135.3750    73.2470    11.7090    10.2010    11.6880    24.2100     2.1910   -35.4310 
  135.5000    73.2120    12.2760    10.6830    12.2060    24.2790     2.2130   -35.3290 
  135.6250    73.7300    13.1690    11.4550    13.6100    24.4330     2.2770   -35.2160 
  135.7500    73.8030    14.0680    12.2680    16.2220    24.6280     2.3590   -35.0020 
  135.8750    73.4770    14.6630    12.8670    20.3100    24.7070     2.4280   -34.7660 
  136.0000    73.2400    14.7220    13.0290    25.0710    24.5880     2.4510   -34.6090 
  136.1250    72.9090    14.1160    12.5980    21.7490    24.3470     2.4150   -34.5430 
  136.2500    71.6080    13.1390    11.7940    15.2430    24.2610     2.3530   -34.4320 
  136.3750    69.9680    12.0360    10.8230    11.8490    24.2690     2.2950   -34.4300 
  136.5000    70.8580    11.0040     9.8660    11.0050    24.2010     2.2590   -34.3460 
  136.6250    75.2680    10.2150     9.0830    10.5960    24.0400     2.2500   -34.2820 
  136.7500    79.5090     9.7130     8.5270     9.8930    24.0420     2.2550   -34.3190 
  136.8750    81.8520     9.5240     8.2310     8.8050    24.2530     2.2640   -34.2500 
  137.0000    83.4970     9.6180     8.1860     7.8410    24.4540     2.2670   -34.1690 
  137.1250    84.9240     9.8840     8.3340     7.9860    24.4680     2.2620   -33.8760 
  137.2500    84.5500    10.0780     8.4930     8.7040    24.4040     2.2560   -33.4890 
  137.3750    82.7900    10.0210     8.5120     9.3140    24.3400     2.2550   -32.9320 
  137.5000    81.8730     9.6370     8.2960     9.4970    24.3150     2.2630   -32.1920 
  137.6250    85.4650     8.9770     7.8300     9.0270    24.4050     2.2780   -31.3110 
  137.7500    92.0570     8.2790     7.2780     7.7870    24.5810     2.2920   -30.0950 
  137.8750    97.2840     7.7020     6.7690     6.6690    24.7540     2.3020   -28.6090 
  138.0000   100.1580     7.3160     6.3810     6.2830    24.8820     2.3110   -26.8140 
  138.1250   102.0930     7.1270     6.1460     6.1460    24.9740     2.3200   -24.7860 
  138.2500   104.1310     7.0360     6.0020     5.8740    25.0130     2.3330   -22.8840 
  138.3750   104.3470     6.9800     5.9020     5.6670    25.0210     2.3460   -21.1730 
  138.5000   102.8140     6.9150     5.8040     5.4450    25.0170     2.3600   -19.6730 
  138.6250   104.1780     6.8060     5.6750     5.3780    25.0120     2.3750   -18.4510 
  138.7500   109.3560     6.6410     5.5070     5.3320    25.0100     2.3940   -17.5430 
  138.8750   113.6960     6.4170     5.3020     5.3760    25.0170     2.4140   -16.9830 
  139.0000   113.7500     6.1490     5.0760     5.3290    25.0140     2.4310   -16.7920 
  139.1250   111.0580     5.9100     4.8760     5.2410    25.0040     2.4360   -16.9760 
  139.2500   109.6060     5.8140     4.7760     5.2120    25.0020     2.4280   -17.3050 
  139.3750   106.7160     5.9870     4.8660     5.3390    24.9880     2.4090   -17.6440 
  139.5000   100.0230     6.5260     5.2310     5.7650    24.8770     2.3920   -18.0990 
  139.6250    90.4790     7.4670     5.9410     6.7780    24.7450     2.3940   -18.4420 
  139.7500    81.5570     8.5540     6.8390     8.2070    24.6680     2.4170   -18.7580 
  139.8750    75.4200     9.5210     7.7360     9.7870    24.6050     2.4500   -19.0420 
  140.0000    74.1560    10.1260     8.4200    11.9310    24.5450     2.4730   -19.2640 
  140.1250    79.5300    10.2250     8.7040    13.8720    24.4950     2.4690   -19.5540 
  140.2500    86.1940    10.0590     8.7060    13.3800    24.4040     2.4510   -19.6700 
  140.3750    90.0620     9.8470     8.5800    10.7840    24.2660     2.4390   -19.7310 
  140.5000    89.6090     9.7020     8.4400     9.7790    24.2050     2.4410   -19.5880 
  140.6250    87.1290     9.5680     8.2900    11.3510    24.3180     2.4470   -19.4580 
  140.7500    86.9160     9.3190     8.0610    13.5840    24.4660     2.4400   -19.2980 
  140.8750    88.9740     8.9100     7.7100    12.6760    24.5610     2.4140   -19.0740 
  141.0000    90.8250     8.4050     7.2620     8.5290    24.6170     2.3800   -18.9040 
  141.1250    91.9560     7.9710     6.8230     6.8380    24.6460     2.3570   -18.6400 
  141.2500    95.2000     7.7260     6.5060     6.3400    24.6250     2.3450   -18.4530 
  141.3750    99.3030     7.6860     6.3530     6.2290    24.6120     2.3390   -18.3340 
  141.5000   101.2470     7.7860     6.3440     6.1160    24.6640     2.3310   -18.2690 
  141.6250   100.8630     7.9070     6.4040     6.1260    24.7050     2.3190   -18.2180 
  141.7500    99.0230     7.9390     6.4300     6.1870    24.7020     2.3090   -18.1990 
  141.8750    96.2040     7.8400     6.3700     6.2560    24.6830     2.3060   -18.1260 
  142.0000    96.4720     7.6170     6.2120     6.2610    24.6840     2.3130   -17.9520 
  142.1250   104.2750     7.3230     5.9780     6.0830    24.7140     2.3280   -17.7050 
  142.2500   111.8510     7.0490     5.7360     5.8170    24.7290     2.3440   -17.4550 
  142.3750   113.4790     6.8560     5.5340     5.5590    24.6940     2.3580   -17.1310 
