~V
VERS. 2.00: Ver 2.00
~W
STRT.M 90.0000:
STOP.M 264.0000:
STEP.M 0.1250:
NULL. -999.2500:
UWI. DF3021:
~C
DEPT.M :
AC.US/MT :
DEN.GM/CC :
GR.API :
CALI.CM :
RXO.OHMM :
RI. :
RML.OHMM :
SP.MV :
~A
# ...
  100.0000   388.2190     2.2630    70.6680    22.4110    12.4370     9.5140    11.7630   -19.2390 
  100.1250   357.4130     2.3350    77.9570    22.3660    12.1780    10.1270    12.6100   -18.3120 
  100.2500   337.1050     2.3930    84.3610    22.3660    12.2020    10.5680    13.1970   -17.3760 
  100.3750   333.6200     2.4180    86.9740    22.3170    12.5770    10.4780    13.0010   -16.4810 
  100.5000   347.6410     2.4090    90.9270    22.2370    11.5830     9.6550    11.7500   -15.6100 
  100.6250   376.2490     2.3760   100.8530    22.1930     8.6360     8.2500     9.6830   -14.8350 
  100.7500   408.0800     2.3330   109.4550    22.2060     6.1070     6.8270     7.6560   -14.1730 
  100.8750   433.9960     2.2880   110.7210    22.2910     4.8950     5.6920     6.1420   -13.6580 
  101.0000   448.2540     2.2580   108.4410    22.3440     4.5440     4.9580     5.2950   -13.2610 
  101.1250   449.9620     2.2530   109.2930    22.3700     4.6050     4.6680     5.1290   -12.9910 
  101.2500   446.5960     2.2540   108.8920    22.4030     4.8640     4.6550     5.3290   -12.8250 
  101.3750   442.8970     2.2520   103.7790    22.3980     5.1640     4.7820     5.6510   -12.7370 
  101.5000   441.4240     2.2550    97.1380    22.3800     5.2730     4.9060     5.8580   -12.7250 
  101.6250   443.1330     2.2740    97.2830    22.5570     5.1260     4.8950     5.7620   -12.7670 
  101.7500   446.8930     2.2880   101.6750    22.7600     4.9270     4.7800     5.4740   -12.8310 
  101.8750   451.2540     2.2820   104.7380    22.9180     4.7940     4.6850     5.2150   -12.9000 
  102.0000   452.1890     2.2650   103.8000    23.0570     4.8740     4.7790     5.2530   -12.9930 
  102.1250   438.4380     2.2710    98.5350    23.2980     5.4510     5.2890     5.9320   -13.0830 
  102.2500   404.8710     2.3140    91.7270    23.5800     6.9760     6.2450     7.2660   -13.1730 
  102.3750   357.0300     2.3840    86.1260    23.7520    10.3320     7.5730     9.0910   -13.2630 
  102.5000   313.2170     2.4540    84.2910    23.7210    14.3830     8.9260    10.8760   -13.3470 
  102.6250   300.5630     2.4870    87.0970    23.5360    15.7070     9.5100    11.5320   -13.4230 
  102.7500   321.1140     2.4780    90.9390    23.2890    13.1960     9.0760    10.7700   -13.5110 
  102.8750   361.9310     2.4350    96.2370    22.9620     9.3920     7.9800     9.1140   -13.6180 
  103.0000   402.2860     2.3770   106.5300    22.5650     6.5660     6.7970     7.4220   -13.6940 
  103.1250   422.7490     2.3240   116.4610    22.1860     5.6300     5.9510     6.3590   -13.7620 
  103.2500   426.1080     2.2900   117.6110    21.8860     5.5830     5.4570     5.8870   -13.8070 
  103.3750   423.3730     2.2760   111.4610    21.7920     5.6740     5.2370     5.8240   -13.8440 
  103.5000   425.0410     2.2730   107.5160    22.0670     5.5650     5.1820     5.9620   -13.9140 
  103.6250   433.8070     2.2730   107.9320    22.4910     5.3750     5.1980     6.1310   -14.0380 
  103.7500   442.2190     2.2710   103.9300    22.5850     5.3040     5.2020     6.2230   -14.1950 
  103.8750   445.7280     2.2670    94.3370    22.5020     5.3810     5.1610     6.1950   -14.3560 
  104.0000   445.0530     2.2590    86.2830    22.5220     5.6180     5.0810     6.0640   -14.5480 
  104.1250   444.0490     2.2510    87.2020    22.6600     5.9520     5.0620     5.9830   -14.7530 
  104.2500   442.5470     2.2510    90.4080    22.8750     6.2010     5.2580     6.2150   -15.0000 
  104.3750   433.3380     2.2710    89.9270    23.0430     6.4270     5.8420     7.0530   -15.2970 
  104.5000   406.4150     2.3190    86.9410    23.1190     7.5290     6.9880     8.7670   -15.6280 
  104.6250   355.9380     2.3940    85.3050    23.1340    12.0320     8.9100    11.6150   -15.9840 
  104.7500   299.9730     2.4550    82.0230    23.2020    19.7380    11.2560    14.9790   -16.3690 
  104.8750   259.7380     2.4670    77.7420    23.4170    25.3590    13.2270    17.6620   -16.8050 
  105.0000   249.6920     2.4300    76.5660    23.6950    24.1090    13.7980    18.2110   -17.3060 
  105.1250   273.9660     2.3750    79.5150    23.7700    18.1060    12.5720    16.0920   -17.8940 
  105.2500   315.7000     2.3220    81.6320    23.5660    13.0920    10.7630    13.2270   -18.5230 
  105.3750   362.3360     2.2680    80.3120    23.1560    10.2200     9.1340    10.8640   -19.1560 
  105.5000   402.4430     2.2160    78.1520    22.7710     8.9920     7.9770     9.4290   -19.7820 
  105.6250   425.3430     2.1800    78.2090    22.5590     8.7690     7.3520     8.9110   -20.3720 
  105.7500   433.9200     2.1600    79.4920    22.4770     8.8300     7.0690     8.8720   -20.9380 
  105.8750   434.6620     2.1460    81.1320    22.4500     8.9650     7.0250     9.0920   -21.4770 
  106.0000   433.9600     2.1340    83.2880    22.4170     9.0570     7.1410     9.4340   -21.9900 
  106.1250   434.5320     2.1330    83.1490    22.3420     9.0540     7.3760     9.8450   -22.4510 
  106.2500   435.2250     2.1440    78.5880    22.2710     9.3030     7.6760    10.3010   -22.8930 
  106.3750   435.2270     2.1570    73.9750    22.2340     9.9070     8.0060    10.7740   -23.3170 
  106.5000   434.9540     2.1630    74.4020    22.1760    10.5180     8.3110    11.1940   -23.7350 
  106.6250   435.3800     2.1610    76.8440    22.1090    10.7130     8.5130    11.4450   -24.1480 
  106.7500   436.3470     2.1630    76.8150    22.0360    10.6490     8.5910    11.5100   -24.5310 
  106.8750   437.1410     2.1700    75.9730    21.9960    10.5740     8.5530    11.4170   -24.8730 
  107.0000   437.3740     2.1750    75.2650    22.0190    10.6000     8.4370    11.2340   -25.1630 
  107.1250   437.3310     2.1630    73.6570    22.0640    10.6790     8.2930    11.0320   -25.3840 
  107.2500   437.4300     2.1470    71.9960    22.1040    10.7470     8.1630    10.8520   -25.5160 
  107.3750   437.4560     2.1410    70.9060    22.1200    10.7920     8.0720    10.7090   -25.5620 
  107.5000   436.9140     2.1480    69.8240    22.1320    10.8030     8.0450    10.6270   -25.4920 
  107.6250   435.6550     2.1570    69.5860    22.1530    10.8270     8.1270    10.6750   -25.2710 
  107.7500   434.5000     2.1560    69.4260    22.1510    10.8560     8.3240    10.8860   -24.9060 
  107.8750   434.1110     2.1470    69.1410    22.0880    10.8800     8.6220    11.2530   -24.4050 
  108.0000   434.5100     2.1380    68.9520    22.0080    10.8230     8.9320    11.6470   -23.7470 
  108.1250   435.1200     2.1370    70.7140    21.9230    10.8550     9.0330    11.7330   -22.9100 
  108.2500   435.7430     2.1450    72.9440    21.9020    11.0030     8.7690    11.2770   -21.9570 
  108.3750   437.1290     2.1630    76.7200    21.9820    10.8830     8.1130    10.2490   -20.9350 
  108.5000   439.9750     2.1930    83.7120    22.1550     9.9610     7.2010     8.8690   -19.9100 
  108.6250   443.5160     2.2290    93.1050    22.5100     8.0440     6.2750     7.5400   -18.9760 
  108.7500   445.5880     2.2570   101.8870    23.1180     6.3760     5.5220     6.5460   -18.1690 
  108.8750   445.3940     2.2670   105.6150    23.7690     5.5300     5.0040     5.9570   -17.5180 
  109.0000   444.1250     2.2640   102.4290    24.1020     5.3480     4.7130     5.7120   -17.0250 
  109.1250   444.4090     2.2550    96.7940    24.1390     5.3630     4.6080     5.6860   -16.7690 
  109.2500   447.1530     2.2480    96.1470    24.1270     5.3050     4.5740     5.6770   -16.6960 
  109.3750   451.4650     2.2400   100.7470    24.1390     5.1860     4.5450     5.6010   -16.7550 
  109.5000   455.3450     2.2350   105.8190    24.1440     5.0380     4.5070     5.4710   -16.8850 
  109.6250   455.8720     2.2480   111.5270    24.1200     4.8840     4.5020     5.3960   -17.0430 
  109.7500   452.1580     2.2700   112.5520    24.0660     4.8830     4.5690     5.4530   -17.2200 
  109.8750   445.0220     2.2800   105.2200    23.9850     5.1990     4.7180     5.6490   -17.3830 
