~V
VERS. 2.00: Ver 2.00
~W
STRT.M 60.0000:
STOP.M 275.0000:
STEP.M 0.1250:
NULL. -999.2500:
UWI. DF3003:
~C
DEPT.M :
DEN.GM/CC :
SP.MV :
AC.US/MT :
GR.API :
RML.OHMM :
RI. :
RXO.OHMM :
CALI.CM :
~A
# ...
   90.0000     2.2680    -7.1030   424.9310   124.1690     5.2890     4.4770     4.6790    23.8570 
   90.1250     2.2780    -7.0690   419.6410   123.0020     5.4160     4.5550     4.6860    23.9180 
   90.2500     2.2740    -6.9960   410.1530   117.0760     5.6350     4.7080     5.0740    23.8850 
   90.3750     2.2580    -6.9230   398.7650   108.7020     5.8460     4.8810     5.6710    23.8120 
   90.5000     2.2390    -6.7920   390.6040   100.9660     5.9410     5.0000     6.2320    23.8280 
   90.6250     2.2310    -6.6470   391.4910    99.3680     5.8390     4.9950     6.2050    23.9910 
   90.7500     2.2360    -6.5870   399.1810   104.9760     5.6390     4.9000     5.3440    24.2240 
   90.8750     2.2480    -6.5510   408.1990   111.1480     5.4700     4.7840     4.4840    24.3700 
   91.0000     2.2570    -6.5540   413.0990   111.5290     5.4270     4.7130     4.3080    24.3270 
   91.1250     2.2570    -6.5340   411.8970   105.6910     5.5370     4.7300     4.5860    24.1170 
   91.2500     2.2540    -6.5080   409.1340    99.2290     5.6940     4.7910     4.8560    23.9560 
   91.3750     2.2550    -6.5190   408.4480    95.1980     5.7950     4.8390     4.8870    23.8690 
   91.5000     2.2650    -6.5360   411.0410    96.1740     5.7680     4.8220     4.6240    23.8150 
   91.6250     2.2810    -6.6170   415.8370   101.7860     5.5830     4.7020     4.3450    23.7420 
   91.7500     2.2930    -6.6250   420.7500   106.8790     5.3200     4.5130     4.1820    23.6520 
   91.8750     2.2950    -6.6560   424.8730   107.9640     5.0470     4.2990     4.1320    23.5960 
   92.0000     2.2880    -6.6650   428.0710   107.3990     4.8430     4.1210     4.1620    23.5840 
   92.1250     2.2820    -6.6440   429.7020   106.7070     4.8370     4.0780     4.1950    23.6000 
   92.2500     2.2920    -6.7630   427.0500   103.7100     5.0940     4.2290     4.2430    23.6250 
   92.3750     2.3230    -6.9780   416.1830   100.0000     5.6400     4.6010     4.5250    23.6470 
   92.5000     2.3670    -7.3370   394.3170    95.6750     6.4140     5.1670     5.3790    23.6600 
   92.6250     2.3960    -7.7990   363.4810    89.7830     7.2340     5.8170     6.7220    23.6750 
   92.7500     2.3870    -8.2950   338.1840    81.9140     7.8400     6.3650     8.0950    23.6990 
   92.8750     2.3410    -8.7770   332.0110    74.3540     8.0590     6.6740     8.8870    23.7240 
   93.0000     2.2770    -9.2290   348.3520    69.7530     7.8810     6.6890     8.4600    23.7440 
   93.1250     2.2240    -9.6640   374.6690    68.5960     7.4860     6.4630     7.5740    23.7680 
   93.2500     2.1940    -9.9530   391.2130    71.9830     7.1580     6.1940     7.2130    23.7990 
   93.3750     2.1850   -10.0720   394.6650    76.5390     6.9920     5.9840     7.0760    23.8230 
   93.5000     2.1880    -9.9800   395.4650    78.3730     6.9490     5.8520     6.8880    23.8400 
   93.6250     2.1970    -9.5910   402.6600    81.1820     6.9120     5.7520     6.6620    23.8650 
   93.7500     2.2110    -9.0950   409.2920    85.4060     6.7780     5.6140     6.3020    23.9020 
   93.8750     2.2280    -8.5260   408.4510    88.6380     6.5320     5.4170     5.7200    23.9600 
   94.0000     2.2460    -7.9790   400.8950    89.3400     6.2310     5.1790     5.0020    24.0340 
   94.1250     2.2610    -7.4190   396.6630    89.5810     5.9750     4.9570     4.5650    24.0560 
   94.2500     2.2710    -6.9080   402.2890    92.1620     5.8180     4.7930     4.4840    23.9470 
   94.3750     2.2780    -6.4840   414.9040    95.7820     5.7700     4.7080     4.5010    23.7960 
   94.5000     2.2810    -6.1180   425.3280    97.2150     5.8130     4.7020     4.5270    23.7800 
   94.6250     2.2760    -5.9560   426.7480    93.2170     5.9220     4.7700     4.5410    23.9590 
   94.7500     2.2640    -5.8890   424.2270    87.3200     6.0500     4.8740     4.5270    24.2060 
   94.8750     2.2500    -5.9410   420.2110    84.9830     6.1700     4.9870     4.5550    24.3370 
   95.0000     2.2410    -6.0390   414.5430    86.5610     6.2510     5.0840     4.6710    24.3060 
   95.1250     2.2460    -6.1300   411.0530    88.6960     6.2560     5.1300     4.7800    24.1350 
   95.2500     2.2610    -6.1980   412.3600    89.7660     6.1970     5.1190     4.8570    23.9370 
   95.3750     2.2790    -6.2100   416.9220    91.8810     6.0960     5.0580     4.8410    23.8550 
   95.5000     2.2940    -6.2950   421.0860    94.8230     5.9810     4.9600     4.6690    23.9070 
   95.6250     2.3030    -6.4190   420.4150    93.5590     5.8620     4.8410     4.5690    24.0320 
   95.7500     2.3080    -6.6250   416.7530    88.8020     5.7330     4.7130     4.5860    24.0860 
   95.8750     2.3110    -6.8630   415.9240    86.2030     5.5970     4.5920     4.6410    24.1030 
   96.0000     2.3110    -7.1440   420.9120    88.6730     5.4960     4.5080     4.6310    24.1160 
   96.1250     2.3050    -7.5210   426.2360    93.1550     5.5500     4.5410     4.6140    24.1540 
   96.2500     2.2980    -7.9900   423.9530    95.5760     5.8280     4.7380     4.8040    24.2100 
   96.3750     2.2950    -8.6600   411.9150    93.1860     6.3390     5.1190     5.4930    24.2570 
   96.5000     2.2980    -9.3910   391.3310    83.6970     7.0010     5.6410     6.5540    24.2640 
   96.6250     2.3050   -10.0810   368.1800    73.7040     7.6190     6.1910     7.8900    24.1050 
   96.7500     2.3060   -10.7430   355.1820    69.2380     7.9970     6.6170     8.8650    23.8350 
   96.8750     2.2950   -11.3820   359.9070    69.6160     8.0520     6.8240     8.5750    23.6960 
   97.0000     2.2750   -12.0830   378.8680    70.6590     7.8400     6.8000     7.4880    23.6910 
   97.1250     2.2510   -12.8140   398.7680    71.7400     7.5220     6.6110     6.8480    23.7000 
   97.2500     2.2300   -13.5300   410.4620    74.4470     7.2650     6.4000     6.6940    23.7000 
   97.3750     2.2130   -14.0990   414.7800    76.7880     7.1220     6.2440     6.6580    23.7010 
   97.5000     2.2010   -14.5120   415.6450    78.3050     7.0890     6.1690     6.6260    23.7070 
   97.6250     2.1930   -14.9250   414.4410    80.1970     7.1490     6.1790     6.6180    23.7190 
   97.7500     2.1870   -15.2820   411.3920    81.6530     7.2680     6.2460     6.6590    23.7430 
   97.8750     2.1820   -15.6110   407.4380    79.0010     7.4420     6.3660     6.7770    23.8020 
   98.0000     2.1780   -15.7820   402.9000    73.0210     7.6650     6.5400     6.9950    23.8270 
   98.1250     2.1760   -15.8600   401.1630    69.2030     7.9260     6.7680     7.3210    23.8230 
   98.2500     2.1770   -15.8680   403.5600    68.5280     8.1900     7.0170     7.6960    23.8050 
   98.3750     2.1810   -15.7660   407.3540    68.5590     8.4290     7.2560     8.0670    23.7710 
   98.5000     2.1860   -15.7030   408.4420    67.1950     8.6130     7.4540     8.4270    23.6750 
   98.6250     2.1870   -15.5750   406.1640    63.7640     8.7150     7.5760     8.7180    23.6110 
   98.7500     2.1850   -15.3650   404.8580    61.6510     8.7480     7.6300     8.8830    23.5220 
   98.8750     2.1790   -15.1360   405.3110    62.5630     8.7260     7.6300     8.9530    23.4320 
   99.0000     2.1710   -14.9040   406.2940    63.2690     8.6700     7.5980     8.9280    23.3680 
   99.1250     2.1640   -14.6150   408.9600    60.9480     8.6120     7.5650     8.8170    23.2660 
   99.2500     2.1580   -14.2450   413.9710    60.5170     8.5850     7.5560     8.6580    23.1940 
   99.3750     2.1540   -13.8990   420.0140    63.4700     8.6120     7.5860     8.4760    23.1320 
   99.5000     2.1500   -13.4520   424.1040    65.4400     8.6930     7.6580     8.3270    23.0640 
   99.6250     2.1450   -12.8890   424.8920    63.0280     8.7800     7.7410     8.2820    23.0770 
   99.7500     2.1400   -12.3020   425.0340    61.0450     8.7780     7.7650     8.2920    23.1310 
   99.8750     2.1410   -11.5910   424.9780    62.0440     8.5900     7.6530     8.2520    23.1880 
