~V
VERS. 2.00: Ver 2.00
~W
STRT.M 61.0000:
STOP.M 318.0000:
STEP.M 0.1250:
NULL. -999.2500:
UWI. DF302:
~C
DEPT.M :
DEN.GM/CC :
SP.MV :
AC.US/MT :
GR.API :
CALI.CM :
RXO.OHMM :
RI. :
RML.OHMM :
~A
# ...
  311.0000     2.1820   -19.1290   397.8890    58.9190    19.9630     5.3290     4.4010     4.9760 
  311.1250     2.2100   -19.2940   385.2900    58.9190    19.8860     5.6330     4.6870     5.4500 
  311.2500     2.2230   -19.4150   370.6150    58.9190    19.7400     5.9860     4.8890     5.7690 
  311.3750     2.2010   -19.4390   359.8580    58.9190    19.5680     6.2960     4.9910     5.9210 
  311.5000     2.1580   -19.3290   359.7500    58.9190    19.6150     6.1580     5.0200     5.9560 
  311.6250     2.1150   -19.0670   369.8220    58.9190    20.1640     5.4720     5.0160     5.9470 
  311.7500     2.0890   -18.6630   386.0450    58.9190    20.8450     4.8680     5.0110     5.9430 
  311.8750     2.0850   -18.1090   402.4910    58.9190    21.1080     4.6770     5.0070     5.9450 
  312.0000     2.0980   -17.4460   413.2740    58.9190    20.6980     4.7760     5.0020     5.9460 
  312.1250     2.1210   -16.7300   418.2740    58.9190    19.9260     4.8540     4.9950     5.9340 
  312.2500     2.1420   -15.9840   419.1130    58.9190    19.3350     4.8090     4.9850     5.9140 
  312.3750     2.1550   -15.2440   417.6210    58.9190    19.0680     4.7440     4.9730     5.8920 
  312.5000     2.1630   -14.5510   414.8700    58.9190    19.0330     4.8060     4.9630     5.8690 
  312.6250     2.1710   -13.9560   411.2530    58.9190    19.0900     5.0540     4.9560     5.8450 
  312.7500     2.1750   -13.4770   407.6330    58.9190    19.1690     5.2580     4.9540     5.8310 
  312.8750     2.1660   -13.1370   406.4730    58.9190    19.2380     5.2100     4.9540     5.8310 
  313.0000     2.1520   -12.9160   411.1930    58.9190    19.2760     4.9250     4.9540     5.8310 
  313.1250     2.1420   -12.7910   421.0150    58.9190    19.2670     4.6500     4.9540     5.8310 
  313.2500     2.1440   -12.7430   432.7370    58.9190    19.1780     4.5400     4.9540     5.8310 
  313.3750     2.1570   -12.7430   442.3800    58.9190    18.9470     4.5600     4.9540     5.8310 
  313.5000     2.1760   -12.7660   446.5040    58.9190    18.5220     4.6330     4.9540     5.8310 
  313.6250     2.1900   -12.8050   446.5940    58.9190    17.9030     4.7310     4.9540     5.8310 
  313.7500     2.1930   -12.8450   444.9370    58.9190    17.3010     4.8440     4.9540     5.8310 
  313.8750     2.1820   -12.8790   443.5110    58.9190    16.9080     4.9420     4.9540     5.8310 
  314.0000     2.1710   -12.9070   443.5340    58.9190    16.7700     5.0040     4.9540     5.8310 
  314.1250     2.1680   -12.9200   444.5010    58.9190    16.7370     5.1070     4.9540     5.8310 
  314.2500     2.1760   -12.9160   445.4770    58.9190    16.6060     5.3270     4.9540     5.8310 
  314.3750     2.1920   -12.9080   445.0260    58.9190    16.2490     5.6040     4.9540     5.8310 
  314.5000     2.2170   -12.9110   442.1120    58.9190    15.6430     5.8070     4.9540     5.8310 
  314.6250     2.2560   -12.9160   438.4700    58.9190    15.0150     5.9640     4.9540     5.8310 
  314.7500     2.3080   -12.9180   435.7110    58.9190    14.7180     6.1130     4.9540     5.8310 
  314.8750     2.3610   -12.9260   434.6970    58.9190    14.2570     6.9910     4.9540     5.8310 
  315.0000     2.3960   -12.9290   434.9560    58.9190    13.9620     7.3760     4.9540     5.8310 
  315.1250     2.4050   -12.9180   434.6260    58.9190    13.7300     7.2260     4.9540     5.8310 
  315.2500     2.3930   -12.9070   432.6690    58.9190    13.6400     6.6050     4.9540     5.8310 
  315.3750     2.3710   -12.8930   429.6700    58.9190    13.6820     5.8530     4.9540     5.8310 
  315.5000     2.3490   -12.8730   428.6360    58.9190    13.8660     5.3570     4.9540     5.8310 
  315.6250     2.3270   -12.8440   430.9150    58.9190    14.1180     5.1620     4.9540     5.8310 
  315.7500     2.2980   -12.7980   435.4870    58.9190    14.2610     5.1250     4.9540     5.8310 
  315.8750     2.2690   -12.7300   440.2360    58.9190    14.1650     5.0790     4.9540     5.8310 
  316.0000     2.2510   -12.6680   442.9590    58.9190    13.8890     4.9790     4.9540     5.8310 
  316.1250     2.2450   -12.6340   443.5720    58.9190    13.6500     4.8990     4.9540     5.8310 
  316.2500     2.2470   -12.6230   442.5610    58.9190    13.5280     4.8670     4.9540     5.8310 
  316.3750     2.2550   -12.6410   440.2770    58.9190    13.4980     4.8670     4.9540     5.8310 
  316.5000     2.2690   -12.6720   436.7830    58.9190    13.5030     4.8720     4.9540     5.8310 
  316.6250     2.2850   -12.7090   432.8000    58.9190    13.5070     4.8770     4.9540     5.8310 
  316.7500     2.2930   -12.7360   429.0240    58.9190    13.5070     4.8790     4.9540     5.8310 
  316.8750     2.2920   -12.7480   425.2020    58.9190    13.5060     4.8850     4.9540     5.8310 
  317.0000     2.2910   -12.7240   419.6220    58.9190    13.5040     4.9220     4.9540     5.8310 
  317.1250     2.2940   -12.6410   411.7990    58.9190    13.5030     4.9880     4.9540     5.8310 
  317.2500     2.2970   -12.5170   402.9920    58.9190    13.5030     5.0570     4.9540     5.8310 
  317.3750     2.2960   -12.3790   395.5990    58.9190    13.5000     5.0990     4.9540     5.8310 
  317.5000     2.2900   -12.2670   391.8780    58.9190    13.4970     5.1100     4.9540     5.8310 
  317.6250     2.2860   -12.1630   390.5560    58.9190    13.4970     5.1140     4.9540     5.8310 
  317.7500     2.2860   -12.0850   389.8300  -999.2500  -999.2500  -999.2500  -999.2500  -999.2500 
  317.8750     2.2890   -12.0430  -999.2500  -999.2500  -999.2500  -999.2500  -999.2500  -999.2500 
  318.0000     2.2900   -12.0360  -999.2500  -999.2500  -999.2500  -999.2500  -999.2500  -999.2500 
