~V
VERS. 2.00: Ver 2.00
~W
STRT.M 58.0000:
STOP.M 259.0000:
STEP.M 0.1250:
NULL. -999.2500:
UWI. DF3010:
~C
DEPT.M :
GR.API :
RML.OHMM :
RI. :
RXO.OHMM :
CALI.CM :
DEN.GM/CC :
SP.MV :
~A
# ...
   80.5000   114.4970     7.1330     6.1300     5.3210    24.3740  -999.2500   -23.5050 
   80.6250   115.6340     7.2510     6.1690     5.3860    24.3540  -999.2500   -23.4150 
   80.7500   116.1450     7.2600     6.1940     5.4680    24.3180  -999.2500   -23.3920 
   80.8750   115.9740     7.1540     6.1650     5.4740    24.3380  -999.2500   -23.6530 
   81.0000   115.5920     6.9920     6.0940     5.4750    24.3960  -999.2500   -24.0290 
   81.1250   116.9970     6.8940     6.0490     5.5450    24.4030  -999.2500   -24.4320 
   81.2500   119.4510     6.9480     6.1010     5.7180    24.2920  -999.2500   -25.0950 
   81.3750   120.1780     7.1870     6.2890     6.0680    24.0570  -999.2500   -25.9760 
   81.5000   113.5530     7.5880     6.6170     6.8160    23.6640  -999.2500   -26.8430 
   81.6250   102.3630     8.0930     7.0630     7.8980    23.3080  -999.2500   -27.7450 
   81.7500    95.0760     8.6070     7.5450     8.6070    23.1060  -999.2500   -28.7020 
   81.8750    89.9990     9.0840     8.0100     8.5380    23.0340  -999.2500   -29.5710 
   82.0000    83.2500     9.5100     8.4210     8.5370    23.0220  -999.2500   -30.3220 
   82.1250    77.4300     9.8670     8.7380     8.6190    23.0410  -999.2500   -30.9570 
   82.2500    77.3010    10.1390     8.9490     8.4190    23.1150  -999.2500   -31.4390 
   82.3750    79.6940    10.2820     9.0210     8.5240    23.2780  -999.2500   -31.6920 
   82.5000    79.7470    10.2580     8.9290     8.8400    23.5020  -999.2500   -31.7930 
   82.6250    79.1330    10.0530     8.6640     9.0370    23.5860  -999.2500   -31.9210 
   82.7500    81.0310     9.7660     8.3220     8.8110    23.6060  -999.2500   -31.9460 
   82.8750    83.5650     9.4840     7.9820     8.2310    23.6500  -999.2500   -31.8690 
   83.0000    82.6390     9.2920     7.7230     7.7210    23.7290  -999.2500   -31.9580 
   83.1250    78.1430     9.3190     7.6530     7.9690    23.7940  -999.2500   -32.1030 
   83.2500    74.3630     9.6460     7.8300     9.0240    23.9360  -999.2500   -32.1170 
   83.3750    71.2510    10.3570     8.3280    10.1930    24.1240  -999.2500   -32.2040 
   83.5000    69.7880    11.4640     9.1720    11.3120    24.2090  -999.2500   -32.3670 
   83.6250    70.1050    12.8370    10.3080    12.2120    24.1400  -999.2500   -32.3930 
   83.7500    69.3820    14.1060    11.4480    13.7330    24.0500  -999.2500   -32.4980 
   83.8750    66.6750    14.9360    12.3070    16.3580    24.0690  -999.2500   -32.8510 
   84.0000    63.4790    15.0950    12.6460    19.1520    24.1130  -999.2500   -33.1730 
   84.1250    63.3080    14.4950    12.3130    17.8710    24.0330  -999.2500   -33.5300 
   84.2500    64.6960    13.5450    11.6010    14.0540    23.7790  -999.2500   -34.0240 
   84.3750    65.6380    12.5940    10.7910    11.9090    23.4420  -999.2500   -34.4500 
   84.5000    67.0880    11.8980    10.1070    11.3110    23.0890  -999.2500   -34.9180 
   84.6250    69.4710    11.6050     9.6990    11.2880    22.8390  -999.2500   -35.5420 
   84.7500    71.4390    11.5850     9.5140    11.3360    22.6570  -999.2500   -36.0320 
   84.8750    71.4390    11.7040     9.4810    11.4350    22.5400  -999.2500   -36.2750 
   85.0000    70.6810    11.8410     9.5180    11.5220    22.4880  -999.2500   -36.5170 
   85.1250    71.0690    11.9170     9.5600    11.6100    22.4640  -999.2500   -36.8090 
   85.2500    69.5510    11.9320     9.5770    11.7070    22.4330  -999.2500   -36.9870 
   85.3750    66.2370    11.9120     9.5700    11.6710    22.4030  -999.2500   -37.1430 
   85.5000    64.3020    11.8880     9.5530    11.5360    22.3890  -999.2500   -37.3050 
   85.6250    65.5280    11.8870     9.5450    11.4780    22.3910  -999.2500   -37.3660 
   85.7500    67.0900    11.9100     9.5500    11.8610    22.4060  -999.2500   -37.4270 
   85.8750    67.5520    11.9510     9.5690    12.1580    22.4380  -999.2500   -37.6020 
   86.0000    68.6920    11.9970     9.5980    12.2870    22.4650  -999.2500   -37.7680 
   86.1250    69.5050    12.0290     9.6300    12.2920    22.4730  -999.2500   -37.7390 
   86.2500    66.6770    12.0320     9.6540    12.2200    22.4760  -999.2500   -37.7810 
   86.3750    63.2350    12.0030     9.6620    12.2100    22.4770  -999.2500   -37.8130 
   86.5000    64.6340    11.9560     9.6490    12.3260    22.4770  -999.2500   -37.7560 
   86.6250    70.6300    11.9270     9.6240    12.3170    22.4770  -999.2500   -37.6950 
   86.7500    73.2970    11.9510     9.6150    12.1880    22.4770  -999.2500   -37.5520 
   86.8750    70.8150    12.0440     9.6440    12.0690    22.4770  -999.2500   -37.2530 
   87.0000    66.7550    12.1960     9.7170    11.8280    22.4770  -999.2500   -36.9020 
   87.1250    64.2400    12.3690     9.8190    11.5740    22.4800  -999.2500   -36.5040 
   87.2500    64.0570    12.4970     9.9050    11.7800    22.4940  -999.2500   -35.9920 
   87.3750    65.3670    12.5340     9.9410    12.1100    22.5230  -999.2500   -35.5640 
   87.5000    64.4450    12.4640     9.9090    12.1330    22.5530  -999.2500   -35.0460 
   87.6250    60.2370    12.3050     9.8190    11.9550    22.5890  -999.2500   -34.4730 
   87.7500    57.8960    12.1390     9.7220    11.7480    22.6350  -999.2500   -34.0330 
   87.8750    61.4290    12.0220     9.6570    11.5720    22.6640  -999.2500   -33.5430 
   88.0000    68.1270    11.9730     9.6430    11.4460    22.6770  -999.2500   -32.8920 
   88.1250    72.6950    11.9510     9.6590    11.2970    22.6900  -999.2500   -32.3130 
   88.2500    74.6810    11.8640     9.6390    11.1030    22.7290  -999.2500   -31.7750 
   88.3750    74.3040    11.6440     9.5260    10.7460    22.8150  -999.2500   -31.0440 
   88.5000    72.2740    11.2750     9.2910    10.2100    22.9770  -999.2500   -30.3040 
   88.6250    73.2370    10.7970     8.9370     9.9480    23.1560  -999.2500   -29.5210 
   88.7500    80.2000    10.3080     8.5350     9.4250    23.2960  -999.2500   -28.5400 
   88.8750    91.0360     9.8640     8.1320     8.4330    23.3490  -999.2500   -27.5770 
   89.0000    99.7280     9.4830     7.7610     7.6450    23.3780  -999.2500   -26.7460 
   89.1250   100.8810     9.1530     7.4360     7.7270    23.4810  -999.2500   -25.8510 
   89.2500    99.8960     8.8340     7.1460     7.5560    23.7150  -999.2500   -24.8660 
   89.3750   101.9340     8.5240     6.8900     6.8150    23.9950  -999.2500   -24.0810 
   89.5000   106.1840     8.2450     6.6720     6.2650    24.1630  -999.2500   -23.3950 
   89.6250   106.1360     8.0500     6.5150     5.8840    24.2200  -999.2500   -22.7830 
   89.7500   103.5140     7.9480     6.4150     5.7140    24.2270  -999.2500   -22.4430 
   89.8750   103.3760     7.9160     6.3610     5.6000    24.2050  -999.2500   -22.1800 
   90.0000   106.0020     7.8960     6.3250     5.5690    24.1480  -999.2500   -21.8990 
   90.1250   108.5140     7.8190     6.2670     5.6080    24.1090  -999.2500   -21.8170 
   90.2500   108.6950     7.6800     6.1730     5.6290    24.1380  -999.2500   -21.8380 
   90.3750   108.3120     7.5240     6.0590     5.6060    24.2030  -999.2500   -21.8140 
   90.5000   107.7450     7.4130     5.9550     5.4800    24.2610  -999.2500   -21.8870 
   90.6250   106.9780     7.3970     5.9050     5.4030    24.2930  -999.2500   -21.9760 
   90.7500   109.5310     7.4390     5.9060     5.4060    24.2820  -999.2500   -22.0550 
   90.8750   115.2540     7.4850     5.9380     5.6540    24.2200  -999.2500   -22.2440 
   91.0000   119.0340     7.5030     5.9810     6.1280    24.0980  -999.2500   -22.4300 
   91.1250   115.7550     7.5590     6.0710     6.5390    23.9480  -999.2500   -22.5260 
   91.2500   111.6170     7.7930     6.2830     6.9780    23.8740  -999.2500   -22.7230 
   91.3750   108.9880     8.3090     6.6830     7.6420    23.9490  -999.2500   -22.9570 
   91.5000   105.2050     9.0820     7.2610     8.8480    24.1450  -999.2500   -23.0530 
   91.6250    97.3920     9.8990     7.8840    11.0960    24.2070  -999.2500   -23.2380 
