~V
VERS. 2.00: Ver 2.00
~W
STRT.M 56.0000:
STOP.M 270.0000:
STEP.M 0.1250:
NULL. -999.2500:
UWI. DF3053:
~C
DEPT.M :
GR.API :
CALI.CM :
RXO.OHMM :
RI. :
RML.OHMM :
DEN.GM/CC :
SP.MV :
~A
# ...
   67.1250    42.3100    22.5250     1.2270     0.8160 562221.3130  -999.2500    31.1560 
   67.2500    44.8180    22.2010     1.1770     0.8220 562221.3130  -999.2500    30.3730 
   67.3750    45.3650    22.0440     1.0850     0.8310 562221.3130  -999.2500    29.4610 
   67.5000    45.0570    21.8640     0.9970     0.8430 562221.3130  -999.2500    28.4960 
   67.6250    44.7480    21.7090     0.9660     0.8530 562221.3130  -999.2500    27.5470 
   67.7500    43.3410    21.6340     0.9140     0.8520 562221.3130  -999.2500    26.6870 
   67.8750    42.8340    21.6240     0.8420     0.8360 562221.3130  -999.2500    25.9560 
   68.0000    44.6460    21.6460     0.7870     0.8090   436.7930  -999.2500    25.3260 
   68.1250    46.8120    21.6590     0.7340     0.7830    37.7770  -999.2500    24.6730 
   68.2500    46.9230    21.6430     0.7160     0.7560     6.6150  -999.2500    23.8460 
   68.3750    48.1360    21.6590     0.7320     0.7160     1.8210  -999.2500    22.7400 
   68.5000    53.1100    21.8940     0.7550     0.6690     0.8450  -999.2500    21.2980 
   68.6250    58.0150    22.5140     0.7640     0.6410     0.6810  -999.2500    19.4780 
   68.7500    59.7710    23.1280     0.8270     0.6530     0.6680  -999.2500    17.3860 
   68.8750    61.6360    23.3750     1.1560     0.7180     0.7170  -999.2500    15.0710 
   69.0000    66.5530    23.3210     2.5180     0.8540     0.8250  -999.2500    12.5430 
   69.1250    73.7580    23.2920     4.5420     1.1250     1.0920  -999.2500     9.6810 
   69.2500    80.4290    23.3950     6.8420     1.6500     1.6800  -999.2500     6.4160 
   69.3750    83.0990    23.5690    12.8660     2.7030     2.9520  -999.2500     2.7410 
   69.5000    79.5710    23.7760    30.9190     4.6110     5.5330  -999.2500    -1.1230 
   69.6250    71.2270    23.9260    41.7110     7.3120     9.5820  -999.2500    -4.6370 
   69.7500    65.7000    23.8630    34.0820     9.5570    12.1580  -999.2500    -7.4390 
   69.8750    64.8420    23.5970    18.5020    10.4580    11.8510  -999.2500    -9.4640 
   70.0000    65.6100    23.2660    10.5170    10.1340    10.3200  -999.2500   -10.9330 
   70.1250    68.3630    23.0540     9.2870     9.2600     9.2160  -999.2500   -12.2080 
   70.2500    72.9010    22.9950     8.9930     8.5090     8.8640  -999.2500   -13.5380 
   70.3750    77.1760    23.0070     8.8940     8.0950     9.1640  -999.2500   -14.8710 
   70.5000    78.0580    23.0140     8.9100     8.0120     9.8750  -999.2500   -16.0580 
   70.6250    74.4300    23.0120     9.0520     8.1510    10.6040  -999.2500   -16.9790 
   70.7500    69.9540    23.0260     9.1900     8.3320    11.0230  -999.2500   -17.7280 
   70.8750    66.3960    23.0740     9.0290     8.4780    11.1080  -999.2500   -18.3680 
   71.0000    64.8490    23.1490     9.0080     8.5590    11.0610  -999.2500   -18.9020 
   71.1250    64.3100    23.2120     9.0030     8.5670    11.1540  -999.2500   -19.2620 
   71.2500    63.7160    23.2420     8.8280     8.5330    11.3040  -999.2500   -19.4500 
   71.3750    64.1480    23.2460     8.6700     8.4750    11.3170  -999.2500   -19.5020 
   71.5000    64.6120    23.2550     8.7310     8.4110    11.0400  -999.2500   -19.4760 
   71.6250    63.9770    23.2830     8.8060     8.3520    10.4780  -999.2500   -19.3730 
   71.7500    63.2410    23.2990     8.8600     8.3030     9.9130  -999.2500   -19.1550 
   71.8750    63.4810    23.2860     8.8520     8.2720     9.4920  -999.2500   -18.7970 
   72.0000    63.4400    23.2580     8.9140     8.2590     9.2630  -999.2500   -18.3500 
   72.1250    62.0600    23.2450     8.9410     8.2640     9.2070  -999.2500   -17.9170 
   72.2500    62.0080    23.2440     8.9640     8.2820     9.2250  -999.2500   -17.5620 
   72.3750    64.2370    23.2450     8.9860     8.3090     9.3300  -999.2500   -17.2900 
   72.5000    66.6930    23.2450     8.9830     8.3320     9.5230  -999.2500   -17.0420 
   72.6250    67.0060    23.2450     8.9640     8.3270     9.7920  -999.2500   -16.7150 
   72.7500    65.7050    23.2440     8.9730     8.2810    10.0760  -999.2500   -16.3180 
   72.8750    64.0950    23.2510     9.0280     8.1680    10.2720  -999.2500   -15.9420 
   73.0000    63.5260    23.2790     9.0470     7.9640    10.2520  -999.2500   -15.6620 
   73.1250    64.2620    23.3250     9.0450     7.6930     9.9300  -999.2500   -15.4930 
   73.2500    64.6400    23.3650     8.8470     7.5120     9.5510  -999.2500   -15.3830 
   73.3750    64.5090    23.4030     8.3520     7.6060     9.4610  -999.2500   -15.2960 
   73.5000    65.2670    23.4790     7.5900     8.1280    10.0240  -999.2500   -15.2090 
   73.6250    66.8930    23.6380    10.6940     9.1990    11.7150  -999.2500   -15.1260 
   73.7500    66.8750    23.8110    21.5830    10.5250    14.3050  -999.2500   -15.0470 
   73.8750    64.8810    23.9020    29.8320    11.5720    16.6890  -999.2500   -14.9630 
   74.0000    63.6320    23.8300    25.6500    11.7060    16.9240  -999.2500   -14.8760 
   74.1250    66.6790    23.6040    14.3250    10.6550    14.2570  -999.2500   -14.8250 
   74.2500    72.8680    23.3920     8.7150     9.2190    11.0990  -999.2500   -14.8290 
   74.3750    78.2780    23.2900     6.9770     7.9640     8.7110  -999.2500   -14.8740 
   74.5000    80.3400    23.2350     6.5740     7.1520     7.3630  -999.2500   -14.9580 
   74.6250    80.6960    23.0460     6.4560     6.8630     7.0390  -999.2500   -15.1150 
   74.7500    78.5930    22.7640     6.9660     6.8750     7.3000  -999.2500   -15.3570 
   74.8750    71.2970    22.5530     7.7870     7.0330     7.8190  -999.2500   -15.6760 
   75.0000    61.3470    22.5530     8.3980     7.2700     8.3680  -999.2500   -16.0510 
   75.1250    58.0470    22.7790     8.6420     7.6950     9.0330  -999.2500   -16.4500 
   75.2500    61.3120    23.0400     8.8030     8.4150    10.0820  -999.2500   -16.8460 
   75.3750    64.3550    23.2470     9.3760     9.4670    11.6550  -999.2500   -17.2250 
   75.5000    63.5970    23.4150    14.5880    10.7160    13.5810  -999.2500   -17.5810 
   75.6250    60.8500    23.5860    26.0150    11.6630    14.8980  -999.2500   -17.8750 
   75.7500    58.4670    23.6720    29.3280    11.7940    14.6400  -999.2500   -18.0980 
   75.8750    56.7120    23.5900    20.1540    11.0330    12.9660  -999.2500   -18.2560 
   76.0000    55.1000    23.4090     9.9820     9.8010    10.9340  -999.2500   -18.3820 
   76.1250    53.8920    23.2790     8.8440     8.6660     9.4790  -999.2500   -18.5150 
   76.2500    54.8880    23.2410     8.5730     7.8970     8.7220  -999.2500   -18.6790 
   76.3750    57.6090    23.2440     8.6330     7.5260     8.5930  -999.2500   -18.8530 
   76.5000    59.6000    23.2450     8.8330     7.4670     8.8880  -999.2500   -19.0130 
   76.6250    59.0680    23.2450     9.1930     7.5770     9.2510  -999.2500   -19.1260 
   76.7500    59.3550    23.2440     9.2480     7.6730     9.3790  -999.2500   -19.1900 
   76.8750    60.5920    23.2500     9.1330     7.6850     9.2150  -999.2500   -19.2070 
   77.0000    60.0960    23.2770     8.8870     7.5980     8.8870  -999.2500   -19.1730 
   77.1250    59.2390    23.2980     8.6010     7.4360     8.5890  -999.2500   -19.0800 
   77.2500    61.7700    23.2620     8.3390     7.2720     8.4120  -999.2500   -18.9500 
   77.3750    66.2600    23.1780     8.1580     7.1500     8.3360  -999.2500   -18.7930 
   77.5000    68.3140    23.0920     8.1390     7.0950     8.3000  -999.2500   -18.6300 
   77.6250    65.4710    23.0290     8.2310     7.1080     8.2930  -999.2500   -18.4610 
   77.7500    62.0200    22.9740     8.3820     7.1520     8.3260  -999.2500   -18.2900 
   77.8750    60.7500    22.9350     8.5610     7.2030     8.3880  -999.2500   -18.1180 
   78.0000    61.9900    22.9240     8.7080     7.2430     8.4610  -999.2500   -17.9520 
   78.1250    62.7360    22.9250     8.8180     7.2620     8.5360  -999.2500   -17.8140 
   78.2500    62.0780    22.9240     8.8820     7.2620     8.6290  -999.2500   -17.7180 
