~V
VERS. 2.00: Ver 2.00
~W
STRT.M 57.0000:
STOP.M 272.0000:
STEP.M 0.1250:
NULL. -999.2500:
UWI. DF3050:
~C
DEPT.M :
SP.MV :
GR.API :
CALI.CM :
RXO.OHMM :
RI. :
RML.OHMM :
DEN.GM/CC :
~A
# ...
  147.0000   -21.2830    78.3940    23.8740     7.1530     8.6860    10.9520     2.1810 
  147.1250   -20.9900    70.6530    23.8920     7.8010     9.7800    12.5890     2.2050 
  147.2500   -20.7600    65.7880    23.8700     8.7300    10.8430    13.9670     2.2560 
  147.3750   -20.5970    65.9880    23.7130    10.5730    11.4920    14.5970     2.3150 
  147.5000   -20.4610    70.3030    23.4540    14.8370    11.4410    14.1740     2.3590 
  147.6250   -20.3440    76.8830    23.3070    18.5600    10.6490    12.7580     2.3700 
  147.7500   -20.2250    84.2110    23.3400    15.4380     9.3450    10.7580     2.3430 
  147.8750   -20.0810    93.0550    23.4380     9.3900     8.0140     8.8760     2.3130 
  148.0000   -19.9240   102.7810    23.4120     6.0830     6.9190     7.4530     2.3020 
  148.1250   -19.7700   108.2340    23.5580     5.3730     6.1440     6.5480     2.3120 
  148.2500   -19.6020   107.1460    23.7800     5.7830     5.7140     6.1510     2.3190 
  148.3750   -19.3980   104.4170    24.1400     5.8040     5.5080     6.0210     2.3100 
  148.5000   -19.1800   101.1480    24.1520     5.3520     5.4400     5.9950     2.2930 
  148.6250   -18.9650    97.8540    23.9670     5.2730     5.4230     5.9520     2.2790 
  148.7500   -18.8020    96.7660    23.7270     5.1510     5.3740     5.8050     2.2770 
  148.8750   -18.7120    97.4930    23.7280     4.8920     5.2780     5.5870     2.2820 
  149.0000   -18.6900    97.9100    23.6760     4.5830     5.1450     5.3420     2.2890 
  149.1250   -18.7210    99.1250    23.6710     4.3970     4.9990     5.1300     2.2950 
  149.2500   -18.7970   104.9350    23.7780     4.4220     4.8730     4.9620     2.3000 
  149.3750   -18.9100   110.1750    23.5340     4.4340     4.7570     4.8380     2.3050 
  149.5000   -19.0140   110.4230    23.1690     4.4660     4.6610     4.7660     2.3130 
  149.6250   -19.0690   110.5020    23.3040     4.5510     4.5760     4.7140     2.3250 
  149.7500   -19.0960   115.0990    23.6660     4.4770     4.4760     4.6340     2.3410 
  149.8750   -19.1020   116.6160    24.1250     4.3020     4.3450     4.4970     2.3560 
  150.0000   -19.0900   112.0650    24.6300     4.1880     4.1730     4.2870     2.3680 
  150.1250   -19.0750   109.9780    24.7570     4.1090     3.9740     4.0420     2.3730 
  150.2500   -19.0900   117.2160    24.6380     3.9780     3.7930     3.8570     2.3670 
  150.3750   -19.1570   121.8490    24.6060     3.7060     3.6830     3.8000     2.3550 
  150.5000   -19.3110   119.2900    24.5470     3.5150     3.6860     3.9300     2.3460 
  150.6250   -19.5500   113.7290    24.5120     3.5370     3.8280     4.2890     2.3500 
  150.7500   -19.8280   108.4360    24.5050     3.7240     4.1560     4.9180     2.3670 
  150.8750   -20.1120   103.2900    24.4980     4.2460     4.6150     5.6850     2.3800 
  151.0000   -20.3770    99.6930    24.4680     5.7360     5.1530     6.5060     2.3720 
  151.1250   -20.6180    99.0750    24.2670     7.6580     5.6950     7.2640     2.3380 
  151.2500   -20.7670    99.8440    24.2070     8.1060     6.1220     7.7790     2.2880 
  151.3750   -20.8590   100.4540    24.0760     7.4250     6.4020     8.0460     2.2470 
  151.5000   -20.9050    99.4210    23.9420     6.9210     6.5420     8.1120     2.2240 
  151.6250   -20.9410    95.8320    23.8230     6.8500     6.5860     8.0730     2.2130 
  151.7500   -20.9990    91.3090    23.7550     6.8120     6.5800     8.0330     2.2030 
  151.8750   -21.0850    88.5850    23.5640     6.7760     6.5980     8.0880     2.1910 
  152.0000   -21.1700    86.9370    23.5870     6.8340     6.6680     8.2530     2.1850 
  152.1250   -21.2220    84.2130    23.8740     7.0060     6.7880     8.4930     2.1910 
  152.2500   -21.2330    82.2090    24.1210     7.2400     6.9330     8.7610     2.1970 
  152.3750   -21.1760    84.5500    24.1370     7.5490     7.0790     9.0230     2.1930 
  152.5000   -21.0790    89.3510    24.1020     7.8160     7.2160     9.2580     2.1800 
  152.6250   -20.9600    91.8720    24.0440     8.1020     7.3340     9.4330     2.1710 
  152.7500   -20.8070    88.3680    23.9890     8.2160     7.4180     9.5320     2.1790 
  152.8750   -20.6180    84.8170    24.0020     8.2200     7.4410     9.5150     2.1930 
  153.0000   -20.4330    85.5330    23.8690     8.1130     7.3650     9.3480     2.1990 
  153.1250   -20.2830    89.6060    23.7430     7.9930     7.1810     9.0160     2.1890 
  153.2500   -20.1880    94.0230    23.7730     7.6920     6.8940     8.5290     2.1780 
  153.3750   -20.1030    98.6060    23.7040     7.3280     6.5460     7.9520     2.1840 
  153.5000   -19.9760   105.5660    23.6320     7.1760     6.1740     7.3540     2.2130 
  153.6250   -19.7880   112.3350    23.7180     6.7540     5.8260     6.8250     2.2540 
  153.7500   -19.5810   112.5770    23.9100     5.8640     5.5820     6.5100     2.2900 
  153.8750   -19.4250   108.5640    23.9590     5.3180     5.4610     6.3990     2.3090 
  154.0000   -19.3390   104.9180    23.9420     5.5360     5.4650     6.4770     2.3090 
  154.1250   -19.2880   104.9920    23.9250     5.8360     5.5760     6.7000     2.2960 
  154.2500   -19.2150   104.5160    23.7900     5.7950     5.7550     7.0210     2.2760 
  154.3750   -19.1330    98.8970    23.6010     5.8250     5.9400     7.3200     2.2570 
  154.5000   -19.0820    92.9060    23.4700     6.2080     6.0760     7.5160     2.2470 
  154.6250   -19.0810    91.5320    23.5240     6.4140     6.1230     7.5600     2.2510 
  154.7500   -19.1190    93.6740    23.4850     6.2850     6.0760     7.4910     2.2600 
  154.8750   -19.1360    94.0510    23.3050     6.0820     6.0120     7.4510     2.2620 
  155.0000   -19.0840    94.0690    23.1770     6.1550     6.0250     7.5810     2.2560 
  155.1250   -19.0020    94.8120    23.0630     6.4670     6.2000     8.0040     2.2480 
  155.2500   -18.9620    90.4380    23.3750     6.7580     6.6810     8.9450     2.2540 
  155.3750   -18.9470    83.2100    23.8090     7.3460     7.4950    10.3640     2.2850 
  155.5000   -18.9270    78.1900    24.1990     8.8890     8.6650    12.2130     2.3480 
  155.6250   -18.8800    75.7320    24.7140    16.1900    11.5150    16.1930     2.4330 
  155.7500   -18.7610    71.4880    24.7720    21.1610    13.2270    18.3270     2.5090 
  155.8750   -18.5840    67.5360    24.7680    25.1600    14.8060    20.2470     2.5530 
  156.0000   -18.3980    66.0770    24.7490    26.2910    16.2150    21.9440     2.5640 
  156.1250   -18.2080    66.1520    24.7790    24.7280    17.3930    23.3050     2.5530 
  156.2500   -18.0420    65.6080    24.7880    23.5920    18.1050    23.9720     2.5300 
  156.3750   -17.9430    62.7740    24.7950    23.9180    18.2420    23.8120     2.5060 
  156.5000   -17.9490    58.5520    24.8020    25.5070    17.7280    22.7180     2.4880 
  156.6250   -18.0500    55.6070    24.7890    28.9050    16.6060    20.7790     2.4820 
  156.7500   -18.2250    56.7100    24.7920    29.9650    14.9320    18.1620     2.4790 
  156.8750   -18.4340    61.6610    24.7930    24.8100    13.1000    15.4660     2.4630 
  157.0000   -18.6480    69.0250    24.7490    15.7850    11.3820    13.0870     2.4290 
  157.1250   -18.8250    77.3850    24.5050     9.3170     9.9500    11.2260     2.3860 
  157.2500   -18.8990    80.3830    24.2590     8.4140     8.9100     9.9690     2.3580 
  157.3750   -18.9190    78.8540    24.0400    11.2440     8.1570     9.0950     2.3490 
  157.5000   -18.8800    79.3320    23.9390    12.1760     7.5920     8.4280     2.3440 
  157.6250   -18.8060    84.3020    23.8740     9.5080     7.1540     7.8610     2.3310 
  157.7500   -18.7270    91.6880    23.9890     6.8870     6.8440     7.4120     2.3120 
  157.8750   -18.6780    96.8910    24.1650     6.2230     6.6530     7.1170     2.3000 
  158.0000   -18.6480    97.9480    24.2570     5.9500     6.6230     7.0860     2.2970 
  158.1250   -18.6480    94.2210    24.5780     6.1710     6.7880     7.3560     2.2960 
