~V
VERS. 2.00: Ver 2.00
~W
STRT.M 120.0000:
STOP.M 271.0000:
STEP.M 0.1250:
NULL. -999.2500:
UWI. DF3037:
~C
DEPT.M :
GR.API :
RML.OHMM :
RI. :
RXO.OHMM :
CALI.CM :
SP.MV :
DEN.GM/CC :
AC.US/MT :
~A
# ...
  240.0000    68.6340    49.4390    47.6780    54.9100    24.5770   -14.4400     2.2820   396.2490 
  240.1250    68.3650    53.3330    51.6610    64.0480    24.5540   -14.3530     2.2770   397.7480 
  240.2500    69.7840    54.8680    53.4390    63.5380    24.4950   -14.2290     2.2810   397.8070 
  240.3750    70.1760    53.9930    52.8450    57.7370    24.4130   -14.0780     2.2930   396.4760 
  240.5000    70.6800    51.4050    50.4720    54.4220    24.3430   -13.8540     2.3060   394.4620 
  240.6250    74.5410    48.1560    47.2810    50.7000    24.3010   -13.6160     2.3170   392.8240 
  240.7500    79.3720    45.2200    44.2550    44.1180    24.1980   -13.3140     2.3250   392.0040 
  240.8750    80.3300    42.9550    41.7750    38.1820    23.9370   -13.0070     2.3280   391.8860 
  241.0000    76.5890    41.5020    40.0120    33.8850    23.5100   -12.6450     2.3280   391.8560 
  241.1250    73.9290    41.1290    39.2430    30.4750    23.1840   -12.2930     2.3250   391.1890 
  241.2500    73.9380    41.7880    39.4490    28.3780    23.1340   -11.9310     2.3180   389.4450 
  241.3750    73.4410    43.4950    40.6640    28.8810    23.3360   -11.5190     2.3140   386.2060 
  241.5000    73.2310    46.1120    42.7820    31.8020    23.6540   -11.1380     2.3160   380.2360 
  241.6250    74.2150    49.3090    45.5440    37.2210    23.9620   -10.7470     2.3310   370.8670 
  241.7500    75.9010    52.3980    48.3160    43.8650    24.2080   -10.3690     2.3550   357.7030 
  241.8750    79.2690    54.8790    50.6190    50.1370    24.3240   -10.0310     2.3840   341.4950 
  242.0000    84.5640    56.5210    52.1820    53.9200    24.2820    -9.7090     2.4080   324.2640 
  242.1250    88.1320    57.4460    53.0110    57.3140    24.1170    -9.5030     2.4250   308.5170 
  242.2500    85.7690    58.3400    53.6690    57.8350    24.0380    -9.3950     2.4380   295.4210 
  242.3750    79.7920    59.7490    54.6400    55.1140    24.0230    -9.4010     2.4530   284.8470 
  242.5000    74.7950    62.0120    56.2760    55.8110    23.9640    -9.4900     2.4720   275.6060 
  242.6250    74.6130    65.3030    58.8040    60.8400    23.7300    -9.7030     2.4930   265.9630 
  242.7500    78.6500    69.3110    62.0010    64.8790    23.4950   -10.0180     2.5120   255.2370 
  242.8750    82.3080    73.9990    65.8350    68.7780    23.4090   -10.4280     2.5240   243.5990 
  243.0000    80.9760    79.6090    70.4760    76.0810    23.4080   -10.8870     2.5350   232.1980 
  243.1250    75.3610    86.8550    76.4710    86.5600    23.3720   -11.4250     2.5520   222.7940 
  243.2500    71.6360    95.6130    83.7080    92.2230    23.3730   -11.8940     2.5790   216.8480 
  243.3750    72.3420   105.0060    91.5060    98.2530    23.5370   -12.3830     2.6090   214.9510 
  243.5000    73.8420   113.0720    98.3020   110.9240    23.8980   -12.7920     2.6230   217.1640 
  243.6250    72.4750   116.2580   101.2330   127.6690    24.2730   -13.1810     2.6100   221.7510 
  243.7500    68.9390   113.4760    99.3120   136.4360    24.4450   -13.5300     2.5710   227.6670 
  243.8750    66.5810   105.4790    92.9180   137.6010    24.4360   -13.8060     2.5220   234.0460 
  244.0000    68.6770    94.9930    84.0040   122.0920    24.3410   -14.0550     2.4860   239.9990 
  244.1250    74.9390    85.6010    75.4460    90.2190    24.3780   -14.2240     2.4710   244.9670 
  244.2500    78.6880    78.9720    69.0820    69.9400    24.5480   -14.4090     2.4760   248.6130 
  244.3750    76.7270    75.1420    65.2790    57.6190    24.6800   -14.5210     2.4880   250.7800 
  244.5000    71.9540    73.3720    63.5530    53.0050    24.6430   -14.6040     2.4940   251.5050 
  244.6250    69.3900    72.6550    62.9680    50.5960    24.5690   -14.6500     2.4950   251.3250 
  244.7500    69.8450    71.4010    62.1210    47.4600    24.5000   -14.6750     2.4960   250.2900 
  244.8750    71.8200    68.6030    60.0220    46.4800    24.4520   -14.6940     2.5050   248.1770 
  245.0000    73.0250    63.1570    55.9570    52.0910    24.4530   -14.6840     2.5210   244.0470 
  245.1250    70.0250    54.8920    49.3930    54.3850    24.4490   -14.6820     2.5390   237.8070 
  245.2500    64.0390    44.6330    41.2980    48.2700    24.4250   -14.6690     2.5550   230.2170 
  245.3750    57.0320    34.0500    32.7400    34.9960    24.4120   -14.6690     2.5600   223.7760 
  245.5000    51.4120    25.7730    24.8730    20.9890    24.4440   -14.7080     2.5520   224.1890 
  245.6250    50.9790    19.7140    18.8140    12.2130    24.5050   -14.7780     2.5300   234.4360 
  245.7500    55.2000    15.3880    14.4880     9.1750    24.4490   -14.8490     2.4980   254.6530 
  245.8750    60.8820    12.5400    11.6400     7.9250    24.2800   -14.9190     2.4660   280.7520 
  246.0000    64.7650    10.8190     9.9190     7.5120    24.0890   -15.0190     2.4450   304.3310 
  246.1250    68.5190     9.9970     9.0970     7.5270    24.0560   -15.1100     2.4370   318.8960 
  246.2500    73.2290     9.6660     8.7660     7.6630    24.0710   -15.2090     2.4360   322.7570 
  246.3750    76.0080     9.6360     8.7360     7.7860    24.1130   -15.3220     2.4360   318.6270 
  246.5000    75.7920     9.7510     8.8510     7.8380    24.2410   -15.4470     2.4340   311.9780 
  246.6250    73.2180     9.8840     8.9840     7.8220    24.2980   -15.5540     2.4300   307.8740 
  246.7500    69.9560     9.9560     9.0560     7.7690    24.3170   -15.6420     2.4260   307.6130 
  246.8750    67.4200     9.9480     9.0480     7.6800    24.3150   -15.7530     2.4240   310.3470 
  247.0000    68.5260     9.8660     8.9660     7.5960    24.3150   -15.8190     2.4230   314.4010 
  247.1250    71.9380     9.7250     8.8250     7.5340    24.3150   -15.9030     2.4200   318.1760 
  247.2500    72.6240     9.5590     8.6590     7.4540    24.3140   -15.9410     2.4150   321.3200 
  247.3750    72.3340     9.3860     8.4860     7.3410    24.3050   -15.9750     2.4070   324.0280 
  247.5000    73.5740     9.2250     8.3250     7.2180    24.2810   -15.9840     2.4000   326.1790 
  247.6250    73.9590     9.0960     8.1960     7.1280    24.2460   -15.9980     2.3990   326.9100 
  247.7500    72.0720     9.0040     8.1040     7.0670    24.2300   -16.0360     2.4060   325.0620 
  247.8750    70.5770     8.9450     8.0450     7.0000    24.2180   -16.0100     2.4210   320.2650 
  248.0000    71.1090     8.9080     8.0080     6.9490    24.1920   -16.0390     2.4340   313.8090 
  248.1250    72.4190     8.8750     7.9750     6.9830    24.1390   -16.0020     2.4410   308.6160 
  248.2500    72.8770     8.8400     7.9400     7.0680    24.1160   -16.0020     2.4400   306.3120 
  248.3750    72.9320     8.8060     7.9050     7.1020    24.1100   -15.9790     2.4340   306.6840 
  248.5000    73.3620     8.7820     7.8790     7.0320    24.1100   -15.9720     2.4300   307.9210 
  248.6250    74.9080     8.7760     7.8730     7.0250    24.1140   -15.9270     2.4280   308.3960 
  248.7500    75.4460     8.7770     7.8830     7.1110    24.1230   -15.8680     2.4290   308.4210 
  248.8750    74.6370     8.7750     7.9020     7.0600    24.1220   -15.8180     2.4310   309.2810 
  249.0000    73.6500     8.7630     7.9230     6.9630    24.0980   -15.7580     2.4330   312.1540 
  249.1250    71.7200     8.7380     7.9410     7.0070    24.0610   -15.7080     2.4370   315.9990 
  249.2500    68.6440     8.7280     7.9540     7.2010    24.0450   -15.6660     2.4400   319.2600 
  249.3750    67.3550     8.7250     7.9620     7.3050    24.0410   -15.6120     2.4410   320.7770 
  249.5000    69.8120     8.7310     7.9620     7.2830    24.0410   -15.5440     2.4380   320.3900 
  249.6250    73.7140     8.7560     7.9480     7.2530    24.0410   -15.4730     2.4310   319.4740 
  249.7500    75.3360     8.7980     7.9220     7.2190    24.0390   -15.4130     2.4220   318.8720 
  249.8750    74.7580     8.8450     7.8880     7.1090    24.0250   -15.3580     2.4150   318.7720 
