~V
VERS. 2.00: Ver 2.00
~W
STRT.M 60.0000:
STOP.M 277.0000:
STEP.M 0.1250:
NULL. -999.2500:
UWI. DF3044:
~C
DEPT.M :
GR.API :
CALI.CM :
RXO.OHMM :
RI. :
RML.OHMM :
DEN.GM/CC :
SP.MV :
~A
# ...
  262.5000    56.0660    23.2990     7.2280     9.1090     9.4240     2.4220   -12.0960 
  262.6250    57.9860    23.2970     7.6380     9.1120     9.3840     2.4350   -12.0890 
  262.7500    57.9580    23.2860     8.4880     9.1110     9.3390     2.4390   -12.0840 
  262.8750    55.5980    23.2590     9.6860     9.0940     9.2820     2.4400   -12.0800 
  263.0000    52.2310    23.2390    10.8810     9.0540     9.2160     2.4430   -12.0780 
  263.1250    53.3730    23.2320    11.8860     8.9940     9.1630     2.4500   -12.0840 
  263.2500    59.7530    23.2320    12.8560     8.9330     9.1350     2.4600   -12.0870 
  263.3750    65.1580    23.2320    13.6570     8.8880     9.1230     2.4700   -12.0950 
  263.5000    65.2980    23.2320    14.2110     8.8720     9.1150     2.4700   -12.1150 
  263.6250    62.8210    23.2320    14.6330     8.8840     9.1020     2.4610   -12.1300 
  263.7500    62.0610    23.2320    14.9180     8.9020     9.0870     2.4500   -12.1450 
  263.8750    61.5330    23.2320    15.0790     8.9210     9.0840     2.4480   -12.1600 
  264.0000    59.8090    23.2320    15.2510     8.9490     9.1140     2.4590   -12.1880 
  264.1250    59.3190    23.2320    15.3320     9.0130     9.2050     2.4690   -12.2120 
  264.2500    59.6410    23.2320    15.1150     9.1250     9.3560     2.4700   -12.2400 
  264.3750    60.0080    23.2320    14.9830     9.2830     9.5630     2.4630   -12.2630 
  264.5000    59.9320    23.2320    15.2030     9.4740     9.8170     2.4610   -12.2730 
  264.6250    59.0760    23.2320    15.6000     9.6750    10.0870     2.4630   -12.2730 
  264.7500    57.9250    23.2320    15.5310     9.8620    10.3280     2.4630   -12.2700 
  264.8750    57.5080    23.2320    15.4130    10.0170    10.5200     2.4570   -12.2670 
  265.0000    58.0000    23.2320    15.6870    10.1180    10.6530     2.4460   -12.2490 
  265.1250    61.3270    23.2320    15.7190    10.1320    10.7080     2.4360   -12.2260 
  265.2500    63.9160    23.2340    15.0400    10.0650    10.6880     2.4330   -12.2030 
  265.3750    63.3420    23.2430    14.2450     9.9360    10.6070     2.4350   -12.1710 
  265.5000    62.9970    23.2680    14.3100     9.7920    10.4930     2.4400   -12.1390 
  265.6250    62.9970    23.2980    14.8840     9.7000    10.3950     2.4490   -12.1180 
  265.7500    62.9970    23.3140    15.2630     9.7090    10.3660     2.4590   -12.1020 
  265.8750    62.9970    23.3180    15.1800     9.8460    10.4510     2.4680   -12.0830 
  266.0000    62.9970    23.3180    14.9360    10.1080    10.6760     2.4740   -12.0660 
  266.1250    62.9970    23.3180    14.9010    10.4690    11.0460     2.4840   -12.0350 
  266.2500    62.9970    23.3180    15.4830    10.8550    11.4730     2.4980   -12.0020 
  266.3750    62.9970    23.3180    16.2000    11.2140    11.8850     2.5040   -11.9680 
  266.5000    62.9970    23.3180    16.4910    11.5060    12.2240     2.4910   -11.9380 
  266.6250    62.9970    23.3180    16.1310    11.6780    12.4280     2.4720   -11.8900 
  266.7500    62.9970    23.3170    15.7570    11.7090    12.4700     2.4640   -11.8340 
  266.8750    62.9970    23.3150    15.3600    11.5790    12.3330     2.4670   -11.7730 
  267.0000    62.9970    23.3160    14.4630    11.3040    12.0430     2.4690   -11.7120 
  267.1250    62.9970    23.3170    13.1200    10.9490    11.6610     2.4600   -11.6650 
  267.2500    62.9970    23.3180    12.2160    10.6430    11.3140     2.4490   -11.6140 
  267.3750    62.9970    23.3180    12.3710    10.4800    11.1140     2.4440   -11.5820 
  267.5000    62.9970    23.3180    13.5480    10.5160    11.1490     2.4450   -11.5600 
  267.6250    62.9970    23.3170    14.8650    10.7750    11.4600     2.4510   -11.5270 
  267.7500    62.9970    23.3140    15.5550    11.1430    11.9030     2.4570   -11.4920 
  267.8750    62.9970    23.3120    15.4930    11.4980    12.3160     2.4560   -11.4660 
  268.0000    62.9970    23.3130    15.2670    11.7090    12.5400     2.4490   -11.4440 
  268.1250    62.9970    23.3140    15.0840    11.6440    12.4280     2.4500   -11.4070 
  268.2500    62.9970    23.3150    14.5350    11.3490    12.0580     2.4640   -11.3700 
  268.3750    62.9970    23.3140    13.2090    10.8950    11.5370     2.4750   -11.3160 
  268.5000    62.9970    23.3140    11.1980    10.3810    10.9920     2.4650   -11.2550 
  268.6250    62.9970    23.3140     9.4380     9.9070    10.5560     2.4420   -11.2180 
  268.7500    62.9970    23.3170     8.4530     9.5170    10.2700     2.4230   -11.1840 
  268.8750    62.9970    23.3190     8.1300     9.2150    10.1120     2.4180   -11.1460 
  269.0000    62.9970    23.3220     8.2040     8.9740    10.0060     2.4220   -11.1020 
  269.1250    62.9970    23.3210     8.3560     8.7610     9.8620     2.4260   -11.0780 
  269.2500    62.9970    23.3210     8.3020     8.5550     9.6630     2.4290   -11.0500 
  269.3750    62.9970    23.3200     7.9280     8.3720     9.4430     2.4310   -11.0230 
  269.5000    62.9970    23.3160     7.4820     8.2450     9.2670     2.4300   -10.9800 
  269.6250    62.9970    23.3110     7.5300     8.2190     9.2070     2.4290   -10.9340 
  269.7500    62.9970    23.3090     8.0350     8.2810     9.2620     2.4310   -10.8950 
  269.8750    62.9970    23.3090     8.8200     8.4020     9.4050     2.4330   -10.8600 
  270.0000    62.9970    23.3090     9.7780     8.5360     9.5840     2.4380   -10.8280 
  270.1250    62.9970    23.3090    10.8470     8.6420     9.7350     2.4470   -10.7790 
  270.2500    62.9970    23.3090    11.8950     8.7130     9.8330     2.4590   -10.7270 
  270.3750    62.9970    23.3090    12.2980     8.7530     9.8800     2.4650   -10.6980 
  270.5000    62.9970    23.3090    11.7250     8.7650     9.8970     2.4560   -10.6930 
  270.6250    62.9970    23.3090    10.5780     8.7480     9.9090     2.4390   -10.6990 
  270.7500    62.9970    23.3090     9.5010     8.7130     9.9260     2.4190   -10.6960 
  270.8750    62.9970    23.3090     8.8090     8.6800     9.9420     2.3970   -10.6980 
  271.0000    62.9970    23.3090     8.2870     8.6670     9.9480     2.3780   -10.7060 
  271.1250    62.9970    23.3060     7.7350     8.6860     9.9500     2.3680   -10.7270 
  271.2500    62.9970    23.2910     7.0050     8.7180     9.9570     2.3710   -10.7660 
  271.3750    62.9970    23.2390     6.4930     8.7440     9.9660     2.3780   -10.7830 
  271.5000    62.9970    23.1600     6.5580     8.7480     9.9670     2.3780   -10.7730 
  271.6250    62.9970    23.0440     7.0260     8.7480     9.9670     2.3740   -10.7530 
  271.7500    62.9970    22.9960     7.2150     8.7480     9.9670     2.3690   -10.7480 
  271.8750    62.9970    22.9760     6.9330     8.7480     9.9670     2.3660   -10.7440 
  272.0000    62.9970    22.9520     6.4520     8.7480     9.9670     2.3700   -10.7300 
  272.1250    62.9970    22.9120     6.2080     8.7480     9.9670     2.3790   -10.6980 
  272.2500    62.9970    22.8930     6.0960     8.7480     9.9670     2.3880   -10.6660 
  272.3750    62.9970    22.8850     5.9740     8.7480     9.9670     2.3880   -10.6520 
  272.5000    62.9970    22.8750     5.8300     8.7480     9.9670     2.3800   -10.6510 
  272.6250    62.9970    22.8630     5.7570     8.7480     9.9670     2.3760   -10.6480 
  272.7500    62.9970    22.8580     5.7590     8.7480     9.9670     2.3820   -10.6290 
  272.8750    62.9970    22.8530     5.7910     8.7480     9.9670     2.3890   -10.6060 
  273.0000    62.9970    22.8460     5.8240     8.7480     9.9670     2.3850   -10.5900 
  273.1250    62.9970    22.8440     5.8390     8.7480     9.9670     2.3770   -10.5820 
  273.2500    62.9970    22.8440     5.8460     8.7480     9.9670     2.3730   -10.5710 
  273.3750    62.9970    22.8420     5.8820     8.7480     9.9670     2.3720   -10.5470 
  273.5000    62.9970    22.8360     5.9760     8.7480     9.9670     2.3730   -10.5290 
  273.6250    62.9970    22.8340     6.0720     8.7480     9.9670     2.3740   -10.5300 
