~V
VERS. 2.00: Ver 2.00
~W
STRT.M 100.0000:
STOP.M 258.0000:
STEP.M 0.1250:
NULL. -999.2500:
UWI. DF3025:
~C
DEPT.M :
AC.US/MT :
DEN.GM/CC :
GR.API :
CALI.CM :
RXO.OHMM :
RI. :
RML.OHMM :
SP.MV :
~A
# ...
  220.0000   383.3480     2.3270    79.3950    24.4830    28.8810    27.4500    30.3850   -33.6400 
  220.1250   371.4170     2.3390    82.6590    24.4780    30.7530    28.5630    31.6110   -33.1700 
  220.2500   364.8400     2.3540    83.3110    24.4800    34.7430    29.7800    32.9460   -32.6740 
  220.3750   361.4970     2.3730    80.9100    24.4820    37.7770    31.0500    34.3240   -32.1500 
  220.5000   353.9080     2.3960    78.5930    24.4770    37.4250    32.2810    35.6390   -31.5960 
  220.6250   338.5430     2.4140    76.7210    24.4590    36.9530    33.3990    36.7620   -30.9990 
  220.7500   321.5820     2.4240    73.7960    24.4340    37.6070    34.3250    37.5490   -30.3770 
  220.8750   304.7330     2.4290    70.8470    24.4120    38.2480    34.7990    37.6630   -29.7480 
  221.0000   287.2280     2.4360    70.9980    24.4170    38.5500    34.4300    36.6630   -29.1360 
  221.1250   278.4610     2.4430    74.5220    24.4460    38.5590    32.6960    34.0880   -28.5780 
  221.2500   291.4290     2.4340    76.5990    24.4330    35.1980    29.9210    30.5450   -28.0850 
  221.3750   327.3470     2.3990    75.4850    24.2900    28.1600    26.6570    26.7840   -27.6620 
  221.5000   371.5180     2.3490    72.9450    23.9970    21.1940    23.5680    23.5180   -27.3010 
  221.6250   400.8380     2.3150    71.4740    23.7910    19.0830    21.2590    21.2970   -27.0030 
  221.7500   409.0640     2.3110    70.5390    23.8800    18.8080    19.7220    19.9630   -26.7680 
  221.8750   401.7420     2.3250    68.6320    24.1710    18.7090    18.8320    19.3090   -26.5840 
  222.0000   390.0090     2.3380    67.2350    24.3880    18.3800    18.3700    19.0440   -26.4270 
  222.1250   385.8490     2.3370    67.8180    24.3890    19.0230    18.0630    18.8330   -26.2450 
  222.2500   390.6680     2.3240    69.0330    24.3510    18.9510    17.6770    18.4650   -26.0110 
  222.3750   398.4290     2.3060    71.0660    24.3400    17.9670    17.2020    17.9730   -25.7310 
  222.5000   402.2920     2.2960    74.9840    24.3130    16.9860    16.7660    17.5420   -25.4370 
  222.6250   400.9600     2.3030    78.5410    24.2330    16.0350    16.6120    17.4660   -25.1880 
  222.7500   399.2170     2.3180    78.9670    24.1140    15.2790    16.8410    17.8250   -25.0000 
  222.8750   398.9440     2.3240    76.7200    23.9730    15.7330    17.4550    18.5830   -24.8510 
  223.0000   399.7890     2.3150    73.8750    23.9030    17.8570    18.3180    19.5460   -24.7100 
  223.1250   400.4440     2.3020    70.2090    24.0260    20.5770    19.1120    20.3150   -24.5440 
  223.2500   400.0430     2.2990    65.9520    24.2320    22.3720    19.4950    20.5310   -24.3320 
  223.3750   398.6020     2.3050    64.8830    24.3630    22.3600    19.2910    20.0560   -24.0600 
  223.5000   397.1550     2.3150    67.9080    24.3780    20.5810    18.5860    19.0660   -23.7350 
  223.6250   396.9500     2.3220    71.5650    24.3870    19.6830    17.7030    17.9870   -23.3740 
  223.7500   397.4440     2.3260    73.2880    24.4440    18.4400    16.9870    17.1790   -23.0150 
  223.8750   397.5910     2.3260    74.1930    24.5140    17.0100    16.5660    16.7420   -22.6890 
  224.0000   396.6500     2.3230    75.9910    24.5590    16.5560    16.4400    16.6110   -22.4110 
  224.1250   392.7870     2.3200    77.1380    24.5630    18.9640    16.4550    16.5400   -22.1640 
  224.2500   384.5980     2.3250    77.0490    24.5610    19.6440    16.2560    16.1570   -21.9050 
  224.3750   372.7090     2.3450    75.1830    24.5630    17.5100    15.5860    15.2430   -21.6100 
  224.5000   360.8900     2.3780    72.2920    24.5560    14.7180    14.3930    13.8220   -21.2780 
  224.6250   353.3550     2.4140    72.0960    24.5150    13.4180    12.8270    12.1340   -20.9460 
  224.7500   348.2450     2.4430    76.8250    24.4420    11.7670    11.2600    10.5700   -20.6520 
  224.8750   343.6200     2.4640    84.6130    24.3760     9.5850     9.9280     9.3380   -20.4000 
  225.0000   339.8880     2.4820    91.5920    24.3600     8.6860     8.9350     8.5070   -20.1730 
  225.1250   338.7770     2.4950    96.8760    24.3860     8.8500     8.3280     8.1040   -19.9610 
  225.2500   341.1530     2.4900    99.2110    24.4110     8.4130     8.0090     8.0020   -19.7660 
  225.3750   347.3040     2.4600    97.0220    24.4350     8.9710     7.9310     8.1250   -19.5950 
  225.5000   356.7290     2.4160    91.9640    24.4630    10.2340     8.0100     8.3640   -19.4510 
  225.6250   365.3570     2.3830    90.4660    24.4830    10.2720     8.1670     8.6180   -19.3190 
  225.7500   367.4610     2.3700    92.8530    24.5030     9.7440     8.3790     8.8980   -19.1860 
  225.8750   360.6880     2.3750    93.5120    24.5310    10.4040     8.7230     9.3310   -19.0540 
  226.0000   344.1190     2.4000    89.6420    24.5500    10.5910     9.3470    10.1240   -18.9320 
  226.1250   318.3450     2.4500    84.4910    24.5440    10.3310    10.6130    11.7110   -18.8230 
  226.2500   287.7250     2.5160    81.0310    24.5300    13.5890    12.7820    14.3160   -18.7290 
  226.3750   257.9250     2.5750    77.2130    24.5200    21.2200    16.1920    18.2160   -18.6520 
  226.5000   241.9000     2.5950    69.7470    24.4930    33.3120    21.1020    23.5640   -18.5840 
  226.6250   262.6210     2.5300    61.6650    24.4210    47.6600    27.2680    29.9670   -18.4940 
  226.7500   314.9400     2.4040    59.5430    24.3700    61.8890    32.4610    34.9290   -18.3600 
  226.8750   372.6460     2.2760    62.4380    24.4080    65.4880    33.7800    35.1150   -18.1860 
  227.0000   406.2900     2.2090    65.8950    24.5480    58.3870    29.8990    29.5460   -17.9880 
  227.1250   406.9100     2.2290    67.7630    24.6380    45.4150    22.7550    21.5200   -17.7870 
  227.2500   395.5730     2.2880    70.9090    24.5300    30.1760    16.1440    14.9370   -17.6050 
  227.3750   384.6590     2.3530    74.5250    24.3340    15.0870    11.3430    10.5770   -17.4470 
  227.5000   384.6340     2.4100    74.5710    24.2220     7.0800     8.3540     8.1080   -17.3120 
  227.6250   389.3820     2.4460    69.4140    24.1890     5.4210     6.8910     7.1290   -17.1940 
  227.7500   383.9640     2.4810    63.6760    24.1090     5.1910     6.2920     6.9290   -17.0640 
  227.8750   358.8980     2.4690    61.1840    24.0210     5.2770     6.2750     7.1560   -16.9080 
  228.0000   329.0080     2.4480    61.4460    24.0140     5.3290     6.5700     7.4990   -16.7310 
  228.1250   309.4510     2.4360    59.3980    24.0030     5.2880     6.8710     7.6560   -16.5730 
  228.2500   307.9280     2.4330    56.5550    23.9430     5.5260     6.9640     7.5430   -16.4590 
  228.3750   322.5630     2.4190    56.7450    23.8770     5.7370     6.8180     7.2300   -16.3880 
  228.5000   340.7480     2.3870    59.9320    23.8020     5.9450     6.5160     6.8580   -16.3490 
  228.6250   353.1430     2.3570    62.6650    23.6890     6.1750     6.1960     6.5860   -16.3250 
  228.7500   356.4120     2.3490    65.6560    23.5940     7.0110     5.9710     6.4780   -16.2990 
  228.8750   353.4840     2.3700    69.4380    23.6200     7.6240     5.8960     6.5470   -16.2630 
  229.0000   348.1600     2.3930    71.3240    23.8020     7.9900     5.9890     6.7800   -16.2080 
  229.1250   342.0740     2.4030    70.2860    24.0580     7.9020     6.2330     7.1360   -16.1470 
  229.2500   337.2940     2.3970    69.8080    24.2300     7.6060     6.5260     7.5150   -16.1150 
  229.3750   335.2890     2.3920    69.6510    24.2410     7.4810     6.7910     7.8400   -16.1420 
  229.5000   334.5620     2.3970    68.3430    24.0990     7.6700     6.9730     8.0580   -16.2310 
  229.6250   335.1070     2.4060    67.8590    23.9090     7.6680     7.0320     8.1310   -16.3450 
  229.7500   336.4030     2.4040    70.2820    23.8730     7.4390     6.9930     8.0950   -16.4330 
  229.8750   336.4400     2.3780    72.8900    24.0490     7.3990     6.8770     7.9830   -16.4710 
