~V
VERS. 2.00: Ver 2.00
~W
STRT.M 57.0000:
STOP.M 272.0000:
STEP.M 0.1250:
NULL. -999.2500:
UWI. DF3050:
~C
DEPT.M :
SP.MV :
GR.API :
CALI.CM :
RXO.OHMM :
RI. :
RML.OHMM :
DEN.GM/CC :
~A
# ...
   68.2500   -46.2520    73.8630    24.3320     6.1100     6.5690     8.0470  -999.2500 
   68.3750   -46.1710    79.2960    24.1610     6.4900     6.6000     8.1040  -999.2500 
   68.5000   -46.1180    80.1500    23.9930     6.9360     6.6470     8.2000  -999.2500 
   68.6250   -45.9940    76.6600    24.0760     7.0230     6.6970     8.3230  -999.2500 
   68.7500   -45.9560    75.3340    23.8310     6.8480     6.7330     8.4320  -999.2500 
   68.8750   -45.8570    78.0620    23.3110     6.7350     6.7600     8.5240  -999.2500 
   69.0000   -45.7850    80.9580    23.2170     6.7480     6.7720     8.6060  -999.2500 
   69.1250   -45.7870    82.4300    23.2070     6.7790     6.7680     8.7000  -999.2500 
   69.2500   -45.7290    83.4500    23.2060     6.8350     6.7370     8.7200  -999.2500 
   69.3750   -45.7930    83.6740    23.1870     6.9320     6.6920     8.7010  -999.2500 
   69.5000   -45.8480    81.7870    23.1930     7.0490     6.6390     8.6530  -999.2500 
   69.6250   -45.9510    77.8550    23.2430     7.1930     6.5930     8.5690  -999.2500 
   69.7500   -46.0440    74.7940    23.1400     7.1510     6.5630     8.5220  -999.2500 
   69.8750   -46.0730    72.8210    22.7150     6.8550     6.5730     8.5150  -999.2500 
   70.0000   -46.1530    73.0970    22.2280     6.5930     6.6170     8.5600  -999.2500 
   70.1250   -46.1770    75.4300    22.2790     6.6040     6.6970     8.6620  -999.2500 
   70.2500   -46.2380    76.4750    22.4410     6.9010     6.8180     8.8520  -999.2500 
   70.3750   -46.2110    75.1740    22.6560     7.2570     6.9470     9.0750  -999.2500 
   70.5000   -46.1460    73.6700    22.7620     7.7040     7.0510     9.2530  -999.2500 
   70.6250   -46.1340    73.8460    22.7720     8.1780     7.1050     9.3340  -999.2500 
   70.7500   -46.0050    75.0830    22.8280     8.4840     7.0780     9.2710  -999.2500 
   70.8750   -45.9030    76.2280    23.0020     8.3070     6.9810     9.1080  -999.2500 
   71.0000   -45.8280    75.9930    23.0850     7.8080     6.8340     8.8930  -999.2500 
   71.1250   -45.7380    74.2420    22.8080     7.1990     6.6700     8.6560  -999.2500 
   71.2500   -45.5490    73.7660    22.8750     6.6390     6.5190     8.4510  -999.2500 
   71.3750   -45.3870    74.6470    23.0870     6.3670     6.4070     8.3030  -999.2500 
   71.5000   -45.2800    75.3270    23.2160     6.2760     6.3380     8.2080  -999.2500 
   71.6250   -45.0300    74.1220    23.2370     6.3080     6.3100     8.1690  -999.2500 
   71.7500   -44.7450    72.2390    23.1980     6.5340     6.3090     8.1510  -999.2500 
   71.8750   -44.4750    70.3660    23.2340     6.6100     6.3160     8.1290  -999.2500 
   72.0000   -44.1050    68.0280    23.2830     6.3740     6.3130     8.0920  -999.2500 
   72.1250   -43.7250    66.2620    23.5060     6.0430     6.2950     8.0400  -999.2500 
   72.2500   -43.4120    66.9310    23.5760     5.8940     6.2700     7.9530  -999.2500 
   72.3750   -43.0780    68.9690    23.6680     5.9170     6.2340     7.8500  -999.2500 
   72.5000   -42.7080    69.8690    23.6960     5.9790     6.1890     7.7450  -999.2500 
   72.6250   -42.3890    68.3210    23.8350     5.8880     6.1430     7.6620  -999.2500 
   72.7500   -42.1050    67.8110    23.8480     5.6770     6.0970     7.5980  -999.2500 
   72.8750   -41.7670    68.8130    23.8340     5.5450     6.0580     7.5600  -999.2500 
   73.0000   -41.3780    68.4430    23.7270     5.4470     6.0270     7.5470  -999.2500 
   73.1250   -40.9370    67.9740    23.6450     5.3270     6.0060     7.5720  -999.2500 
   73.2500   -40.4170    68.7230    23.4580     5.2900     5.9870     7.6270  -999.2500 
   73.3750   -39.7020    67.5570    23.0850     5.3200     5.9690     7.6920  -999.2500 
   73.5000   -38.7080    65.4290    22.6990     5.3340     5.9470     7.7360  -999.2500 
   73.6250   -37.5640    68.1430    22.2490     5.3430     5.8840     7.7000  -999.2500 
   73.7500   -36.4370    77.4780    22.1000     5.4170     5.7450     7.5100  -999.2500 
   73.8750   -35.3650    84.5510    22.2000     5.4110     5.5430     7.2060  -999.2500 
   74.0000   -34.3480    88.2640    22.3420     5.3720     5.3250     6.8650  -999.2500 
   74.1250   -33.3730    95.3170    22.4060     5.3870     5.1840     6.6710  -999.2500 
   74.2500   -32.4400   105.9460    22.6170     5.4840     5.2790     6.9720  -999.2500 
   74.3750   -31.6800   111.7270    22.6690     5.4420     5.7350     8.0200  -999.2500 
   74.5000   -31.2180   107.7090    22.5020     5.4470     6.7260    10.0710  -999.2500 
   74.6250   -30.9880    96.3710    22.6590     6.3050     8.3980    13.2220  -999.2500 
   74.7500   -30.8780    85.2160    22.8210    11.9770    10.8820    17.4130  -999.2500 
   74.8750   -30.8360    80.1050    23.1300    20.1410    13.8040    21.8560  -999.2500 
   75.0000   -30.8390    81.5250    23.1580    27.4590    16.5200    25.4880  -999.2500 
   75.1250   -30.8840    84.4680    23.0110    29.6640    18.1120    26.9930  -999.2500 
   75.2500   -31.0260    84.3910    22.9630    26.6830    17.6760    25.3220  -999.2500 
   75.3750   -31.2260    81.3880    22.8400    20.5240    15.8900    21.8430  -999.2500 
   75.5000   -31.4440    78.0060    22.6610    14.4010    13.5510    17.8910  -999.2500 
   75.6250   -31.6530    77.5910    22.5440     9.9230    11.3650    14.5740  -999.2500 
   75.7500   -31.7920    81.9850    22.3830     8.0610     9.7710    12.4780  -999.2500 
   75.8750   -31.8660    86.1930    22.3870     7.3380     8.7210    11.2930  -999.2500 
   76.0000   -31.9320    85.5220    22.5520     6.8960     8.1080    10.7250  -999.2500 
   76.1250   -32.0070    80.3990    22.6590     6.8480     7.8380    10.5580  -999.2500 
   76.2500   -32.0710    77.6330    22.5910     6.9380     7.8110    10.6130  -999.2500 
   76.3750   -32.1100    80.2320    22.3910     6.7980     7.9030    10.7360  -999.2500 
   76.5000   -32.1270    83.9040    22.3710     6.4570     8.0430    10.8680  -999.2500 
   76.6250   -32.1100    83.1830    22.4610     6.2750     8.1900    10.9930  -999.2500 
   76.7500   -32.1360    79.0740    22.4220     6.3610     8.3170    11.1050  -999.2500 
   76.8750   -32.2080    80.1590    22.3670     6.4660     8.3900    11.1950  -999.2500 
   77.0000   -32.2710    86.5190    22.1650     6.6170     8.3920    11.2230  -999.2500 
   77.1250   -32.3120    88.5240    22.0950     6.9880     8.3300    11.1860  -999.2500 
   77.2500   -32.3500    81.6230    22.1300     7.5260     8.1980    11.0620  -999.2500 
   77.3750   -32.3910    75.2980    22.0990     7.9560     8.0300    10.8890  -999.2500 
   77.5000   -32.4500    74.8310    22.0740     8.1050     7.8530    10.7030  -999.2500 
   77.6250   -32.5430    76.7840    22.0550     7.9840     7.7010    10.5320  -999.2500 
   77.7500   -32.6230    77.7400    21.9430     7.8720     7.5930    10.4240  -999.2500 
   77.8750   -32.6750    77.9930    21.5900     8.0660     7.5270    10.3710  -999.2500 
   78.0000   -32.7080    77.6840    21.2250     8.0090     7.4970    10.3710  -999.2500 
   78.1250   -32.7450    76.4970    20.8830     7.5700     7.4860    10.4050  -999.2500 
   78.2500   -32.7830    74.6130    20.8230     7.0960     7.4920    10.4870  -999.2500 
   78.3750   -32.8150    71.5800    20.6750     6.7790     7.5060    10.5650  -999.2500 
   78.5000   -32.8330    68.3180    20.4940     6.6250     7.5250    10.6370  -999.2500 
   78.6250   -32.8360    66.5970    20.4630     6.5670     7.5400    10.6850  -999.2500 
   78.7500   -32.8120    66.0060    20.6660     6.5470     7.5360    10.6650  -999.2500 
   78.8750   -32.7880    66.0330    20.9650     6.5860     7.5290    10.6390  -999.2500 
   79.0000   -32.7810    68.6250    21.1850     6.7850     7.5610    10.7030  -999.2500 
   79.1250   -32.7750    73.4100    21.6040     6.9940     7.6560    10.8790  -999.2500 
   79.2500   -32.7510    76.4210    22.0140     7.1780     7.8150    11.1990  -999.2500 
   79.3750   -32.7110    75.8120    22.3470     7.4100     8.0310    11.6360  -999.2500 
