~V
VERS. 2.00: Ver 2.00
~W
STRT.M 60.0000:
STOP.M 232.0000:
STEP.M 0.1250:
NULL. -999.2500:
UWI. DF3065:
~C
DEPT.M :
GR.API :
CALI.CM :
RXO.OHMM :
RI. :
RML.OHMM :
DEN.GM/CC :
SP.MV :
~A
# ...
  172.5000    60.6700    24.5220    54.9980    33.2520    33.6110     2.7150   -15.7140 
  172.6250    63.3070    24.5070    47.9420    30.8230    31.0460     2.7420   -15.6590 
  172.7500    68.3360    24.4460    42.1440    26.0560    26.3630     2.7450   -15.5990 
  172.8750    70.1730    24.4410    33.7440    20.4890    20.7120     2.7330   -15.5030 
  173.0000    67.8860    24.4720    21.4970    15.4970    15.4180     2.6970   -15.3800 
  173.1250    65.0250    24.5330    13.6130    11.9120    11.5600     2.6360   -15.2010 
  173.2500    64.2660    24.4860     9.2210     9.5450     9.0710     2.5690   -14.9660 
  173.3750    65.5000    24.4530     6.7110     8.1610     7.7030     2.5070   -14.7320 
  173.5000    64.9090    24.3570     5.8440     7.4920     7.1440     2.4470   -14.4830 
  173.6250    59.6610    24.2040     6.0470     7.3360     7.1540     2.4040   -14.2370 
  173.7500    55.2580    23.9890     6.7600     7.3640     7.3340     2.4040   -14.0210 
  173.8750    54.7460    23.6220     7.5840     7.3400     7.4190     2.4290   -13.8710 
  174.0000    55.6310    23.6000     8.6080     7.0460     7.2180     2.4580   -13.7720 
  174.1250    54.2600    23.8870     8.0410     6.3360     6.5810     2.4850   -13.7490 
  174.2500    52.3280    23.9730     6.8040     5.4070     5.7110     2.5080   -13.7680 
  174.3750    51.7090    23.9330     5.7580     4.4710     4.8310     2.5100   -13.8160 
  174.5000    51.8960    23.8830     6.4420     3.7050     4.1400     2.4910   -13.8970 
  174.6250    53.0880    23.9990     6.7220     3.2670     3.8670     2.4670   -13.9750 
  174.7500    55.6230    23.9310     6.0680     3.1380     4.0560     2.4530   -14.0650 
  174.8750    57.2460    23.8270     5.4970     3.3210     4.7100     2.4430   -14.1460 
  175.0000    54.2070    23.8550     6.5000     3.7860     5.7300     2.4340   -14.2040 
  175.1250    48.8290    23.8970     8.0360     4.5150     6.9960     2.4240   -14.2130 
  175.2500    46.6830    23.8630     8.6110     5.3120     8.2060     2.4150   -14.2250 
  175.3750    47.7270    23.8000     7.6780     5.9910     9.1140     2.4050   -14.2130 
  175.5000    47.8860    23.6980     7.0790     6.4050     9.5740     2.3980   -14.1830 
  175.6250    47.7460    23.6250     7.6690     6.5020     9.5550     2.3920   -14.1340 
  175.7500    50.5670    23.5800     8.6070     6.3950     9.2800     2.3850   -14.0380 
  175.8750    53.6030    23.5860     8.8620     6.1910     8.9300     2.3820   -13.9230 
  176.0000    53.2040    23.6740     8.5690     6.0060     8.7180     2.3900   -13.8180 
  176.1250    50.2660    23.6640     7.8600     5.9110     8.7730     2.4090   -13.7250 
  176.2500    49.7240    23.5630     7.4150     5.8880     9.0050     2.4330   -13.6440 
  176.3750    50.3620    23.7320     7.7490     5.9050     9.3250     2.4570   -13.5820 
  176.5000    48.7790    23.7970     7.3060     5.9400     9.6720     2.4740   -13.5370 
  176.6250    46.2800    23.7090     6.8320     5.9870     9.9880     2.4790   -13.5240 
  176.7500    47.2310    23.6570     6.7700     6.0390    10.2700     2.4700   -13.5560 
  176.8750    52.6600    23.6830     7.3920     6.0990    10.5010     2.4610   -13.6550 
  177.0000    60.9610    23.5680     7.3580     6.1620    10.6940     2.4560   -13.8230 
  177.1250    71.4170    23.6720     6.9720     6.2470    10.8980     2.4520   -14.0420 
  177.2500    79.9840    23.6200     6.5950     6.3710    11.1840     2.4500   -14.3300 
  177.3750    85.4140    23.6210     6.2300     6.5620    11.6030     2.4570   -14.6610 
  177.5000    89.5950    23.5240     6.3030     6.8510    12.1890     2.4710   -15.0430 
  177.6250    90.9880    23.5760     6.9270     7.2550    12.9230     2.4860   -15.4630 
  177.7500    88.2660    23.7570     8.6040     7.7200    13.7060     2.4960   -15.8860 
  177.8750    84.4910    23.7310    10.9700     8.2040    14.4570     2.5080   -16.2660 
  178.0000    84.1560    23.8260    12.8260     8.6480    15.0430     2.5210   -16.5900 
  178.1250    85.2800    23.8070    13.1760     8.9570    15.2830     2.5250   -16.8790 
  178.2500    85.0170    23.7430    12.7570     9.0930    15.1870     2.5080   -17.0800 
  178.3750    86.0360    23.6130    11.8410     9.0590    14.8180     2.4790   -17.2020 
  178.5000    88.5050    23.5470    10.3330     8.8890    14.2750     2.4450   -17.2600 
  178.6250    89.5750    23.6080     8.6780     8.6230    13.6630     2.4170   -17.2750 
  178.7500    90.8280    23.4060     8.2190     8.3730    13.1190     2.4010   -17.2230 
  178.8750    94.3640    23.0600     8.6540     8.1970    12.7330     2.3900   -17.1380 
  179.0000    96.3420    22.8900    10.3510     8.1660    12.6290     2.3760   -17.0160 
  179.1250    92.2220    22.8810    12.3100     8.3650    12.9260     2.3580   -16.8730 
  179.2500    87.1670    22.8970    14.1380     8.7830    13.5180     2.3480   -16.7490 
  179.3750    85.2750    22.8460    15.1140     9.4280    14.4250     2.3540   -16.6230 
  179.5000    84.7820    22.4980    16.6420    10.3000    15.5750     2.3840   -16.4910 
  179.6250    82.0380    22.1630    18.6430    11.3250    16.7610     2.4380   -16.3600 
  179.7500    80.3730    22.0310    19.2800    12.2860    17.7240     2.4940   -16.2350 
  179.8750    81.1940    22.1980    18.2010    13.0140    18.3090     2.5210   -16.0550 
  180.0000    84.7830    22.4360    18.5890    13.3870    18.4230     2.5160   -15.8480 
  180.1250    88.0810    22.8150    19.2090    13.2590    17.9360     2.5000   -15.5920 
  180.2500    90.3740    22.8410    17.8820    12.7260    17.0390     2.4910   -15.2530 
  180.3750    91.7720    22.7230    15.1380    11.8890    15.8320     2.4830   -14.8900 
  180.5000    93.3900    22.8390    13.3380    10.8720    14.4500     2.4630   -14.4590 
  180.6250    94.9070    23.0020    11.3190     9.8470    13.1250     2.4310   -13.9200 
  180.7500    93.2690    23.5220    10.0070     8.9480    11.9490     2.3970   -13.2900 
  180.8750    86.5410    23.9910     8.7890     8.2050    10.9640     2.3770   -12.6360 
  181.0000    77.9910    24.1520     7.5430     7.6460    10.2310     2.3700   -11.9540 
  181.1250    75.8180    24.1350     7.3030     7.3300     9.8280     2.3730   -11.2670 
  181.2500    78.4050    24.0140     7.6040     7.1870     9.6470     2.3810   -10.6480 
  181.3750    78.2150    23.8570     7.8710     7.1500     9.6020     2.3920   -10.0590 
  181.5000    74.0970    23.7860     7.4110     7.1670     9.6310     2.4020    -9.5160 
  181.6250    69.6030    23.5470     6.9240     7.2040     9.7000     2.4120    -9.0650 
  181.7500    64.7370    23.4830     6.4830     7.2270     9.7540     2.4200    -8.7250 
  181.8750    58.3360    23.3680     6.4840     7.2280     9.7950     2.4240    -8.4910 
  182.0000    53.1500    23.2860     7.1580     7.2110     9.8400     2.4200    -8.3490 
  182.1250    52.4740    23.2090     7.3780     7.1970     9.9370     2.4120    -8.2900 
  182.2500    52.9710    23.1140     6.7360     7.1900    10.0660     2.4100    -8.2820 
  182.3750    53.1560    22.9360     5.8340     7.1830    10.1990     2.4160    -8.3360 
  182.5000    53.4180    22.8060     5.7020     7.1540    10.3040     2.4230    -8.4670 
  182.6250    51.7560    22.5170     6.0500     7.0970    10.3840     2.4280    -8.6440 
  182.7500    49.7060    22.2970     6.3840     7.0260    10.4490     2.4340    -8.8400 
  182.8750    50.0830    22.1760     6.4820     6.9500    10.5020     2.4400    -9.0250 
  183.0000    53.8350    22.0110     6.0180     6.8780    10.5560     2.4420    -9.1960 
  183.1250    57.8310    21.9920     5.5400     6.8260    10.6530     2.4390    -9.3390 
  183.2500    59.9330    22.1020     5.3780     6.7950    10.7790     2.4430    -9.4240 
  183.3750    63.3750    22.1980     5.6930     6.7760    10.9130     2.4550    -9.4610 
  183.5000    69.3090    22.3040     6.3650     6.7650    11.0300     2.4630    -9.4340 
  183.6250    74.9010    22.3480     6.6160     6.7550    11.1290     2.4620    -9.3570 
