~V
VERS. 2.00: Ver 2.00
~W
STRT.M 120.0000:
STOP.M 235.0000:
STEP.M 0.1250:
NULL. -999.2500:
UWI. DF3022:
~C
DEPT.M :
SP.MV :
GR.API :
CALI.CM :
RXO.OHMM :
RI. :
RML.OHMM :
DEN.GM/CC :
~A
# ...
  165.0000   -24.6210    57.6490    25.1680    97.5110   100.0660   110.3900     2.2110 
  165.1250   -24.6780    60.1700    25.1680    94.6900    97.2790   107.5290     2.2210 
  165.2500   -24.7310    66.7450    25.1680    92.6570    93.6600   103.5970     2.2310 
  165.3750   -24.7910    68.9390    25.1680    91.9210    89.6010    99.0130     2.2350 
  165.5000   -24.7960    64.8950    25.1680    90.4940    85.6420    94.4220     2.2340 
  165.6250   -24.7430    64.1750    25.1680    86.9330    82.5340    90.7130     2.2360 
  165.7500   -24.6860    67.7170    25.1680    83.5890    80.5780    88.2660     2.2360 
  165.8750   -24.5880    67.5690    25.1680    82.0390    79.7820    87.1190     2.2300 
  166.0000   -24.4990    62.9100    25.1680    83.2290    79.8160    86.9200     2.2230 
  166.1250   -24.3830    59.6770    25.1680    86.1230    79.9680    86.8510     2.2210 
  166.2500   -24.2510    59.1950    25.1680    87.9670    79.2580    85.7240     2.2220 
  166.3750   -24.0970    59.3490    25.1680    85.3020    76.9420    82.6140     2.2260 
  166.5000   -23.9500    61.2200    25.1680    78.7140    72.8750    77.3620     2.2330 
  166.6250   -23.8280    62.9340    25.1680    71.4140    67.6280    70.7400     2.2470 
  166.7500   -23.7210    63.4390    25.1680    64.2060    62.8150    64.0040     2.2640 
  166.8750   -23.6260    63.2790    25.1680    55.3480    58.3820    58.9760     2.2760 
  167.0000   -23.5310    63.7480    25.1680    47.5910    54.8020    56.1510     2.2800 
  167.1250   -23.4370    63.8190    25.1680    45.1520    53.1320    55.0720     2.2730 
  167.2500   -23.3590    63.8990    25.1680    45.8840    52.7100    55.1460     2.2620 
  167.3750   -23.2810    64.4440    25.1680    46.9910    52.9550    55.7890     2.2560 
  167.5000   -23.2250    64.1140    25.1680    48.4020    53.0170    56.0950     2.2620 
  167.6250   -23.1700    63.2730    25.1680    50.1100    51.3300    54.3530     2.2770 
  167.7500   -23.0920    63.8450    25.1680    49.9270    47.2690    49.9620     2.2930 
  167.8750   -23.0200    65.4690    25.1680    47.2330    41.2410    43.4860     2.3070 
  168.0000   -22.9210    68.1880    25.1680    41.7190    34.6050    36.5070     2.3130 
  168.1250   -22.8420    74.4200    25.1680    32.8850    29.2140    30.9960     2.3070 
  168.2500   -22.7530    79.4370    25.1680    24.4280    25.9550    27.6800     2.2870 
  168.3750   -22.6800    77.8970    25.1680    20.2560    25.2070    26.8010     2.2610 
  168.5000   -22.5930    71.7370    25.1680    21.3500    27.1080    28.4880     2.2380 
  168.6250   -22.5140    66.7650    25.1680    29.2400    32.1470    33.4550     2.2250 
  168.7500   -22.4630    62.8220    25.1680    44.2350    39.6270    41.2470     2.2200 
  168.8750   -22.4060    58.5360    25.1680    61.6890    48.6110    50.9960     2.2200 
  169.0000   -22.3560    57.6210    25.1670    71.2430    57.3060    60.7710     2.2210 
  169.1250   -22.3200    62.9290    25.1650    67.5580    63.3550    68.0290     2.2210 
  169.2500   -22.2990    67.3360    25.1650    60.5840    67.0400    72.9150     2.2230 
  169.3750   -22.2950    65.8440    25.1660    61.5840    69.8180    76.8060     2.2270 
  169.5000   -22.2950    61.5420    25.1680    74.3110    72.8800    80.8050     2.2310 
  169.6250   -22.2970    61.8030    25.1680    90.5770    75.5480    83.9520     2.2330 
  169.7500   -22.2990    63.4220    25.1680    97.2150    74.9670    83.1110     2.2370 
  169.8750   -22.2950    60.5980    25.1680    93.8320    68.4910    75.5110     2.2430 
  170.0000   -22.3260    56.5550    25.1680    82.7920    56.5070    61.8420     2.2530 
  170.1250   -22.3240    58.3920    25.1680    65.6190    43.2150    47.0920     2.2660 
  170.2500   -22.3220    62.5500    25.1680    46.7020    32.7890    35.8490     2.2800 
  170.3750   -22.3200    66.0060    25.1680    30.7300    26.3250    29.0610     2.2880 
  170.5000   -22.3330    69.1870    25.1680    21.3980    23.7350    26.3180     2.2830 
  170.6250   -22.3680    69.6160    25.1680    21.3980    25.3890    27.8790     2.2650 
  170.7500   -22.4060    66.0840    25.1680    34.5470    30.8130    33.5730     2.2470 
  170.8750   -22.4900    62.9190    25.1680    57.8960    40.4380    44.2510     2.2370 
  171.0000   -22.5620    63.2380    25.1680    78.2450    54.3860    60.0760     2.2340 
  171.1250   -22.6590    65.0940    25.1680    84.9340    70.7880    78.2400     2.2320 
  171.2500   -22.7570    65.6350    25.1680    85.3660    83.5730    91.8910     2.2310 
  171.3750   -22.8480    63.7580    25.1680    88.7810    88.5590    97.3150     2.2320 
  171.5000   -22.9360    60.7690    25.1680    98.9710    87.1260    96.2280     2.2340 
  171.6250   -23.0100    60.5950    25.1680   106.8880    84.1790    93.3300     2.2380 
  171.7500   -23.0690    63.1720    25.1680   109.2480    83.5330    92.7350     2.2450 
  171.8750   -23.1050    63.6950    25.1680   114.3040    86.6060    96.2710     2.2490 
  172.0000   -23.1340    58.9110    25.1680   131.7010    94.0260   104.7070     2.2450 
  172.1250   -23.1890    53.3850    25.1680   152.1910   106.1900   118.0420     2.2310 
  172.2500   -23.2750    53.1660    25.1680   162.1950   119.9170   132.2800     2.2200 
  172.3750   -23.3670    55.7460    25.1680   164.3740   129.4630   141.6410     2.2180 
  172.5000   -23.4850    56.1230    25.1680   165.3840   127.4900   139.7910     2.2290 
  172.6250   -23.5910    53.8500    25.1680   159.2240   110.7270   123.3370     2.2500 
  172.7500   -23.7060    54.5950    25.1680   136.9460    89.4530   101.0060     2.2760 
  172.8750   -23.8150    59.1700    25.1670   100.8280    70.7580    80.1650     2.2990 
  173.0000   -23.9420    66.0020    25.1650    64.8640    57.5970    65.0360     2.3090 
  173.1250   -24.0360    72.2760    25.1620    46.7280    51.0710    57.6440     2.2970 
  173.2500   -24.0910    74.5500    25.1630    42.8990    49.4590    56.1010     2.2690 
  173.3750   -24.1460    70.7310    25.1660    49.9530    52.2260    59.6730     2.2390 
  173.5000   -24.1560    62.6670    25.1680    66.6710    59.1090    67.8270     2.2200 
  173.6250   -24.1540    56.3870    25.1680    88.4160    70.2090    79.9670     2.2240 
  173.7500   -24.1480    54.1560    25.1680   103.0490    83.2250    93.0030     2.2360 
  173.8750   -24.1480    54.9590    25.1680   107.4240    95.2410   103.9570     2.2410 
  174.0000   -24.1330    56.4200    25.1680   107.9300   103.3730   110.6710     2.2310 
  174.1250   -24.1250    54.8210    25.1680   110.4720   106.3040   112.5170     2.2160 
  174.2500   -24.1210    52.0910    25.1680   112.1280   106.8690   112.2210     2.2080 
  174.3750   -24.1060    52.1280    25.1680   111.2220   107.3000   111.7280     2.2120 
  174.5000   -24.1020    55.3450    25.1680   109.5230   108.6250   111.8490     2.2220 
  174.6250   -24.1020    57.2050    25.1680   112.3500   110.4660   111.6890     2.2410 
  174.7500   -24.0990    54.8210    25.1680   122.9860   109.4160   112.1440     2.2710 
  174.8750   -24.0720    52.3230    25.1680   132.4530   106.9510   110.7630     2.2980 
  175.0000   -24.0340    52.7510    25.1600   124.5730   103.6320   107.9870     2.3070 
  175.1250   -23.9750    53.4450    25.1300    95.7220   100.4500   104.9130     2.2940 
  175.2500   -23.9080    52.2040    25.0590    76.1130    97.4190   101.8090     2.2830 
  175.3750   -23.8300    50.1260    24.9580    79.1360    93.2630    97.3370     2.2930 
  175.5000   -23.7290    49.0640    24.8720    97.3440    86.4890    89.8080     2.3200 
  175.6250   -23.6030    48.6620    24.8300   100.8530    76.6610    78.9190     2.3410 
  175.7500   -23.4700    49.5960    24.7730    79.7080    66.2500    67.6770     2.3410 
  175.8750   -23.3420    53.7270    24.6590    51.8950    57.4070    58.3710     2.3310 
  176.0000   -23.2100    63.3710    24.5690    36.4260    51.4480    52.1710     2.3230 
  176.1250   -23.0460    73.5550    24.6220    36.5120    49.0960    49.6960     2.3180 
