~V
VERS. 2.00: Ver 2.00
~W
STRT.M 125.0000:
STOP.M 256.0000:
STEP.M 0.1250:
NULL. -999.2500:
UWI. DF3030:
~C
DEPT.M :
GR.API :
RML.OHMM :
RI. :
RXO.OHMM :
CALI.CM :
DEN.GM/CC :
SP.MV :
~A
# ...
  237.5000    72.6150    22.8700    20.8330    21.8910    24.5510     2.3060   -16.7910 
  237.6250    74.0980    22.6900    20.6510    21.0040    24.4860     2.3060   -16.7710 
  237.7500    75.2310    22.4920    20.4390    20.8130    24.3700     2.3060   -16.7420 
  237.8750    76.2030    22.2310    20.1700    20.5600    24.2420     2.3090   -16.7270 
  238.0000    77.2770    21.8620    19.8130    20.0740    24.1470     2.3150   -16.6810 
  238.1250    76.5290    21.3570    19.3470    19.3660    24.0620     2.3250   -16.6340 
  238.2500    73.5840    20.7870    18.8290    18.4970    24.0220     2.3330   -16.5740 
  238.3750    70.0100    20.2340    18.3290    17.7890    24.0760     2.3360   -16.4960 
  238.5000    69.6090    19.7800    17.9190    17.4590    24.1700     2.3320   -16.4120 
  238.6250    74.0130    19.5070    17.6770    17.4980    24.1660     2.3240   -16.3450 
  238.7500    78.8300    19.4120    17.6030    17.7830    24.0850     2.3140   -16.2810 
  238.8750    79.2140    19.4950    17.6930    17.7870    24.0290     2.3070   -16.2030 
  239.0000    75.1760    19.7600    17.9450    17.8300    24.0360     2.3020   -16.1130 
  239.1250    72.0280    20.2300    18.3710    18.2670    24.1350     2.2980   -15.9910 
  239.2500    70.8230    20.8260    18.8950    18.7890    24.2960     2.2960   -15.8810 
  239.3750    69.8530    21.4070    19.3960    19.0540    24.4700     2.2960   -15.7760 
  239.5000    68.0220    21.7330    19.6650    19.3700    24.5860     2.3000   -15.6860 
  239.6250    68.2330    21.3920    19.3390    19.2800    24.6220     2.3080   -15.5690 
  239.7500    69.4710    20.2980    18.3370    19.4580    24.6290     2.3160   -15.4450 
  239.8750    71.6350    18.5440    16.7340    19.5820    24.6290     2.3230   -15.3260 
  240.0000    77.4600    16.4670    14.8220    18.9790    24.6290     2.3260   -15.2400 
  240.1250    86.5670    14.6510    13.0950    16.2130    24.6290     2.3290   -15.1870 
  240.2500    93.0510    13.5360    11.9290    12.9300    24.6290     2.3340   -15.1370 
  240.3750    94.0360    13.3150    11.5010    11.1060    24.6290     2.3420   -15.1230 
  240.5000    90.6470    13.9440    11.8250    11.3250    24.6290     2.3520   -15.1120 
  240.6250    85.4660    15.2660    12.8620    12.8030    24.6160     2.3560   -15.1230 
  240.7500    79.9140    16.8290    14.2620    15.6870    24.5850     2.3510   -15.1460 
  240.8750    75.6530    18.3440    15.7580    19.8350    24.5540     2.3350   -15.1920 
  241.0000    74.2260    19.6210    17.1110    20.1440    24.5410     2.3110   -15.2280 
  241.1250    74.0480    20.5360    18.1110    17.8330    24.5540     2.2870   -15.2570 
  241.2500    72.5540    21.1250    18.7440    17.4650    24.5850     2.2700   -15.2980 
  241.3750    69.9490    21.3560    18.9840    19.5500    24.6160     2.2630   -15.2980 
  241.5000    69.5070    21.2000    18.8220    21.3460    24.6290     2.2670   -15.2890 
  241.6250    72.3030    20.7130    18.2920    21.4500    24.6290     2.2810   -15.2920 
  241.7500    74.9650    20.2260    17.6730    20.4330    24.6290     2.3010   -15.3140 
  241.8750    76.6110    20.0610    17.2330    19.0720    24.6340     2.3210   -15.3400 
  242.0000    77.5000    20.4400    17.1840    17.7340    24.6540     2.3380   -15.3690 
  242.1250    76.7940    21.4480    17.6650    18.0270    24.7050     2.3520   -15.4070 
  242.2500    72.9720    22.7960    18.5030    20.3410    24.7470     2.3650   -15.4110 
  242.3750    68.5620    24.3020    19.5700    24.5450    24.7480     2.3780   -15.4070 
  242.5000    68.0620    25.8980    20.7830    28.1590    24.7010     2.3940   -15.3930 
  242.6250    71.0560    27.6830    22.1670    28.2300    24.6450     2.4160   -15.3170 
  242.7500    72.1320    29.7120    23.7420    26.9360    24.5700     2.4450   -15.2160 
  242.8750    70.2990    31.9230    25.4980    28.6910    24.4760     2.4760   -15.0600 
  243.0000    68.3830    34.1230    27.3380    35.6430    24.4190     2.5020   -14.8740 
  243.1250    69.7890    36.0600    29.1040    42.3220    24.3400     2.5110   -14.6470 
  243.2500    74.0190    37.7450    30.7250    42.0520    24.2120     2.5040   -14.3980 
  243.3750    78.8440    39.2910    32.1920    42.3730    24.1030     2.4990   -14.1630 
  243.5000    81.1830    40.6950    33.4250    41.4780    24.0780     2.5130   -13.9160 
  243.6250    79.7650    41.3900    33.9260    45.2150    24.1390     2.5520   -13.6760 
  243.7500    78.7530    40.5840    33.1160    48.5290    24.1610     2.5950   -13.4340 
  243.8750    77.2600    37.5460    30.5030    51.1150    24.1990     2.6140   -13.1770 
  244.0000    74.0600    32.3180    26.1540    46.7850    24.3170     2.5920   -12.9640 
  244.1250    72.8320    25.6860    20.8910    36.4320    24.5140     2.5310   -12.7620 
  244.2500    74.8640    19.5160    16.0940    25.7220    24.6390     2.4640   -12.6160 
  244.3750    77.1130    14.6650    12.4400    16.3600    24.6730     2.4080   -12.4920 
  244.5000    76.9800    11.4240    10.0730    10.2090    24.6500     2.3730   -12.4330 
  244.6250    75.6800    10.4530     8.9620     8.1940    24.6340     2.3630   -12.4050 
  244.7500    76.8380    10.3300     8.6270     7.3290    24.6290     2.3690   -12.4300 
  244.8750    79.4460    10.7060     8.8180     6.9860    24.6290     2.3840   -12.5230 
  245.0000    82.5930    11.2850     9.2970     7.0470    24.6290     2.3960   -12.6100 
  245.1250    82.5930    11.8130     9.8390     7.4460    24.6550     2.3990   -12.7750 
  245.2500    82.5930    12.1730    10.2740     7.8590    24.7360     2.3940   -12.9330 
  245.3750    82.5930    12.3600    10.5540     8.1290    24.8490     2.3880   -13.0920 
  245.5000    82.5930    12.4250    10.6940     8.1350    24.8770     2.3860   -13.2570 
  245.6250    82.5930    12.4270    10.7270     8.1170    24.8420     2.3890   -13.4080 
  245.7500    82.5930    12.4180    10.7090     8.2400    24.8310     2.3880   -13.5500 
  245.8750    82.5930    12.4090    10.6520     8.5240    24.9060     2.3790   -13.6690 
  246.0000    82.5930    12.3950    10.5510     8.7720    25.0280     2.3650   -13.7690 
  246.1250    82.5930    12.3680    10.3980     9.0650    25.0430     2.3570   -13.8850 
  246.2500    82.5930    12.3350    10.2160     9.2910    24.8990     2.3610   -13.9980 
  246.3750    82.5930    12.3150    10.0320     9.1600    24.6650     2.3710   -14.0700 
  246.5000    82.5930    12.3280     9.8740     8.5300    24.4510     2.3820   -14.0930 
  246.6250    82.5930    12.3930     9.7750     7.9540    24.3720     2.3860   -14.1140 
  246.7500    82.5930    12.4910     9.7250     7.5870    24.3560     2.3880   -14.0930 
  246.8750    82.5930    12.5930     9.7070     7.5450    24.3560     2.3910   -14.0850 
  247.0000    82.5930    12.6620     9.6950     7.7300    24.3560     2.3970   -14.0690 
  247.1250    82.5930    12.6620     9.6600     7.9800    24.3560     2.4050   -14.0150 
  247.2500    82.5930    12.6060     9.5980     8.1470    24.3560     2.4110   -13.9310 
  247.3750    82.5930    12.5320     9.5260     8.1840    24.3560     2.4150   -13.8790 
  247.5000    82.5930    12.4900     9.4730     8.1570    24.3560     2.4170   -13.8310 
  247.6250    82.5930    12.5530     9.4990     8.0870    24.3560     2.4190   -13.8370 
  247.7500    82.5930    12.7440     9.6280     7.9590    24.3560     2.4220   -13.8700 
  247.8750    82.5930    13.0590     9.8690     7.9170    24.3560     2.4250   -13.9130 
  248.0000    82.5930    13.4570    10.1970     8.1160    24.3560     2.4290   -13.9650 
  248.1250    82.5930    13.8450    10.5520     8.6310    24.3530     2.4360   -14.0470 
  248.2500    82.5930    14.1240    10.8460     9.4180    24.3320     2.4480   -14.1330 
  248.3750    82.5930    14.2250    11.0150    10.2670    24.2850     2.4610   -14.2180 
  248.5000    82.5930    14.1220    11.0220    10.6540    24.2500     2.4710   -14.3130 
  248.6250    82.5930    13.8200    10.8500    10.6350    24.2380     2.4710   -14.4490 
