~V
VERS. 2.00: Ver 2.00
~W
STRT.M 54.0000:
STOP.M 250.0000:
STEP.M 0.1250:
NULL. -999.2500:
UWI. DF3016:
~C
DEPT.M :
GR.API :
RML.OHMM :
RI. :
RXO.OHMM :
CALI.CM :
DEN.GM/CC :
SP.MV :
~A
# ...
   76.5000    86.0260     9.5670     8.1500     9.0650    23.5840  -999.2500   -25.3230 
   76.6250    84.0720     9.6400     8.2890     9.3950    23.5390  -999.2500   -25.1880 
   76.7500    81.6950     9.5740     8.3250    10.0020    23.4760  -999.2500   -25.1430 
   76.8750    81.2410     9.3980     8.2530    10.7940    23.4480  -999.2500   -25.1130 
   77.0000    84.5840     9.1910     8.1170    10.5220    23.5670  -999.2500   -25.0850 
   77.1250    92.2210     9.0730     7.9990     9.0670    23.9210  -999.2500   -25.0750 
   77.2500    97.5030     9.1070     7.9630     8.2940    24.1920  -999.2500   -25.0980 
   77.3750    95.9810     9.2900     8.0230     8.2500    24.1600  -999.2500   -25.1300 
   77.5000    90.9810     9.5390     8.1380     8.5900    23.9350  -999.2500   -25.1890 
   77.6250    89.6160     9.6680     8.1950     8.9130    23.7720  -999.2500   -25.2700 
   77.7500    89.1970     9.5380     8.0890     8.9850    23.6970  -999.2500   -25.3600 
   77.8750    87.7260     9.1190     7.7810     8.8980    23.6140  -999.2500   -25.4500 
   78.0000    87.4390     8.5300     7.3330     8.7680    23.5800  -999.2500   -25.5980 
   78.1250    89.8120     8.0640     6.9360     8.6280    23.6650  -999.2500   -25.7810 
   78.2500    91.4830     7.9800     6.7880     8.0730    23.7390  -999.2500   -26.0530 
   78.3750    92.2770     8.3790     6.9960     7.5900    23.6420  -999.2500   -26.4110 
   78.5000    89.9530     9.1840     7.5510     8.3360    23.3130  -999.2500   -26.8190 
   78.6250    81.2590    10.1280     8.3220    10.4480    23.2560  -999.2500   -27.2570 
   78.7500    71.2040    10.8190     9.0070    13.6830    23.4520  -999.2500   -27.6640 
   78.8750    66.9420    11.0130     9.3720    16.6970    23.6450  -999.2500   -28.0170 
   79.0000    68.9100    10.6670     9.3020    15.1180    23.6100  -999.2500   -28.1860 
   79.1250    71.4800     9.9680     8.8470    11.8100    23.5140  -999.2500   -28.1660 
   79.2500    72.9780     9.3160     8.3190    10.1700    23.6140  -999.2500   -27.9540 
   79.3750    75.4030     8.9170     7.9090     9.5340    23.8760  -999.2500   -27.6370 
   79.5000    79.1700     8.8170     7.6970     9.0120    24.0640  -999.2500   -27.2830 
   79.6250    82.6140     8.9430     7.6770     8.5220    24.0340  -999.2500   -26.9390 
   79.7500    84.9230     9.1150     7.7320     8.7340    23.9320  -999.2500   -26.6690 
   79.8750    85.9840     9.2420     7.7920     9.2430    23.8690  -999.2500   -26.5180 
   80.0000    85.7270     9.3030     7.8300     9.4050    23.8620  -999.2500   -26.5810 
   80.1250    84.8590     9.3310     7.8580     9.0110    23.8990  -999.2500   -26.9320 
   80.2500    83.4490     9.3840     7.9130     8.6090    23.9290  -999.2500   -27.5050 
   80.3750    81.2510     9.4910     8.0150     8.6850    23.8810  -999.2500   -28.2210 
   80.5000    79.4420     9.6420     8.1600     9.3990    23.7600  -999.2500   -28.9670 
   80.6250    77.4550     9.7840     8.3040    10.6560    23.6920  -999.2500   -29.7670 
   80.7500    74.5850     9.8560     8.3910    11.5980    23.7000  -999.2500   -30.5850 
   80.8750    71.4820     9.8320     8.3930    12.1580    23.7820  -999.2500   -31.4160 
   81.0000    68.6730     9.7190     8.3090    12.3670    23.8860  -999.2500   -32.1530 
   81.1250    65.0700     9.5570     8.1710    12.2970    23.8900  -999.2500   -32.7640 
   81.2500    62.2800     9.4070     8.0390    11.0630    23.7800  -999.2500   -33.2120 
   81.3750    62.7250     9.3010     7.9460    10.4400    23.6080  -999.2500   -33.4910 
   81.5000    64.5640     9.2520     7.9120    10.3440    23.5200  -999.2500   -33.6910 
   81.6250    64.7620     9.2770     7.9480    10.3880    23.5850  -999.2500   -33.6750 
   81.7500    64.7600     9.3690     8.0410    10.4410    23.7790  -999.2500   -33.5110 
   81.8750    65.7820     9.5260     8.1800    10.3860    24.0230  -999.2500   -33.1240 
   82.0000    65.5580     9.7230     8.3430    10.1500    24.2230  -999.2500   -32.5740 
   82.1250    63.1120     9.8870     8.4760     9.8080    24.2420  -999.2500   -31.7670 
   82.2500    61.5810     9.9300     8.5130     9.7300    24.0990  -999.2500   -30.7830 
   82.3750    63.9130     9.7890     8.4020     9.9180    23.8910  -999.2500   -29.6520 
   82.5000    69.3640     9.4640     8.1330    10.0540    23.7700  -999.2500   -28.3570 
   82.6250    76.8910     9.0370     7.7560     9.7940    23.7970  -999.2500   -27.0260 
   82.7500    85.9510     8.6710     7.4000     8.9300    23.9840  -999.2500   -25.7420 
   82.8750    94.2980     8.4710     7.1570     7.7440    24.3010  -999.2500   -24.6030 
   83.0000    98.3950     8.4680     7.0710     7.0360    24.5310  -999.2500   -23.5840 
   83.1250    94.8920     8.6240     7.1490     7.1190    24.5180  -999.2500   -22.7520 
   83.2500    91.1710     8.8060     7.3000     7.7030    24.4280  -999.2500   -22.0730 
   83.3750    92.2270     8.9290     7.4560     8.2380    24.4140  -999.2500   -21.5450 
   83.5000    95.5600     8.9560     7.5710     8.3240    24.4580  -999.2500   -21.1850 
   83.6250    95.5670     8.9090     7.6270     7.8500    24.4140  -999.2500   -21.0360 
   83.7500    90.9910     8.8650     7.6610     7.7350    24.2360  -999.2500   -20.9810 
   83.8750    85.3750     8.8720     7.7080     7.8870    24.0040  -999.2500   -20.9850 
   84.0000    83.1120     8.9470     7.7890     8.0720    23.7840  -999.2500   -21.0020 
   84.1250    84.1780     9.0810     7.9090     8.2550    23.6430  -999.2500   -21.0740 
   84.2500    85.1150     9.2270     8.0430     8.3500    23.5780  -999.2500   -21.1390 
   84.3750    85.4160     9.3570     8.1660     8.4000    23.5600  -999.2500   -21.2600 
   84.5000    86.1630     9.4490     8.2590     8.4410    23.5610  -999.2500   -21.3810 
   84.6250    87.5870     9.4910     8.3020     8.5770    23.5900  -999.2500   -21.4550 
   84.7500    88.1330     9.5050     8.3050     8.7040    23.6830  -999.2500   -21.5000 
   84.8750    89.2460     9.5110     8.2800     8.6470    23.8400  -999.2500   -21.4930 
   85.0000    90.3530     9.5200     8.2350     8.4660    23.9600  -999.2500   -21.5510 
   85.1250    89.5770     9.5130     8.1630     8.2320    23.9800  -999.2500   -21.5700 
   85.2500    89.0970     9.4520     8.0460     8.3400    23.9630  -999.2500   -21.6490 
   85.3750    88.4370     9.3020     7.8710     8.6080    23.9940  -999.2500   -21.7060 
   85.5000    85.1650     9.0560     7.6390     8.7550    24.1000  -999.2500   -21.8200 
   85.6250    81.3700     8.7790     7.4060     8.6170    24.1610  -999.2500   -22.0090 
   85.7500    79.1750     8.6410     7.2850     8.3500    24.0710  -999.2500   -22.2530 
   85.8750    77.7250     8.8510     7.4240     8.5120    23.8630  -999.2500   -22.5480 
   86.0000    76.1170     9.6390     8.0110     9.0300    23.6310  -999.2500   -22.8150 
   86.1250    75.8340    11.3130     9.3520    10.1530    23.4620  -999.2500   -23.1140 
   86.2500    75.9420    13.6960    11.4030    12.3240    23.4280  -999.2500   -23.4100 
   86.3750    74.1500    16.4370    13.9640    15.9070    23.6120  -999.2500   -23.7430 
   86.5000    71.2850    18.9260    16.5550    20.5800    23.9500  -999.2500   -24.0910 
   86.6250    68.3410    20.2010    18.2800    25.9480    24.1790  -999.2500   -24.4670 
   86.7500    66.6040    19.9630    18.6430    29.8330    24.1330  -999.2500   -24.8500 
   86.8750    67.0600    18.3750    17.6150    26.7710    23.8930  -999.2500   -25.2430 
   87.0000    67.6360    16.0790    15.7000    18.0330    23.5780  -999.2500   -25.6410 
   87.1250    67.4820    13.9310    13.6580    13.6520    23.3000  -999.2500   -26.0920 
   87.2500    69.5230    12.3990    12.0170    12.5150    23.0470  -999.2500   -26.5590 
   87.3750    73.6560    11.5460    10.9080    12.5290    22.7880  -999.2500   -27.0350 
   87.5000    76.1220    11.2290    10.2850    12.6850    22.5600  -999.2500   -27.4230 
   87.6250    75.7040    11.2340    10.0530    12.7540    22.5110  -999.2500   -27.6990 
