~V
VERS. 2.00: Ver 2.00
~W
STRT.M 100.0000:
STOP.M 258.0000:
STEP.M 0.1250:
NULL. -999.2500:
UWI. DF3025:
~C
DEPT.M :
AC.US/MT :
DEN.GM/CC :
GR.API :
CALI.CM :
RXO.OHMM :
RI. :
RML.OHMM :
SP.MV :
~A
# ...
  210.0000   415.5730     2.1950    68.6170    24.5640   116.1050    87.0090    94.7690   -39.9660 
  210.1250   412.5000     2.1950    68.4340    24.4470    93.8940    81.0490    88.0190   -39.7970 
  210.2500   411.8270     2.1890    67.1540    24.1910    79.4660    76.5340    82.7370   -39.5510 
  210.3750   413.7380     2.1850    67.6860    23.9320    71.2460    73.2410    78.8520   -39.2910 
  210.5000   416.4300     2.1880    71.0990    23.7990    71.5370    70.3670    75.5880   -39.0700 
  210.6250   418.4820     2.1980    73.0750    23.7820    74.3650    67.0280    71.9530   -38.9220 
  210.7500   419.8760     2.2100    73.2960    23.7810    69.7850    63.2790    67.8100   -38.8100 
  210.8750   420.2720     2.2210    73.0290    23.7900    57.2550    59.8220    63.7680   -38.6890 
  211.0000   419.4530     2.2320    73.0880    23.8160    46.7300    57.5100    60.7300   -38.5220 
  211.1250   417.9710     2.2370    74.6660    23.8460    48.4900    57.2140    59.7370   -38.2860 
  211.2500   416.6510     2.2350    77.2400    23.8620    55.6850    58.5620    60.5330   -38.0230 
  211.3750   415.9200     2.2270    79.1460    23.8470    57.6300    60.9270    62.5070   -37.7760 
  211.5000   415.9960     2.2150    77.8280    23.7770    58.5590    63.3780    64.7010   -37.5700 
  211.6250   417.3000     2.2070    73.6820    23.6820    61.3590    64.7140    65.8880   -37.4080 
  211.7500   419.5370     2.2110    69.9190    23.6630    59.7720    64.6460    65.6860   -37.2640 
  211.8750   421.9350     2.2250    66.9540    23.7770    55.2520    63.5510    64.3860   -37.1290 
  212.0000   423.0660     2.2360    65.1810    24.0140    50.1810    62.1700    62.6900   -37.0130 
  212.1250   421.2800     2.2310    65.1110    24.2850    49.6140    61.2700    61.3750   -36.9380 
  212.2500   417.4060     2.2200    66.7830    24.4720    52.5990    61.1290    60.7750   -36.8890 
  212.3750   412.9980     2.2150    69.0390    24.5360    54.3130    61.8290    61.0070   -36.8340 
  212.5000   409.2130     2.2240    70.3590    24.5200    53.6720    63.3100    62.0320   -36.7440 
  212.6250   406.2800     2.2380    69.4360    24.4700    53.2180    65.5150    63.8320   -36.5970 
  212.7500   402.9860     2.2440    69.1440    24.3640    53.4870    68.1720    66.1890   -36.4220 
  212.8750   396.9710     2.2410    70.5290    24.1850    56.1950    71.0070    68.9020   -36.2420 
  213.0000   383.0230     2.2430    70.9770    23.9620    62.3710    73.4160    71.4600   -36.0730 
  213.1250   359.8420     2.2630    67.8990    23.7640    67.4560    74.0030    72.6460   -35.9280 
  213.2500   340.4880     2.2900    64.3990    23.6360    68.1340    72.2010    71.7850   -35.8110 
  213.3750   337.2990     2.3050    63.2560    23.5420    62.3870    68.5070    68.9990   -35.7250 
  213.5000   351.1600     2.2980    64.9340    23.5240    55.2650    64.5930    65.4760   -35.6550 
  213.6250   368.6080     2.2870    68.5500    23.7510    52.0360    62.9560    63.4770   -35.5550 
  213.7500   369.7830     2.2990    72.1660    24.1300    54.0410    64.3560    64.2980   -35.3980 
  213.8750   343.5410     2.3470    72.9550    24.4280    59.7610    67.6960    67.4830   -35.1830 
  214.0000   289.6340     2.4220    70.5760    24.5170    73.7850    68.8900    69.8080   -34.9400 
  214.1250   233.0270     2.4740    67.7110    24.4560    87.5690    60.2730    64.1240   -34.7010 
  214.2500   221.8830     2.4560    66.0990    24.3000    80.5950    44.2120    50.1360   -34.4900 
  214.3750   276.3830     2.3770    66.6380    24.0450    51.7460    28.2780    33.7850   -34.3210 
  214.5000   370.4090     2.2910    69.7230    23.8240    22.7380    17.1300    20.9220   -34.2050 
  214.6250   434.0220     2.2570    75.5210    23.9050     9.8670    11.3550    13.7110   -34.1560 
  214.7500   439.4310     2.2740    82.0360    24.1950     6.2460     8.4530     9.9060   -34.1620 
  214.8750   412.9820     2.3240    85.6040    24.4290     6.7920     7.2340     8.1330   -34.2190 
  215.0000   392.3540     2.3820    83.8760    24.4460     7.3850     6.9510     7.5360   -34.3290 
  215.1250   395.3910     2.4170    80.6400    24.3430     7.5170     7.1500     7.7000   -34.5190 
  215.2500   404.4380     2.4300    82.0090    24.2900     7.3990     7.4140     8.1260   -34.7790 
  215.3750   409.5400     2.4310    87.0430    24.2660     7.2590     7.5800     8.5290   -35.0890 
  215.5000   411.0200     2.4250    91.5940    24.2300     7.2060     8.7490     7.6070   -35.4120 
  215.6250   409.5420     2.4150    96.6280    24.1930     7.2130     8.7560     7.5300   -35.6970 
  215.7500   407.9550     2.4070   103.0780    24.1740     7.3020     8.6630     7.4230   -35.9120 
  215.8750   409.3020     2.4010   107.4230    24.1550     7.4460     8.5200     7.3050   -36.0460 
  216.0000   413.6270     2.3940   108.0010    24.0950     7.4780     8.3470     7.1870   -36.1160 
  216.1250   416.4390     2.3880   108.1320    23.9630     7.4440     8.1340     7.0790   -36.1640 
  216.2500   415.1570     2.3860   110.1880    23.7890     7.4190     7.8900     7.0050   -36.2440 
  216.3750   412.3420     2.3860   112.7340    23.6100     7.3430     7.6590     7.0260   -36.3910 
  216.5000   410.7700     2.3830   114.5830    23.4450     7.2200     7.5360     7.2380   -36.6120 
  216.6250   408.0860     2.3770   115.9040    23.3320     7.4180     7.7100     7.8370   -36.8890 
  216.7500   401.3110     2.3730   115.6400    23.3020     7.9970     8.3010     8.9140   -37.1800 
  216.8750   392.3710     2.3700   111.8620    23.3390     9.5620     9.4290    10.5630   -37.4630 
  217.0000   386.7180     2.3660   104.0770    23.4200    12.7470    11.1680    12.8000   -37.7190 
  217.1250   387.7690     2.3580    95.8220    23.5700    16.7840    13.5300    15.5210   -37.9350 
  217.2500   391.6990     2.3470    89.5540    23.7770    19.7230    16.0920    18.2580   -38.1260 
  217.3750   395.6230     2.3380    83.8080    24.0160    21.6110    18.3960    20.5500   -38.2990 
  217.5000   398.5360     2.3300    78.9380    24.2440    23.1360    20.0700    22.0730   -38.4500 
  217.6250   400.5700     2.3230    77.3320    24.4100    23.9020    20.9540    22.7770   -38.5550 
  217.7500   402.0090     2.3160    78.4600    24.4900    23.8750    21.4420    23.1720   -38.5980 
  217.8750   402.8900     2.3100    80.1480    24.4960    23.6420    21.8350    23.5980   -38.5690 
  218.0000   403.5390     2.3040    81.7160    24.4730    23.9260    22.3150    24.2130   -38.4770 
  218.1250   404.4070     2.2970    82.3660    24.4450    24.1800    22.9100    24.9620   -38.3340 
  218.2500   404.9080     2.2920    79.5520    24.4450    25.3830    23.4620    25.6060   -38.1650 
  218.3750   403.4020     2.2960    75.4640    24.4830    26.6780    23.8040    25.9460   -37.9700 
  218.5000   398.7420     2.3090    73.4640    24.5140    27.0580    23.8360    25.8940   -37.7530 
  218.6250   392.8880     2.3150    73.9200    24.4800    25.6820    23.5420    25.4800   -37.5070 
  218.7500   390.1930     2.3150    74.8080    24.4180    24.2150    23.1050    24.9330   -37.2440 
  218.8750   392.2940     2.3200    75.2330    24.3230    23.4420    22.6780    24.4370   -36.9680 
  219.0000   397.2700     2.3340    75.9590    24.1910    24.7840    22.3980    24.1560   -36.6790 
  219.1250   401.2870     2.3350    77.6660    24.0800    25.4640    22.4010    24.2490   -36.3790 
  219.2500   403.5680     2.3140    79.4660    24.0500    24.3580    22.6750    24.6820   -36.0620 
  219.3750   404.7830     2.2850    80.4290    24.0880    23.5980    23.1960    25.3980   -35.7190 
  219.5000   404.9700     2.2680    79.7090    24.1760    25.5970    23.8950    26.2910   -35.3510 
  219.6250   403.7520     2.2750    79.0060    24.3160    28.3470    24.6930    27.2590   -34.9510 
  219.7500   400.9240     2.2940    78.3660    24.4370    29.0960    25.5420    28.2470   -34.5280 
  219.8750   394.5840     2.3130    77.7160    24.4860    28.8990    26.4560    29.2790   -34.0910 
