~V
VERS. 2.00: Ver 2.00
~W
STRT.M 125.0000:
STOP.M 255.0000:
STEP.M 0.1250:
NULL. -999.2500:
UWI. DF3006:
~C
DEPT.M :
GR.API :
RML.OHMM :
RI. :
RXO.OHMM :
CALI.CM :
DEN.GM/CC :
SP.MV :
~A
# ...
  192.5000    89.8330    11.7290     8.8260     9.5810    23.7760     2.4290   -21.0740 
  192.6250    88.7450    12.2410     9.2790    10.3930    23.7500     2.4500   -20.4650 
  192.7500    88.9030    12.2840     9.4860    10.9100    23.7260     2.4590   -19.8140 
  192.8750    87.2870    11.8160     9.3430    10.8780    23.7420     2.4580   -19.1940 
  193.0000    80.5670    11.0070     8.9010    10.1290    23.8520     2.4500   -18.7240 
  193.1250    69.7930    10.1710     8.3330     8.7860    23.8420     2.4390   -18.2270 
  193.2500    59.6320     9.5600     7.8560     7.8330    23.8100     2.4280   -17.8270 
  193.3750    51.6580     9.2410     7.5640     7.3990    23.8000     2.4150   -17.4090 
  193.5000    47.2340     9.1750     7.4650     7.1780    23.8190     2.3990   -17.0210 
  193.6250    48.4510     9.2830     7.5360     7.1660    23.8030     2.3830   -16.8630 
  193.7500    51.7440     9.4370     7.6810     7.1600    23.7170     2.3740   -16.7100 
  193.8750    55.0240     9.5720     7.8470     7.0190    23.5960     2.3780   -16.6810 
  194.0000    59.8870     9.6520     7.9980     6.7200    23.5280     2.3950   -16.6370 
  194.1250    67.1710     9.6510     8.1070     6.6370    23.5280     2.4220   -16.6610 
  194.2500    74.0830     9.5880     8.1720     6.8690    23.5740     2.4480   -16.7220 
  194.3750    80.5360     9.4830     8.1920     7.2610    23.6650     2.4650   -16.8110 
  194.5000    86.5810     9.3660     8.1810     7.6140    23.7620     2.4720   -17.0090 
  194.6250    89.1140     9.2760     8.1610     7.7070    23.8250     2.4680   -17.1240 
  194.7500    87.6580     9.2370     8.1630     7.6850    23.8770     2.4610   -17.3570 
  194.8750    84.8630     9.2570     8.2000     7.8910    23.9340     2.4530   -17.6640 
  195.0000    83.8140     9.3280     8.2730     8.3750    23.9910     2.4440   -17.9430 
  195.1250    85.4260     9.4290     8.3660     8.8050    24.0580     2.4340   -18.2300 
  195.2500    88.0220     9.5150     8.4360     8.8570    24.1070     2.4240   -18.5050 
  195.3750    91.4320     9.5450     8.4480     8.7020    24.1490     2.4160   -18.7750 
  195.5000    94.9990     9.4900     8.3760     8.3250    24.1710     2.4100   -19.0360 
  195.6250    96.8460     9.3350     8.2140     8.1400    24.1680     2.4070   -19.2900 
  195.7500    96.6490     9.1390     8.0150     8.1850    24.1510     2.4040   -19.5150 
  195.8750    97.2330     8.9700     7.8360     8.3840    24.1340     2.4000   -19.6660 
  196.0000    99.5070     8.8990     7.7380     8.5990    24.1250     2.3970   -19.7620 
  196.1250    97.6300     9.0190     7.8090     8.8820    24.1170     2.3930   -19.9180 
  196.2500    91.3740     9.3640     8.0810     9.3870    24.0950     2.3900   -20.0790 
  196.3750    86.2810     9.9930     8.6040    10.2150    24.0680     2.3840   -20.3330 
  196.5000    84.3920    10.8740     9.4410    11.4230    24.0480     2.3740   -20.5370 
  196.6250    83.1070    12.1200    10.7730    13.1470    24.0420     2.3620   -20.7550 
  196.7500    80.9370    13.9440    12.6840    15.7880    24.0460     2.3550   -21.0070 
  196.8750    78.0970    16.7590    15.3310    19.8820    24.0650     2.3580   -21.2180 
  197.0000    74.3440    21.0410    18.8610    23.9690    24.1030     2.3720   -21.5620 
  197.1250    72.3450    27.5180    23.5440    29.5620    24.1220     2.3850   -21.7820 
  197.2500    72.2030    36.0100    29.2110    38.2560    24.1250     2.3840   -22.0050 
  197.3750    69.8730    45.4380    35.7680    47.1650    24.1260     2.3640   -22.1320 
  197.5000    66.8120    54.3990    43.0540    55.4350    24.1580     2.3300   -22.2220 
  197.6250    69.1350    63.9410    50.8700    64.0630    24.2560     2.2930   -22.3310 
  197.7500    72.4510    73.7260    58.7160    75.7190    24.3730     2.2640   -22.3650 
  197.8750    70.3540    83.0400    66.0610    87.4680    24.4340     2.2440   -22.4810 
  198.0000    65.7890    91.0060    72.2910    96.0700    24.4100     2.2300   -22.5020 
  198.1250    67.4510    96.4350    76.5500   100.3500    24.4500     2.2220   -22.5540 
  198.2500    71.1680    99.6210    79.0720   101.6090    24.4600     2.2170   -22.6310 
  198.3750    71.8100   101.4520    80.4930   101.2680    24.4210     2.2190   -22.6560 
  198.5000    70.1380   103.3600    81.8960   101.3310    24.3370     2.2270   -22.7220 
  198.6250    68.7960   107.1090    84.7510    94.4760    24.2890     2.2350   -22.8080 
  198.7500    67.4680   113.0870    89.6090    92.5680    24.3510     2.2390   -22.8930 
  198.8750    66.2430   120.7730    96.3310   108.8360    24.4640     2.2370   -22.9190 
  199.0000    65.9780   128.6730   103.9410   128.5630    24.5410     2.2290   -22.9170 
  199.1250    65.8260   134.0570   110.3810   135.9420    24.5550     2.2180   -22.9690 
  199.2500    65.1370   135.2470   113.8540   128.6040    24.5390     2.2100   -22.9390 
  199.3750    65.6090   131.6990   113.4120   122.7140    24.4870     2.2040   -23.0180 
  199.5000    68.7160   124.4870   109.4010   116.1910    24.4050     2.2030   -23.0270 
  199.6250    72.7010   116.2360   103.5570   108.9210    24.3080     2.2040   -22.9980 
  199.7500    75.1660   110.0590    98.7530   100.1600    24.2510     2.2070   -23.0330 
  199.8750    76.3750   107.8120    96.8760    87.1650    24.2420     2.2100   -23.0590 
  200.0000    75.4720   110.4250    99.0160    80.4520    24.5000     2.2130   -23.2290 
  200.1250    72.0090   118.2950   105.7580    83.4920    24.5810     2.2130   -23.2960 
  200.2500    68.2140   128.6970   114.8650   100.2320    24.5980     2.2120   -23.4330 
  200.3750    66.0920   138.6540   123.8200   121.5570    24.6000     2.2120   -23.5110 
  200.5000    65.9730   144.8490   129.7700   135.8410    24.6000     2.2140   -23.6320 
  200.6250    66.5540   143.8160   129.6180   140.8740    24.6020     2.2220   -23.7060 
  200.7500    67.2260   137.1400   124.3610   142.3430    24.6140     2.2340   -23.7020 
  200.8750    66.7380   127.9230   116.3450   136.6940    24.6890     2.2460   -23.7430 
  201.0000    66.0920   120.1010   108.9340   122.5530    24.7270     2.2540   -23.6380 
  201.1250    67.6950   118.1970   106.3640   106.6830    24.7330     2.2530   -23.6560 
  201.2500    69.4510   123.6570   110.3370   100.7420    24.7380     2.2460   -23.6100 
  201.3750    68.0830   137.1820   121.6610   108.6170    24.7600     2.2350   -23.5600 
  201.5000    63.7530   157.9480   139.6930   131.8030    24.9050     2.2240   -23.5640 
  201.6250    60.9240   183.1240   162.0840   170.4930    24.9490     2.2170   -23.5800 
  201.7500    61.1940   206.4290   183.4000   203.9520    25.0100     2.2120   -23.6620 
  201.8750    62.7810   222.6630   199.2270   214.5470    25.1060     2.2080   -23.7220 
  202.0000    64.1960   228.7490   206.8080   209.6300    25.2360     2.2050   -23.7410 
  202.1250    64.6110   224.1300   205.1420   204.4580    25.2400     2.2010   -23.7470 
  202.2500    64.9580   214.2000   198.3410   196.9470    25.1950     2.1970   -23.7260 
  202.3750    64.4750   201.8480   188.8280   188.1510    25.1320     2.1940   -23.7370 
  202.5000    63.1480   188.0570   177.6500   176.7730    24.7720     2.1910   -23.6560 
  202.6250    64.3690   172.0620   164.2510   164.7840    24.5440     2.1880   -23.6100 
  202.7500    69.0690   153.9020   148.6110   151.7130    24.4020     2.1850   -23.5490 
  202.8750    73.1050   134.4190   131.2880   136.2300    24.2800     2.1840   -23.3970 
  203.0000    71.0910   115.3400   113.7070   116.5150    24.1410     2.1880   -23.3570 
  203.1250    67.1050    99.3140    98.2740    91.2010    24.0310     2.1960   -23.1740 
  203.2500    68.3500    87.6600    86.5640    70.4890    23.9160     2.2080   -23.0880 
  203.3750    72.8410    81.3890    79.7780    61.2660    23.8730     2.2210   -22.9850 
  203.5000    75.3630    81.2100    78.7820    57.6180    23.8670     2.2320   -22.9480 
  203.6250    72.4320    88.7580    85.3050    58.1230    23.8670     2.2390   -22.9190 
