~V
VERS. 2.00: Ver 2.00
~W
STRT.M 65.0000:
STOP.M 267.0000:
STEP.M 0.1250:
NULL. -999.2500:
UWI. DF3007:
~C
DEPT.M :
GR.API :
RML.OHMM :
RI. :
RXO.OHMM :
CALI.CM :
DEN.GM/CC :
SP.MV :
~A
# ...
  245.0000    58.7640    13.8900    10.7310     8.2480    24.3050     2.4230   -12.1640 
  245.1250    59.5060    13.9330    10.8040     8.3700    24.2990     2.4350   -12.0820 
  245.2500    61.0230    13.9330    10.8430     8.4140    24.2910     2.4440   -12.0510 
  245.3750    62.6390    13.9130    10.8540     8.4480    24.2890     2.4470   -11.9890 
  245.5000    63.3790    13.9120    10.8570     8.6080    24.2930     2.4420   -12.0420 
  245.6250    64.3850    13.9690    10.8830     8.8470    24.2990     2.4340   -12.0830 
  245.7500    65.8070    14.0790    10.9430     9.1750    24.2960     2.4270   -12.1340 
  245.8750    65.6570    14.2240    11.0380     9.6850    24.2880     2.4280   -12.2800 
  246.0000    63.4870    14.3800    11.1610    10.0630    24.2710     2.4350   -12.3840 
  246.1250    63.8800    14.5340    11.3050    10.2780    24.2390     2.4460   -12.5530 
  246.2500    67.1470    14.6830    11.4570    10.5820    24.2090     2.4540   -12.7320 
  246.3750    70.0540    14.8330    11.6080    11.2830    24.2060     2.4540   -12.9150 
  246.5000    70.8310    14.9780    11.7500    12.1280    24.2270     2.4480   -13.0310 
  246.6250    71.2330    15.0980    11.8680    13.4450    24.2700     2.4430   -13.2020 
  246.7500    70.9110    15.1790    11.9580    15.1380    24.2860     2.4410   -13.3360 
  246.8750    69.5750    15.2200    12.0230    16.5720    24.2770     2.4410   -13.4250 
  247.0000    69.9690    15.2410    12.0770    16.5170    24.2620     2.4340   -13.5990 
  247.1250    71.3560    15.2960    12.1520    16.8870    24.2440     2.4160   -13.7150 
  247.2500    70.3600    15.4290    12.2780    17.1420    24.2410     2.3860   -13.7880 
  247.3750    68.0190    15.6520    12.4680    17.4370    24.2410     2.3570   -13.9160 
  247.5000    66.3390    15.9410    12.7110    17.5810    24.2360     2.3430   -13.9890 
  247.6250    66.3020    16.2400    12.9820    16.9660    24.2480     2.3500   -13.9790 
  247.7500    67.1450    16.5010    13.2440    17.0160    24.2490     2.3780   -14.0290 
  247.8750    68.8640    16.7120    13.4870    17.7260    24.2680     2.4150   -13.9600 
  248.0000    69.2820    16.8860    13.7110    18.2890    24.2930     2.4460   -13.8670 
  248.1250    68.9380    17.0210    13.9150    18.0890    24.3210     2.4640   -13.8170 
  248.2500    71.1830    17.0980    14.0830    17.5400    24.3420     2.4690   -13.7120 
  248.3750    74.0740    17.0870    14.1880    17.3420    24.3310     2.4650   -13.5880 
  248.5000    74.6930    16.9820    14.2180    17.4620    24.3150     2.4590   -13.5130 
  248.6250    72.6520    16.8340    14.2000    17.0040    24.3050     2.4540   -13.4800 
  248.7500    69.8550    16.7600    14.2220    16.1280    24.2820     2.4530   -13.4060 
  248.8750    67.8660    16.8580    14.3660    15.6170    24.1870     2.4500   -13.4430 
  249.0000    67.4730    17.1740    14.6870    15.7290    24.0050     2.4420   -13.4090 
  249.1250    68.0480    17.6740    15.1820    16.7630    23.9330     2.4260   -13.3580 
  249.2500    68.3910    18.1630    15.7070    18.3910    23.9710     2.4100   -13.3640 
  249.3750    68.7590    18.4730    16.1150    20.5570    24.0670     2.4050   -13.2510 
  249.5000    70.6640    18.4980    16.2940    22.3050    24.2050     2.4150   -13.1530 
  249.6250    74.7240    18.2370    16.2020    22.2330    24.3340     2.4330   -13.0250 
  249.7500    79.2030    17.9130    16.0080    19.8090    24.4340     2.4480   -12.8230 
  249.8750    81.6120    17.7200    15.8760    17.5900    24.4870     2.4480   -12.5900 
  250.0000    79.7340    17.7840    15.9340    17.2420    24.5150     2.4380   -12.4150 
  250.1250    73.9990    18.1450    16.2560    18.1690    24.5100     2.4300   -12.2070 
  250.2500    68.3280    18.6330    16.7300    18.4450    24.5010     2.4330   -12.0150 
  250.3750    64.0150    19.1000    17.2400    18.4840    24.4710     2.4470   -11.9280 
  250.5000    62.4720    19.4460    17.6810    18.5380    24.3880     2.4600   -11.7430 
  250.6250    64.1410    19.6750    18.0130    18.4220    24.3110     2.4670   -11.6000 
  250.7500    67.3560    19.9490    18.3450    16.4740    24.2420     2.4670   -11.5720 
  250.8750    69.7490    20.4330    18.8220    15.9890    24.2240     2.4720   -11.4850 
  251.0000    70.3910    21.2240    19.5550    18.6550    24.2420     2.4860   -11.4010 
  251.1250    71.5360    22.3150    20.5930    22.0470    24.1910     2.5080   -11.3340 
  251.2500    73.0430    23.4620    21.7530    25.5060    24.0670     2.5290   -11.2000 
  251.3750    73.0860    24.4320    22.8320    27.1700    24.0030     2.5370   -11.0700 
  251.5000    72.6090    25.0440    23.6360    25.8670    24.0940     2.5310   -11.0170 
  251.6250    74.7570    25.1900    24.0110    24.0860    24.1510     2.5100   -10.9650 
  251.7500    76.9390    25.0760    24.0930    22.4930    24.1290     2.4840   -10.8460 
  251.8750    75.4100    24.8960    24.0430    21.3230    24.0820     2.4660   -10.8280 
  252.0000    72.2930    24.8060    24.0130    20.7060    24.0710     2.4660   -10.7970 
  252.1250    71.1920    24.8760    24.0980    20.6310    24.1160     2.4860   -10.7700 
  252.2500    69.9150    25.0040    24.2490    20.9240    24.1820     2.5140   -10.8400 
  252.3750    67.9420    25.0760    24.3870    21.4820    24.2480     2.5290   -10.8780 
  252.5000    68.3400    25.0110    24.4410    22.1020    24.2840     2.5210   -10.8950 
  252.6250    70.1550    24.7860    24.3730    22.0640    24.3000     2.4990   -10.8960 
  252.7500    69.5980    24.4970    24.2420    21.2360    24.3130     2.4820   -10.9250 
  252.8750    68.0610    24.2240    24.1020    20.4750    24.2980     2.4860   -10.9180 
  253.0000    67.9350    24.0250    23.9950    20.5470    24.2530     2.5100   -10.9500 
  253.1250    68.7570    23.8990    23.9430    21.1340    24.1800     2.5400   -10.9480 
  253.2500    68.7380    23.7720    23.9280    21.6810    24.1270     2.5660   -10.8950 
  253.3750    67.9650    23.6990    23.9440    22.0620    24.1110     2.5790   -10.8870 
  253.5000    65.8010    23.6820    23.9990    22.3060    24.1360     2.5810   -10.8700 
  253.6250    64.1020    24.0760    24.1290    23.4360    24.1770     2.5770   -10.8490 
  253.7500    65.7300    24.7370    24.3420    24.7250    24.1960     2.5690   -10.9010 
  253.8750    68.5900    25.7500    24.6320    25.2060    24.2070     2.5610   -10.9020 
  254.0000    69.3480    27.0030    24.9810    25.3700    24.2260     2.5560   -10.9010 
  254.1250    66.7990    27.3440    25.3720    25.6240    24.2490     2.5550   -10.9830 
  254.2500    64.7940    27.7040    25.7830    26.0060    24.2520     2.5590   -10.9770 
  254.3750    65.6760    28.0780    26.2070    25.9640    24.2650     2.5630   -11.0030 
  254.5000    67.3190    28.4440    26.6170    25.8780    24.2790     2.5620   -11.0840 
  254.6250    66.5970    28.7190    26.9360    25.3920    24.2900     2.5560   -11.1220 
  254.7500    66.5970    28.8150    27.0820    24.7460    24.2970     2.5490   -11.1300 
  254.8750    66.5970    28.6530    26.9860    24.4340    24.3040     2.5460   -11.1920 
  255.0000    66.5970    28.2220    26.6290    24.5310    24.3120     2.5490   -11.2490 
  255.1250    66.5970    27.6080    26.0780    24.6390    24.3300     2.5550   -11.2490 
  255.2500    66.5970    27.0500    25.5450    24.4150    24.3540     2.5560   -11.3530 
  255.3750    66.5970    26.7340    25.2040    23.8020    24.3670     2.5490   -11.3880 
  255.5000    66.5970    26.7690    25.1700    23.0640    24.3630     2.5340   -11.3950 
  255.6250    66.5970    27.1710    25.5010    23.1670    24.3630     2.5170   -11.4870 
  255.7500    66.5970    27.7130    26.0170    24.0600    24.3500     2.5030   -11.4990 
  255.8750    66.5970    28.1970    26.5460    25.1370    24.3100     2.4970   -11.4790 
  256.0000    66.5970    28.4750    26.9350    26.4830    24.2680     2.4980   -11.4680 
  256.1250    66.5970    28.4680    27.0760    27.6690    24.2220     2.5040   -11.4490 
