~V
VERS. 2.00: Ver 2.00
~W
STRT.M 62.0000:
STOP.M 265.0000:
STEP.M 0.1250:
NULL. -999.2500:
UWI. DF3071:
~C
DEPT.M :
GR.API :
CALI.CM :
RXO.OHMM :
RI. :
RML.OHMM :
DEN.GM/CC :
SP.MV :
~A
# ...
  163.2500    83.2670    24.3520    62.0160    70.7140    81.8780     2.2750   -23.9080 
  163.3750    82.0400    24.5450    53.5220    67.2140    77.1220     2.2880   -23.9830 
  163.5000    83.0740    24.6940    39.7680    59.7720    69.2120     2.3050   -24.0150 
  163.6250    82.5510    24.7720    27.6150    52.7380    62.5260     2.3160   -24.0340 
  163.7500    80.3760    24.8450    22.2850    49.1010    59.6670     2.3170   -24.0620 
  163.8750    79.3930    24.9600    23.9520    49.6890    61.3260     2.3080   -24.1260 
  164.0000    77.6790    25.1240    32.3820    54.3160    67.1540     2.2870   -24.2370 
  164.1250    72.0530    25.3500    50.0580    62.3600    76.1820     2.2560   -24.3890 
  164.2500    67.4920    25.5990    68.9360    71.1710    85.5670     2.2310   -24.5850 
  164.3750    65.9610    25.8060    77.9010    78.4430    93.1270     2.2230   -24.8120 
  164.5000    66.7260    25.9090    75.1990    82.8780    97.8610     2.2350   -25.0620 
  164.6250    67.9980    25.9110    69.8000    85.1270   100.6830     2.2550   -25.2750 
  164.7500    69.5750    25.8740    69.8190    88.1050   104.5030     2.2620   -25.4580 
  164.8750    69.9630    25.7690    75.1540    93.9260   111.4190     2.2470   -25.5850 
  165.0000    68.5990    25.5960    82.2860   103.5720   122.4080     2.2240   -25.6460 
  165.1250    67.3060    25.4600    87.4290   116.9210   137.2420     2.2130   -25.6770 
  165.2500    67.3910    25.4440    94.2580   131.1970   152.6600     2.2140   -25.6290 
  165.3750    69.1550    25.5330    99.1400   143.4970   165.1240     2.2110   -25.5650 
  165.5000    70.7940    25.6650    97.5820   150.9230   171.2920     2.2040   -25.4580 
  165.6250    68.3660    25.7740    94.6960   150.4340   168.0830     2.2010   -25.4230 
  165.7500    64.9590    25.8110    94.1640   143.5040   157.9120     2.2080   -25.3740 
  165.8750    65.0320    25.7930    95.9180   132.0460   143.4930     2.2200   -25.3760 
  166.0000    68.5090    25.7810    95.7320   118.6340   127.8750     2.2380   -25.4170 
  166.1250    71.2650    25.8200    89.1760   105.9990   113.9490     2.2610   -25.5030 
  166.2500    71.4250    25.8810    81.3710    95.6010   102.8500     2.2770   -25.6290 
  166.3750    70.7710    25.9460    75.9730    87.9320    94.8860     2.2810   -25.7750 
  166.5000    71.1100    26.0060    73.1370    83.0470    89.9390     2.2750   -25.9410 
  166.6250    73.6880    26.0230    69.7400    81.2060    88.0320     2.2670   -26.1100 
  166.7500    76.1100    25.9960    68.1560    81.4360    88.0460     2.2620   -26.2860 
  166.8750    76.2420    25.9150    68.8810    82.8700    89.1530     2.2600   -26.4420 
  167.0000    74.3990    25.7450    72.3980    84.5520    90.4460     2.2600   -26.5780 
  167.1250    72.0290    25.5110    76.2770    85.4870    90.9290     2.2600   -26.6610 
  167.2500    68.9270    25.3330    80.7430    85.2220    90.2790     2.2530   -26.7530 
  167.3750    66.0940    25.2630    81.3770    83.7670    88.6800     2.2420   -26.8300 
  167.5000    67.1950    25.2580    76.3000    81.7150    86.7980     2.2370   -26.8670 
  167.6250    71.8720    25.2620    73.0530    80.2090    85.7560     2.2480   -26.8720 
  167.7500    74.2900    25.2750    70.0990    80.0540    86.2230     2.2630   -26.8270 
  167.8750    74.7770    25.3010    66.0090    81.6190    88.4270     2.2690   -26.7710 
  168.0000    76.6910    25.3410    65.0300    84.7870    92.0880     2.2590   -26.6790 
  168.1250    77.8240    25.4250    72.1710    88.8850    96.4610     2.2370   -26.5980 
  168.2500    74.1780    25.5600    80.4010    92.7270   100.4540     2.2190   -26.5050 
  168.3750    68.3260    25.7090    81.1540    95.7000   103.5050     2.2110   -26.4110 
  168.5000    65.6110    25.7860    77.2380    97.6740   105.5530     2.2140   -26.3640 
  168.6250    66.5580    25.7660    75.9810    98.9170   106.9690     2.2230   -26.2950 
  168.7500    68.2050    25.7530    78.6100   100.1710   108.4450     2.2270   -26.3230 
  168.8750    70.2220    25.8000    82.2830   101.7950   110.1550     2.2240   -26.3520 
  169.0000    71.6800    25.8730    85.2450   103.5140   111.6460     2.2200   -26.4440 
  169.1250    70.7500    25.9100    87.5740   104.0050   111.4640     2.2270   -26.5250 
  169.2500    69.4560    25.9140    90.2390   102.1030   108.6840     2.2370   -26.6290 
  169.3750    68.8180    25.8970    91.2130    97.3410   103.1580     2.2410   -26.6920 
  169.5000    67.9020    25.8710    86.6130    90.3890    95.8440     2.2420   -26.7590 
  169.6250    66.5390    25.8490    75.9600    83.0640    88.7480     2.2490   -26.8050 
  169.7500    67.0460    25.8340    65.4160    77.4690    83.7530     2.2640   -26.7930 
  169.8750    68.7370    25.8090    59.5970    74.8860    81.8820     2.2780   -26.7510 
  170.0000    68.6740    25.7670    60.6800    75.8400    83.4200     2.2830   -26.6590 
  170.1250    68.8410    25.7210    66.9890    80.4320    88.2880     2.2780   -26.5250 
  170.2500    71.7500    25.6900    73.5020    86.8860    94.7350     2.2690   -26.3570 
  170.3750    75.6530    25.6710    78.0030    93.6850   101.3230     2.2670   -26.2190 
  170.5000    76.7780    25.6340    80.1110    99.4040   106.7850     2.2740   -26.0750 
  170.6250    75.7680    25.5720    79.8810   102.8950   110.1630     2.2830   -25.9860 
  170.7500    73.6590    25.5230    78.3670   104.6200   111.9290     2.2800   -25.9270 
  170.8750    70.0190    25.5070    77.6330   105.0910   112.5440     2.2670   -25.8440 
  171.0000    66.0500    25.5130    78.3600   104.6590   112.3200     2.2540   -25.7600 
  171.1250    65.3830    25.5320    78.9800   103.2450   111.1090     2.2540   -25.6440 
  171.2500    69.4220    25.5470    78.0480   100.8330   108.9260     2.2610   -25.5420 
  171.3750    75.4370    25.5370    75.4920    97.4000   105.9160     2.2670   -25.4040 
  171.5000    79.1520    25.4970    72.9590    93.4150   102.6410     2.2680   -25.2560 
  171.6250    78.2540    25.4480    71.8580    90.0400   100.2330     2.2700   -25.1100 
  171.7500    75.3270    25.4100    70.2720    88.2030    99.4890     2.2720   -24.9580 
  171.8750    72.4070    25.3800    67.7070    88.3470   100.7920     2.2740   -24.8910 
  172.0000    69.0670    25.3690    66.8660    90.4390   103.9820     2.2760   -24.8810 
  172.1250    66.3960    25.4130    73.0700    93.9160   108.3430     2.2770   -25.0330 
  172.2500    67.1310    25.4910    80.8990    97.2480   112.4180     2.2740   -25.2260 
  172.3750    70.1640    25.5470    84.0300    99.3740   115.2390     2.2620   -25.5300 
  172.5000    72.3120    25.5480    82.9000    99.8610   116.4510     2.2420   -25.8740 
  172.6250    72.2560    25.5070    81.8130    98.9640   116.4330     2.2200   -26.2310 
  172.7500    72.2390    25.4580    79.5030    97.9930   116.5230     2.2100   -26.5720 
  172.8750    74.1510    25.4080    75.9880    97.9660   117.6760     2.2170   -26.8970 
  173.0000    75.5960    25.3650    75.3580    99.3480   120.3160     2.2360   -27.1690 
  173.1250    74.3730    25.3400    78.1550   101.9170   124.1850     2.2550   -27.3800 
  173.2500    72.7230    25.3270    81.0700   104.4530   127.8460     2.2680   -27.5450 
  173.3750    72.4790    25.3130    82.3860   105.7020   129.7880     2.2770   -27.6590 
  173.5000    72.4450    25.2970    82.0170   104.4750   128.7160     2.2830   -27.7390 
  173.6250    69.6550    25.2730    77.9830    99.8870   123.7420     2.2860   -27.8000 
  173.7500    66.4790    25.2400    72.0750    93.3580   116.5390     2.2910   -27.8630 
  173.8750    67.0890    25.2240    65.3530    86.3780   108.8260     2.3020   -27.9120 
  174.0000    71.4240    25.2600    59.2700    80.3360   102.2120     2.3170   -27.9740 
  174.1250    73.7670    25.3510    56.2930    76.5570    98.0950     2.3250   -28.0180 
  174.2500    71.0160    25.4330    57.5540    74.9480    96.2170     2.3230   -28.0240 
  174.3750    66.2790    25.4760    61.7300    75.0700    95.9630     2.3160   -28.0160 
