~V
VERS. 2.00: Ver 2.00
~W
STRT.M 120.0000:
STOP.M 272.0000:
STEP.M 0.1250:
NULL. -999.2500:
UWI. DF3038:
~C
DEPT.M :
GR.API :
RML.OHMM :
RI. :
RXO.OHMM :
CALI.CM :
DEN.GM/CC :
SP.MV :
~A
# ...
  210.0000    65.1060   165.5890   151.9850   144.4330    25.0900     2.2090   -21.3150 
  210.1250    68.1870   175.5330   160.8910   149.6940    25.0900     2.2100   -21.2890 
  210.2500    71.9860   182.8020   167.2240   157.1530    25.0900     2.2110   -21.1990 
  210.3750    72.9200   188.0870   171.5990   166.6580    25.0900     2.2110   -21.0630 
  210.5000    70.7780   191.9320   174.5660   174.7150    25.0900     2.2070   -20.8330 
  210.6250    70.3930   194.4460   176.2730   177.0900    25.0900     2.2000   -20.5810 
  210.7500    71.2470   196.1710   177.2140   178.4360    25.0900     2.1920   -20.3080 
  210.8750    70.2770   197.7610   177.9660   177.8000    25.0900     2.1870   -20.0260 
  211.0000    67.9250   200.1890   179.4260   174.0310    25.0900     2.1860   -19.8080 
  211.1250    68.1270   204.9560   183.0250   174.4160    25.0900     2.1850   -19.5950 
  211.2500    70.0250   212.4100   189.1770   175.4140    25.0900     2.1820   -19.4470 
  211.3750    69.6510   222.2410   197.7280   179.9030    25.0900     2.1750   -19.3590 
  211.5000    67.4140   233.1080   207.6110   191.3800    25.0860     2.1700   -19.3500 
  211.6250    66.8140   242.1910   216.4970   209.3290    25.0710     2.1720   -19.4030 
  211.7500    68.9560   247.0490   222.0930   225.6080    25.0480     2.1810   -19.5630 
  211.8750    71.6130   246.2680   222.9140   233.9730    25.0330     2.1920   -19.7790 
  212.0000    72.3260   239.9420   218.6700   230.3430    25.0290     2.2010   -20.0760 
  212.1250    70.8250   229.4000   210.0380   215.4110    25.0370     2.2060   -20.4480 
  212.2500    67.9510   218.0450   199.9760   204.6300    25.0460     2.2090   -20.8300 
  212.3750    65.6630   208.0630   190.5500   196.0410    25.0530     2.2090   -21.2070 
  212.5000    65.8920   200.8380   183.2410   186.6690    25.0620     2.2050   -21.5170 
  212.6250    67.8810   197.4550   179.3140   174.5020    25.0730     2.1950   -21.8460 
  212.7500    67.6680   197.1570   178.3240   165.5200    25.0590     2.1840   -22.0110 
  212.8750    66.5980   199.4270   179.8970   172.2660    25.0260     2.1780   -22.1890 
  213.0000    67.7450   203.6510   183.4920   186.1430    24.9880     2.1820   -22.2060 
  213.1250    68.5810   209.2350   188.5920   188.4170    24.9230     2.2010   -22.2210 
  213.2500    66.8780   214.8870   194.0240   183.2530    24.8040     2.2250   -22.1480 
  213.3750    64.5460   219.1650   198.5790   176.4710    24.6420     2.2450   -22.0520 
  213.5000    62.6470   220.0930   200.6780   177.0450    24.5550     2.2550   -21.9320 
  213.6250    60.9300   214.1280   197.6910   179.5960    24.5580     2.2510   -21.8080 
  213.7500    60.1170   201.7100   189.2110   183.5740    24.7510     2.2370   -21.6570 
  213.8750    61.8150   183.9730   175.6900   180.4090    24.9460     2.2180   -21.4460 
  214.0000    63.6530   164.9350   158.8710   171.1090    25.0040     2.1980   -21.2420 
  214.1250    65.4360   146.7430   141.1260   150.5630    24.9850     2.1820   -21.0160 
  214.2500    70.0900   132.1690   124.3290   124.4710    24.9860     2.1740   -20.8180 
  214.3750    75.3510   119.7660   108.9270   104.8530    24.9700     2.1760   -20.6470 
  214.5000    76.9370   104.1130    94.7880    94.8040    24.9150     2.1890   -20.5160 
  214.6250    75.0700    89.0630    82.0490    84.5690    24.8890     2.2080   -20.4150 
  214.7500    74.3170    76.1020    70.8800    72.4630    24.8980     2.2280   -20.3690 
  214.8750    75.7230    65.7840    61.8040    59.9530    24.9010     2.2450   -20.4510 
  215.0000    78.0030    58.4680    55.2250    48.8480    24.8880     2.2550   -20.5640 
  215.1250    78.7840    54.6230    51.6590    42.6260    24.9190     2.2560   -20.7290 
  215.2500    76.9560    53.3000    50.3610    42.0690    24.9930     2.2510   -20.8880 
  215.3750    74.0640    53.8630    50.7970    43.8070    25.0620     2.2400   -21.0370 
  215.5000    72.2920    55.6220    52.3480    47.1770    25.0900     2.2280   -21.2360 
  215.6250    72.7270    58.0140    54.4660    50.8420    25.0800     2.2180   -21.3700 
  215.7500    72.8130    60.5770    56.6660    54.2330    25.0560     2.2100   -21.6080 
  215.8750    72.3820    63.2680    58.8510    56.6100    25.0260     2.2050   -21.7640 
  216.0000    72.3610    66.1850    61.0830    58.6230    25.0050     2.2040   -21.9740 
  216.1250    72.2540    69.4260    63.4390    60.3570    24.9550     2.2120   -22.1270 
  216.2500    72.5250    72.8360    65.8290    64.1180    24.8280     2.2340   -22.3590 
  216.3750    72.8790    76.3890    68.2260    69.8850    24.6520     2.2640   -22.5820 
  216.5000    73.0310    80.4480    70.9120    78.3000    24.4720     2.2910   -22.7860 
  216.6250    71.5000    86.3720    74.9650    90.2470    24.5590     2.2980   -22.9490 
  216.7500    69.7440    95.2750    81.3550    97.8780    24.7570     2.2820   -23.0910 
  216.8750    69.4420   107.7700    90.6880   105.5500    24.9490     2.2510   -23.1870 
  217.0000    69.2620   122.9930   102.4800   124.4860    24.9650     2.2200   -23.2620 
  217.1250    66.1880   137.7330   114.3180   166.6100    24.9000     2.2010   -23.2740 
  217.2500    63.8110   147.7180   122.6210   185.9000    24.9310     2.1960   -23.2500 
  217.3750    67.2450   149.5470   124.8220   174.9590    25.0120     2.2010   -23.1930 
  217.5000    74.5380   142.9080   120.3490   150.2480    25.0700     2.2080   -23.1400 
  217.6250    75.7060   128.9470   110.7890   120.5570    25.0400     2.2150   -23.0850 
  217.7500    70.9840   114.0560   100.5630    96.1830    24.9100     2.2180   -22.9780 
  217.8750    68.0940   100.6550    92.1700    85.7360    24.7430     2.2200   -22.8900 
  218.0000    68.5260    90.1290    86.6790    82.3520    24.6750     2.2220   -22.8350 
  218.1250    68.8340    87.9390    84.4780    78.0590    24.7440     2.2240   -22.8390 
  218.2500    69.6920    87.9720    84.4530    73.8450    24.7290     2.2240   -22.8010 
  218.3750    71.9670    89.3920    85.8400    73.2540    24.6370     2.2210   -22.8000 
  218.5000    72.9520    91.2920    87.7950    77.5210    24.5260     2.2130   -22.6580 
  218.6250    71.9020    92.6820    89.3900    82.6630    24.4130     2.2020   -22.6230 
  218.7500    72.0050    93.1110    90.1160    85.6540    24.3100     2.1930   -22.5630 
  218.8750    72.3660    92.6440    89.9320    86.1350    24.2150     2.1880   -22.5270 
  219.0000    71.4440    91.8320    89.2470    83.5870    24.1820     2.1900   -22.4930 
  219.1250    69.9770    91.7570    88.9760    79.7530    24.1480     2.1980   -22.4920 
  219.2500    68.9030    93.2110    89.9320    77.6720    24.0890     2.2060   -22.5660 
  219.3750    69.2530    96.5780    92.5630    78.6470    24.0280     2.2130   -22.6320 
  219.5000    70.9720   101.7620    96.8760    81.4150    23.9740     2.2140   -22.8100 
  219.6250    70.9950   108.3270   102.5450    86.0120    23.9030     2.2070   -22.8700 
  219.7500    67.5630   115.1510   108.5330    89.3040    23.8530     2.1960   -23.0030 
  219.8750    64.1350   121.4650   114.0730    91.1360    23.8670     2.1850   -23.1080 
  220.0000    66.3720   126.7750   118.6090    92.8620    23.9700     2.1790   -23.1520 
  220.1250    71.7120   130.7840   121.7080    97.7680    24.2270     2.1840   -23.0760 
  220.2500    73.8670   133.8420   123.6840   105.8730    24.5500     2.2000   -22.9170 
  220.3750    72.6380   136.1140   124.7770   110.6210    24.7640     2.2230   -22.7040 
  220.5000    71.3170   137.6830   125.2450   110.9190    24.8100     2.2450   -22.5110 
  220.6250    70.0980   138.4360   125.2300   122.4650    24.7710     2.2540   -22.3010 
  220.7500    67.1980   138.4860   124.9050   132.2230    24.8340     2.2470   -22.0480 
  220.8750    63.9870   137.9650   124.3560   131.1090    24.9330     2.2280   -21.7580 
  221.0000    63.0350   137.1990   123.7810   123.3190    24.9920     2.2080   -21.4740 
  221.1250    64.4170   136.8080   123.6370   124.0030    25.0090     2.1990   -21.2040 
