~V
VERS. 2.00: Ver 2.00
~W
STRT.M 125.0000:
STOP.M 245.0000:
STEP.M 0.1250:
NULL. -999.2500:
UWI. DF3026:
~C
DEPT.M :
SP.MV :
GR.API :
CALI.CM :
RXO.OHMM :
RI. :
RML.OHMM :
DEN.GM/CC :
~A
  125.0000   -30.5920    60.3820    24.3450     8.1760     6.8950     9.3040     2.2410 
  125.1250   -30.0230    59.7220    24.1390     8.3340     6.9460     9.4070     2.2430 
  125.2500   -29.3260    55.1220    24.0920     8.4070     7.1010     9.6360     2.2600 
  125.3750   -28.4920    52.6390    24.2340     8.4320     7.3830    10.0000     2.2960 
  125.5000   -27.5540    55.0910    24.5320     8.6170     7.8090    10.5030     2.3380 
  125.6250   -26.5410    56.5840    24.9430     9.0710     8.4130    11.1830     2.3650 
  125.7500   -25.5100    55.8110    25.2650     9.6110     9.1600    12.0230     2.3770 
  125.8750   -24.4930    55.3080    25.4560    10.1950    10.0130    13.0000     2.3880 
  126.0000   -23.5030    55.0200    25.6420    11.0620    10.8900    14.0210     2.4090 
  126.1250   -22.5500    52.6180    25.9020    12.0980    11.5300    14.7150     2.4450 
  126.2500   -21.7040    48.8720    26.1060    12.5030    11.6340    14.6090     2.4830 
  126.3750   -20.9950    45.9850    26.1830    12.0650    11.0060    13.4320     2.5070 
  126.5000   -20.4410    47.9960    26.1720    11.0280     9.7410    11.4200     2.5050 
  126.6250   -20.0430    56.7450    26.1210     9.3520     8.2030     9.2410     2.4740 
  126.7500   -19.7640    64.4300    26.0590     7.3100     6.8340     7.4770     2.4320 
  126.8750   -19.5950    65.5200    26.0030     5.6950     5.8300     6.3120     2.3910 
  127.0000   -19.5380    62.3980    25.9610     5.2390     5.2430     5.7470     2.3600 
  127.1250   -19.5760    61.4250    25.8810     5.4640     5.0840     5.7410     2.3490 
  127.2500   -19.6360    63.5380    25.8590     5.6970     5.1780     6.0340     2.3540 
  127.3750   -19.6680    66.8830    25.9390     5.8020     5.3800     6.4110     2.3680 
  127.5000   -19.6600    70.7140    26.1370     6.0120     5.5310     6.6390     2.3840 
  127.6250   -19.6280    75.3560    26.4380     5.9240     5.4780     6.5070     2.3950 
  127.7500   -19.5960    78.9060    26.6360     5.4150     5.2460     6.1040     2.3930 
  127.8750   -19.5870    79.1430    26.6260     4.8970     4.9160     5.5900     2.3710 
  128.0000   -19.6110    75.9270    26.5540     4.7750     4.6050     5.1530     2.3330 
  128.1250   -19.7210    72.0630    26.5270     4.9230     4.5150     5.0620     2.3030 
  128.2500   -19.9040    69.2460    26.5490     5.1680     4.8070     5.4740     2.3050 
  128.3750   -20.1740    65.5250    26.6570     5.8800     5.6140     6.5420     2.3450 
  128.5000   -20.5140    59.6810    26.7160     8.1540     6.9760     8.3400     2.4160 
  128.6250   -20.9120    53.1450    26.6970    14.3760     8.7230    10.7390     2.5030 
  128.7500   -21.3560    50.8990    26.6300    21.5950    10.1880    12.7940     2.5750 
  128.8750   -21.8320    54.6570    26.5340    23.1710    10.7450    13.4550     2.6060 
  129.0000   -22.3560    60.6900    26.5090    17.0380    10.2740    12.5170     2.5880 
  129.1250   -22.9250    63.5840    26.4450    10.3950     9.2980    10.9800     2.5440 
  129.2500   -23.5700    63.0690    26.4240     8.3680     8.4870     9.8830     2.5090 
  129.3750   -24.3070    61.5010    26.3350     9.2860     8.0010     9.3700     2.4900 
  129.5000   -25.1500    59.9550    26.1030     9.6790     7.7630     9.2300     2.4710 
  129.6250   -26.0790    58.9550    25.7700     8.4780     7.6070     9.1270     2.4290 
  129.7500   -27.0350    59.6730    25.4460     7.2080     7.4120     8.8680     2.3680 
  129.8750   -27.9680    62.1000    25.2210     6.6950     7.2130     8.5440     2.3070 
  130.0000   -28.8160    64.3780    25.1520     6.6410     7.1230     8.3730     2.2700 
  130.1250   -29.5540    63.9570    25.1690     6.9270     7.2710     8.5570     2.2680 
  130.2500   -30.1430    61.9640    25.1760     7.6040     7.5900     8.9750     2.2790 
  130.3750   -30.5630    59.9190    25.1790     8.3930     7.9660     9.4360     2.2840 
  130.5000   -30.7620    59.5830    25.1950     8.9200     8.2980     9.7950     2.2770 
  130.6250   -30.6970    59.6250    25.2700     8.9950     8.6040    10.1090     2.2640 
  130.7500   -30.3750    57.8010    25.4210     8.9920     9.0440    10.6420     2.2610 
  130.8750   -29.8200    55.3400    25.6180     9.2920     9.7580    11.6140     2.2810 
  131.0000   -29.0790    55.4940    25.8430    10.4020    10.7200    13.0390     2.3300 
  131.1250   -28.1300    56.5570    26.0320    13.0950    11.5240    14.4040     2.4040 
  131.2500   -27.0870    55.2360    26.1050    16.1000    11.5870    14.7300     2.4650 
  131.3750   -26.0070    54.8780    26.1130    16.5790    10.6580    13.4670     2.4800 
  131.5000   -24.9860    60.1490    26.1070    13.3090     9.0670    11.1190     2.4380 
  131.6250   -24.1010    67.1320    26.0600     8.6790     7.5230     8.9060     2.3690 
  131.7500   -23.4030    68.5750    25.8950     6.4010     6.4960     7.5290     2.3120 
  131.8750   -22.8870    64.3260    25.6110     6.1190     6.1470     7.1290     2.2810 
  132.0000   -22.5270    59.2600    25.4060     6.7590     6.5330     7.7010     2.2830 
  132.1250   -22.2970    57.7280    25.5270     8.0090     7.7490     9.3390     2.3310 
  132.2500   -22.1430    59.8730    25.8560    10.8690     9.4460    11.6070     2.4080 
  132.3750   -22.0480    64.0640    26.1590    15.8840    11.0760    13.7490     2.4730 
  132.5000   -21.9840    66.9060    26.3010    19.5480    11.8670    14.5970     2.4880 
  132.6250   -21.9540    67.4300    26.3310    17.4290    11.1610    13.2450     2.4450 
  132.7500   -21.9260    67.2950    26.3450    12.2270     9.6100    10.8940     2.3840 
  132.8750   -21.9170    67.3520    26.3450     8.4340     7.9160     8.6240     2.3330 
  133.0000   -21.9300    68.7270    26.3410     6.7060     6.5480     6.9960     2.3020 
  133.1250   -22.0060    73.3420    26.3570     5.7840     5.7800     6.2550     2.3000 
  133.2500   -22.1340    80.0650    26.3870     5.1080     5.5180     6.1900     2.3080 
  133.3750   -22.3170    81.8520    26.4060     5.0290     5.6760     6.6760     2.3140 
  133.5000   -22.5390    76.4820    26.4100     5.8510     6.1150     7.5280     2.3080 
  133.6250   -22.7580    69.9620    26.3690     7.7660     6.6020     8.3840     2.2900 
  133.7500   -22.9510    68.2990    26.2900     8.9870     6.8810     8.8130     2.2690 
  133.8750   -23.0990    69.5050    26.3850     8.3790     6.8860     8.6940     2.2590 
  134.0000   -23.2170    68.3180    26.6700     6.7020     6.7730     8.3230     2.2660 
  134.1250   -23.3080    65.4130    26.8400     5.7280     6.8870     8.2900     2.2770 
  134.2500   -23.3900    64.5620    26.8520     6.1890     7.4670     8.9430     2.2670 
  134.3750   -23.4410    65.1790    26.8690     8.6140     8.6470    10.4470     2.2350 
  134.5000   -23.4420    65.8900    26.9620    12.3230    10.4280    12.7960     2.2010 
  134.6250   -23.4010    66.6620    27.0200    14.9480    12.6000    15.6830     2.1940 
  134.7500   -23.3420    65.8070    27.0730    15.3900    14.5330    18.1510     2.2060 
  134.8750   -23.2730    61.9730    27.1630    14.6580    15.6280    19.2850     2.2210 
  135.0000   -23.1800    57.4500    27.2640    13.9230    15.5280    18.6480     2.2230 
  135.1250   -23.0470    57.6830    27.2860    13.7130    14.1760    16.4120     2.2120 
  135.2500   -22.8480    61.9390    27.1670    12.9820    12.2180    13.6200     2.2070 
  135.3750   -22.5790    71.8620    27.0570    10.7050    10.1150    10.9070     2.2180 
  135.5000   -22.2590    83.3860    27.0270     7.6400     8.2470     8.7010     2.2460 
  135.6250   -21.9390    85.7620    27.0600     5.6850     6.9390     7.3170     2.2820 
  135.7500   -21.6310    81.0970    27.1300     5.2160     6.1530     6.5990     2.3080 
  135.8750   -21.3500    78.6710    27.1690     5.5750     5.8030     6.3890     2.3100 
  136.0000   -21.0940    80.7650    27.0700     6.0570     5.7380     6.4750     2.2980 
  136.1250   -20.8410    82.0890    27.0390     5.9300     5.7680     6.5760     2.3010 
