~V
VERS. 2.00: Ver 2.00
~W
STRT.M 110.0000:
STOP.M 277.0000:
STEP.M 0.1250:
NULL. -999.2500:
UWI. DF3015:
~C
DEPT.M :
DEN.GM/CC :
SP.MV :
AC.US/MT :
GR.API :
CALI.CM :
RXO.OHMM :
RI. :
RML.OHMM :
~A
# ...
  250.0000     2.5150    -6.0570   276.9810    74.9190    25.3580    13.9410    13.8810    16.0530 
  250.1250     2.5060    -6.0550   282.0210    74.0670    25.3570    13.4950    13.5680    15.6140 
  250.2500     2.4960    -6.1010   284.1130    72.9560    25.3550    13.4420    13.1150    15.0350 
  250.3750     2.4860    -6.1910   282.9110    70.1750    25.3550    13.4460    12.6020    14.4190 
  250.5000     2.4740    -6.2580   279.3270    68.2070    25.3550    12.5090    12.1200    13.8770 
  250.6250     2.4630    -6.2620   274.7040    68.7130    25.3540     9.9050    11.7740    13.5210 
  250.7500     2.4550    -6.2310   269.8820    70.0760    25.3530     7.4120    11.5830    13.3580 
  250.8750     2.4570    -6.1710   264.6860    69.0640    25.3530     6.2750    11.5410    13.3630 
  251.0000     2.4740    -6.0840   258.9390    67.6960    25.3520     6.7120    11.6130    13.4830 
  251.1250     2.4980    -5.9230   253.2240    68.3350    25.3520     8.0070    11.7640    13.6590 
  251.2500     2.5230    -5.6980   248.8130    70.2070    25.3520     9.1440    11.9540    13.8430 
  251.3750     2.5400    -5.4030   246.5950    71.8990    25.3500     9.8990    12.1790    14.0390 
  251.5000     2.5420    -5.1240   246.5740    73.8920    25.3490    10.4760    12.4460    14.2820 
  251.6250     2.5330    -4.9410   248.0240    76.2900    25.3490    11.3900    12.7710    14.6280 
  251.7500     2.5250    -4.7720   249.7150    76.9940    25.3490    12.7550    13.1370    15.0510 
  251.8750     2.5250    -4.6280   251.1960    75.1870    25.3490    14.5750    13.5070    15.4900 
  252.0000     2.5240    -4.4940   252.3640    74.1350    25.3490    16.2950    13.8390    15.8700 
  252.1250     2.5090    -4.3690   253.1050    76.2280    25.3490    17.1370    14.0870    16.1200 
  252.2500     2.4870    -4.2650   253.3940    80.5260    25.3490    17.4110    14.2670    16.2790 
  252.3750     2.4750    -4.2070   253.3390    82.7640    25.3490    17.6730    14.4210    16.4210 
  252.5000     2.4820    -4.1510   253.2410    80.6460    25.3490    18.2260    14.6080    16.6200 
  252.6250     2.4980    -4.0540   253.2950    76.9680    25.3490    19.3580    14.8920    16.9380 
  252.7500     2.5150    -3.9670   253.0220    76.3360    25.3500    20.6350    15.2770    17.3540 
  252.8750     2.5310    -3.8440   251.7350    79.9410    25.3520    21.9290    15.7380    17.8260 
  253.0000     2.5470    -3.6820   249.2290    82.0420    25.3500    23.5060    16.2200    18.2810 
  253.1250     2.5590    -3.5340   246.3290    80.4170    25.3470    24.5500    16.6310    18.6170 
  253.2500     2.5560    -3.4640   244.5940    77.6420    25.3450    24.1780    16.9250    18.8050 
  253.3750     2.5340    -3.4690   244.8340    78.7040    25.3490    23.1920    17.0960    18.8550 
  253.5000     2.4970    -3.4670   246.8120    82.1890    25.3660    22.3260    17.1790    18.8150 
  253.6250     2.4750    -3.4070   249.3180    83.6490    25.3940    21.1760    17.2250    18.7610 
  253.7500     2.4820    -3.3630   250.9530    81.6770    25.4050    20.8120    17.2870    18.7540 
  253.8750     2.5070    -3.4000   251.2580    77.7600    25.4060    21.8150    17.3840    18.8150 
  254.0000     2.5250    -3.4800   250.3940    74.4120    25.4070    23.0840    17.5170    18.9330 
  254.1250     2.5320    -3.5630   248.8040    72.0630    25.4060    23.6570    17.6730    19.0770 
  254.2500     2.5330    -3.6150   247.1900    70.9000    25.4060    22.9270    17.8300    19.2110 
  254.3750     2.5360    -3.6010   246.0280    71.9450    25.4050    21.8190    17.9740    19.3210 
  254.5000     2.5460    -3.6080   245.6900    73.8910    25.4040    20.8270    18.1010    19.3990 
  254.6250     2.5570    -3.7250   246.3310    75.3170    25.4030    19.6530    18.1870    19.4240 
  254.7500     2.5590    -3.8530   247.4200    75.5160    25.4030    18.8680    18.2070    19.3680 
  254.8750     2.5510    -3.8950   248.6110    76.6860    25.4030    18.5870    18.1230    19.1970 
  255.0000     2.5430    -3.9100   249.7760    79.1680    25.4030    18.4440    17.9160    18.9010 
  255.1250     2.5410    -3.9550   250.9880    79.5640    25.4030    17.9320    17.5940    18.5050 
  255.2500     2.5360    -3.9640   252.2150    77.4950    25.4030    17.5600    17.2400    18.0930 
  255.3750     2.5230    -3.9320   253.1230    77.3440    25.4030    17.6620    16.9260    17.7350 
  255.5000     2.5030    -3.8960   253.2200    78.7200    25.4030    18.2360    16.7070    17.4920 
  255.6250     2.4910    -3.8560   251.9510    77.7530    25.4030    19.3390    16.6320    17.4160 
  255.7500     2.4860    -3.7860   249.7670    75.1690    25.4030    20.1110    16.6560    17.4490 
  255.8750     2.4770    -3.7300   247.6030    76.2990    25.4030    20.2610    16.7300    17.5200 
  256.0000     2.4630    -3.7150   246.6220    79.3740    25.4030    19.5430    16.7930    17.5510 
  256.1250     2.4630    -3.7120   247.8210    80.4340    25.4030    18.4550    16.7680    17.4620 
  256.2500     2.4830    -3.7490   250.3970    80.1610    25.4030    17.6790    16.6260    17.2550 
  256.3750     2.5120    -3.8310   253.2590    81.7630    25.4030    17.5650    16.3620    16.9500 
  256.5000     2.5300    -3.8830   255.8040    82.1870    25.4030    17.7940    15.9890    16.5750 
  256.6250     2.5340    -3.8750   258.3710    79.1580    25.4030    18.0700    15.5420    16.1560 
  256.7500     2.5290    -3.9330   261.3350    75.8450    25.4030    18.1170    15.0950    15.7470 
  256.8750     2.5170    -4.0620   264.0310    75.7850    25.4030    18.2000    14.7080    15.4030 
  257.0000     2.5020    -4.1580   264.9340    76.1430    25.4030    18.6370    14.4160    15.1620 
  257.1250     2.4890    -4.1680   262.3530    75.7130    25.4030    19.2140    14.2410    15.0470 
  257.2500     2.4830    -4.1610   257.4450    76.1370    25.4030    19.6200    14.1480    15.0130 
  257.3750     2.4880    -4.1900   251.9260    77.8720    25.4030    19.5240    14.1280    15.0520 
  257.5000     2.4990    -4.1980   247.2840    78.6740    25.4030    19.1460    14.1850    15.1730 
  257.6250     2.5100    -4.1550   244.2040    79.7610    25.4030    19.5820    14.3400    15.4000 
  257.7500     2.5150    -4.0780   242.3080    82.6620    25.4030    20.8050    14.5650    15.6940 
  257.8750     2.5120    -3.9200   241.6420    84.2950    25.4030    21.5350    14.8200    15.9990 
  258.0000     2.5020    -3.7490   242.3100    81.6130    25.4030    21.0140    15.0460    16.2420 
  258.1250     2.4920    -3.6330   243.9750    76.3930    25.4030    20.5290    15.1570    16.3330 
  258.2500     2.4870    -3.5540   245.3260    74.1960    25.4030    21.7620    15.1300    16.2740 
  258.3750     2.4820    -3.4550   245.4280    77.6880    25.4030    23.6240    14.9770    16.0960 
  258.5000     2.4740    -3.3800   244.3340    81.2020    25.4030    24.7540    14.7430    15.8470 
  258.6250     2.4630    -3.3430   243.2920    82.4830    25.4030    24.2520    14.4870    15.5940 
  258.7500     2.4610    -3.3030   243.6310    81.6330    25.4030    22.6900    14.2520    15.3950 
  258.8750     2.4840    -3.3030   245.7180    80.1560    25.4030    19.9810    14.0420    15.2590 
  259.0000     2.5270    -3.2990   248.9180    78.7640    25.4030    17.4540    13.8410    15.1590 
  259.1250     2.5570    -3.2670   251.8170    78.2980    25.4030    16.3110    13.6320    15.0440 
  259.2500     2.5540    -3.2290   253.4000    79.3250    25.4030    15.7730    13.4140    14.8880 
  259.3750     2.5340    -3.1650   253.7520    81.0180    25.4030    15.2440    13.1910    14.6900 
  259.5000     2.5320    -3.1110   254.1300    82.3340    25.4030    14.5340    12.9670    14.4680 
  259.6250     2.5390    -3.0590   256.9230    81.9330    25.4030    14.2990    12.7620    14.2710 
  259.7500     2.5330    -3.0380   262.7160    80.2040    25.4030    14.4420    12.5990    14.1380 
  259.8750     2.5130    -2.9860   270.2080    79.4970    25.4030    14.3100    12.4950    14.0850 
