~V
VERS. 2.00: Ver 2.00
~W
STRT.M 125.0000:
STOP.M 256.0000:
STEP.M 0.1250:
NULL. -999.2500:
UWI. DF3030:
~C
DEPT.M :
GR.API :
RML.OHMM :
RI. :
RXO.OHMM :
CALI.CM :
DEN.GM/CC :
SP.MV :
~A
# ...
  226.2500   111.8970    14.5540    12.1230    10.7490    25.2580     2.3920   -28.5250 
  226.3750   104.4000    17.6850    14.3660    13.0290    25.0020     2.3760   -28.9080 
  226.5000    97.1200    21.4430    17.3630    17.1160    24.7800     2.3640   -29.4620 
  226.6250    94.2030    24.4060    20.6870    23.7080    24.6680     2.3600   -29.9710 
  226.7500    92.3780    27.5010    23.6010    29.2220    24.6340     2.3620   -30.5420 
  226.8750    92.2360    29.4480    25.5690    31.2440    24.6290     2.3660   -30.9890 
  227.0000    95.2650    30.1720    26.3860    30.9390    24.6290     2.3690   -31.3600 
  227.1250    92.9220    29.9430    26.1860    29.9360    24.6270     2.3660   -31.7030 
  227.2500    84.0410    29.5160    25.6650    29.3900    24.6120     2.3600   -31.8570 
  227.3750    77.0720    29.3220    25.2480    27.7720    24.5760     2.3530   -31.9610 
  227.5000    77.8350    29.5570    25.1710    25.6440    24.5500     2.3450   -31.8850 
  227.6250    82.6020    30.2380    25.5460    25.4180    24.5410     2.3350   -31.7990 
  227.7500    86.1700    31.0980    26.2000    26.4720    24.5410     2.3250   -31.5340 
  227.8750    87.8350    31.9450    26.9840    28.2140    24.5410     2.3180   -31.1580 
  228.0000    87.3960    32.7000    27.7940    30.0410    24.5410     2.3150   -30.7560 
  228.1250    87.4360    33.5280    28.6890    30.5850    24.5420     2.3180   -30.1960 
  228.2500    89.0940    34.7470    29.8580    30.4260    24.5470     2.3230   -29.6750 
  228.3750    89.1190    36.5430    31.4440    30.4890    24.5670     2.3280   -29.1640 
  228.5000    85.1650    38.7390    33.3360    31.1330    24.6050     2.3310   -28.6860 
  228.6250    80.1500    40.4900    34.9110    33.0720    24.6230     2.3330   -28.2290 
  228.7500    78.7220    40.7650    35.3400    35.8960    24.6290     2.3370   -27.8500 
  228.8750    81.0230    38.8950    34.0260    39.2230    24.6340     2.3440   -27.6410 
  229.0000    82.8110    35.0440    31.0080    38.9490    24.6500     2.3560   -27.4170 
  229.1250    83.2630    30.4870    27.2220    34.5420    24.6830     2.3690   -27.3240 
  229.2500    87.1660    27.1240    24.2090    29.3060    24.7040     2.3770   -27.2340 
  229.3750    95.1340    26.0100    22.8500    23.7820    24.7140     2.3740   -27.1760 
  229.5000    99.2310    27.3660    23.4560    20.1150    24.7170     2.3620   -27.1670 
  229.6250    92.8810    30.8040    26.0130    24.6980    24.7130     2.3450   -27.1960 
  229.7500    84.6030    34.7680    29.4440    34.9080    24.6950     2.3300   -27.2280 
  229.8750    80.6310    38.1150    32.8180    45.0960    24.6630     2.3200   -27.2550 
  230.0000    80.6820    40.1570    35.3590    44.5240    24.6380     2.3120   -27.3190 
  230.1250    82.5630    40.9860    36.7830    36.7830    24.6300     2.3060   -27.3930 
  230.2500    84.0400    41.9380    38.0120    35.8360    24.6290     2.3020   -27.4840 
  230.3750    83.4130    44.1020    39.9900    37.5340    24.6290     2.3010   -27.5210 
  230.5000    79.7070    47.9140    43.2440    39.9880    24.6400     2.3050   -27.5390 
  230.6250    76.4690    52.8690    47.5550    45.2690    24.7120     2.3110   -27.5020 
  230.7500    74.9210    57.2880    51.5730    54.4870    24.8470     2.3180   -27.5020 
  230.8750    72.6090    59.7570    54.0480    66.5030    24.9580     2.3230   -27.4110 
  231.0000    69.6370    59.4960    54.1910    76.9160    25.0000     2.3260   -27.3680 
  231.1250    70.4630    56.5800    51.8720    75.3160    25.0000     2.3280   -27.2430 
  231.2500    75.7710    52.8690    48.6140    63.0160    25.0000     2.3290   -27.1360 
  231.3750    80.7940    49.6750    45.5820    48.3970    25.0010     2.3290   -27.0110 
  231.5000    80.3670    47.6780    43.4890    41.8290    25.0020     2.3270   -26.9350 
  231.6250    75.6910    47.0420    42.6340    42.0000    25.0010     2.3210   -26.8680 
  231.7500    72.8140    47.1990    42.6000    44.4680    24.9800     2.3140   -26.8070 
  231.8750    74.5680    47.9190    43.1830    46.7340    24.9360     2.3080   -26.8000 
  232.0000    78.5230    49.2210    44.3500    47.7860    24.9040     2.3050   -26.7390 
  232.1250    80.0350    51.4720    46.3730    46.8280    24.8930     2.3090   -26.7240 
  232.2500    79.8710    54.6870    49.2550    47.1700    24.8930     2.3170   -26.6480 
  232.3750    79.6620    58.6660    52.8610    50.1740    24.8930     2.3260   -26.5760 
  232.5000    78.6890    62.8150    56.7200    56.6630    24.8980     2.3330   -26.4530 
  232.6250    73.7000    66.0010    59.8720    65.8200    24.9110     2.3320   -26.2860 
  232.7500    68.7020    67.4840    61.5920    73.2960    24.9350     2.3230   -26.0960 
  232.8750    70.2340    67.0150    61.5740    73.5000    24.9630     2.3080   -25.8540 
  233.0000    77.6390    64.9750    60.0690    71.9190    24.9740     2.2950   -25.6220 
  233.1250    83.3220    62.2690    57.8090    71.7520    24.9490     2.2870   -25.3460 
  233.2500    82.5810    60.0480    55.8530    66.8960    24.9120     2.2840   -25.0760 
  233.3750    78.1390    58.9020    54.7710    61.3060    24.8950     2.2820   -24.8110 
  233.5000    75.7250    58.9990    54.7670    59.9080    24.8930     2.2800   -24.5120 
  233.6250    77.0040    60.2000    55.7840    62.8040    24.8930     2.2800   -24.1740 
  233.7500    77.7800    61.6500    57.1110    67.2770    24.8900     2.2890   -23.7850 
  233.8750    77.1860    62.5220    58.0340    71.0550    24.8760     2.3130   -23.3920 
  234.0000    76.9300    62.0490    57.8440    71.3640    24.8450     2.3500   -22.9370 
  234.1250    77.0400    59.5490    55.8450    70.4660    24.8300     2.3880   -22.4980 
  234.2500    75.8280    55.6230    52.4710    70.3260    24.8250     2.4080   -22.0400 
  234.3750    74.3560    51.0460    48.3520    66.5830    24.8160     2.4060   -21.5590 
  234.5000    73.3780    46.7010    44.2730    55.4940    24.7880     2.3860   -21.1120 
  234.6250    72.5080    43.5090    41.0860    45.4940    24.7220     2.3590   -20.7270 
  234.7500    72.8100    41.6120    39.0110    41.4170    24.6710     2.3380   -20.3980 
  234.8750    72.9910    40.9030    38.0190    41.3910    24.6400     2.3270   -20.1000 
  235.0000    70.8090    41.0180    37.8500    41.1530    24.6390     2.3280   -19.8610 
  235.1250    68.0290    41.4240    38.0960    40.1600    24.6640     2.3410   -19.6240 
  235.2500    67.1690    41.5690    38.2410    40.7520    24.6960     2.3550   -19.4370 
  235.3750    65.9520    41.2420    38.0470    42.4650    24.7160     2.3620   -19.2490 
  235.5000    64.2960    40.4760    37.4770    43.8260    24.7310     2.3550   -19.0550 
  235.6250    65.8110    39.4250    36.6020    42.2340    24.7180     2.3330   -18.8710 
  235.7500    68.4590    38.2640    35.5630    39.0340    24.7060     2.3090   -18.6890 
  235.8750    67.8800    36.9510    34.3400    36.7830    24.6880     2.2910   -18.5030 
  236.0000    66.3550    35.3500    32.8340    36.5780    24.6530     2.2830   -18.2980 
  236.1250    68.1710    33.2870    30.9040    36.5420    24.6350     2.2850   -18.1050 
  236.2500    69.9610    30.9100    28.6830    34.5930    24.6290     2.2890   -17.8830 
  236.3750    69.5090    28.4650    26.3830    30.2080    24.6210     2.2930   -17.6800 
  236.5000    67.8450    26.2690    24.2850    25.6290    24.5990     2.2960   -17.4870 
  236.6250    66.2640    24.6960    22.7250    23.1590    24.5620     2.2980   -17.3000 
  236.7500    66.3590    23.7450    21.7270    22.0610    24.5470     2.3000   -17.1290 
  236.8750    69.2280    23.3140    21.2240    21.5200    24.5520     2.3020   -16.9810 
  237.0000    74.1560    23.2070    21.0630    21.5630    24.5690     2.3030   -16.8880 
  237.1250    75.6600    23.2110    21.0650    21.9910    24.5730     2.3030   -16.8320 
  237.2500    73.9520    23.1650    21.0540    22.3020    24.5710     2.3040   -16.8000 
  237.3750    72.5490    23.0410    20.9750    22.3520    24.5780     2.3050   -16.7950 
