~V
VERS. 2.00: Ver 2.00
~W
STRT.M 110.0000:
STOP.M 277.0000:
STEP.M 0.1250:
NULL. -999.2500:
UWI. DF3015:
~C
DEPT.M :
DEN.GM/CC :
SP.MV :
AC.US/MT :
GR.API :
CALI.CM :
RXO.OHMM :
RI. :
RML.OHMM :
~A
# ...
  270.0000     2.2480    -3.6150   293.8680    80.5680    24.9140     8.5490     9.1740    10.6110 
  270.1250     2.2350    -3.6210   293.4770    80.5680    24.9140     9.0940     9.1860    10.6250 
  270.2500     2.2530    -3.6480   293.2840    80.5680    24.9140     9.0020     9.1930    10.6320 
  270.3750     2.2940    -3.6100   292.9270    80.5680    24.9140     8.5940     9.1970    10.6370 
  270.5000     2.3410    -3.5010   292.4030    80.5680    24.9140     8.2240     9.1990    10.6390 
  270.6250     2.3860    -3.4020   291.6890    80.5680    24.9140     8.0110     9.1980    10.6380 
  270.7500     2.4250    -3.3290   290.5230    80.5680    24.9140     7.8940     9.1950    10.6340 
  270.8750     2.4540    -3.3180   288.6490    80.5680    24.9140     8.0360     9.1930    10.6320 
  271.0000     2.4720    -3.3260   286.2370    80.5680    24.9140     8.6190     9.1920    10.6310 
  271.1250     2.4860    -3.3110   284.0250    80.5680    24.9140     9.6930     9.1920    10.6310 
  271.2500     2.5000    -3.2660   282.6820    80.5680    24.9140    10.8160     9.1920    10.6310 
  271.3750     2.5100    -3.2610   282.3030    80.5680    24.9140    11.0980     9.1920    10.6310 
  271.5000     2.5030    -3.2990   282.4860    80.5680    24.9140    10.3410     9.1920    10.6310 
  271.6250     2.4910    -3.3500   282.9970    80.5680    24.9140     9.4680     9.1920    10.6310 
  271.7500     2.4870    -3.3800   284.2770    80.5680    24.9140     9.3540     9.1920    10.6310 
  271.8750     2.4880    -3.3550   286.9970    80.5680    24.9140     9.5210     9.1920    10.6310 
  272.0000     2.4770    -3.2320   291.0480    80.5680    24.9140     9.6210     9.1920    10.6310 
  272.1250     2.4640    -3.0740   294.3740    80.5680    24.9140     9.4150     9.1920    10.6310 
  272.2500     2.4640    -2.9670   294.1520    80.5680    24.9140     9.3860     9.1920    10.6310 
  272.3750     2.4780    -2.8500   288.7020    80.5680    24.9130    10.1700     9.1920    10.6310 
  272.5000     2.4880    -2.7150   278.4460    80.5680    24.8840    12.7610     9.1920    10.6310 
  272.6250     2.4830    -2.6080   265.8910    80.5680    24.7700    16.7570     9.1920    10.6310 
  272.7500     2.4690    -2.4810   254.4710    80.5680    24.5920    20.6620     9.1920    10.6310 
  272.8750     2.4610    -2.4080   245.6000    80.5680    24.4760    23.4650     9.1920    10.6310 
  273.0000     2.4670    -2.4340   239.3150    80.5680    24.4360    25.6220     9.1920    10.6310 
  273.1250     2.4720    -2.4770   235.2850    80.5680    24.4300    26.7710     9.1920    10.6310 
  273.2500     2.4590    -2.4870   232.8420    80.5680    24.4020    25.8090     9.1920    10.6310 
  273.3750     2.4070    -2.4970   231.9230    80.5680    24.3040    24.1910     9.1920    10.6310 
  273.5000     2.2810    -2.5210   232.2440    80.5680    24.0850    24.6760     9.1920    10.6310 
  273.6250     2.1060    -2.5330   233.1380    80.5680    23.7410    26.5700     9.1920    10.6310 
  273.7500     1.9400    -2.6010   233.8270    80.5680    23.3020    25.8760     9.1920    10.6310 
  273.8750     1.8490    -2.6350   234.1530    80.5680    22.6730    21.5470     9.1920    10.6310 
  274.0000     1.8650    -2.6350   234.0700    80.5680    21.7360    16.5080     9.1920    10.6310 
  274.1250     1.9240  -999.2500   233.0360    80.5680    20.2010    12.4950     9.1920    10.6310 
  274.2500     1.9850  -999.2500   231.2510    80.5680    19.4640    10.9690     9.1920    10.6310 
  274.3750     2.0250  -999.2500   229.4730    80.5680    18.6410     9.8020     9.1920    10.6310 
  274.5000     2.0410  -999.2500   228.6840    80.5680    17.6280     9.1480     9.1920    10.6310 
  274.6250     2.0420  -999.2500   229.6580    80.5680    16.5840     8.9520     9.1920    10.6310 
  274.7500     2.0360  -999.2500   231.6020    80.5680    15.6990     8.9520     9.1920    10.6310 
  274.8750     2.0300  -999.2500   234.0920    80.5680    15.3060     9.0110     9.1920    10.6310 
  275.0000     2.0280  -999.2500   234.6350    80.5680    15.2040     9.0360     9.1920    10.6310 
  275.1250     2.0320  -999.2500  -999.2500    80.5680    15.1980     9.0400     9.1920    10.6310 
  275.2500     2.0350  -999.2500  -999.2500    80.5680    15.1960     9.0360     9.1920    10.6310 
  275.3750     2.0340  -999.2500  -999.2500    80.5680    15.1910     9.0290     9.1920    10.6310 
  275.5000     2.0280  -999.2500  -999.2500    80.5680    15.1850     9.0250     9.1920    10.6310 
  275.6250     2.0230  -999.2500  -999.2500  -999.2500    15.1810     9.0230     9.1920    10.6310 
  275.7500     2.0220  -999.2500  -999.2500  -999.2500    15.1800     9.0260     9.1920    11.3490 
  275.8750     2.0220  -999.2500  -999.2500  -999.2500  -999.2500  -999.2500  -999.2500  -999.2500 
  276.0000     2.0300  -999.2500  -999.2500  -999.2500  -999.2500  -999.2500  -999.2500  -999.2500 
  276.1250     2.0450  -999.2500  -999.2500  -999.2500  -999.2500  -999.2500  -999.2500  -999.2500 
  276.2500     2.0570  -999.2500  -999.2500  -999.2500  -999.2500  -999.2500  -999.2500  -999.2500 
  276.3750     2.0510  -999.2500  -999.2500  -999.2500  -999.2500  -999.2500  -999.2500  -999.2500 
  276.5000     2.0430  -999.2500  -999.2500  -999.2500  -999.2500  -999.2500  -999.2500  -999.2500 
  276.6250     2.0720  -999.2500  -999.2500  -999.2500  -999.2500  -999.2500  -999.2500  -999.2500 
  276.7500     2.1370  -999.2500  -999.2500  -999.2500  -999.2500  -999.2500  -999.2500  -999.2500 
  276.8750     2.2000  -999.2500  -999.2500  -999.2500  -999.2500  -999.2500  -999.2500  -999.2500 
  277.0000     2.2260  -999.2500  -999.2500  -999.2500  -999.2500  -999.2500  -999.2500  -999.2500 
