~V
VERS. 2.00: Ver 2.00
~W
STRT.M 57.0000:
STOP.M 290.0000:
STEP.M 0.1250:
NULL. -999.2500:
UWI. DF3043:
~C
DEPT.M :
SP.MV :
DEN.GM/CC :
AC.US/MT :
GR.API :
CALI.CM :
RXO.OHMM :
RI. :
RML.OHMM :
~A
# ...
  147.0000   -14.0750     2.2440   418.7230    90.1600    23.4940     5.5670     5.4180     5.6220 
  147.1250   -13.9110     2.2370   419.1890    92.7670    23.8800     5.1740     5.2240     5.2300 
  147.2500   -13.7700     2.2490   422.3860    97.5920    24.1550     4.4360     4.9190     4.7410 
  147.3750   -13.6440     2.2660   428.2480   103.0280    24.2540     3.9190     4.5760     4.2780 
  147.5000   -13.5360     2.2800   434.9110   105.3750    24.2540     3.7850     4.2620     3.9370 
  147.6250   -13.4300     2.2940   439.4190   104.5380    24.2490     3.9170     4.0320     3.7840 
  147.7500   -13.3340     2.3160   441.0260   105.2920    24.2540     3.8690     3.8880     3.7570 
  147.8750   -13.2710     2.3420   440.8670   109.0830    24.2580     3.7500     3.8090     3.7790 
  148.0000   -13.2450     2.3630   440.4360   111.9130    24.2710     3.7430     3.7550     3.7660 
  148.1250   -13.2720     2.3700   440.3490   109.6500    24.2930     3.9130     3.6640     3.6420 
  148.2500   -13.3300     2.3650   441.8390   106.0510    24.3060     4.0630     3.5210     3.4390 
  148.3750   -13.4090     2.3530   447.1950   104.9240    24.3510     3.9680     3.3570     3.2390 
  148.5000   -13.5060     2.3380   457.2540   106.6830    24.4660     3.7000     3.2370     3.1520 
  148.6250   -13.5980     2.3240   466.7060   109.2350    24.5250     3.5350     3.2520     3.3090 
  148.7500   -13.6770     2.3140   466.2410   111.0860    24.4030     3.6340     3.4280     3.7200 
  148.8750   -13.7590     2.3080   452.2040   110.8770    24.1720     4.3510     3.7810     4.3710 
  149.0000   -13.8540     2.3000   428.9710   106.6460    23.9120     5.2740     4.2860     5.1930 
  149.1250   -13.9740     2.2860   410.3290    98.6780    23.5930     6.0040     4.8700     6.0320 
  149.2500   -14.1020     2.2650   404.1640    91.7460    23.2130     6.2600     5.3870     6.6960 
  149.3750   -14.2180     2.2400   406.7370    88.9960    22.8570     6.6060     5.7250     7.0550 
  149.5000   -14.3050     2.2150   410.3040    91.2420    22.5910     6.8710     5.8220     7.0680 
  149.6250   -14.3290     2.2010   411.4840    94.8820    22.4700     6.7780     5.6710     6.7730 
  149.7500   -14.2790     2.2030   411.1260    94.8780    22.4720     6.3590     5.4030     6.3670 
  149.8750   -14.1540     2.2200   410.3550    92.7760    22.5620     5.9300     5.1120     5.9740 
  150.0000   -13.9540     2.2440   411.3650    93.5660    22.7770     5.7300     4.8830     5.7110 
  150.1250   -13.7140     2.2570   413.8560    96.4300    23.1810     6.0180     4.8440     5.7740 
  150.2500   -13.4950     2.2530   415.4760    96.8380    23.5680     6.6490     5.0740     6.2690 
  150.3750   -13.3260     2.2430   413.8950    94.0180    23.7630     7.3300     5.6680     7.3280 
  150.5000   -13.2130     2.2550   405.6040    89.1440    23.7590     8.1400     6.7130     9.0540 
  150.6250   -13.1310     2.3140   380.8620    84.6340    23.7240    11.0300     8.3060    11.5140 
  150.7500   -13.0400     2.4010   340.3810    81.9960    23.8400    14.8870    10.1280    14.1320 
  150.8750   -12.9340     2.4790   297.2440    80.5040    24.0800    16.7200    11.6130    15.9550 
  151.0000   -12.8300     2.5130   269.1330    78.2020    24.2290    16.2180    12.1120    16.0130 
  151.1250   -12.7890     2.4780   274.3200    77.6550    24.0890    13.7830    11.2750    14.1120 
  151.2500   -12.8280     2.4060   306.7150    80.1930    23.7820    10.7260     9.8490    11.7080 
  151.3750   -12.9170     2.3250   353.1940    81.5770    23.3920     8.1800     8.4250     9.6970 
  151.5000   -13.0210     2.2570   395.6220    80.2160    22.9720     7.1270     7.3320     8.4100 
  151.6250   -13.1000     2.2200   416.9300    80.5120    22.6510     6.8900     6.7130     7.8810 
  151.7500   -13.1290     2.2100   421.9150    84.8590    22.4270     6.7140     6.4360     7.7830 
  151.8750   -13.0860     2.2160   420.1480    89.7570    22.2150     6.6110     6.3930     7.8920 
  152.0000   -12.9400     2.2220   418.5590    91.1910    22.0570     6.5920     6.4510     7.9870 
  152.1250   -12.6820     2.2220   418.7250    91.3700    22.1340     6.5060     6.4500     7.8530 
  152.2500   -12.3620     2.2270   419.1530    92.3500    22.3770     6.2920     6.3210     7.4890 
  152.3750   -12.0140     2.2450   418.4130    95.0750    22.6880     6.0380     6.0780     6.9760 
  152.5000   -11.6630     2.2730   416.3300    97.9340    23.1050     5.5580     5.7750     6.4310 
  152.6250   -11.2930     2.2980   415.2310    99.0290    23.6490     5.1730     5.4850     5.9810 
  152.7500   -10.9150     2.3080   416.8070    98.4360    24.1280     4.9260     5.2570     5.6710 
  152.8750   -10.5600     2.3050   420.1050    96.4680    24.3870     4.9490     5.1060     5.5050 
  153.0000   -10.2610     2.2970   423.0150    95.1280    24.4440     4.9970     5.0350     5.4620 
  153.1250   -10.0650     2.2920   424.0510    95.6130    24.4320     5.0110     5.0550     5.5460 
  153.2500    -9.9430     2.2920   423.6480    99.2300    24.4230     5.0320     5.1490     5.7300 
  153.3750    -9.8800     2.2940   422.1620   104.4840    24.4220     5.1460     5.3030     5.9810 
  153.5000    -9.8720     2.2930   419.0620   104.7300    24.4390     5.3960     5.4720     6.2200 
  153.6250    -9.9090     2.2800   413.9690    96.5440    24.4110     5.7960     5.5620     6.2990 
  153.7500    -9.9700     2.2630   409.5940    87.8610    24.2170     6.2000     5.5260     6.1740 
  153.8750   -10.0250     2.2510   409.8590    85.3050    23.9100     6.2610     5.3960     5.9410 
  154.0000   -10.0530     2.2520   417.1710    87.4320    23.7260     6.0400     5.2960     5.8360 
  154.1250   -10.0450     2.2700   424.3890    89.1730    23.8230     5.8690     5.4760     6.2840 
  154.2500    -9.9870     2.3090   415.4880    89.4930    23.9850     7.3310     6.1250     7.5090 
  154.3750    -9.8770     2.3700   382.3660    87.3060    24.0350    11.2450     7.4100     9.6470 
  154.5000    -9.7270     2.4460   331.4340    80.8580    23.9630    15.6430     9.3420    12.5460 
  154.6250    -9.5520     2.5100   281.8480    71.6200    23.8780    20.5940    11.3770    15.0720 
  154.7500    -9.3920     2.5420   249.9060    63.7820    23.9090    24.0810    12.3360    15.4930 
  154.8750    -9.2740     2.5330   244.9980    60.8810    24.0670    21.4740    11.7030    13.5480 
  155.0000    -9.2040     2.4840   271.2950    64.2940    24.2450    13.1710    10.1760    10.8610 
  155.1250    -9.1730     2.4080   323.0840    70.4870    24.3110     7.8010     8.9500     9.2780 
  155.2500    -9.1410     2.3410   369.3190    74.1580    24.2570     6.4050     8.5130     9.0580 
  155.3750    -9.1020     2.3140   385.9200    74.7270    24.0670     7.6020     8.8820     9.9670 
  155.5000    -9.0640     2.3440   365.7160    73.8560    23.6660    10.7640     9.8320    11.4820 
  155.6250    -9.0260     2.4210   321.6410    70.8690    23.1590    15.1550    10.6960    12.4230 
  155.7500    -8.9950     2.4950   288.7090    67.4630    22.9190    15.7690    10.6580    11.8240 
  155.8750    -8.9650     2.5230   289.8510    68.2140    23.0880    11.4910     9.5860     9.9010 
  156.0000    -8.9210     2.4880   327.6000    74.6810    23.4460     6.7320     8.0550     7.7270 
  156.1250    -8.8820     2.4080   376.0590    82.0240    23.6220     5.4720     6.8060     6.2910 
  156.2500    -8.8620     2.3300   404.0040    84.7780    23.6170     5.6760     6.0990     5.6820 
  156.3750    -8.8660     2.2850   410.9170    84.7640    23.5780     5.7380     5.9610     5.7820 
  156.5000    -8.8830     2.2830   407.6030    85.7290    23.5680     5.9360     6.3200     6.3900 
  156.6250    -8.8830     2.3210   393.5890    87.1760    23.5300     8.1710     7.0340     7.2150 
  156.7500    -8.8750     2.3720   364.2510    85.5310    23.4110    12.0510     7.7420     7.8750 
  156.8750    -8.8620     2.4160   331.3270    80.5170    23.2800    12.4960     8.2340     8.2380 
