~V
VERS. 2.00: Ver 2.00
~W
STRT.M 58.0000:
STOP.M 259.0000:
STEP.M 0.1250:
NULL. -999.2500:
UWI. DF3010:
~C
DEPT.M :
GR.API :
RML.OHMM :
RI. :
RXO.OHMM :
CALI.CM :
DEN.GM/CC :
SP.MV :
~A
# ...
  181.7500    66.6450   101.3580    94.0430    82.3970    24.4080     2.2760   -29.0040 
  181.8750    66.1780    92.3910    86.5130    60.7240    24.2870     2.2820   -29.0100 
  182.0000    64.2090    84.0080    78.9570    57.9200    24.3030     2.2890   -29.0220 
  182.1250    65.3130    78.1730    73.2180    57.8150    24.4000     2.2950   -29.0440 
  182.2500    69.2950    75.2860    69.9420    60.1260    24.4160     2.2980   -29.0310 
  182.3750    73.0950    75.5490    69.4650    62.6160    24.3790     2.2980   -29.1060 
  182.5000    74.6510    78.8630    71.8030    63.9920    24.3990     2.2970   -29.2660 
  182.6250    75.0650    85.0920    76.9610    65.7850    24.5070     2.2960   -29.3010 
  182.7500    74.9990    92.7570    83.6780    75.6500    24.6310     2.2930   -29.4250 
  182.8750    73.4250   100.5410    90.8280    97.8980    24.6950     2.2880   -29.6260 
  183.0000    71.2770   107.0830    97.1650   117.6880    24.6800     2.2800   -29.7360 
  183.1250    72.2860   111.0560   101.3610   114.1850    24.5920     2.2730   -30.0480 
  183.2500    72.8860   112.9920   103.6170    98.5950    24.3610     2.2660   -30.3830 
  183.3750    70.6240   114.0160   104.7530    87.3160    24.0890     2.2620   -30.6230 
  183.5000    68.9010   115.6510   106.0670    83.2650    23.9110     2.2590   -30.9510 
  183.6250    70.5340   119.5570   109.0900    87.5510    23.8390     2.2560   -31.2930 
  183.7500    70.7720   125.6600   113.9750    92.7500    23.8110     2.2540   -31.5800 
  183.8750    67.3370   133.0040   120.0330    99.1520    23.8150     2.2520   -31.8340 
  184.0000    63.3620   139.7240   125.7490   107.9320    23.8320     2.2490   -32.1230 
  184.1250    64.0870   142.7100   128.5170   112.9240    23.9120     2.2470   -32.3230 
  184.2500    67.4550   140.7600   127.1800   118.9940    24.1230     2.2440   -32.4680 
  184.3750    70.5250   134.2560   121.8770   129.0870    24.4460     2.2410   -32.6310 
  184.5000    71.7930   125.4840   114.3440   131.3550    24.7460     2.2400   -32.6660 
  184.6250    71.9740   118.2970   107.7390   110.0560    24.8860     2.2430   -32.7930 
  184.7500    72.4050   115.2340   104.4930    88.7590    24.9080     2.2500   -32.9250 
  184.8750    73.3550   117.1370   105.6260    84.9060    24.8960     2.2580   -33.0310 
  185.0000    74.8680   123.5470   110.9750   100.9640    24.8890     2.2630   -33.2090 
  185.1250    74.9180   133.3100   119.7100   121.1500    24.8960     2.2610   -33.3240 
  185.2500    72.9230   143.8130   129.4310   135.7560    24.9230     2.2520   -33.4380 
  185.3750    70.3230   153.3160   138.4710   140.0070    24.9710     2.2400   -33.5890 
  185.5000    68.6530   160.6840   145.6490   141.8390    25.0110     2.2280   -33.8440 
  185.6250    67.7330   165.2060   150.1490   142.3900    24.9840     2.2210   -33.9400 
  185.7500    66.4340   167.6120   152.5770   143.8460    24.9370     2.2180   -34.0030 
  185.8750    64.4640   168.2140   153.2430   146.5230    24.9610     2.2180   -34.1930 
  186.0000    62.6720   167.1630   152.3520   145.6910    25.0680     2.2190   -34.2470 
  186.1250    62.7190   164.5040   149.9950   138.5850    25.1420     2.2230   -34.3380 
  186.2500    64.0690   161.1970   147.0460   130.8890    25.1580     2.2270   -34.4970 
  186.3750    65.5790   158.3060   144.4500   128.0650    25.1240     2.2340   -34.5050 
  186.5000    65.9130   156.9560   143.2420   130.1080    25.0530     2.2420   -34.5210 
  186.6250    65.5130   158.3170   144.5810   128.0430    24.9650     2.2510   -34.5950 
  186.7500    65.3490   161.8740   148.1030   130.7480    24.8720     2.2560   -34.6650 
  186.8750    65.4250   166.7180   153.0590   145.0090    24.7690     2.2570   -34.6300 
  187.0000    65.8670   171.5800   158.3000   165.8110    24.6760     2.2540   -34.6070 
  187.1250    67.5650   175.0960   162.5060   171.4460    24.6250     2.2480   -34.6420 
  187.2500    68.6590   177.1500   165.3810   172.5880    24.5640     2.2460   -34.6130 
  187.3750    67.9380   178.2510   167.2720   171.8560    24.4480     2.2480   -34.6250 
  187.5000    65.8790   179.0990   168.8000   166.1120    24.3680     2.2530   -34.6190 
  187.6250    63.8080   179.8200   170.1990   166.6790    24.6060     2.2530   -34.5850 
  187.7500    62.6560   179.5740   170.8370   170.4860    24.9330     2.2470   -34.5980 
  187.8750    62.9080   177.1770   169.6400   177.9940    25.1200     2.2370   -34.5870 
  188.0000    64.6210   171.8620   165.7700   184.6810    25.1280     2.2280   -34.5700 
  188.1250    66.7440   163.5220   158.8640   184.8790    24.9390     2.2260   -34.5090 
  188.2500    66.6690   153.9870   150.4850   166.1870    24.6080     2.2310   -34.4480 
  188.3750    63.8620   144.7650   142.0410   142.0820    24.3470     2.2390   -34.4560 
  188.5000    60.6870   137.0400   134.7560   131.1740    24.3670     2.2460   -34.4360 
  188.6250    60.6590   131.9070   129.7950   126.4660    24.6670     2.2460   -34.4070 
  188.7500    64.3030   129.3100   127.2160   120.3620    24.8290     2.2410   -34.3810 
  188.8750    67.4920   129.4210   127.2140   115.2620    24.6680     2.2350   -34.4650 
  189.0000    68.8540   132.3740   129.9270   116.1300    24.3170     2.2310   -34.5090 
  189.1250    67.9520   138.5480   135.7310   123.6540    24.1460     2.2300   -34.4990 
  189.2500    65.7760   146.9260   143.6690   130.7920    24.0730     2.2310   -34.6400 
  189.3750    64.9670   156.4850   152.7790   142.6700    23.9890     2.2300   -34.6820 
  189.5000    66.0080   165.8560   161.7340   160.7390    23.9120     2.2250   -34.6740 
  189.6250    66.2050   173.2750   168.7800   180.1580    24.0440     2.2170   -34.7810 
  189.7500    63.2780   178.2250   173.3470   181.2760    24.4300     2.2070   -34.7780 
  189.8750    60.9100   180.8570   175.5290   175.7960    24.8900     2.2000   -34.7750 
  190.0000    63.1830   181.9330   176.0600   172.3890    25.1570     2.1960   -34.7720 
  190.1250    66.4340   182.5260   176.0310   182.5400    25.2180     2.1950   -34.8200 
  190.2500    67.8890   183.5300   176.4120   187.5050    25.2250     2.1970   -34.7990 
  190.3750    67.2110   185.0080   177.3120   183.7570    25.2330     2.1990   -34.7690 
  190.5000    64.8530   186.3900   178.1950   171.3710    25.2390     2.2020   -34.7660 
  190.6250    61.4260   186.3600   177.8080   164.6670    25.2410     2.2050   -34.6430 
  190.7500    58.9760   184.1810   175.4290   161.6170    25.2400     2.2080   -34.6340 
  190.8750    58.9000   179.8180   171.0020   158.1420    25.2320     2.2110   -34.5150 
  191.0000    60.8350   174.2550   165.4060   152.2290    25.2100     2.2170   -34.3990 
  191.1250    63.7290   169.6230   160.5700   145.7160    25.1630     2.2230   -34.2930 
  191.2500    65.6080   167.6270   158.1370   142.5640    25.1110     2.2290   -34.0760 
  191.3750    65.7810   168.9440   158.8400   143.5950    25.0740     2.2300   -33.9230 
  191.5000    65.5880   173.1840   162.4190   153.0450    25.0630     2.2250   -33.7650 
  191.6250    65.7680   179.1310   167.7960   175.6620    25.0680     2.2140   -33.5800 
  191.7500    65.9410   184.7630   172.9720   196.8430    25.0830     2.2010   -33.3980 
  191.8750    66.2250   188.7610   176.6100   201.7180    25.1080     2.1920   -33.2720 
  192.0000    66.6800   190.1300   177.7340   198.1660    25.1330     2.1880   -33.1730 
  192.1250    66.8810   187.3050   174.9410   183.2570    25.1460     2.1910   -33.1040 
  192.2500    67.0660   180.0650   168.1460   171.9480    25.1360     2.1960   -33.1210 
  192.3750    66.3370   168.3550   157.3230   165.8650    25.0980     2.2000   -33.1010 
  192.5000    64.5940   153.2940   143.3930   159.8860    25.0660     2.2020   -33.1600 
  192.6250    63.2600   137.5290   128.5450   140.9720    25.0560     2.2050   -33.2700 
  192.7500    63.8170   124.4720   115.8330   115.6110    25.0550     2.2120   -33.3710 
  192.8750    65.6920   116.5380   107.5130    94.7220    25.0550     2.2230   -33.4620 
