~V
VERS. 2.00: Ver 2.00
~W
STRT.M 56.0000:
STOP.M 260.0000:
STEP.M 0.1250:
NULL. -999.2500:
UWI. DF3033:
~C
DEPT.M :
GR.API :
RML.OHMM :
RI. :
RXO.OHMM :
CALI.CM :
DEN.GM/CC :
SP.MV :
~A
# ...
   67.2500    94.7790     5.9070     7.1860     7.8610    24.2810  -999.2500   -19.0580 
   67.3750    88.1560     6.7050     8.0020     8.9240    24.2990  -999.2500   -20.4680 
   67.5000    83.0900     7.2630     8.5410     9.2990    24.3460  -999.2500   -21.6670 
   67.6250    81.2570     7.4350     8.6970     9.0960    24.4160  -999.2500   -22.5830 
   67.7500    84.1640     7.3460     8.5960     8.6770    24.5110  -999.2500   -23.2630 
   67.8750    90.2070     7.1600     8.3840     8.0960    24.5890  -999.2500   -23.9070 
   68.0000    95.0280     7.0410     8.2210     7.5470    24.6350  -999.2500   -24.5300 
   68.1250    96.2380     7.1410     8.2730     7.7020    24.6570  -999.2500   -25.1050 
   68.2500    95.7400     7.4740     8.5810     8.1770    24.6790  -999.2500   -25.7660 
   68.3750    93.4850     8.0250     9.1350     8.8070    24.6450  -999.2500   -26.4400 
   68.5000    88.2640     8.7250     9.8640     9.7950    24.5080  -999.2500   -27.1060 
   68.6250    82.9770     9.4330    10.6190    11.6390    24.2000  -999.2500   -27.7360 
   68.7500    79.3250     9.9810    11.2270    14.5560    23.9870  -999.2500   -28.3140 
   68.8750    75.6220    10.2650    11.5710    16.5790    23.8740  -999.2500   -28.6910 
   69.0000    71.6570    10.2570    11.6040    14.6550    23.8360  -999.2500   -28.8880 
   69.1250    70.9420     9.9850    11.3020    11.6310    23.8340  -999.2500   -28.9120 
   69.2500    73.8170     9.5770    10.7810    10.2390    23.8790  -999.2500   -28.6860 
   69.3750    80.5390     9.0760    10.1010     9.8240    23.9890  -999.2500   -28.3690 
   69.5000    90.0080     8.4850     9.3070     9.4210    24.1050  -999.2500   -27.8750 
   69.6250    97.6790     7.7990     8.4470     8.6610    24.1560  -999.2500   -27.2980 
   69.7500   101.4230     7.1240     7.6410     7.7110    24.1700  -999.2500   -26.7850 
   69.8750   103.7630     6.6730     7.0960     7.2310    24.2190  -999.2500   -26.2770 
   70.0000   107.4930     6.7780     7.1360     7.3610    24.3550  -999.2500   -25.9520 
   70.1250   109.3360     7.9930     8.3400     7.8390    24.5500  -999.2500   -25.8530 
   70.2500   106.8750    10.3590    10.7480     9.9300    24.6330  -999.2500   -25.9800 
   70.3750    98.4950    13.5870    14.1010    14.9370    24.5810  -999.2500   -26.3900 
   70.5000    84.9660    16.8280    17.6170    23.3240    24.4020  -999.2500   -27.0450 
   70.6250    74.6390    18.5390    19.7650    36.2130    24.0970  -999.2500   -27.9080 
   70.7500    72.8420    17.8010    19.6850    45.7630    23.7250  -999.2500   -28.9060 
   70.8750    74.9900    14.9760    17.5500    33.6720    23.3790  -999.2500   -30.0600 
   71.0000    75.6510    11.5350    14.5650    18.3360    23.1330  -999.2500   -31.1340 
   71.1250    73.8520     8.9770    12.1460    11.7800    23.0550  -999.2500   -32.1030 
   71.2500    72.0630     8.1600    10.6680    10.0850    23.0370  -999.2500   -32.9990 
   71.3750    70.4250     7.9670    10.0010     9.8070    23.0370  -999.2500   -33.6930 
   71.5000    70.0350     8.1470     9.8790     9.8990    23.0370  -999.2500   -34.2830 
   71.6250    71.4010     8.4560    10.0400     9.9730    23.0380  -999.2500   -34.7000 
   71.7500    72.9030     8.6900    10.2140     9.9340    23.0450  -999.2500   -34.9700 
   71.8750    74.2390     8.7960    10.2980     9.9030    23.0630  -999.2500   -35.1300 
   72.0000    75.5200     8.8040    10.2810     9.8700    23.0820  -999.2500   -35.3090 
   72.1250    75.3480     8.7830    10.1980     9.9320    23.1030  -999.2500   -35.4960 
   72.2500    72.9720     8.7860    10.1040     9.9990    23.1140  -999.2500   -35.6260 
   72.3750    69.9880     8.8110    10.0110    10.1050    23.1290  -999.2500   -35.7830 
   72.5000    67.7160     8.8340     9.9060    10.2670    23.1910  -999.2500   -35.8700 
   72.6250    65.2990     8.8220     9.7750    10.4620    23.3800  -999.2500   -36.0440 
   72.7500    63.8120     8.7940     9.6350    10.5620    23.6360  -999.2500   -36.2210 
   72.8750    65.1340     8.7940     9.5270    10.5340    23.8120  -999.2500   -36.3430 
   73.0000    67.8040     8.8790     9.5030    10.5980    23.8560  -999.2500   -36.5050 
   73.1250    68.5080     9.0950     9.6120    10.6110    23.8130  -999.2500   -36.4700 
   73.2500    69.0010     9.3850     9.8060    10.5770    23.8080  -999.2500   -36.4380 
   73.3750    71.7820     9.6710    10.0140    10.4930    23.8780  -999.2500   -36.3650 
   73.5000    76.0050     9.8710    10.1560    10.4940    23.9190  -999.2500   -36.2120 
   73.6250    79.3180     9.9130    10.1430    10.4230    23.7980  -999.2500   -36.1190 
   73.7500    80.4920     9.8400     9.9980    10.2700    23.5300  -999.2500   -36.0170 
   73.8750    81.9110     9.7170     9.7720    10.1010    23.2730  -999.2500   -35.8960 
   74.0000    82.8760     9.6110     9.5340    10.0560    23.1100  -999.2500   -35.8030 
   74.1250    79.1330     9.5720     9.3550    10.2070    23.1130  -999.2500   -35.8500 
   74.2500    72.4560     9.5910     9.2560    10.2970    23.2420  -999.2500   -35.9100 
   74.3750    68.6240     9.6440     9.2320    10.2810    23.4410  -999.2500   -36.0560 
   74.5000    70.0700     9.7080     9.2640    10.2430    23.6000  -999.2500   -36.2490 
   74.6250    71.8920     9.7680     9.3330    10.2110    23.6470  -999.2500   -36.3190 
   74.7500    70.6380     9.8290     9.4200    10.4060    23.6280  -999.2500   -36.4130 
   74.8750    67.1630     9.8960     9.5130    10.5740    23.5630  -999.2500   -36.5360 
   75.0000    63.1050     9.9710     9.6060    10.6210    23.4720  -999.2500   -36.6090 
   75.1250    63.8190    10.0440     9.6910    10.6300    23.3580  -999.2500   -36.6030 
   75.2500    67.6360    10.1000     9.7580    10.6230    23.2900  -999.2500   -36.6390 
   75.3750    69.2970    10.1250     9.8000    10.6050    23.2740  -999.2500   -36.6160 
   75.5000    67.0740    10.1080     9.8060    10.5170    23.2800  -999.2500   -36.5900 
   75.6250    65.5860    10.0430     9.7640    10.4280    23.2760  -999.2500   -36.6560 
   75.7500    67.4830     9.9520     9.6810    10.4240    23.2330  -999.2500   -36.5840 
   75.8750    70.2140     9.8620     9.5760    10.4830    23.1150  -999.2500   -36.4940 
   76.0000    72.5110     9.8160     9.4830    10.4470    22.9460  -999.2500   -36.3520 
   76.1250    74.2930     9.8950     9.4740    10.4100    22.8620  -999.2500   -36.1370 
   76.2500    74.2770    10.1380     9.5910    10.4700    22.8900  -999.2500   -35.9470 
   76.3750    72.2750    10.5570     9.8520    10.6960    22.9410  -999.2500   -35.6600 
   76.5000    69.8900    11.1050    10.2280    11.2370    22.9930  -999.2500   -35.3700 
   76.6250    69.6350    11.6450    10.6340    12.2740    23.0620  -999.2500   -35.0970 
   76.7500    70.9250    12.0160    10.9490    13.7200    23.0760  -999.2500   -34.8720 
   76.8750    72.8650    12.1230    11.0910    14.6780    23.0240  -999.2500   -34.7620 
   77.0000    74.8140    11.9630    11.0410    13.5770    22.9840  -999.2500   -34.7350 
   77.1250    74.8710    11.6150    10.8310    11.5540    22.9870  -999.2500   -34.7400 
   77.2500    73.3000    11.2550    10.5850    10.5690    22.9850  -999.2500   -34.7170 
   77.3750    72.2710    10.9740    10.3780    10.3610    22.9120  -999.2500   -34.7350 
   77.5000    72.6880    10.8050    10.2460    10.4360    22.8270  -999.2500   -34.6680 
   77.6250    73.6830    10.7370    10.1880    10.5340    22.8540  -999.2500   -34.5610 
   77.7500    73.7500    10.7010    10.1570    10.5510    22.9830  -999.2500   -34.4730 
   77.8750    72.4240    10.6580    10.1260    10.5230    23.1290  -999.2500   -34.2420 
   78.0000    70.1770    10.5890    10.0840    10.4390    23.2330  -999.2500   -33.9480 
   78.1250    69.8580    10.5020    10.0470    10.3390    23.3120  -999.2500   -33.6350 
   78.2500    72.1640    10.4320    10.0360    10.2150    23.3540  -999.2500   -33.3220 
   78.3750    73.9080    10.4130    10.0710    10.1560    23.3680  -999.2500   -33.0090 
