~V
VERS. 2.00: Ver 2.00
~W
STRT.M 64.0000:
STOP.M 259.0000:
STEP.M 0.1250:
NULL. -999.2500:
UWI. DF3067:
~C
DEPT.M :
DEN.GM/CC :
GR.API :
CALI.CM :
RXO.OHMM :
RI. :
RML.OHMM :
SP.MV :
~A
# ...
   97.7500  -999.2500    67.9180    22.7090    16.3080     8.0660    10.9850  -999.2500 
   97.8750  -999.2500    69.9280    22.7320    17.0400     7.9460    10.7350  -999.2500 
   98.0000  -999.2500    71.5010    22.6690    13.5840     7.6040    10.1550  -999.2500 
   98.1250  -999.2500    70.6550    22.6040     9.9410     7.1410     9.4470  -999.2500 
   98.2500  -999.2500    70.1160    22.5920     8.8100     6.7140     8.8540  -999.2500 
   98.3750  -999.2500    71.8940    22.6010     8.5160     6.4050     8.4720  -999.2500 
   98.5000  -999.2500    74.5400    22.5950     8.4840     6.2410     8.3020  -999.2500 
   98.6250  -999.2500    75.4290    22.5380     8.4630     6.2130     8.3080  -999.2500 
   98.7500  -999.2500    76.1990    22.4240     8.2410     6.2450     8.3910  -999.2500 
   98.8750  -999.2500    78.4090    22.2960     7.8630     6.2980     8.5040  -999.2500 
   99.0000  -999.2500    80.2040    22.2110     7.5630     6.3400     8.5870  -999.2500 
   99.1250  -999.2500    80.7310    22.2070     7.4860     6.2930     8.4880  -999.2500 
   99.2500  -999.2500    83.3360    22.2550     7.5210     6.0820     8.0920  -999.2500 
   99.3750  -999.2500    86.5690    22.3170     7.2390     5.6560     7.3740  -999.2500 
   99.5000  -999.2500    87.1120    22.3770     6.3720     5.0500     6.4660  -999.2500 
   99.6250  -999.2500    87.3780    22.4780     5.4710     4.4200     5.6680  -999.2500 
   99.7500  -999.2500    93.2470    22.6370     4.4900     3.9430     5.2020  -999.2500 
   99.8750  -999.2500   104.3370    22.7930     3.9430     3.7230     5.1600  -999.2500 
  100.0000  -999.2500   112.9010    22.8560     4.1140     3.8040     5.5290  -999.2500 
  100.1250  -999.2500   109.4360    22.7870     5.9120     4.2010     6.2180  -999.2500 
  100.2500  -999.2500    97.6240    22.6780     8.2350     4.7310     6.8970  -999.2500 
  100.3750  -999.2500    85.6920    22.5950     9.0770     5.1610     7.2330  -999.2500 
  100.5000  -999.2500    81.5430    22.6070     7.9900     5.2600     7.0070  -999.2500 
  100.6250  -999.2500    86.8820    22.7790     6.1020     4.9440     6.3140  -999.2500 
  100.7500  -999.2500    95.0030    23.0530     4.8040     4.5050     5.6420  -999.2500 
  100.8750  -999.2500   102.0980    23.3210     4.2750     4.1660     5.2720  -999.2500 
  101.0000  -999.2500   106.9250    23.4790     4.3300     4.0460     5.2860  -999.2500 
  101.1250  -999.2500   108.4450    23.5150     4.8670     4.1900     5.6520  -999.2500 
  101.2500  -999.2500   107.0530    23.5360     6.1760     4.4850     6.1460  -999.2500 
  101.3750  -999.2500   104.4410    23.5980     7.9660     4.8120     6.5800  -999.2500 
  101.5000  -999.2500   103.4830    23.6850     8.0370     5.0300     6.7870  -999.2500 
  101.6250  -999.2500   102.7870    23.7380     6.6730     5.0080     6.6430  -999.2500 
  101.7500  -999.2500   100.7720    23.7430     5.7040     4.8070     6.3020  -999.2500 
  101.8750  -999.2500    98.8340    23.7390     6.0390     4.5480     5.9560  -999.2500 
  102.0000  -999.2500   100.8450    23.7790     6.0670     4.3690     5.7920  -999.2500 
  102.1250  -999.2500   107.0400    23.9010     5.6360     4.4180     5.9890  -999.2500 
  102.2500  -999.2500   111.5670    24.0500     5.8180     4.7180     6.5260  -999.2500 
  102.3750  -999.2500   110.6510    24.1550     9.2970     5.2490     7.3260  -999.2500 
  102.5000  -999.2500   104.8000    24.1330    14.2660     5.9090     8.2040  -999.2500 
  102.6250  -999.2500    98.6550    23.9070    13.5300     6.4600     8.8030  -999.2500 
  102.7500  -999.2500    92.5910    23.5670     9.3180     6.7030     8.9160  -999.2500 
  102.8750  -999.2500    86.7980    23.2650     7.1130     6.5910     8.5560  -999.2500 
  103.0000  -999.2500    84.3890    23.1190     6.7700     6.2340     7.9430  -999.2500 
  103.1250  -999.2500    88.0700    23.0880     6.5950     5.8340     7.3810  -999.2500 
  103.2500  -999.2500    94.7840    23.0380     6.7200     5.5420     7.0220  -999.2500 
  103.3750  -999.2500   100.8700    22.9590     6.6800     5.3810     6.8670  -999.2500 
  103.5000  -999.2500   104.6350    22.9080     6.4260     5.3310     6.8690  -999.2500 
  103.6250  -999.2500   104.9230    22.9050     6.3100     5.3720     6.9770  -999.2500 
  103.7500  -999.2500   103.5410    22.9080     6.4580     5.4460     7.1000  -999.2500 
  103.8750  -999.2500   100.9360    22.9050     6.7610     5.5080     7.1780  -999.2500 
  104.0000  -999.2500    97.2710    22.9090     6.9130     5.5290     7.1730  -999.2500 
  104.1250  -999.2500    94.3900    22.9560     6.6970     5.4750     7.0500  -999.2500 
  104.2500  -999.2500    95.1950    23.0650     6.2240     5.3410     6.8340  -999.2500 
  104.3750  -999.2500    98.6220    23.2420     5.7970     5.1350     6.5640  -999.2500 
  104.5000  -999.2500   101.1940    23.4440     5.5360     4.8930     6.2950  -999.2500 
  104.6250  -999.2500   101.2160    23.6090     5.3950     4.6690     6.0980  -999.2500 
  104.7500  -999.2500   100.8690    23.7680     5.1650     4.4970     5.9920  -999.2500 
  104.8750  -999.2500   102.4830    23.9200     5.0070     4.3940     5.9830  -999.2500 
  105.0000  -999.2500   105.2190    23.9550     5.2730     4.3670     6.0630  -999.2500 
  105.1250  -999.2500   105.6590    23.7730     5.6450     4.4390     6.2440  -999.2500 
  105.2500  -999.2500   103.5240    23.5600     5.6270     4.5990     6.5000  -999.2500 
  105.3750  -999.2500   101.6690    23.4270     5.5160     4.8330     6.7960  -999.2500 
  105.5000  -999.2500   100.8380    23.3010     6.0410     5.0920     7.0640  -999.2500 
  105.6250  -999.2500    98.8780    23.2280     6.6170     5.2850     7.2030  -999.2500 
  105.7500  -999.2500    96.5810    23.3770     6.9010     5.3530     7.1850  -999.2500 
  105.8750  -999.2500    95.6930    23.6940     6.3090     5.2870     7.0320  -999.2500 
  106.0000  -999.2500    98.2070    23.9370     5.4050     5.1320     6.8290  -999.2500 
  106.1250  -999.2500   102.3520    23.9520     5.3780     4.9670     6.6820  -999.2500 
  106.2500  -999.2500   104.7770    23.8720     5.5310     4.8470     6.6180  -999.2500 
  106.3750  -999.2500   104.3120    23.7620     5.8780     4.7860     6.6140  -999.2500 
  106.5000  -999.2500   102.1790    23.6660     6.0490     4.7690     6.6200  -999.2500 
  106.6250  -999.2500   101.9260    23.7200     5.8660     4.7560     6.5800  -999.2500 
  106.7500  -999.2500   104.2550    23.9260     5.5120     4.7160     6.4880  -999.2500 
  106.8750  -999.2500   106.2130    24.1340     5.2160     4.6500     6.3720  -999.2500 
  107.0000  -999.2500   105.4890    24.1910     4.8730     4.5710     6.2640  -999.2500 
  107.1250  -999.2500   103.2870    24.1260     4.9340     4.4990     6.2010  -999.2500 
  107.2500  -999.2500   102.9210    24.1490     5.0670     4.4560     6.2000  -999.2500 
  107.3750  -999.2500   103.3190    24.2760     5.1550     4.4610     6.2830  -999.2500 
  107.5000  -999.2500   101.4670    24.3020     5.3260     4.5290     6.4530  -999.2500 
  107.6250  -999.2500    97.9470    23.9630     5.8440     4.6810     6.7140  -999.2500 
  107.7500  -999.2500    94.0730    23.4470     6.4230     4.9070     7.0310  -999.2500 
  107.8750  -999.2500    90.3430    23.0370     6.9130     5.2030     7.3940  -999.2500 
  108.0000  -999.2500    87.9760    22.8750     7.2750     5.5680     7.8260  -999.2500 
  108.1250  -999.2500    85.9880    22.8940     7.6010     6.0450     8.4160  -999.2500 
  108.2500  -999.2500    84.3000    22.9490     8.0140     6.6400     9.1750  -999.2500 
  108.3750  -999.2500    84.0210    23.0000     8.4460     7.3060    10.0120  -999.2500 
  108.5000  -999.2500    84.9190    23.0180     9.0380     7.8840    10.6660  -999.2500 
  108.6250  -999.2500    82.2600    22.9830    11.0990     8.0480    10.6470  -999.2500 
  108.7500  -999.2500    77.2690    22.9340    11.9620     7.6950     9.9040  -999.2500 
  108.8750  -999.2500    77.6600    22.9340    10.0420     6.9370     8.7110  -999.2500 
