~V
VERS. 2.00: Ver 2.00
~W
STRT.M 60.0000:
STOP.M 254.0000:
STEP.M 0.1250:
NULL. -999.2500:
UWI. DF3029:
~C
DEPT.M :
SP.MV :
GR.API :
RML.OHMM :
RI. :
RXO.OHMM :
CALI.CM :
DEN.GM/CC :
~A
# ...
  228.7500   -26.6810    69.6080    52.6340    49.5140    65.8360    24.8220     2.3120 
  228.8750   -26.1150    66.6670    51.7540    48.8030    54.9570    24.7880     2.3440 
  229.0000   -25.5070    65.9290    51.4920    48.5470    51.0890    24.8100     2.3770 
  229.1250   -24.9300    67.7040    51.6470    48.7280    56.6260    24.8220     2.4030 
  229.2500   -24.3800    68.5680    51.4260    48.7760    61.2100    24.7960     2.4180 
  229.3750   -23.8910    68.9010    50.3310    48.1460    63.3120    24.7690     2.4240 
  229.5000   -23.4440    69.3590    48.0380    46.4830    62.3350    24.7730     2.4230 
  229.6250   -23.0580    66.8360    45.0840    43.7000    58.4330    24.7590     2.4120 
  229.7500   -22.7050    63.1050    42.0170    40.4480    52.9480    24.7760     2.3950 
  229.8750   -22.4030    62.8290    39.5410    37.2550    47.1720    24.8280     2.3730 
  230.0000   -22.1250    66.3150    37.8740    34.5030    40.3920    24.8840     2.3490 
  230.1250   -21.9040    68.4950    35.5260    32.4580    35.7960    24.9080     2.3290 
  230.2500   -21.7070    69.8500    33.8490    30.9670    33.6500    24.8840     2.3150 
  230.3750   -21.4970    71.8540    32.6470    29.8900    33.0870    24.8340     2.3080 
  230.5000   -21.3010    72.7360    31.7290    29.0750    32.7150    24.7690     2.3060 
  230.6250   -21.0140    70.4180    30.9520    28.4030    32.1960    24.7430     2.3120 
  230.7500   -20.7670    67.5500    30.2230    27.7850    31.1510    24.7340     2.3220 
  230.8750   -20.4470    65.7760    29.5790    27.2410    29.8610    24.7340     2.3350 
  231.0000   -20.2030    65.7770    29.1080    26.8370    28.9160    24.7340     2.3470 
  231.1250   -19.9330    67.2940    28.9190    26.6690    29.1070    24.7350     2.3500 
  231.2500   -19.6470    69.1170    28.9480    26.6900    28.6810    24.7440     2.3440 
  231.3750   -19.3440    69.8930    29.0870    26.8180    27.8380    24.7740     2.3320 
  231.5000   -19.0370    69.4440    29.1870    26.9340    28.6340    24.8100     2.3190 
  231.6250   -18.7380    66.7990    29.0900    26.8980    30.6960    24.7960     2.3120 
  231.7500   -18.4360    63.2760    28.8120    26.7020    30.7180    24.7440     2.3110 
  231.8750   -18.2070    63.6080    28.4350    26.3970    29.9560    24.7050     2.3140 
  232.0000   -17.9810    68.8900    28.0790    26.0750    29.2210    24.7030     2.3180 
  232.1250   -17.7460    73.4970    27.9100    25.8810    28.7820    24.7520     2.3220 
  232.2500   -17.5110    74.3440    28.0080    25.9200    29.8740    24.7970     2.3250 
  232.3750   -17.2810    74.2450    28.4190    26.2710    31.9490    24.8480     2.3280 
  232.5000   -17.0780    76.7440    29.1560    26.9850    32.1200    24.9020     2.3280 
  232.6250   -16.8960    79.4820    30.2280    28.1040    30.3390    24.9720     2.3210 
  232.7500   -16.6960    78.1480    31.4370    29.4190    30.9650    25.0180     2.3090 
  232.8750   -16.4410    72.0550    32.4990    30.6380    32.6240    25.0600     2.2960 
  233.0000   -16.1500    66.8260    33.0080    31.3460    34.9850    25.0640     2.2870 
  233.1250   -15.8030    69.1030    32.3220    30.9000    35.1210    24.9870     2.2860 
  233.2500   -15.4480    72.0760    30.4080    29.2380    33.6640    24.8400     2.2970 
  233.3750   -15.0880    71.0130    27.5010    26.5650    30.9060    24.6970     2.3190 
  233.5000   -14.7340    68.9240    24.1420    23.3920    27.4150    24.5320     2.3500 
  233.6250   -14.4120    70.3140    21.0300    20.3770    22.8090    24.4070     2.3800 
  233.7500   -14.0960    72.3550    18.5490    17.9120    17.6410    24.3650     2.3970 
  233.8750   -13.8760    73.0930    16.8070    16.1160    14.4460    24.4090     2.3980 
  234.0000   -13.6410    74.8550    15.7680    14.9740    14.5390    24.4440     2.3870 
  234.1250   -13.5570    76.9220    15.4760    14.5410    15.0520    24.4210     2.3710 
  234.2500   -13.4920    76.7320    15.8360    14.7280    14.8830    24.3640     2.3550 
  234.3750   -13.4950    73.7380    16.9320    15.6100    15.0560    24.3120     2.3390 
  234.5000   -13.4460    70.0340    18.8620    17.2890    16.4200    24.2460     2.3350 
  234.6250   -13.4280    68.3790    21.7550    19.9270    18.8870    24.1040     2.3010 
  234.7500   -13.3730    68.0540    25.1790    23.1630    22.5480    23.9190     2.2820 
  234.8750   -13.2770    68.2440    28.5540    26.4730    27.0860    23.7170     2.2690 
  235.0000   -13.1530    68.7070    31.1220    29.1140    30.3030    23.5360     2.2650 
  235.1250   -13.0080    68.1840    31.9060    30.0740    31.4930    23.6350     2.2680 
  235.2500   -12.8630    68.8210    30.9580    29.3060    32.2490    23.9610     2.2740 
  235.3750   -12.7090    71.9360    28.6440    27.1240    32.5930    24.3300     2.2820 
  235.5000   -12.5730    76.7760    25.6430    24.1850    30.0330    24.5800     2.2930 
  235.6250   -12.4240    79.0990    22.7760    21.2940    26.3920    24.6490     2.3110 
  235.7500   -12.3020    79.3720    20.6040    19.0110    23.4310    24.6530     2.3340 
  235.8750   -12.2070    80.8590    19.3950    17.5820    21.1290    24.6220     2.3530 
  236.0000   -12.1950    82.3260    19.2500    17.0960    17.5540    24.5810     2.3600 
  236.1250   -12.1990    79.5960    20.2760    17.6820    16.8400    24.5620     2.3530 
  236.2500   -12.2280    72.7380    22.0960    19.0550    19.2880    24.5580     2.3330 
  236.3750   -12.2530    66.7200    24.4260    21.0190    23.5700    24.5510     2.3120 
  236.5000   -12.2990    65.4840    26.9500    23.3060    27.4260    24.5310     2.2970 
  236.6250   -12.3790    67.6190    29.3210    25.5200    29.2020    24.4910     2.2910 
  236.7500   -12.4510    68.4990    31.1110    27.2570    32.0110    24.4860     2.2970 
  236.8750   -12.5640    67.1140    32.0600    28.2100    34.9210    24.5170     2.3090 
  237.0000   -12.6220    65.8340    31.7660    28.2160    37.5590    24.5420     2.3250 
  237.1250   -12.6860    66.1670    30.2970    27.1890    39.3600    24.5510     2.3370 
  237.2500   -12.7170    66.5690    27.9100    25.5950    37.9450    24.5450     2.3400 
  237.3750   -12.7240    66.6500    25.3390    23.8800    32.0900    24.5290     2.3360 
  237.5000   -12.7140    67.2280    23.9930    22.4950    27.1870    24.4980     2.3290 
  237.6250   -12.6750    69.7820    23.8080    21.9300    25.4920    24.4900     2.3250 
  237.7500   -12.6560    72.2750    24.6040    22.2250    25.7690    24.4710     2.3290 
  237.8750   -12.5630    73.4280    26.2650    23.2940    27.5280    24.4620     2.3400 
  238.0000   -12.4390    72.3700    28.3700    24.8130    29.6160    24.4600     2.3520 
  238.1250   -12.1980    71.0490    30.0920    26.1140    32.6390    24.4630     2.3600 
  238.2500   -11.9380    72.3420    30.6850    26.5220    34.1700    24.4780     2.3640 
  238.3750   -11.6420    76.0930    29.6630    25.6740    35.1810    24.5130     2.3710 
  238.5000   -11.2910    80.0240    27.2100    23.6700    34.1620    24.5230     2.3910 
  238.6250   -10.9040    81.4190    23.6740    21.0330    30.8540    24.4780     2.4290 
  238.7500   -10.4640    78.3710    20.2160    18.5320    26.4200    24.3820     2.4840 
  238.8750   -10.0250    70.5530    17.1380    16.4840    19.6570    24.2870     2.5420 
  239.0000    -9.6070    60.3100    14.5710    14.9270    13.4850    24.2330     2.5940 
  239.1250    -9.2510    54.5880    13.6140    13.7510    11.6590    24.2180     2.6320 
  239.2500    -8.9450    53.9970    12.7590    12.7190    10.4010    24.2220     2.6490 
  239.3750    -8.7020    55.1920    11.9060    11.7530     8.6240    24.2150     2.6470 
  239.5000    -8.5390    55.6490    11.0770    10.8650     7.4060    24.1430     2.6230 
  239.6250    -8.4210    57.5830    10.4120    10.1670     6.8400    24.0790     2.5810 
  239.7500    -8.3740    61.1520     9.9740     9.6930     6.4920    24.0470     2.5360 
  239.8750    -8.3680    63.3470     9.7390     9.4100     6.4220    24.0700     2.5060 
