~V
VERS. 2.00: Ver 2.00
~W
STRT.M 67.0000:
STOP.M 264.0000:
STEP.M 0.1250:
NULL. -999.2500:
UWI. DF3014:
~C
DEPT.M :
GR.API :
CALI.CM :
RXO.OHMM :
RI. :
RML.OHMM :
DEN.GM/CC :
SP.MV :
~A
# ...
  168.2500    60.4770    24.5270   110.7220   169.5220   193.9060     2.2460   -33.3550 
  168.3750    62.2300    24.5070    96.8130   168.8720   194.4000     2.2500   -33.3820 
  168.5000    62.2060    24.4920    96.4080   171.9960   198.7780     2.2490   -33.4520 
  168.6250    59.3940    24.4660   108.0870   179.0510   206.8770     2.2390   -33.5470 
  168.7500    58.3290    24.3140   119.7420   187.6350   216.2340     2.2220   -33.5960 
  168.8750    61.1550    24.0260   126.0630   196.0900   224.9700     2.2050   -33.5620 
  169.0000    63.6770    24.1180   132.3880   203.3110   231.9000     2.1950   -33.4460 
  169.1250    62.1280    24.2330   141.2670   208.3950   236.2110     2.1900   -33.2950 
  169.2500    60.2690    24.1810   141.7870   211.3910   238.2510     2.1890   -33.1470 
  169.3750    60.4330    24.1350   131.8470   213.6880   239.8700     2.1940   -32.9810 
  169.5000    61.4040    24.0840   122.4880   217.8900   244.0300     2.2040   -32.7750 
  169.6250    62.3740    24.1140   131.3590   226.1260   252.7920     2.2150   -32.5470 
  169.7500    63.2220    24.1310   146.3420   237.9630   265.3100     2.2230   -32.3180 
  169.8750    62.3500    23.8600   152.4310   252.7390   280.1730     2.2260   -32.0840 
  170.0000    60.7980    23.6860   145.2730   267.4350   293.8140     2.2240   -31.8480 
  170.1250    60.4630    23.7690   154.3970   274.6150   297.8600     2.2200   -31.5980 
  170.2500    60.5160    23.6110   174.5770   272.2020   290.3060     2.2150   -31.3720 
  170.3750    59.5630    23.6050   190.1770   257.8950   269.2290     2.2150   -31.2020 
  170.5000    57.2640    23.6100   191.4810   232.1680   236.5980     2.2260   -31.0920 
  170.6250    56.8150    23.6100   171.2840   200.1420   200.3920     2.2490   -30.9880 
  170.7500    59.1220    23.6860   132.6150   169.7170   168.7810     2.2740   -30.8630 
  170.8750    63.6710    23.5970    95.1790   144.2120   144.1000     2.2950   -30.7240 
  171.0000    67.8880    23.2750    75.6860   125.6540   127.2760     2.3030   -30.5850 
  171.1250    70.3800    23.1840    63.6630   116.0800   119.1190     2.2970   -30.5020 
  171.2500    72.6800    23.1900    57.3010   112.3860   116.7560     2.2820   -30.4570 
  171.3750    72.7540    23.2400    64.9650   113.2180   119.0180     2.2640   -30.4220 
  171.5000    70.6080    23.1860    77.3450   117.8400   124.9770     2.2510   -30.3600 
  171.6250    67.1140    23.1690    92.7310   124.5520   132.8170     2.2520   -30.2850 
  171.7500    63.9890    23.2200    98.7630   131.1620   140.2210     2.2690   -30.1580 
  171.8750    62.1010    23.1370   102.2090   136.5230   146.2290     2.2850   -29.9820 
  172.0000    62.4020    23.1010   104.8780   140.5610   150.6680     2.2860   -29.8110 
  172.1250    64.9340    23.2270   100.2490   142.4100   152.5430     2.2720   -29.6770 
  172.2500    65.6970    23.2480    97.1250   142.8840   152.9650     2.2670   -29.5510 
  172.3750    64.0500    23.4120    98.3660   142.7140   152.7550     2.2740   -29.4310 
  172.5000    62.4960    24.0400    95.7000   142.5590   152.8740     2.2810   -29.3110 
  172.6250    62.5190    24.1410    83.1960   142.9450   153.6380     2.2760   -29.1460 
  172.7500    62.8160    24.1290    81.0110   143.1810   153.9090     2.2650   -28.9660 
  172.8750    63.5510    24.0820    86.8990   140.9430   150.9470     2.2590   -28.8130 
  173.0000    65.0440    23.9730    86.2450   133.3350   141.8200     2.2590   -28.6880 
  173.1250    63.9730    23.9730    78.5500   119.2350   125.8280     2.2620   -28.5460 
  173.2500    59.5990    23.9970    76.1810   101.7790   106.6450     2.2630   -28.4290 
  173.3750    57.1990    23.9140    75.6200    83.7380    87.3420     2.2620   -28.3440 
  173.5000    61.4620    23.6950    65.4160    67.6860    70.5220     2.2660   -28.2800 
  173.6250    67.6810    23.6790    44.9480    56.1650    58.9600     2.2850   -28.1960 
  173.7500    69.4760    23.6330    27.4630    49.2200    52.5850     2.3070   -28.1300 
  173.8750    68.2210    23.3640    21.7190    46.7570    51.1480     2.3220   -28.1060 
  174.0000    68.2110    23.0770    24.7940    48.2460    53.9150     2.3240   -28.1330 
  174.1250    68.6980    23.0880    37.3960    53.1990    60.3290     2.3160   -28.2570 
  174.2500    67.1600    23.3940    49.5300    60.1610    68.6940     2.3070   -28.4140 
  174.3750    65.8240    23.7070    55.1980    68.2410    77.9300     2.3010   -28.5300 
  174.5000    67.2410    23.6720    54.2390    76.0760    86.6620     2.2940   -28.5790 
  174.6250    71.1980    23.7160    54.6150    81.8920    93.0570     2.2830   -28.6000 
  174.7500    73.8280    23.8460    57.1770    85.2790    96.7790     2.2740   -28.6090 
  174.8750    72.8310    23.9290    60.2130    86.5770    98.3740     2.2770   -28.6140 
  175.0000    70.5170    23.9920    63.6420    86.3110    98.4330     2.2880   -28.6330 
  175.1250    70.7510    24.2140    64.7510    84.8650    97.3680     2.2980   -28.6520 
  175.2500    71.3490    24.2330    63.7830    82.2960    95.0510     2.3040   -28.6300 
  175.3750    68.6360    24.2060    63.3050    78.4650    91.2340     2.3100   -28.5450 
  175.5000    64.0590    23.9650    61.7510    73.8190    86.4190     2.3150   -28.4320 
  175.6250    61.1400    23.7830    57.8070    69.2560    81.5220     2.3130   -28.3270 
  175.7500    60.2170    23.6400    54.5980    65.6700    77.7890     2.3080   -28.2340 
  175.8750    61.5240    23.7860    52.6940    63.5510    75.7520     2.3060   -28.1640 
  176.0000    64.8980    23.8600    49.1260    62.9810    75.5450     2.3080   -28.0970 
  176.1250    66.3060    23.8660    50.6180    63.9330    77.0100     2.3040   -28.0400 
  176.2500    64.8450    23.7060    57.3770    65.5680    78.9090     2.2930   -28.0080 
  176.3750    63.8080    23.4250    65.7420    66.5080    79.6170     2.2840   -28.0080 
  176.5000    64.0670    23.5070    71.3480    65.2730    77.5710     2.2850   -28.0230 
  176.6250    66.0610    23.8720    65.2700    61.1630    72.1090     2.2950   -28.0220 
  176.7500    71.0460    24.1400    50.1870    55.4240    64.7730     2.3040   -28.0170 
  176.8750    78.4780    24.1290    42.6720    49.1150    56.8700     2.3140   -28.0310 
  177.0000    84.2220    24.1360    47.4910    43.2860    49.7970     2.3270   -28.0660 
  177.1250    82.6150    23.9080    45.7080    38.9210    44.7840     2.3420   -28.0900 
  177.2500    76.2840    23.8690    31.2460    36.0570    41.7550     2.3430   -28.0810 
  177.3750    71.1370    23.8540    23.6940    34.6840    40.5880     2.3270   -28.0540 
  177.5000    70.9810    23.8670    26.5050    34.5600    40.8740     2.3070   -28.0300 
  177.6250    74.9290    23.8700    28.5310    35.4600    42.2800     2.3010   -28.0080 
  177.7500    77.2700    23.8550    27.1690    37.0320    44.4610     2.3070   -28.0020 
  177.8750    76.8300    23.8610    26.3970    39.2100    47.2820     2.3110   -28.0280 
  178.0000    75.3720    23.8900    29.0460    41.7580    50.4260     2.3080   -28.0840 
  178.1250    76.2750    23.9230    34.5040    44.3010    53.4560     2.3030   -28.1100 
  178.2500    78.6800    23.8900    39.0120    46.6040    56.1760     2.3010   -28.1180 
  178.3750    80.3530    23.8610    41.3500    48.5170    58.3740     2.3020   -28.1030 
  178.5000    79.2570    23.8030    42.1210    49.8380    59.8080     2.3000   -28.0540 
  178.6250    76.2470    23.7670    40.9610    50.3070    60.2450     2.2980   -28.0580 
  178.7500    73.9470    23.6750    37.7810    50.0590    59.8620     2.2990   -28.1240 
  178.8750    73.0420    23.3620    34.8300    49.1850    58.7870     2.3030   -28.1990 
  179.0000    74.7430    23.1780    34.2320    47.8110    57.1410     2.3110   -28.2310 
  179.1250    76.6230    23.1930    34.0110    45.9430    54.8740     2.3230   -28.2290 
  179.2500    76.6700    23.2440    32.5950    43.7230    52.1460     2.3360   -28.2160 
  179.3750    76.2790    23.1830    30.6420    41.3330    49.1530     2.3410   -28.1930 
