~V
VERS. 2.00: Ver 2.00
~W
STRT.M 57.0000:
STOP.M 290.0000:
STEP.M 0.1250:
NULL. -999.2500:
UWI. DF3043:
~C
DEPT.M :
SP.MV :
DEN.GM/CC :
AC.US/MT :
GR.API :
CALI.CM :
RXO.OHMM :
RI. :
RML.OHMM :
~A
# ...
  177.0000   -19.3070     2.2480   405.1780    73.3060    24.9590    95.3080   105.8290   110.1100 
  177.1250   -19.3420     2.2520   405.1040    72.7580    24.9590    92.6000   102.5310   105.6360 
  177.2500   -19.3660     2.2480   406.1770    75.7870    24.9610    82.2810   100.1170   102.3810 
  177.3750   -19.3630     2.2410   408.0760    79.0790    24.9610    79.7610    99.6560   101.3200 
  177.5000   -19.3470     2.2370   409.4860    79.8210    24.9610    88.3020   101.5980   102.6580 
  177.6250   -19.3230     2.2370   409.4270    77.1950    24.9580    94.2520   104.9610   104.9180 
  177.7500   -19.3010     2.2310   409.1480    74.8040    24.9650    87.1070   104.7450   106.3650 
  177.8750   -19.2700     2.2180   410.4610    73.0440    25.0000    88.0820    99.3250   103.1220 
  178.0000   -19.2110     2.2060   414.3710    70.7380    25.0600    93.5670    88.6960    94.3950 
  178.1250   -19.1300     2.2040   419.4840    70.4100    25.1030    78.1870    76.0760    82.2840 
  178.2500   -19.0380     2.2100   422.1600    72.9870    25.0910    49.1550    65.4330    71.0720 
  178.3750   -18.9380     2.2160   421.0430    75.6270    25.0680    37.1250    58.0950    62.7640 
  178.5000   -18.8440     2.2220   417.4900    78.1920    25.1010    39.0120    53.9400    57.7250 
  178.6250   -18.7610     2.2360   413.8540    82.0040    25.1560    46.4120    52.5030    55.7270 
  178.7500   -18.6970     2.2560   411.4450    84.3390    25.1400    46.9750    52.5680    55.5040 
  178.8750   -18.6560     2.2720   410.1740    83.6960    25.0460    41.0030    53.7400    56.5500 
  179.0000   -18.6250     2.2770   408.6390    82.9520    24.8800    33.2700    56.0750    58.7360 
  179.1250   -18.6060     2.2770   403.3370    84.7580    24.5400    30.3100    60.4790    62.8250 
  179.2500   -18.5860     2.2800   393.0720    84.3650    24.0060    29.9340    67.3840    69.3560 
  179.3750   -18.5590     2.2840   381.8220    79.7320    23.4030    32.4710    76.8920    78.5660 
  179.5000   -18.5340     2.2820   376.7370    74.5130    22.9040    37.3530    88.0340    89.5580 
  179.6250   -18.5050     2.2740   381.7940    73.4380    22.6080    36.3360    97.7080    99.3560 
  179.7500   -18.4710     2.2670   388.6870    74.5310    22.4920    34.7140   102.4340   104.5420 
  179.8750   -18.4280     2.2630   390.0530    74.5410    22.5690    36.6020   100.8700   103.5000 
  180.0000   -18.3620     2.2590   385.2890    72.8060    22.7640    39.8050    95.0640    97.6000 
  180.1250   -18.2800     2.2560   379.6630    73.3270    22.9000    41.1340    89.6070    90.7990 
  180.2500   -18.2000     2.2580   375.9310    76.4800    22.8980    37.3460    87.1640    88.1590 
  180.3750   -18.1220     2.2660   374.3900    78.5490    22.8330    33.8340    89.0270    92.6120 
  180.5000   -18.0490     2.2710   375.9100    76.0770    22.7920    34.3710    98.1120   104.3350 
  180.6250   -17.9730     2.2590   382.1620    71.0740    22.8100    59.0630   117.1860   126.0280 
  180.7500   -17.9110     2.2310   389.8380    67.9470    22.9230   103.4740   144.4710   156.3840 
  180.8750   -17.8800     2.2020   394.6600    66.9220    23.1770   141.3840   176.5570   192.4050 
  181.0000   -17.8660     2.1840   395.4870    66.8960    23.5660   150.2810   206.7170   226.6620 
  181.1250   -17.8740     2.1860   394.8560    68.7380    23.9550   144.0280   225.5390   247.6340 
  181.2500   -17.8940     2.2000   395.3980    71.2020    24.2270   151.2860   233.1550   255.7670 
  181.3750   -17.9170     2.2100   396.7350    72.7520    24.3850   158.4770   234.4930   257.6870 
  181.5000   -17.9510     2.2050   397.0070    72.7100    24.4300   164.9440   235.5390   260.3680 
  181.6250   -17.9790     2.1870   395.4700    70.2600    24.3490   186.8700   239.7630   267.0510 
  181.7500   -18.0020     2.1750   394.3380    65.5290    24.2420   182.6280   245.0590   274.4270 
  181.8750   -18.0090     2.1780   395.5240    61.5240    24.1830   150.5320   247.5180   277.3470 
  182.0000   -17.9820     2.1880   399.7830    60.9260    24.1690   118.5940   243.4940   271.3250 
  182.1250   -17.9120     2.1920   405.3390    63.9670    24.1400   113.2900   231.4340   255.3790 
  182.2500   -17.7870     2.1900   409.2150    66.1280    24.0590   116.5880   216.5360   237.0350 
  182.3750   -17.6260     2.1890   410.0010    66.6760    23.8790   112.8490   203.9370   222.5240 
  182.5000   -17.4490     2.1970   408.8450    66.2640    23.6380   118.8930   197.6380   215.7150 
  182.6250   -17.2490     2.2110   408.4630    65.6900    23.5220   139.9510   200.0500   218.0770 
  182.7500   -17.0400     2.2200   409.2800    65.2490    23.6180   150.6660   206.0630   222.8290 
  182.8750   -16.8190     2.2200   410.1920    66.3910    23.8730   161.5430   207.5380   219.7590 
  183.0000   -16.5950     2.2140   410.4390    69.2230    24.1720   179.8170   195.8370   199.5850 
  183.1250   -16.3930     2.2060   409.5900    69.6360    24.2920   180.0910   167.8060   163.7580 
  183.2500   -16.1970     2.2040   407.5050    67.9250    24.1200   141.7460   135.8250   129.0960 
  183.3750   -16.0080     2.2120   404.7510    67.4510    23.8740    90.5630   109.6110   104.3320 
  183.5000   -15.8320     2.2310   403.1480    69.0890    23.8860    64.7890    93.8330    91.3910 
  183.6250   -15.6850     2.2560   402.4940    69.5760    24.1540    57.7340    90.7840    90.7040 
  183.7500   -15.5850     2.2780   403.4680    68.3900    24.3270    59.0350    97.4420    98.8100 
  183.8750   -15.5130     2.2840   405.5170    67.5980    24.3200    89.3400   111.2220   113.0420 
  184.0000   -15.4570     2.2640   400.9190    66.8620    24.2650   151.7080   125.5570   126.3520 
  184.1250   -15.4290     2.2250   388.8840    65.2870    24.2340   184.7630   125.6670   122.3930 
  184.2500   -15.4240     2.1970   383.4700    64.3210    24.2310   179.3210   107.6350    99.8480 
  184.3750   -15.4620     2.1960   390.1960    65.2580    24.2680   140.6150    80.6340    71.7560 
  184.5000   -15.5440     2.2200   398.9430    68.8220    24.3000    78.4700    56.6520    49.9200 
  184.6250   -15.6620     2.2570   398.5310    74.4600    24.1870    41.7640    42.4110    38.5650 
  184.7500   -15.8080     2.2910   395.7880    79.0400    23.9240    23.2580    35.7730    34.3860 
  184.8750   -15.9700     2.3140   394.1530    80.9470    23.7200    28.6720    34.9870    35.7770 
  185.0000   -16.1520     2.3200   392.6210    80.6740    23.8320    45.3940    38.9770    41.8150 
  185.1250   -16.3580     2.3110   390.3750    80.9940    24.2380    59.6890    47.8290    52.3770 
  185.2500   -16.5580     2.2980   388.4650    82.7800    24.5750    66.4390    59.5650    65.2900 
  185.3750   -16.7500     2.2840   387.7270    83.7810    24.6640    69.5250    71.6810    77.9360 
  185.5000   -16.9300     2.2690   387.8810    81.7100    24.4010    72.1620    81.3200    87.3940 
  185.6250   -17.0830     2.2600   388.9680    77.4780    23.9400    71.8780    86.5460    91.7880 
  185.7500   -17.2190     2.2580   391.0740    76.2230    23.7820    68.1760    88.9170    93.2360 
  185.8750   -17.3190     2.2560   393.9960    78.6280    24.0910    67.2050    89.7670    93.4270 
  186.0000   -17.3630     2.2490   395.9600    80.0540    24.5300    67.9790    90.0630    93.4490 
  186.1250   -17.3470     2.2440   395.6730    77.4040    24.6850    69.7040    90.1970    93.5590 
  186.2500   -17.3010     2.2490   394.4450    73.4940    24.6950    69.7310    89.5630    92.6610 
  186.3750   -17.2640     2.2620   392.6790    70.6070    24.7040    66.8060    86.7610    88.8740 
  186.5000   -17.2430     2.2760   389.6260    68.3370    24.7040    62.7460    80.5190    80.7830 
  186.6250   -17.2190     2.2840   385.9620    67.2520    24.7100    58.8760    69.6760    69.2780 
  186.7500   -17.1900     2.2900   386.4250    70.0600    24.7330    51.1520    55.4340    58.7240 
  186.8750   -17.1480     2.3030   392.6080    75.5980    24.7580    35.8790    43.7410    47.5510 
