~V
VERS. 2.00: Ver 2.00
~W
STRT.M 65.0000:
STOP.M 270.0000:
STEP.M 0.1250:
NULL. -999.2500:
UWI. DF3062:
~C
DEPT.M :
SP.MV :
GR.API :
CALI.CM :
RXO.OHMM :
RI. :
RML.OHMM :
DEN.GM/CC :
~A
# ...
  166.2500   -34.8680    73.8330    24.6710    30.7240    34.5030    43.5700     2.3620 
  166.3750   -35.0440    72.9830    24.6000    36.7830    36.3000    46.2890     2.3500 
  166.5000   -35.1790    69.2090    24.4730    38.5840    39.1900    50.6400     2.3300 
  166.6250   -35.3510    66.8210    24.4360    37.2930    43.8350    57.5650     2.3080 
  166.7500   -35.5480    66.9690    24.3760    39.5830    50.5480    67.1390     2.2930 
  166.8750   -35.7810    67.9770    24.2560    47.8930    59.5920    79.5160     2.2800 
  167.0000   -36.0570    67.5740    24.0470    61.5400    70.7560    94.2480     2.2600 
  167.1250   -36.3620    66.9940    24.0790    79.5300    83.4160   110.5180     2.2360 
  167.2500   -36.6670    67.4150    24.1870    98.7330    96.0090   126.4230     2.2140 
  167.3750   -36.9720    68.2840    24.1290   120.4960   107.0200   139.9020     2.2100 
  167.5000   -37.2400    66.7420    24.1890   135.4410   115.0580   148.9140     2.2220 
  167.6250   -37.4270    63.2890    24.5450   135.5990   118.9450   152.3620     2.2400 
  167.7500   -37.5390    63.6290    24.9300   126.0740   119.7050   152.0290     2.2490 
  167.8750   -37.5790    66.7840    24.9750   121.3820   118.4080   149.5960     2.2420 
  168.0000   -37.5640    66.8660    24.9480   111.3080   116.1570   146.3590     2.2310 
  168.1250   -37.5290    62.4010    24.9880   108.9060   113.5570   142.5940     2.2330 
  168.2500   -37.5180    59.8130    25.0560   114.6430   110.8550   138.4670     2.2480 
  168.3750   -37.5490    61.1030    24.9560   120.3460   108.0190   133.9270     2.2630 
  168.5000   -37.6250    64.3840    24.9250   113.0340   104.9160   128.7590     2.2650 
  168.6250   -37.7560    66.8720    24.9120    99.0050   101.3750   122.6800     2.2590 
  168.7500   -37.9300    65.4630    24.8900    91.2510    97.2970   115.8810     2.2530 
  168.8750   -38.1080    61.8930    24.8570    88.1940    92.9430   109.1020     2.2510 
  169.0000   -38.2590    60.2240    24.8090    83.1890    88.7300   102.8330     2.2510 
  169.1250   -38.3460    62.5850    24.6580    80.7040    85.0680    97.6050     2.2550 
  169.2500   -38.3690    66.0370    24.6600    76.5990    81.9860    93.2690     2.2660 
  169.3750   -38.3600    69.5550    24.7270    69.4380    79.4090    89.6030     2.2790 
  169.5000   -38.3450    72.2320    24.7420    62.2370    77.2170    86.4020     2.2890 
  169.6250   -38.3460    71.2220    24.7260    66.4950    75.2840    83.7380     2.2940 
  169.7500   -38.3690    68.2920    24.7190    74.3650    73.5270    81.3290     2.2920 
  169.8750   -38.4420    67.0330    24.7170    74.9900    71.8650    79.2090     2.2840 
  170.0000   -38.5890    68.5640    24.6680    67.4260    70.6520    77.7390     2.2770 
  170.1250   -38.8420    70.9020    24.8360    58.7690    70.7920    78.1780     2.2800 
  170.2500   -39.1350    72.9450    24.7490    52.7870    72.6130    80.7850     2.2890 
  170.3750   -39.4230    74.8350    24.6670    52.2670    76.4300    85.9250     2.2920 
  170.5000   -39.6740    74.3800    24.7080    59.3480    82.5300    93.7340     2.2840 
  170.6250   -39.8700    71.6560    24.7140    72.3170    90.9000   104.0680     2.2690 
  170.7500   -39.9980    70.1750    24.6770    87.0070    99.9180   114.8740     2.2530 
  170.8750   -40.0620    71.0460    24.5650   104.9700   107.7650   124.0620     2.2440 
  171.0000   -40.0590    71.4730    24.0860   117.9460   112.9830   130.0300     2.2450 
  171.1250   -40.0040    71.0500    23.9700   120.6040   114.4390   131.2870     2.2550 
  171.2500   -39.9490    71.0160    23.8530   119.5760   113.2040   129.2470     2.2640 
  171.3750   -39.9310    69.3320    23.8580   117.1240   110.5130   125.8040     2.2600 
  171.5000   -39.9790    65.8680    23.8830   103.1180   107.9010   123.0020     2.2490 
  171.6250   -40.0710    65.1050    23.8880    80.2630   106.8900   122.3320     2.2410 
  171.7500   -40.2140    66.3410    23.8800    74.6230   107.7570   123.7030     2.2380 
  171.8750   -40.3990    66.4160    23.8290    93.3260   110.1330   126.6310     2.2310 
  172.0000   -40.5830    65.6020    23.9940   113.0240   113.1970   129.8350     2.2190 
  172.1250   -40.7280    65.7070    24.2120   111.0890   115.5170   131.6780     2.2060 
  172.2500   -40.8150    65.5050    24.1710   105.0640   116.3480   131.6400     2.1960 
  172.3750   -40.8200    65.3550    24.2500   104.4560   115.3580   129.5780     2.1930 
  172.5000   -40.7790    67.5260    24.3750   107.6450   112.5920   125.5330     2.1970 
  172.6250   -40.7270    68.7050    24.5010   107.4680   108.2870   120.1850     2.2070 
  172.7500   -40.6930    65.9840    24.4530    99.3300   103.5580   114.8440     2.2170 
  172.8750   -40.7010    63.6760    24.5030    85.3620    99.1290   110.1390     2.2220 
  173.0000   -40.7660    65.2870    24.5290    73.2020    95.4470   106.6870     2.2240 
  173.1250   -40.9000    67.3590    24.4040    78.5040    93.4570   105.2800     2.2270 
  173.2500   -41.1140    68.1800    24.4250    84.2800    93.5240   106.3720     2.2350 
  173.3750   -41.3820    69.0740    24.3760    78.9230    96.3870   110.9910     2.2420 
  173.5000   -41.6320    70.1210    24.3380    67.0100   103.0900   120.1770     2.2380 
  173.6250   -41.8340    68.2930    24.4060    71.4240   115.2450   135.6190     2.2230 
  173.7500   -41.9530    63.4060    24.3820    87.7290   132.2580   156.5610     2.2090 
  173.8750   -41.9940    59.5200    24.2880   104.7440   153.7810   182.8450     2.2050 
  174.0000   -41.9980    58.1600    24.2870   112.4940   179.0480   213.7580     2.1980 
  174.1250   -41.9680    58.7550    24.3040   116.5030   206.5100   247.4940     2.1790 
  174.2500   -41.9040    59.7770    24.3280   123.5110   232.8830   279.3010     2.1580 
  174.3750   -41.8580    59.1740    24.4770   139.6560   254.5730   303.2910     2.1530 
  174.5000   -41.8520    57.5160    24.4500   166.9700   266.6240   312.9140     2.1640 
  174.6250   -41.9100    57.1000    24.4450   180.4480   263.0140   301.9890     2.1820 
  174.7500   -42.0320    58.6520    24.4340   194.8940   246.8410   276.4370     2.1910 
  174.8750   -42.1770    58.5300    24.3870   200.6160   221.4740   242.5680     2.1830 
  175.0000   -42.3100    55.0300    24.5250   200.1310   192.0580   207.2430     2.1730 
  175.1250   -42.3830    53.9380    24.3820   189.0730   164.9460   177.3510     2.1810 
  175.2500   -42.3860    58.0960    24.0660   160.3650   142.9170   154.4990     2.2090 
  175.3750   -42.3070    63.1440    24.0070   107.1200   125.6830   137.4630     2.2260 
  175.5000   -42.1750    63.9690    23.9870    71.1980   112.9680   125.3000     2.2170 
  175.6250   -42.0240    61.4200    23.9360    65.9170   104.6590   117.2110     2.1960 
  175.7500   -41.9130    60.8090    23.9080    65.9140    98.0420   110.4810     2.1870 
  175.8750   -41.8520    62.7270    23.7770    72.0890    92.0650   104.3370     2.2110 
  176.0000   -41.7790    65.1140    23.5370    67.8010    87.3160    99.9920     2.2500 
  176.1250   -41.7790    67.3620    23.1660    44.5800    85.3640    99.3000     2.2840 
  176.2500   -41.8700    70.0540    22.8740    28.1090    86.4980   102.2410     2.2970 
  176.3750   -42.0400    70.9660    22.8260    34.1630    91.4320   109.6290     2.2870 
  176.5000   -42.2610    70.3370    23.0230    44.0290   100.0460   121.5800     2.2730 
  176.6250   -42.4900    69.7290    23.1100    48.6320   111.8520   137.5730     2.2640 
  176.7500   -42.6630    67.7690    23.2730    56.6520   125.2780   155.7630     2.2650 
  176.8750   -42.7590    64.1340    23.5240    69.1260   138.7440   174.0420     2.2640 
  177.0000   -42.7670    59.5450    24.0980    84.0470   150.0220   189.3580     2.2500 
  177.1250   -42.6850    55.1300    24.3670   101.7850   157.1620   199.3460     2.2230 
  177.2500   -42.5690    52.9710    24.5970   110.8010   162.6160   207.5390     2.1980 
  177.3750   -42.4350    55.7820    24.6840   116.9460   167.6860   215.5320     2.1900 
