~V
VERS. 2.00: Ver 2.00
~W
STRT.M 63.0000:
STOP.M 257.0000:
STEP.M 0.1250:
NULL. -999.2500:
UWI. DF3070:
~C
DEPT.M :
DEN.GM/CC :
GR.API :
RML.OHMM :
RI. :
RXO.OHMM :
CALI.CM :
SP.MV :
~A
# ...
  119.2500     2.2370    73.9180    11.3670    10.8370    10.6480    23.6900   -25.3630 
  119.3750     2.2250    71.7320    11.2390    10.5870    10.5410    23.6110   -25.1370 
  119.5000     2.2170    70.8040    11.2380    10.4280    10.5350    23.7170   -24.8840 
  119.6250     2.2130    73.1120    11.1650    10.2410    10.5390    23.7390   -24.5640 
  119.7500     2.2150    76.8010    10.8220     9.8760    10.2380    23.8100   -24.1670 
  119.8750     2.2260    80.2250    10.1330     9.2600     9.5130    23.9810   -23.6420 
  120.0000     2.2470    84.7860     9.1900     8.4350     8.4170    24.1790   -23.1870 
  120.1250     2.2760    92.1020     8.2520     7.5750     7.3590    24.2410   -22.7710 
  120.2500     2.3020    97.0730     7.5850     6.8970     6.7280    24.1940   -22.4400 
  120.3750     2.3170    96.8800     7.3160     6.5300     6.5940    24.3320   -22.3560 
  120.5000     2.3160    95.8660     7.4530     6.5170     6.8670    24.5320   -22.3940 
  120.6250     2.3000    97.5360     7.9390     6.8670     7.7320    24.1760   -22.7630 
  120.7500     2.2790    94.9620     8.5470     7.4100     9.2850    23.3460   -23.2150 
  120.8750     2.2570    84.9300     9.1080     8.0050    10.9820    22.5990   -23.7990 
  121.0000     2.2380    75.3220     9.4890     8.5180    11.7010    22.3150   -24.4080 
  121.1250     2.2230    74.0050     9.6120     8.8340    11.1190    22.2900   -24.8810 
  121.2500     2.2100    76.3240     9.5840     8.9880    10.3840    22.2680   -25.2500 
  121.3750     2.2010    77.0410     9.5150     9.0470     9.8660    22.2780   -25.3360 
  121.5000     2.1930    75.2540     9.5010     9.0850     9.5940    22.3000   -25.2810 
  121.6250     2.1890    73.1540     9.5880     9.1480     9.7520    22.3260   -24.9220 
  121.7500     2.1920    72.6660     9.7020     9.2090     9.9470    22.3410   -24.4690 
  121.8750     2.2100    75.4990     9.7300     9.1910     9.7770    22.3520   -23.8600 
  122.0000     2.2470    79.6430     9.5600     9.0100     9.4290    22.3500   -23.0710 
  122.1250     2.2970    83.9820     9.0960     8.5830     9.2770    22.3570   -22.3100 
  122.2500     2.3410    90.5040     8.4390     7.9780     8.9310    22.6170   -21.4780 
  122.3750     2.3640    95.6900     7.7100     7.2900     8.0110    23.2140   -20.6560 
  122.5000     2.3600    95.0260     7.0430     6.6290     6.9440    23.8680   -19.8670 
  122.6250     2.3360    90.2260     6.5620     6.1160     6.3700    24.1650   -19.1220 
  122.7500     2.3120    87.3460     6.2800     5.7840     6.2410    24.2100   -18.4570 
  122.8750     2.2980    87.2120     6.1970     5.6500     6.3070    24.2610   -17.9470 
  123.0000     2.3040    89.9080     6.2910     5.7030     6.4100    24.3880   -17.5290 
  123.1250     2.3340    94.5670     6.5070     5.9080     6.5500    24.5200   -17.1840 
  123.2500     2.3750    97.7340     6.7160     6.1430     6.9020    24.6150   -16.9770 
  123.3750     2.4100    98.4890     6.8140     6.3040     7.7290    24.6730   -16.9200 
  123.5000     2.4250    98.4340     6.7310     6.3110     8.5340    24.7410   -16.8760 
  123.6250     2.4140    98.0360     6.4500     6.1170     8.0130    24.9290   -16.8870 
  123.7500     2.3900    96.7720     6.1010     5.8220     6.6880    25.1310   -16.9740 
  123.8750     2.3680    95.5800     5.7950     5.5270     5.7860    25.0910   -17.0330 
  124.0000     2.3550    93.9110     5.6100     5.3170     5.5600    24.7460   -17.2550 
  124.1250     2.3490    92.4070     5.5990     5.2600     5.5520    24.3980   -17.4870 
  124.2500     2.3430    91.9180     5.7220     5.3330     5.6100    24.2840   -17.8130 
  124.3750     2.3320    92.1360     5.9480     5.5110     5.7880    24.3000   -18.1580 
  124.5000     2.3180    92.2290     6.2370     5.7540     5.9930    24.2740   -18.5490 
  124.6250     2.3040    91.2030     6.5330     6.0150     6.2370    24.1720   -19.0630 
  124.7500     2.2940    90.8970     6.7720     6.2380     6.5700    24.0630   -19.5430 
  124.8750     2.2900    92.5600     6.9130     6.3830     6.8610    24.0840   -20.1250 
  125.0000     2.2910    93.8050     6.9410     6.4320     7.0320    24.1640   -20.6120 
  125.1250     2.2970    91.6670     6.8770     6.3930     7.0790    24.1610   -21.1590 
  125.2500     2.3040    88.6660     6.8060     6.3320     6.9360    24.0680   -21.6950 
  125.3750     2.3080    88.1700     6.8100     6.3160     6.7010    23.8510   -22.2630 
  125.5000     2.3100    90.3340     6.9810     6.4270     6.6490    23.4620   -22.9310 
  125.6250     2.3090    90.0430     7.4400     6.7800     7.0440    23.1270   -23.5230 
  125.7500     2.3060    86.2690     8.1670     7.3820     7.7700    23.1580   -24.1420 
  125.8750     2.2960    82.5530     9.0990     8.2030     8.7410    23.5130   -24.7440 
  126.0000     2.2760    81.4520    10.1000     9.1480     9.9750    23.9790   -25.3230 
  126.1250     2.2440    80.0490    10.9480    10.0420    11.3010    24.1460   -25.9050 
  126.2500     2.2030    76.6380    11.5170    10.7380    12.1430    23.8270   -26.3880 
  126.3750     2.1620    74.9010    11.7980    11.1880    12.2650    23.5060   -26.7490 
  126.5000     2.1330    74.9500    11.8990    11.4390    12.0930    23.3150   -26.9590 
  126.6250     2.1340    72.1550    11.9840    11.6050    11.9280    23.5140   -27.1090 
  126.7500     2.1690    67.8280    12.1620    11.7990    11.9610    24.0170   -27.2580 
  126.8750     2.2280    64.5030    12.4400    12.0510    11.9710    24.4020   -27.2610 
  127.0000     2.2920    63.3810    12.7610    12.3300    11.8530    24.4520   -27.2640 
  127.1250     2.3410    65.7260    13.0000    12.5350    11.7920    24.2320   -27.1790 
  127.2500     2.3740    69.8570    13.0580    12.5770    11.8040    24.0280   -27.0350 
  127.3750     2.3960    72.1660    12.8830    12.4030    11.7170    23.9040   -26.9100 
  127.5000     2.4040    71.2770    12.4810    12.0160    11.3900    23.8430   -26.7270 
  127.6250     2.3850    70.5900    11.9200    11.4700    10.8590    23.9710   -26.6630 
  127.7500     2.3390    71.8240    11.3750    10.9170    10.4250    24.2810   -26.5200 
  127.8750     2.2800    75.6230    10.9700    10.4740    10.3220    24.4080   -26.4720 
  128.0000     2.2260    81.3590    10.7790    10.2150    10.5620    24.0900   -26.4460 
  128.1250     2.1930    81.7980    10.8270    10.1890    10.9000    23.5380   -26.4420 
  128.2500     2.1770    76.2770    11.0000    10.3130    11.1250    23.2260   -26.5470 
  128.3750     2.1750    72.3290    11.2030    10.5120    11.2650    23.1720   -26.6160 
  128.5000     2.1820    74.5130    11.3570    10.7050    11.4120    23.1810   -26.7640 
  128.6250     2.1960    78.2070    11.4100    10.8240    11.6060    23.1760   -26.8050 
  128.7500     2.2060    77.8280    11.3840    10.8630    11.8820    23.1800   -26.8190 
  128.8750     2.2070    75.9460    11.2950    10.8310    12.5270    23.1880   -26.8690 
  129.0000     2.1930    73.5960    11.1570    10.7420    13.7620    23.2060   -26.9230 
  129.1250     2.1670    72.4480    10.9830    10.6120    14.3920    23.2350   -26.8840 
  129.2500     2.1400    74.2960    10.8110    10.4780    13.2730    23.2590   -26.8130 
  129.3750     2.1210    75.3340    10.6790    10.3730    11.5660    23.2900   -26.6910 
  129.5000     2.1180    73.3340    10.6300    10.3310    10.6640    23.3450   -26.5080 
  129.6250     2.1370    72.1490    10.7080    10.3900    10.6360    23.4120   -26.2790 
  129.7500     2.1710    76.2930    10.8800    10.5250    10.7120    23.4570   -26.0100 
  129.8750     2.2130    81.8870    11.0770    10.6810    10.8300    23.4880   -25.6450 
  130.0000     2.2530    83.5640    11.1910    10.7660    11.0150    23.4940   -25.2140 
  130.1250     2.2730    83.3800    11.0610    10.6380    11.3380    23.5090   -24.8760 
  130.2500     2.2700    84.3440    10.6520    10.2610    11.6330    23.5870   -24.4450 
  130.3750     2.2520    85.2960     9.9960     9.6530    11.2660    23.6260   -24.1180 
