~V
VERS. 2.00: Ver 2.00
~W
STRT.M 85.0000:
STOP.M 235.0000:
STEP.M 0.1250:
NULL. -999.2500:
UWI. DF305:
~C
DEPT.M :
DEN.GM/CC :
SP.MV :
AC.US/MT :
GR.API :
CALI.CM :
RXO.OHMM :
RI. :
RML.OHMM :
~A
# ...
  155.0000     2.2680   -31.7200   408.9370    62.3570    25.2930   184.1630   186.9370   196.8920 
  155.1250     2.2750   -31.8110   410.1720    62.7830    25.2930   191.7140   190.0310   201.2660 
  155.2500     2.2780   -31.9000   410.7490    64.7560    25.2930   196.6750   189.1070   201.2810 
  155.3750     2.2790   -31.9790   410.5960    65.0010    25.2930   196.1690   183.9190   196.4130 
  155.5000     2.2810   -32.0560   410.0660    63.3650    25.2930   188.5870   175.3150   187.5000 
  155.6250     2.2840   -32.1130   409.5620    62.2070    25.2930   173.6120   165.0460   176.5980 
  155.7500     2.2860   -32.1530   409.1800    61.8750    25.2930   154.9580   155.5860   166.6550 
  155.8750     2.2840   -32.1790   408.9710    60.5220    25.2930   142.5820   148.5510   159.5200 
  156.0000     2.2780   -32.2020   409.0870    59.2160    25.2930   142.2510   144.9040   156.2560 
  156.1250     2.2680   -32.2280   409.6640    59.1040    25.2930   148.8420   145.1870   157.5710 
  156.2500     2.2630   -32.2630   410.4440    61.6450    25.2930   153.0810   147.3720   161.3200 
  156.3750     2.2650   -32.2930   411.2440    65.7290    25.2930   157.7580   148.9050   164.5290 
  156.5000     2.2740   -32.3300   412.0730    68.1830    25.2930   166.0640   147.1350   163.6840 
  156.6250     2.2850   -32.3620   413.1220    68.0500    25.2930   168.5580   140.4040   156.2840 
  156.7500     2.2920   -32.4000   414.3250    68.2000    25.2930   155.9670   131.2600   145.5660 
  156.8750     2.2940   -32.4470   415.2810    70.0250    25.2930   128.8860   122.3830   134.9600 
  157.0000     2.2890   -32.4950   415.5890    71.0380    25.2930   104.2520   115.8730   127.0030 
  157.1250     2.2830   -32.5130   415.4070    67.6490    25.2910   100.2720   112.9840   123.1380 
  157.2500     2.2850   -32.5100   415.1090    64.1870    25.2760   114.2210   112.1600   121.6530 
  157.3750     2.2940   -32.4890   413.7360    64.1340    25.2380   126.4500   111.4250   120.3130 
  157.5000     2.3060   -32.4340   409.8590    67.0490    25.2060   124.5950   108.6780   116.6730 
  157.6250     2.3140   -32.3510   404.3910    69.8250    25.1910   111.6090   101.9640   108.6440 
  157.7500     2.3230   -32.2290   401.9560    71.1670    25.2000   102.5010    91.9110    97.2950 
  157.8750     2.3310   -32.0390   405.0630    71.0820    25.2050    92.5020    79.2400    83.7060 
  158.0000     2.3370   -31.7690   411.4960    70.1560    25.2060    77.1730    64.8320    68.7880 
  158.1250     2.3520   -31.4040   416.0510    71.5340    25.1980    63.5200    50.3950    53.8790 
  158.2500     2.3810   -30.9640   418.4490    75.8700    25.1600    52.1880    38.1490    40.8760 
  158.3750     2.4100   -30.4770   422.5240    78.6930    25.0870    40.4380    29.2950    31.0930 
  158.5000     2.4180   -29.9820   429.4020    78.2690    25.0370    28.4310    23.9050    24.9380 
  158.6250     2.4010   -29.4810   427.1130    78.5800    25.0210    20.2930    21.8580    22.6830 
  158.7500     2.3870   -29.0020   402.8770    79.9380    25.0170    18.6260    21.9870    23.1820 
  158.8750     2.3860   -28.5510   360.0830    77.4740    24.9990    23.9590    23.5930    25.6510 
  159.0000     2.3900   -28.1390   318.9590    72.6860    24.9610    32.8140    25.5440    28.7880 
  159.1250     2.3880   -27.8100   304.6620    72.7240    24.8960    36.3640    25.7670    30.1240 
  159.2500     2.3840   -27.5600   313.7990    75.3270    24.8450    31.5110    23.6060    28.3650 
  159.3750     2.3800   -27.3830   331.8670    77.2530    24.7770    21.3940    20.0730    24.3010 
  159.5000     2.3760   -27.2550   345.7150    78.5920    24.6020    12.0910    16.6960    19.9350 
  159.6250     2.3660   -27.1650   349.3930    80.3900    24.4320     8.7490    14.5110    16.9730 
  159.7500     2.3510   -27.0840   346.6860    81.2020    24.3660     9.4270    13.4000    15.4480 
  159.8750     2.3410   -27.0080   337.3070    79.6460    24.3690    10.8620    13.1780    15.0680 
  160.0000     2.3510   -26.9190   318.3790    77.8880    24.3910    10.4630    13.6340    15.4870 
  160.1250     2.3950   -26.7760   290.3990    79.3160    24.4030     8.6370    14.5430    16.3910 
  160.2500     2.4490   -26.5530   262.4630    86.0900    24.4710     7.6390    15.4820    17.3350 
  160.3750     2.4840   -26.2480   241.6170    92.3250    24.5730     7.6320    16.1060    17.9840 
  160.5000     2.4880   -25.8520   231.3380    90.4560    24.5840     7.6380    16.1120    18.0170 
  160.6250     2.4690   -25.3620   233.4280    83.8080    24.3160     6.9410    15.2440    17.0750 
  160.7500     2.4510   -24.8270   245.9020    79.7420    24.0490     5.9970    13.8170    15.4330 
  160.8750     2.4370   -24.2960   269.5930    76.5510    23.9030     5.0800    12.1730    13.4860 
  161.0000     2.4300   -23.8020   304.1120    70.8440    23.8430     4.3750    10.6220    11.6520 
  161.1250     2.4320   -23.3970   344.1190    66.1060    23.7940     4.0260     9.4320    10.3110 
  161.2500     2.4390   -23.1160   378.6510    66.2010    23.7740     3.9380     8.6400     9.5170 
  161.3750     2.4420   -22.9630   401.8190    70.5350    23.7550     3.9380     8.2770     9.3060 
  161.5000     2.4400   -22.9600   413.6710    75.2930    23.7180     4.0410     8.3780     9.7230 
  161.6250     2.4350   -23.1210   416.8920    75.0720    23.7190     4.7960     9.0770    10.9510 
  161.7500     2.4250   -23.4030   415.4130    69.5570    23.8930     7.0120    10.2860    12.8690 
  161.8750     2.4060   -23.7490   410.6510    65.2750    24.2940    11.0620    11.8540    15.2700 
  162.0000     2.3840   -24.1250   405.0910    69.9730    24.7080    16.0540    13.3970    17.6140 
  162.1250     2.3740   -24.5220   402.4760    80.1460    24.8700    18.7050    14.1980    18.8290 
  162.2500     2.3790   -24.9150   403.8130    83.7130    24.8830    17.7690    14.1150    18.6590 
  162.3750     2.3850   -25.3000   407.6820    78.6840    24.7870    14.0310    13.5620    17.7370 
  162.5000     2.3800   -25.6690   411.5250    72.8400    24.5540    10.6460    13.2320    17.1910 
  162.6250     2.3640   -26.0130   413.6650    73.0490    24.3470    11.6600    13.9710    18.3140 
  162.7500     2.3470   -26.3210   415.4100    74.1340    24.2690    19.1780    16.2180    21.5960 
  162.8750     2.3290   -26.5930   418.3370    73.4510    24.3080    32.5440    20.4560    27.5810 
  163.0000     2.3120   -26.8220   422.6120    70.4170    24.4900    47.5100    26.8630    36.5340 
  163.1250     2.3050   -26.9730   426.1280    66.1350    24.8260    58.1690    34.2650    46.9520 
  163.2500     2.3100   -27.0690   426.6840    63.1810    25.0880    63.1950    39.1790    53.4610 
  163.3750     2.3140   -27.0870   423.8370    64.0230    25.1830    61.5010    39.4300    52.4510 
  163.5000     2.3170   -27.0170   419.1620    67.8150    25.1790    52.1710    36.1280    46.1910 
  163.6250     2.3410   -26.8520   414.8130    70.2720    25.1150    39.7940    32.2650    39.9070 
  163.7500     2.4010   -26.6200   408.7260    68.9220    25.0130    33.0160    29.7770    36.0840 
  163.8750     2.4890   -26.3430   394.2060    65.2780    24.9330    32.6490    29.0530    34.8980 
  164.0000     2.5880   -26.0530   365.2520    66.3350    24.9030    36.7590    30.0580    36.0310 
  164.1250     2.6760   -25.7450   324.0390    71.8750    24.8960    47.2740    32.7530    39.2090 
  164.2500     2.7310   -25.4220   286.6120    73.1200    24.8480    56.4810    36.3250    43.3040 
  164.3750     2.7410   -25.1030   264.2790    67.6300    24.7320    54.3940    40.0770    47.4580 
  164.5000     2.7180   -24.7840   261.4530    60.9080    24.6300    45.3540    43.3000    50.9490 
  164.6250     2.6950   -24.4660   280.7340    61.2290    24.5890    42.6070    44.5010    52.1830 
  164.7500     2.6930   -24.1590   311.7430    64.3410    24.6060    48.5000    42.0480    48.9940 
  164.8750     2.6990   -23.8800   343.0780    66.5100    24.6170    56.3010    35.1820    40.2610 
