~V
VERS. 2.00: Ver 2.00
~W
STRT.M 90.0000:
STOP.M 264.0000:
STEP.M 0.1250:
NULL. -999.2500:
UWI. DF3021:
~C
DEPT.M :
AC.US/MT :
DEN.GM/CC :
GR.API :
CALI.CM :
RXO.OHMM :
RI. :
RML.OHMM :
SP.MV :
~A
# ...
  150.0000   301.8580     2.4530    53.2890    23.8290    12.7940    13.2740    15.1040   -13.0720 
  150.1250   302.4470     2.4280    52.0730    23.6830    12.6710    13.0740    14.9170   -13.0590 
  150.2500   302.8000     2.4020    50.8300    23.4480    12.5250    12.8510    14.6660   -13.0570 
  150.3750   303.7040     2.3930    49.9210    23.2790    12.2070    12.6500    14.4100   -13.0780 
  150.5000   304.2880     2.4060    49.6000    23.1860    11.9010    12.5300    14.2400   -13.1090 
  150.6250   302.0340     2.4310    51.4060    23.3780    11.7980    12.5770    14.2800   -13.1590 
  150.7500   297.0680     2.4540    55.5590    23.6530    12.0570    12.7960    14.5430   -13.2400 
  150.8750   291.8310     2.4770    59.3040    23.8870    12.6800    13.1680    14.9980   -13.3480 
  151.0000   289.2300     2.5000    60.2750    24.0650    13.7330    13.6310    15.5530   -13.4630 
  151.1250   290.3710     2.5050    57.4270    24.2550    15.0020    14.0770    16.0720   -13.5770 
  151.2500   292.6380     2.4750    54.1200    24.3000    15.8670    14.4090    16.4370   -13.6880 
  151.3750   294.5650     2.4130    51.9840    24.2390    16.3120    14.5700    16.5840   -13.8040 
  151.5000   296.2920     2.3460    51.4160    24.1620    16.2430    14.5650    16.5170   -13.9260 
  151.6250   298.0810     2.3150    51.0290    24.1550    15.9450    14.4360    16.2970   -14.0350 
  151.7500   298.6530     2.3300    50.1590    24.1920    15.1070    14.2660    16.0430   -14.1150 
  151.8750   296.9200     2.3740    50.2370    24.2080    14.3680    14.0800    15.7970   -14.2050 
  152.0000   293.8050     2.4190    51.9390    24.1260    13.9490    13.8770    15.5570   -14.2920 
  152.1250   292.5080     2.4490    53.4430    23.9630    13.6430    13.6380    15.2920   -14.3520 
  152.2500   294.4230     2.4700    53.7140    23.8560    13.0030    13.3660    14.9950   -14.4050 
  152.3750   298.1870     2.4850    52.5860    23.7960    12.1040    13.0840    14.6900   -14.4360 
  152.5000   301.0020     2.4930    51.4150    23.7230    11.3630    12.8210    14.4220   -14.4270 
  152.6250   300.3910     2.4940    51.5690    23.7250    11.4180    12.6020    14.2280   -14.3690 
  152.7500   297.6270     2.4860    53.5570    23.8340    11.7930    12.4150    14.0820   -14.2920 
  152.8750   294.8940     2.4680    56.1200    23.9260    11.8460    12.2570    13.9550   -14.2070 
  153.0000   293.7690     2.4500    57.4700    23.9660    11.4780    12.1470    13.8430   -14.1340 
  153.1250   294.0150     2.4470    57.3870    23.9920    11.1050    12.1460    13.8000   -14.0930 
  153.2500   293.4940     2.4530    57.5290    24.0180    11.1830    12.2980    13.8980   -14.0790 
  153.3750   291.0330     2.4620    58.2080    23.9740    11.9080    12.6470    14.2070   -14.0790 
  153.5000   286.9720     2.4780    58.3010    23.8050    13.1420    13.1990    14.7330   -14.0970 
  153.6250   282.8100     2.5070    56.5230    23.5240    13.8580    13.9180    15.4130   -14.1810 
  153.7500   279.5890     2.5370    54.9450    23.2490    13.9160    14.6720    16.0950   -14.3040 
  153.8750   277.3070     2.5520    55.2880    23.0490    13.9210    15.3500    16.6720   -14.4550 
  154.0000   275.7800     2.5550    56.6780    22.9420    14.2280    15.8410    17.0610   -14.5970 
  154.1250   275.3430     2.5550    56.4330    22.9050    14.4380    16.0050    17.1600   -14.7180 
  154.2500   276.4240     2.5580    54.0740    22.8430    13.9510    15.8430    16.9750   -14.8230 
  154.3750   279.8390     2.5580    54.4430    22.7840    13.0580    15.3530    16.4920   -14.9370 
  154.5000   286.2300     2.5490    58.3430    22.7200    12.0730    14.5690    15.7190   -15.0910 
  154.6250   295.1470     2.5320    60.1550    22.6780    11.0220    13.5510    14.6970   -15.2290 
  154.7500   303.4700     2.5160    58.1930    22.6770    10.1560    12.4510    13.5680   -15.3660 
  154.8750   308.9590     2.4990    56.6100    22.6750     9.4760    11.4070    12.4700   -15.5080 
  155.0000   312.0620     2.4790    58.4020    22.6450     8.9410    10.5980    11.6140   -15.6950 
  155.1250   317.3150     2.4560    61.6240    22.6060     8.6250    10.3640    11.4570   -15.9530 
  155.2500   328.4080     2.4310    63.9020    22.6470     8.8820    10.9280    12.3860   -16.2990 
  155.3750   344.0750     2.4010    67.6980    22.6880    10.4610    12.6980    14.9790   -16.7190 
  155.5000   358.0670     2.3720    72.9550    22.5560    15.3580    16.3730    20.0050   -17.1840 
  155.6250   361.6330     2.3570    76.1080    22.3450    26.5380    23.8260    29.2390   -17.7040 
  155.7500   356.3330     2.3510    76.0130    22.3080    43.2720    36.0640    43.3230   -18.2390 
  155.8750   349.3410     2.3400    75.7160    22.2970    58.1380    53.3560    62.4710   -18.7930 
  156.0000   348.4760     2.3180    76.8390    22.2210    64.1340    73.1650    84.3290   -19.3190 
  156.1250   357.5030     2.2890    74.8180    22.1690    64.3010    89.2070   102.0060   -19.7960 
  156.2500   370.5760     2.2580    67.4620    22.2650    72.0500    98.1600   111.2790   -20.2030 
  156.3750   381.7790     2.2270    65.4480    22.5560    88.7100    99.5900   111.8910   -20.5420 
  156.5000   385.9190     2.2070    73.4600    23.0730   100.0710    93.3770   104.0930   -20.8250 
  156.6250   378.3720     2.2230    81.0400    23.4990    89.2560    78.9400    87.2630   -21.0370 
  156.7500   364.5090     2.2690    79.2590    23.6480    66.4010    61.4210    67.1360   -21.2010 
  156.8750   354.3420     2.3240    75.4540    23.5960    43.8260    45.6520    49.0620   -21.3320 
  157.0000   357.7880     2.3590    81.4670    23.6070    27.9220    34.3040    35.9380   -21.4230 
  157.1250   377.2790     2.3630    93.0850    23.8940    20.6750    28.0520    28.5700   -21.4460 
  157.2500   399.2580     2.3500    98.2470    24.2520    19.8210    24.9240    24.8480   -21.4170 
  157.3750   413.8290     2.3310    93.8210    24.4830    22.6160    23.8640    23.5990   -21.3240 
  157.5000   418.7340     2.3160    86.6240    24.5430    26.0160    23.9990    23.7280   -21.1790 
  157.6250   418.0170     2.3070    87.1840    24.4730    25.5870    24.2930    23.9440   -21.0160 
  157.7500   417.5330     2.3010    90.8120    24.3590    23.2350    23.6740    23.1080   -20.8590 
  157.8750   418.8850     2.3010    92.1930    24.2990    21.8430    21.7760    20.9040   -20.6650 
  158.0000   421.8510     2.3150    92.2410    24.2880    20.1960    18.9960    17.7930   -20.4900 
  158.1250   425.4440     2.3480    96.4680    24.2960    15.8450    16.1880    14.7280   -20.3570 
  158.2500   428.5200     2.3780   100.9330    24.2940    11.5200    13.9630    12.3840   -20.2700 
  158.3750   430.5840     2.3910   102.2040    24.2940     9.1910    12.4870    10.9250   -20.2520 
  158.5000   431.3530     2.3860   100.3290    24.2870     8.7350    11.7230    10.2690   -20.2640 
  158.6250   430.2430     2.3800    96.6910    24.2630     9.2560    11.6450    10.3410   -20.3050 
  158.7500   427.6760     2.3800    94.0190    24.2240     9.9670    11.9950    10.8460   -20.3740 
  158.8750   424.5830     2.3800    95.0920    24.1860    10.5210    12.5940    11.5760   -20.4840 
  159.0000   422.1900     2.3730    97.3860    24.1480    10.7680    13.2680    12.3430   -20.5870 
  159.1250   421.5130     2.3620    95.4300    24.1380    11.2560    13.9230    13.0650   -20.6840 
  159.2500   422.0300     2.3540    91.1270    24.1540    12.4640    14.6160    13.8440   -20.7980 
  159.3750   422.8400     2.3450    87.7880    24.1440    14.2610    15.4940    14.8730   -20.8940 
  159.5000   423.0630     2.3280    84.3990    24.0300    16.1750    16.7670    16.4060   -20.9780 
  159.6250   422.4010     2.3060    78.9110    23.8200    18.6140    18.8470    18.9350   -21.0560 
  159.7500   421.5900     2.2880    73.6630    23.7050    22.5490    21.9120    22.6460   -21.1090 
  159.8750   420.9940     2.2740    70.5610    23.6750    29.2290    26.1230    27.6910   -21.1620 
