~V
VERS. 2.00: Ver 2.00
~W
STRT.M 64.0000:
STOP.M 268.0000:
STEP.M 0.1250:
NULL. -999.2500:
UWI. DF3002:
~C
DEPT.M :
GR.API :
RML.OHMM :
RI. :
RXO.OHMM :
DEN.GM/CC :
SP.MV :
~A
# ...
  205.6250    69.6010   120.9710   103.8090    92.3310     2.2090   -30.1500 
  205.7500    72.0950   127.5750   110.0210   102.9350     2.2190   -30.3620 
  205.8750    72.4230   134.7190   116.9760   120.0560     2.2260   -30.5240 
  206.0000    71.2310   141.7140   124.1000   130.3740     2.2290   -30.7560 
  206.1250    69.5950   147.6330   130.5290   129.8650     2.2280   -30.9000 
  206.2500    69.0270   152.2030   135.8000   129.5010     2.2220   -31.0580 
  206.3750    70.0120   155.0080   139.6610   130.5150     2.2130   -31.2060 
  206.5000    69.3590   155.9180   141.8890   128.6220     2.2030   -31.3050 
  206.6250    66.2680   154.1560   141.5960   129.8920     2.1960   -31.3670 
  206.7500    64.9080   149.7840   138.3890   131.2320     2.1920   -31.4390 
  206.8750    67.4550   142.8110   131.9290   127.7680     2.1910   -31.5060 
  207.0000    71.2930   134.8690   122.6730   124.3190     2.1910   -31.5550 
  207.1250    73.2690   126.3550   111.9900   118.1160     2.1920   -31.5600 
  207.2500    73.4970   117.8300   102.1210   104.6970     2.1930   -31.5950 
  207.3750    72.6270   108.9570    94.5780    86.0890     2.1960   -31.6020 
  207.5000    72.4610   104.0880    90.2480    74.1210     2.1990   -31.6410 
  207.6250    73.5800   103.9410    89.9440    74.9020     2.2020   -31.7670 
  207.7500    73.3930   107.4490    92.8420    79.9190     2.2030   -31.7990 
  207.8750    72.5000   114.0450    98.4540    85.7650     2.2040   -31.9050 
  208.0000    72.0430   122.9510   106.0750    92.0550     2.2040   -31.9520 
  208.1250    71.7530   133.2350   114.8450   101.1800     2.2050   -32.0880 
  208.2500    70.1940   143.5110   123.5390   114.3920     2.2050   -32.2690 
  208.3750    68.6240   152.9470   131.4230   125.6900     2.2070   -32.3450 
  208.5000    69.6970   161.1320   138.1090   130.3910     2.2100   -32.4830 
  208.6250    71.2220   168.0900   143.5210   132.4540     2.2150   -32.4890 
  208.7500    70.2130   174.6590   148.3730   132.3100     2.2210   -32.5710 
  208.8750    66.7750   181.3680   153.1690   137.8590     2.2240   -32.5670 
  209.0000    64.9240   188.2550   158.0890   146.0620     2.2210   -32.5560 
  209.1250    66.1900   194.5350   162.7190   151.7360     2.2060   -32.5820 
  209.2500    67.2510   199.2520   166.4010   151.7650     2.1820   -32.4430 
  209.3750    68.0240   201.7340   168.6400   151.2700     2.1550   -32.3870 
  209.5000    69.2570   201.8240   169.2820   152.8080     2.1330   -32.3240 
  209.6250    70.4510   199.6030   168.3420   149.5390     2.1260   -32.1900 
  209.7500    71.1520   195.9950   166.4210   144.5580     2.1310   -32.1010 
  209.8750    72.8970   191.3210   163.6860   143.0550     2.1420   -32.0770 
  210.0000    74.6930   185.6460   160.0920   143.9150     2.1550   -31.9760 
  210.1250    74.9470   178.7380   155.3040   142.5150     2.1660   -31.8720 
  210.2500    73.2750   170.7090   149.3630   136.8500     2.1780   -31.8360 
  210.3750    70.3090   161.5300   142.2420   126.4650     2.1930   -31.8360 
  210.5000    67.1400   151.3370   134.0770   118.6120     2.2100   -31.7630 
  210.6250    65.7790   140.7140   125.3280   111.1040     2.2260   -31.7500 
  210.7500    66.5550   130.7790   116.9630   109.9660     2.2360   -31.6500 
  210.8750    68.3660   122.4800   109.8100   105.4130     2.2380   -31.5310 
  211.0000    70.9890   116.5060   104.5310    97.6560     2.2320   -31.5250 
  211.1250    74.4030   113.6510   101.9160    89.6240     2.2200   -31.3670 
  211.2500    76.3270   113.3790   101.6080    85.8890     2.2080   -31.2870 
  211.3750    75.8020   115.2490   103.2810    88.6340     2.1990   -31.0910 
  211.5000    74.7530   118.4870   106.3000    93.0900     2.1960   -30.9390 
  211.6250    72.8250   121.8190   109.6010    95.3330     2.1960   -30.8380 
  211.7500    68.4780   123.7940   111.8620    98.7420     2.1960   -30.7010 
  211.8750    64.0380   123.4390   112.1630   104.7580     2.1960   -30.6410 
  212.0000    63.7230   120.3350   110.0450   111.5990     2.1960   -30.4870 
  212.1250    68.6370   114.3510   105.2560   108.7080     2.2000   -30.4470 
  212.2500    71.3200   106.7760    98.8510    98.3020     2.2080   -30.3220 
  212.3750    71.0490    98.6540    91.7120    88.3690     2.2170   -30.2110 
  212.5000    70.7190    90.9590    84.7200    83.0760     2.2270   -30.1510 
  212.6250    71.6420    84.5500    78.6910    80.1070     2.2340   -30.0020 
  212.7500    73.4000    79.4190    73.7360    73.4870     2.2400   -29.9320 
  212.8750    74.7940    75.4530    69.8150    64.9450     2.2460   -29.8060 
  213.0000    74.4400    72.4830    66.8070    59.1590     2.2490   -29.6260 
  213.1250    70.5870    70.5490    64.7460    59.4480     2.2500   -29.5130 
  213.2500    68.0450    69.5240    63.4980    58.1210     2.2480   -29.4770 
  213.3750    72.0210    69.5240    63.1500    55.6960     2.2440   -29.4310 
  213.5000    78.6850    70.7030    63.8280    54.7360     2.2360   -29.3700 
  213.6250    80.0550    73.4000    65.8220    59.0470     2.2250   -29.3360 
  213.7500    76.6570    77.3430    68.8860    62.2050     2.2140   -29.3460 
  213.8750    71.8930    82.2460    72.7480    65.6350     2.2040   -29.3460 
  214.0000    69.0050    87.5960    76.9320    71.8240     2.1960   -29.4800 
  214.1250    69.7220    92.5660    80.6730    79.2730     2.1910   -29.5850 
  214.2500    72.6130    96.4170    83.3580    81.9650     2.1860   -29.6170 
  214.3750    73.9830    98.5990    84.5670    82.0790     2.1790   -29.7450 
  214.5000    73.2380    98.8300    84.1380    82.9640     2.1730   -29.7670 
  214.6250    74.2410    96.9480    82.0390    81.4170     2.1710   -29.8670 
  214.7500    78.3370    93.9070    79.0830    78.0470     2.1730   -29.8550 
  214.8750    81.9030    90.6450    76.0210    75.0380     2.1810   -29.8110 
  215.0000    80.2320    88.2690    73.7180    72.8270     2.1950   -29.6690 
  215.1250    74.5980    88.2070    73.3420    69.3680     2.2130   -29.3850 
  215.2500    69.7160    90.5390    75.0430    67.4460     2.2320   -29.1750 
  215.3750    67.6370    94.6140    78.4370    69.0880     2.2470   -28.8360 
  215.5000    68.4790    98.8180    82.3490    75.4740     2.2530   -28.6070 
  215.6250    70.4130   100.3510    84.5910    83.4380     2.2480   -28.4070 
  215.7500    70.7910    97.8050    83.7600    87.7130     2.2410   -28.2160 
  215.8750    68.0390    91.1620    79.5190    86.0130     2.2370   -28.1170 
  216.0000    65.6760    81.9210    72.7630    73.1500     2.2410   -28.0520 
  216.1250    67.5740    72.5220    65.2490    56.6800     2.2530   -28.0350 
  216.2500    71.3900    64.7100    58.6370    48.6940     2.2640   -28.0640 
  216.3750    74.5060    58.8500    53.4490    46.6450     2.2680   -28.1340 
  216.5000    76.2410    54.6220    49.5750    46.4400     2.2620   -28.2040 
  216.6250    77.0100    51.5680    46.7080    49.3380     2.2500   -28.2550 
  216.7500    78.5190    48.9850    44.2690    52.5370     2.2420   -28.3290 
  216.8750    80.3340    46.6170    42.0340    45.0180     2.2400   -28.3540 
  217.0000    81.3750    44.4410    39.9810    36.2760     2.2480   -28.3930 
  217.1250    81.0630    42.8610    38.4350    33.7020     2.2620   -28.5550 
  217.2500    78.9920    42.4730    37.8780    34.0860     2.2750   -28.5770 
  217.3750    75.1720    44.1720    39.0850    34.4480     2.2830   -28.6480 
  217.5000    72.2820    49.0860    43.1200    35.7260     2.2820   -28.6740 
  217.6250    73.7630    59.5350    52.2130    41.7600     2.2710   -28.6280 
  217.7500    74.4560    76.0680    66.9240    56.6420     2.2580   -28.6190 
  217.8750    71.6750    98.6030    87.1510    82.0000     2.2460   -28.5140 
  218.0000    69.0590   124.6730   110.5750   118.2410     2.2380   -28.4670 
  218.1250    69.3400   147.2520   130.8870   142.2920     2.2310   -28.2590 
  218.2500    68.3140   158.2060   141.0790   137.1360     2.2220   -28.0610 
  218.3750    64.6180   151.7000   136.3570   125.4270     2.2090   -27.8620 
