~V
VERS. 2.00: Ver 2.00
~W
STRT.M 55.0000:
STOP.M 272.0000:
STEP.M 0.1250:
NULL. -999.2500:
UWI. DF3078:
~C
DEPT.M :
GR.API :
CALI.CM :
RXO.OHMM :
RI. :
RML.OHMM :
DEN.GM/CC :
SP.MV :
~A
# ...
  201.2500   102.3390    24.1420     9.1130     6.9800     9.8240     2.4370   -10.8820 
  201.3750    95.7070    24.3230     9.7930     7.6590    10.8410     2.4230   -11.7700 
  201.5000    86.5490    24.4520    10.8590     8.3620    11.7840     2.4000   -12.6270 
  201.6250    83.7310    24.5210    12.3780     9.0140    12.6130     2.3690   -13.3790 
  201.7500    86.8760    24.4640    13.4590     9.6320    13.4110     2.3540   -13.9990 
  201.8750    89.8090    24.2960    13.9030    10.2670    14.2630     2.3660   -14.4690 
  202.0000    88.5840    24.1420    14.5050    10.9510    15.1960     2.4000   -14.8110 
  202.1250    85.9590    24.1100    16.6610    11.6280    16.0890     2.4360   -15.0010 
  202.2500    86.9780    24.1240    19.5170    12.1310    16.6800     2.4610   -15.0910 
  202.3750    89.8070    24.1260    20.4180    12.2920    16.7320     2.4650   -15.0810 
  202.5000    91.1950    24.0810    18.4340    12.0420    16.2090     2.4490   -15.0300 
  202.6250    89.4020    24.0070    15.7140    11.5060    15.3950     2.4230   -14.9330 
  202.7500    88.6340    23.9440    14.1120    11.0430    14.8370     2.4070   -14.8140 
  202.8750    91.2000    23.8850    13.5860    10.8980    14.8550     2.4110   -14.6810 
  203.0000    93.9330    23.8540    14.0570    11.1930    15.5220     2.4310   -14.5060 
  203.1250    91.4930    23.8800    16.0540    11.9220    16.6520     2.4480   -14.2690 
  203.2500    86.2100    23.8990    19.0970    12.7430    17.6530     2.4480   -13.9450 
  203.3750    84.4210    23.9030    21.4400    13.2970    18.0300     2.4300   -13.5330 
  203.5000    87.7740    23.8650    20.9070    13.3190    17.5640     2.4090   -13.0170 
  203.6250    91.6630    23.8530    17.5730    12.7390    16.4050     2.3990   -12.4010 
  203.7500    95.1380    23.8760    14.8180    11.8790    15.0880     2.3990   -11.6880 
  203.8750   100.0480    23.9370    13.3860    10.9220    13.8140     2.4030   -10.8690 
  204.0000   103.1320    24.0180    12.6770     9.9340    12.5680     2.4050    -9.9800 
  204.1250    98.8560    23.9920    11.8430     8.9010    11.2370     2.4040    -9.0260 
  204.2500    91.0380    23.8920    10.5430     7.8580     9.8740     2.3990    -8.0760 
  204.3750    84.6050    23.8310     8.7700     6.9050     8.6670     2.3950    -7.1540 
  204.5000    79.4300    23.8180     7.0250     6.1680     7.8280     2.4030    -6.3010 
  204.6250    74.0710    23.8480     6.1400     5.8040     7.5650     2.4390    -5.5530 
  204.7500    71.0990    23.8690     6.2530     5.7870     7.7700     2.4830    -4.9320 
  204.8750    72.0370    23.9350     6.8790     6.0810     8.3080     2.5090    -4.4260 
  205.0000    74.7380    24.0160     7.4330     6.5800     8.9560     2.5060    -4.0440 
  205.1250    77.6040    24.0190     7.6160     7.0690     9.3810     2.4900    -3.7680 
  205.2500    80.1090    23.9580     7.7590     7.3150     9.3770     2.4770    -3.5440 
  205.3750    80.3520    23.8800     7.7780     7.2170     8.9160     2.4630    -3.3790 
  205.5000    75.6630    23.8430     7.2710     6.8230     8.1470     2.4480    -3.2210 
  205.6250    67.1560    23.9120     6.3720     6.2820     7.3320     2.4420    -3.0680 
  205.7500    61.4330    24.0620     5.6410     5.7880     6.6910     2.4470    -2.9220 
  205.8750    62.5130    24.2440     5.3020     5.4300     6.3140     2.4540    -2.8030 
  206.0000    67.5250    24.4130     5.1750     5.2390     6.2020     2.4500    -2.7150 
  206.1250    69.9670    24.5240     5.1150     5.2240     6.3110     2.4320    -2.6540 
  206.2500    71.3780    24.5290     5.1220     5.3000     6.4890     2.4120    -2.6290 
  206.3750    73.6590    24.4940     5.2180     5.3980     6.6380     2.3990    -2.6180 
  206.5000    75.1120    24.4350     5.3320     5.4530     6.6920     2.3950    -2.6530 
  206.6250    74.9670    24.3900     5.3320     5.4170     6.6210     2.3900    -2.7250 
  206.7500    78.2100    24.3480     5.2410     5.3170     6.4950     2.3830    -2.8210 
  206.8750    84.5440    24.3160     5.1540     5.2010     6.3860     2.3800    -2.9450 
  207.0000    87.6900    24.2770     5.1460     5.1160     6.3500     2.3870    -3.0930 
  207.1250    85.3360    24.2300     5.2840     5.0950     6.4070     2.4000    -3.2790 
  207.2500    84.3190    24.1810     5.5890     5.1140     6.5070     2.4070    -3.4860 
  207.3750    88.0210    24.1320     6.0710     5.1520     6.6310     2.4010    -3.7160 
  207.5000    93.0910    24.0960     6.6230     5.2260     6.8340     2.3850    -3.9590 
  207.6250    93.2380    24.0240     6.9160     5.4490     7.3100     2.3680    -4.2230 
  207.7500    89.0530    23.9560     7.2020     5.9060     8.1620     2.3670    -4.4740 
  207.8750    83.5500    23.9020     8.1100     6.6590     9.4250     2.3910    -4.7350 
  208.0000    78.1990    23.8670    10.2730     7.7220    11.0130     2.4340    -4.9710 
  208.1250    74.6360    23.8630    14.2780     9.0380    12.6540     2.4680    -5.2000 
  208.2500    76.1350    23.8310    16.6080    10.3280    13.9500     2.4670    -5.4590 
  208.3750    80.5510    23.7250    16.1190    11.3380    14.6960     2.4380    -5.7230 
  208.5000    83.0450    23.6800    15.2440    11.9960    15.0300     2.4040    -5.9960 
  208.6250    80.3830    23.6280    16.6380    12.4920    15.4310     2.3930    -6.2600 
  208.7500    76.6520    23.5430    17.6660    13.1820    16.3260     2.4020    -6.5420 
  208.8750    74.3640    23.4460    18.0620    14.2970    17.8740     2.4090    -6.8200 
  209.0000    74.2430    23.4240    19.2760    15.8800    19.9490     2.4210    -7.1130 
  209.1250    77.2840    23.5320    22.4640    17.6540    21.9850     2.4090    -7.4210 
  209.2500    80.2780    23.6540    24.7140    18.9740    23.1530     2.3920    -7.7040 
  209.3750    81.1360    23.6780    24.1870    19.3180    22.9270     2.3760    -7.9880 
  209.5000    81.5500    23.6660    21.2750    18.5850    21.4480     2.3630    -8.2840 
  209.6250    83.7170    23.6670    18.6920    17.2830    19.6950     2.3620    -8.6040 
  209.7500    86.8850    23.6410    17.4300    16.3960    18.9010     2.3740    -8.9270 
  209.8750    87.4320    23.5950    17.5330    16.6360    19.8140     2.3940    -9.2510 
  210.0000    82.9730    23.5430    19.7430    18.7220    23.0180     2.4040    -9.5710 
  210.1250    76.5040    23.4700    28.1100    24.2650    29.8470     2.3850    -9.8760 
  210.2500    72.6880    23.3710    43.9890    33.9990    40.8710     2.3430   -10.1530 
  210.3750    70.9190    23.2420    62.1190    48.2430    56.7360     2.2880   -10.4260 
  210.5000    68.7010    23.1550    74.2950    65.3160    76.1360     2.2370   -10.6630 
  210.6250    66.9110    23.1000    75.6370    79.9000    92.3660     2.2090   -10.8750 
  210.7500    66.8280    23.0200    69.5920    87.6900    99.1960     2.2050   -11.0750 
  210.8750    66.6230    22.8360    61.2280    88.6300    97.5730     2.2110   -11.2560 
  211.0000    65.9430    22.5580    55.5460    85.6970    92.6240     2.2110   -11.4070 
  211.1250    66.6700    22.5190    54.6310    82.0900    88.3880     2.2040   -11.5550 
  211.2500    67.4230    22.7740    56.0610    79.4590    85.8560     2.2090   -11.7120 
  211.3750    67.5880    23.0400    57.1790    78.1180    84.8980     2.2330   -11.8600 
  211.5000    69.3400    23.1160    56.0850    77.8780    85.0030     2.2630   -11.9990 
  211.6250    72.7640    23.0020    53.6760    78.2240    85.3710     2.2680   -12.1360 
  211.7500    75.4090    22.8530    51.7670    78.4120    85.2250     2.2460   -12.2760 
  211.8750    76.0190    22.7840    51.5650    78.0850    84.3170     2.2160   -12.4300 
  212.0000    75.0860    22.7710    52.1980    77.2380    82.8440     2.2000   -12.6030 
  212.1250    73.9750    22.7610    51.7250    76.1980    81.3350     2.2100   -12.7890 
  212.2500    72.0910    22.7510    50.5490    75.4490    80.2850     2.2310   -12.9960 
  212.3750    71.1970    22.7870    49.8170    75.2650    79.8890     2.2490   -13.2310 
