~V
VERS. 2.00: Ver 2.00
~W
STRT.M 60.0000:
STOP.M 270.0000:
STEP.M 0.1250:
NULL. -999.2500:
UWI. DF3075:
~C
DEPT.M :
GR.API :
RML.OHMM :
RI. :
RXO.OHMM :
CALI.CM :
DEN.GM/CC :
SP.MV :
~A
# ...
  150.0000    98.3460     7.7340     6.9200     7.0030    24.3220     2.3600   -17.3820 
  150.1250    98.2080     7.8410     6.9620     6.6730    24.3360     2.3440   -17.4040 
  150.2500    99.1840     7.8930     7.0130     6.5310    24.3490     2.3290   -17.4640 
  150.3750   100.2320     7.8450     7.0230     6.4680    24.3700     2.3170   -17.5050 
  150.5000   100.3520     7.7320     6.9820     6.2820    24.3980     2.3130   -17.5710 
  150.6250    97.5200     7.6260     6.9050     6.2240    24.4590     2.3200   -17.6420 
  150.7500    92.5700     7.5470     6.8150     6.1460    24.5530     2.3330   -17.7360 
  150.8750    89.2520     7.4760     6.7320     6.1040    24.6840     2.3480   -17.8240 
  151.0000    88.8630     7.4160     6.6730     6.1010    24.8510     2.3580   -17.8880 
  151.1250    89.4170     7.4360     6.6720     6.2900    24.9350     2.3520   -17.9520 
  151.2500    89.3660     7.5670     6.7440     6.9280    24.9380     2.3320   -18.0350 
  151.3750    90.9210     7.7950     6.8710     7.9020    24.8380     2.3070   -18.1260 
  151.5000    93.6600     8.0700     7.0470     8.6510    24.6950     2.2900   -18.1990 
  151.6250    90.9930     8.2760     7.3170     9.0030    24.6020     2.2960   -18.2800 
  151.7500    86.7130     8.6040     7.7320    10.5680    24.7490     2.3280   -18.3400 
  151.8750    85.0420     9.1530     8.3540    13.5990    24.8760     2.3730   -18.4180 
  152.0000    86.3580    10.4760     9.2760    18.0610    24.6300     2.4110   -18.5170 
  152.1250    86.2450    12.6710    10.7850    17.4910    24.1820     2.4160   -18.6420 
  152.2500    83.7690    16.3430    13.0490    16.5550    24.0530     2.3900   -18.7670 
  152.3750    78.7100    21.4090    16.2670    20.9350    24.2610     2.3460   -18.8690 
  152.5000    71.8440    26.4090    20.4440    28.0470    24.6790     2.3010   -19.0050 
  152.6250    67.2270    31.6920    25.1670    34.8380    25.0760     2.2680   -19.0660 
  152.7500    65.5330    36.2660    29.3370    39.4680    25.1900     2.2440   -19.1000 
  152.8750    65.0330    38.6340    31.8760    42.9140    24.8590     2.2220   -19.1100 
  153.0000    65.6660    37.8280    31.9570    45.5610    24.3670     2.2000   -19.0420 
  153.1250    69.2070    33.0460    29.0200    46.0700    23.9180     2.1810   -18.9610 
  153.2500    74.7530    26.6150    24.4260    42.4020    23.7500     2.1710   -18.7910 
  153.3750    80.2330    20.1300    19.5000    31.0550    23.7140     2.1770   -18.6220 
  153.5000    85.3670    14.7630    15.2760    17.6510    23.7170     2.2000   -18.3890 
  153.6250    90.5340    12.6340    12.5000    10.1180    23.7260     2.2310   -18.1990 
  153.7500    94.6100    11.8410    11.0990     8.5640    23.7470     2.2600   -18.0040 
  153.8750    95.4790    12.3390    11.0450     9.2880    23.7790     2.2850   -17.7860 
  154.0000    92.2760    14.0440    12.2450    11.6430    23.8240     2.3130   -17.5950 
  154.1250    84.6120    16.9280    14.7170    16.3710    23.8600     2.3580   -17.3690 
  154.2500    75.3970    20.4420    17.9440    23.4710    23.8780     2.4220   -17.1680 
  154.3750    66.9620    24.0570    21.4360    30.1580    23.8840     2.4960   -16.9530 
  154.5000    60.4240    27.1480    24.5880    32.6900    23.9160     2.5650   -16.7530 
  154.6250    59.9010    29.0010    26.6660    32.7710    24.0400     2.6070   -16.5380 
  154.7500    63.4570    29.7020    27.6490    32.7220    24.2380     2.6240   -16.3560 
  154.8750    66.5060    29.5440    27.7340    32.5480    24.4810     2.6260   -16.1750 
  155.0000    65.4910    29.0040    27.2940    32.8590    24.6790     2.6240   -15.9900 
  155.1250    63.4080    28.5580    26.7180    30.1220    24.6130     2.6280   -15.8280 
  155.2500    63.2130    28.3180    26.2060    28.1460    24.4540     2.6370   -15.7180 
  155.3750    62.3180    28.1670    25.7820    27.2060    24.3590     2.6440   -15.6310 
  155.5000    60.2650    27.9590    25.4210    26.8140    24.3640     2.6440   -15.5690 
  155.6250    60.0250    27.6660    25.0980    27.0290    24.4410     2.6340   -15.5500 
  155.7500    60.0190    27.4030    24.8120    26.1620    24.5470     2.6190   -15.5570 
  155.8750    60.2850    27.2530    24.5740    25.0500    24.6450     2.6010   -15.5760 
  156.0000    61.8770    27.2070    24.4050    23.8360    24.6610     2.5820   -15.6660 
  156.1250    64.7790    27.2050    24.3270    24.1640    24.6060     2.5650   -15.7440 
  156.2500    65.4530    27.1720    24.2980    25.4230    24.5420     2.5540   -15.7980 
  156.3750    64.4050    27.0760    24.2510    26.2180    24.5440     2.5510   -15.8600 
  156.5000    64.0110    26.8780    24.1180    26.4440    24.6000     2.5560   -15.9290 
  156.6250    65.0500    26.4940    23.8510    25.4160    24.6940     2.5660   -15.9880 
  156.7500    66.5630    25.9510    23.5060    24.8660    24.8040     2.5740   -16.0140 
  156.8750    67.1540    25.3840    23.1520    24.6320    24.9000     2.5750   -16.0680 
  157.0000    65.4340    24.9560    22.8600    23.8750    24.9290     2.5690   -16.0570 
  157.1250    62.2170    24.7530    22.6440    22.5360    24.8820     2.5540   -16.0690 
  157.2500    60.3860    24.6140    22.4150    21.6520    24.8370     2.5410   -16.0880 
  157.3750    61.2630    24.3560    22.0870    21.7840    24.7150     2.5360   -16.0970 
  157.5000    63.3810    23.8540    21.5900    23.0460    24.5020     2.5450   -16.0880 
  157.6250    63.8930    23.0930    20.8860    24.8270    24.4380     2.5640   -16.0920 
  157.7500    65.0630    22.2880    20.0850    24.1330    24.4640     2.5830   -16.1150 
  157.8750    68.8680    21.6050    19.3220    20.2750    24.4590     2.5920   -16.1430 
  158.0000    72.0310    21.1240    18.7340    16.5320    24.3060     2.5890   -16.1970 
  158.1250    67.9340    20.8960    18.4440    15.5900    24.0910     2.5750   -16.2420 
  158.2500    60.7880    20.8570    18.4000    17.0900    23.8790     2.5610   -16.2980 
  158.3750    58.1220    20.9370    18.5090    19.5810    23.7800     2.5540   -16.3640 
  158.5000    59.8820    20.9930    18.6140    22.3080    23.7650     2.5530   -16.4050 
  158.6250    63.6260    20.8130    18.5530    21.9620    23.7790     2.5580   -16.4060 
  158.7500    67.4160    20.3580    18.2800    19.6260    23.8190     2.5640   -16.4020 
  158.8750    70.5900    19.7270    17.8260    17.5940    23.9170     2.5660   -16.3470 
  159.0000    72.0100    19.1180    17.2830    16.2550    24.0630     2.5610   -16.3010 
  159.1250    72.5480    18.7120    16.7750    15.5690    24.2990     2.5480   -16.2400 
  159.2500    75.6890    18.4590    16.3580    15.2210    24.4900     2.5320   -16.2160 
  159.3750    77.4850    18.2710    16.0360    14.9050    24.5000     2.5200   -16.2050 
  159.5000    73.5210    18.0890    15.8010    14.8240    24.4010     2.5170   -16.2220 
  159.6250    67.0260    17.9240    15.6540    14.7900    24.2350     2.5270   -16.2720 
  159.7500    64.6120    17.8190    15.5510    14.5090    23.9960     2.5390   -16.3200 
  159.8750    64.7210    17.7860    15.4890    13.8310    23.6710     2.5430   -16.4130 
  160.0000    63.3080    17.8280    15.4900    12.8380    23.2790     2.5340   -16.4900 
  160.1250    64.1010    17.9900    15.6010    12.6180    22.7420     2.5140   -16.6000 
  160.2500    68.5990    18.2820    15.8310    13.0140    22.1690     2.4910   -16.6670 
  160.3750    72.6200    18.7060    16.1810    13.6690    21.6010     2.4710   -16.7070 
  160.5000    74.4180    19.2200    16.6140    14.0810    21.1870     2.4570   -16.7530 
  160.6250    76.8540    19.7250    17.0950    14.4190    20.8950     2.4460   -16.7530 
  160.7500    80.8230    20.1240    17.5550    14.6980    20.7100     2.4370   -16.7740 
  160.8750    82.1270    20.4000    17.9600    15.2550    20.6790     2.4290   -16.8050 
  161.0000    80.8730    20.5970    18.2950    15.8210    21.0570     2.4220   -16.8380 
  161.1250    78.7080    20.7790    18.5560    15.7320    21.5600     2.4180   -16.8510 
