~V
VERS. 2.00: Ver 2.00
~W
STRT.M 61.0000:
STOP.M 279.0000:
STEP.M 0.1250:
NULL. -999.2500:
UWI. DF3040:
~C
DEPT.M :
GR.API :
CALI.CM :
RXO.OHMM :
RI. :
RML.OHMM :
DEN.GM/CC :
SP.MV :
~A
# ...
  241.0000    58.5150    23.6290   127.1950   105.5960   108.8780     2.2630   -23.2410 
  241.1250    57.7340    23.6410   120.6300   109.0940   112.0540     2.2750   -23.1800 
  241.2500    58.1340    23.7910   118.2750   109.8120   112.2430     2.2950   -23.1160 
  241.3750    59.0570    23.9280   123.0870   107.4190   109.3420     2.3010   -23.0560 
  241.5000    59.5250    23.9890   126.3920   101.9460   103.2790     2.2830   -22.9850 
  241.6250    58.8760    23.8610   121.9410    93.8140    94.5820     2.2490   -22.8840 
  241.7500    59.7770    23.4610   112.8800    84.8150    85.2910     2.2290   -22.7680 
  241.8750    63.9690    23.0710    95.3490    76.2160    76.5280     2.2520   -22.6480 
  242.0000    69.3680    22.9970    67.8360    68.9680    69.2670     2.2960   -22.5270 
  242.1250    71.6640    22.9720    47.5230    63.9970    64.3950     2.3270   -22.4160 
  242.2500    68.8030    23.4410    47.8900    61.2180    61.7790     2.3270   -22.3170 
  242.3750    63.1340    23.6670    54.3890    60.5860    61.3480     2.2970   -22.2270 
  242.5000    57.9770    23.6750    57.7300    61.8730    62.7770     2.2630   -22.1550 
  242.6250    56.6990    23.8460    65.4120    64.7740    65.8530     2.2400   -22.0970 
  242.7500    59.1380    23.8390    73.4240    68.8930    69.8820     2.2360   -22.0550 
  242.8750    63.1130    23.7900    74.0090    73.1470    73.7580     2.2460   -22.0160 
  243.0000    66.9260    23.6330    72.7600    75.7060    75.8380     2.2580   -21.9910 
  243.1250    68.1540    23.6160    71.9260    74.8740    74.5630     2.2660   -21.9580 
  243.2500    67.0850    23.6040    82.6870    71.3910    70.7550     2.2650   -21.9230 
  243.3750    66.0760    23.5990    96.8000    65.7380    64.8910     2.2560   -21.8930 
  243.5000    66.8210    23.7540   102.1590    58.9540    58.1410     2.2470   -21.8620 
  243.6250    69.9170    23.6580    86.1900    53.1650    52.8800     2.2480   -21.8380 
  243.7500    72.6770    23.7620    55.2010    49.5500    50.0020     2.2690   -21.8110 
  243.8750    74.2550    23.8990    38.3090    48.3370    49.6190     2.3080   -21.7880 
  244.0000    73.6860    23.9220    49.9690    49.6940    51.7100     2.3430   -21.7710 
  244.1250    71.8020    23.8450    66.0210    53.4820    56.0010     2.3530   -21.7650 
  244.2500    73.0830    23.7710    66.1940    58.4210    61.1760     2.3410   -21.7650 
  244.3750    76.9590    23.7010    63.5170    63.7150    66.2600     2.3270   -21.7600 
  244.5000    79.6440    23.6780    70.8640    68.4070    70.2890     2.3190   -21.7710 
  244.6250    77.3700    23.7040    73.2060    70.6650    71.5870     2.3120   -21.7890 
  244.7500    73.0590    23.6690    74.7050    70.4210    70.5410     2.3000   -21.8170 
  244.8750    68.4460    23.6490    72.0090    68.5420    68.2960     2.2850   -21.8400 
  245.0000    65.9440    23.6450    64.9840    65.6630    65.2980     2.2730   -21.8620 
  245.1250    67.6140    23.7820    60.8600    61.8920    61.6570     2.2660   -21.8930 
  245.2500    68.6740    23.6910    61.0920    58.1720    58.1740     2.2590   -21.9260 
  245.3750    67.4410    23.6690    59.8420    55.2950    55.6310     2.2560   -21.9740 
  245.5000    64.9430    23.6460    55.8590    53.7180    54.5250     2.2550   -22.0210 
  245.6250    63.8300    23.5490    50.6570    54.2310    55.6780     2.2520   -22.0700 
  245.7500    63.6180    23.3770    48.2430    56.9540    59.0650     2.2390   -22.1060 
  245.8750    63.9620    23.3410    48.9610    61.6220    64.1830     2.2260   -22.1480 
  246.0000    64.4490    23.5300    60.7190    67.5500    70.2550     2.2260   -22.1740 
  246.1250    65.2520    23.5370    85.2010    73.9350    76.3820     2.2380   -22.1800 
  246.2500    67.6670    23.4240    89.3490    79.0540    80.7310     2.2500   -22.1830 
  246.3750    71.5020    23.3620    77.8490    80.7530    81.4240     2.2620   -22.1810 
  246.5000    74.0320    23.3560    83.1470    77.9410    77.5700     2.2680   -22.1550 
  246.6250    73.0050    23.4160    92.5330    71.2790    70.2620     2.2640   -22.1130 
  246.7500    70.8870    23.2640    84.5760    63.5030    62.3010     2.2520   -22.0730 
  246.8750    69.9020    22.7070    73.5000    56.4790    55.5870     2.2490   -22.0240 
  247.0000    69.8090    22.4150    67.0580    51.7330    51.6370     2.2570   -21.9480 
  247.1250    70.4150    22.3800    49.7050    50.6200    51.6280     2.2640   -21.8640 
  247.2500    71.9000    22.3850    34.0670    52.8140    54.9530     2.2610   -21.7650 
  247.3750    72.2290    22.4190    47.9670    58.2020    61.3890     2.2520   -21.6340 
  247.5000    68.6800    22.4990    83.8490    66.3160    70.3790     2.2490   -21.4840 
  247.6250    61.7970    22.6340   105.7550    75.9780    80.6360     2.2580   -21.3120 
  247.7500    59.6740    23.2300   106.8490    84.9560    89.8090     2.2650   -21.1240 
  247.8750    63.2680    23.5410   105.1720    91.6390    96.3560     2.2550   -20.9180 
  248.0000    66.5350    23.5910   104.8050    94.5940    98.5840     2.2330   -20.7220 
  248.1250    64.4800    23.5540   100.8810    92.6930    95.4950     2.2130   -20.5190 
  248.2500    61.6250    23.4490   101.9420    88.2230    90.3510     2.2040   -20.2950 
  248.3750    62.4100    23.5290   105.3890    83.2230    85.2330     2.2080   -20.0660 
  248.5000    64.1670    23.5910   101.4380    78.4620    80.6140     2.2120   -19.8560 
  248.6250    63.0130    23.5610    86.2070    74.4110    76.8770     2.2060   -19.6500 
  248.7500    61.9320    23.5230    75.9890    71.3800    74.3620     2.1900   -19.4410 
  248.8750    62.6570    23.3710    72.1020    69.7160    73.2320     2.1780   -19.2410 
  249.0000    63.5310    23.3030    72.4720    69.3860    73.2970     2.1810   -19.0380 
  249.1250    61.5710    23.3040    74.8320    70.0810    74.2380     2.1980   -18.8370 
  249.2500    59.8200    23.2790    76.7740    71.2280    75.2580     2.2240   -18.6260 
  249.3750    61.2040    23.1430    78.8130    72.3020    75.9850     2.2600   -18.4250 
  249.5000    64.6670    22.6490    77.0470    72.8740    75.9640     2.3080   -18.2020 
  249.6250    66.3380    22.4530    76.9520    72.5060    74.8530     2.3630   -17.9860 
  249.7500    65.0150    22.4520    76.1990    71.6230    73.4190     2.4130   -17.7850 
  249.8750    62.4060    22.4110    66.8830    70.7270    72.2260     2.4420   -17.5510 
  250.0000    61.9230    22.7230    56.5680    70.2130    71.6320     2.4510   -17.3120 
  250.1250    64.7970    22.7880    62.0820    69.5670    70.9270     2.4430   -17.0660 
  250.2500    67.9910    23.0560    72.3030    67.7440    68.9990     2.4250   -16.8510 
  250.3750    70.2030    23.5100    79.2620    64.3760    65.5490     2.4090   -16.6410 
  250.5000    73.2250    23.6170    79.8160    59.6150    60.5940     2.4110   -16.4330 
  250.6250    76.4750    23.3750    67.3080    53.8790    54.7470     2.4400   -16.2060 
  250.7500    77.0890    22.8360    54.7230    48.5220    49.4070     2.4780   -15.9520 
  250.8750    74.9640    22.7660    41.1790    44.9160    46.2140     2.5000   -15.7200 
  251.0000    71.6230    22.7290    32.2190    43.8750    46.0070     2.5020   -15.5060 
  251.1250    67.8040    22.9280    41.7240    46.6110    49.9000     2.4970   -15.3160 
  251.2500    65.4260    23.1360    64.4600    53.2460    57.7030     2.4980   -15.1250 
  251.3750    65.2980    23.4720   104.9980    63.4800    68.8850     2.5140   -14.9250 
  251.5000    66.7660    23.6420   208.7700    75.9870    82.0480     2.5480   -14.7440 
  251.6250    69.1740    23.7480   285.3510    87.1010    92.9150     2.6010   -14.5930 
  251.7500    70.2780    23.4290   235.5970    91.0430    95.1440     2.6680   -14.4600 
  251.8750    67.4230    23.3120   142.8580    83.8180    85.5190     2.7280   -14.3550 
  252.0000    60.5890    23.5300   151.8350    67.9930    68.0190     2.7570   -14.2800 
  252.1250    54.4130    23.4830   156.9880    50.5210    50.2220     2.7440   -14.2210 
