~V
VERS. 2.00: Ver 2.00
~W
STRT.M 61.0000:
STOP.M 279.0000:
STEP.M 0.1250:
NULL. -999.2500:
UWI. DF3040:
~C
DEPT.M :
GR.API :
CALI.CM :
RXO.OHMM :
RI. :
RML.OHMM :
DEN.GM/CC :
SP.MV :
~A
# ...
  139.7500    98.0390    23.3880     7.3000     5.7630     8.2740     2.4020   -18.7120 
  139.8750    92.3890    23.2640     8.3570     6.8280     9.9940     2.4310   -18.8120 
  140.0000    82.6130    22.9260    11.7290     8.3810    12.2890     2.4640   -18.8980 
  140.1250    70.8980    23.0120    20.5290    10.3450    14.7880     2.5230   -18.9970 
  140.2500    64.1870    23.3930    32.5340    12.1860    16.7730     2.6040   -19.0990 
  140.3750    64.8230    23.5390    40.0210    13.3150    17.6370     2.6710   -19.2150 
  140.5000    65.0390    23.3550    36.4690    13.2960    16.9980     2.6770   -19.3860 
  140.6250    62.9830    23.3410    26.2640    12.1640    15.1290     2.6040   -19.6180 
  140.7500    65.3370    23.1770    17.0860    10.6280    12.9240     2.4970   -19.8160 
  140.8750    72.4740    22.9450    10.8730     9.0750    10.9090     2.3970   -19.9590 
  141.0000    76.7650    22.4630     7.9520     7.7620     9.4040     2.3260   -20.0380 
  141.1250    73.6960    22.4050     7.7270     6.8330     8.4800     2.2880   -20.0060 
  141.2500    70.7250    22.4800     7.9150     6.2180     7.9440     2.2700   -19.8980 
  141.3750    74.0080    22.5250     8.2250     5.9040     7.7230     2.2720   -19.7950 
  141.5000    82.6380    22.6000     7.9410     5.8810     7.8450     2.3010   -19.7150 
  141.6250    88.0550    22.9660     6.9880     6.2160     8.3820     2.3510   -19.6450 
  141.7500    83.1070    23.2350     6.7500     6.8190     9.1750     2.3900   -19.6080 
  141.8750    73.7850    23.2820     8.8260     7.6030    10.0850     2.3970   -19.5860 
  142.0000    69.5720    23.2550    11.2970     8.4450    10.9270     2.3850   -19.5440 
  142.1250    69.4260    23.2380    11.4760     9.0900    11.3890     2.3780   -19.4560 
  142.2500    68.8910    23.1690    10.2820     9.3260    11.3080     2.3740   -19.3370 
  142.3750    71.1770    23.1090     9.6400     9.0900    10.6870     2.3590   -19.1720 
  142.5000    75.4850    23.1190     9.0860     8.4800     9.7320     2.3410   -18.9710 
  142.6250    76.8160    23.3980     7.9430     7.7110     8.6980     2.3580   -18.7860 
  142.7500    80.3900    23.5370     7.4570     6.9660     7.8380     2.4040   -18.6350 
  142.8750    88.0050    23.7220     7.6360     6.3620     7.2320     2.4400   -18.5120 
  143.0000    92.2090    23.9690     7.7300     5.8760     6.7910     2.4360   -18.4220 
  143.1250    89.8480    24.0390     7.4330     5.4920     6.4620     2.4020   -18.3640 
  143.2500    90.2860    24.0440     7.7580     5.2480     6.2860     2.3730   -18.3310 
  143.3750    94.4840    24.0890     7.6250     5.1560     6.2730     2.3610   -18.3430 
  143.5000    95.8420    24.4050     7.1550     5.2000     6.4010     2.3640   -18.4220 
  143.6250    95.2390    24.5480     6.4990     5.3800     6.7080     2.3740   -18.5740 
  143.7500    96.5850    24.6890     6.6840     5.6760     7.1580     2.3860   -18.7700 
  143.8750    94.3930    24.5750     7.8160     6.0370     7.6260     2.4030   -19.0010 
  144.0000    87.0680    23.9870    10.9930     6.3840     8.0530     2.4260   -19.2760 
  144.1250    82.3350    23.4020    11.4010     6.6770     8.4300     2.4450   -19.6070 
  144.2500    82.7750    23.2190     9.6140     6.8910     8.7360     2.4500   -19.9380 
  144.3750    82.8610    23.1490     7.8680     7.0390     8.9530     2.4330   -20.2090 
  144.5000    79.4520    22.9780     7.9920     7.1510     9.1250     2.3900   -20.4040 
  144.6250    76.8590    22.8140     8.5320     7.2510     9.2870     2.3330   -20.5390 
  144.7500    75.4880    22.7880     8.5010     7.3920     9.5060     2.2900   -20.6210 
  144.8750    72.6550    22.8030     8.3750     7.6340     9.9020     2.2660   -20.6990 
  145.0000    68.0840    22.7810     8.3600     8.0820    10.5950     2.2520   -20.7770 
  145.1250    66.3250    22.7770     8.7120     8.8610    11.7550     2.2450   -20.8450 
  145.2500    69.9000    22.7900     9.2290     9.9850    13.3990     2.2560   -20.9110 
  145.3750    74.9120    22.8240    10.8400    11.4710    15.4260     2.3040   -20.9630 
  145.5000    75.2220    23.1550    16.5530    13.2350    17.6200     2.3990   -20.9840 
  145.6250    69.8030    23.4120    22.9760    14.9420    19.4220     2.5210   -20.9600 
  145.7500    66.4010    23.4250    28.4420    16.0490    20.3400     2.6050   -20.9260 
  145.8750    66.7240    23.2040    31.4970    16.2450    20.1370     2.6060   -20.8830 
  146.0000    67.1970    23.0220    32.6950    15.5200    18.8720     2.5250   -20.8560 
  146.1250    66.4040    23.0170    29.5300    14.0440    16.8530     2.4100   -20.8680 
  146.2500    65.5600    23.2210    22.6760    12.3880    14.7490     2.3120   -20.9110 
  146.3750    64.1590    22.8300    14.8330    10.8530    12.9400     2.2450   -20.9630 
  146.5000    63.0470    22.1890    10.0810     9.5930    11.5750     2.2070   -20.9720 
  146.6250    64.9630    21.9030     8.9280     8.6980    10.6800     2.2030   -20.9340 
  146.7500    69.3390    22.0300     8.3150     8.1370    10.1930     2.2250   -20.8560 
  146.8750    72.4820    22.3460     7.6020     7.8960    10.0830     2.2610   -20.7640 
  147.0000    72.3740    22.4360     6.9560     7.9580    10.3100     2.2910   -20.6910 
  147.1250    71.1600    22.5830     7.2250     8.3240    10.8410     2.2940   -20.6420 
  147.2500    72.4580    22.8610     8.0870     8.8670    11.4670     2.2810   -20.6150 
  147.3750    74.5800    22.9790     9.7150     9.4640    12.0350     2.2680   -20.6240 
  147.5000    72.6370    22.9490    11.2380    10.0140    12.4250     2.2570   -20.6970 
  147.6250    66.9110    22.7940    11.3110    10.3820    12.5360     2.2350   -20.7770 
  147.7500    65.4750    22.7720    10.4150    10.5680    12.4180     2.2110   -20.8100 
  147.8750    69.0970    22.7560     9.9010    10.6470    12.1800     2.2120   -20.7480 
  148.0000    72.7120    22.7520     9.6950    10.6820    11.9600     2.2500   -20.5750 
  148.1250    72.0080    22.7130     9.5160    10.7090    11.8130     2.2990   -20.3020 
  148.2500    69.8010    22.5750     9.2920    10.6970    11.7020     2.3120   -20.0020 
  148.3750    69.7430    22.4320     9.1710    10.5710    11.4850     2.2760   -19.6880 
  148.5000    71.8710    22.4320     9.1280    10.2300    11.0440     2.2100   -19.3550 
  148.6250    73.3200    22.5180     8.9870     9.6060    10.3410     2.1700   -18.9970 
  148.7500    73.6820    22.6490     8.7230     8.8680     9.5430     2.1830   -18.6420 
  148.8750    76.3470    22.9200     8.1810     8.1220     8.7830     2.2290   -18.2910 
  149.0000    82.5300    23.2880     7.8450     7.4770     8.1500     2.2730   -17.9650 
  149.1250    85.9050    23.3320     7.6710     7.0490     7.7800     2.2880   -17.6350 
  149.2500    83.9620    23.4090     7.7980     6.8180     7.6390     2.2910   -17.2630 
  149.3750    81.2020    23.6120     8.0070     6.7430     7.6710     2.2940   -16.9000 
  149.5000    81.3410    23.7390     8.0190     6.7810     7.8180     2.3030   -16.5920 
  149.6250    83.4120    23.8520     8.7280     6.8440     7.9420     2.3190   -16.3800 
  149.7500    85.8980    23.9290     8.9320     6.8360     7.9520     2.3360   -16.2630 
  149.8750    89.0900    23.9240     8.5080     6.7280     7.8140     2.3480   -16.2140 
  150.0000    90.5260    23.9500     7.8560     6.5470     7.5790     2.3510   -16.1590 
  150.1250    90.4440    23.7440     7.6860     6.3450     7.3350     2.3500   -16.0610 
  150.2500    92.4880    23.7530     7.6630     6.2240     7.2130     2.3540   -15.9730 
  150.3750    95.1380    23.6700     7.1220     6.2790     7.3470     2.3630   -15.8890 
  150.5000    94.1060    23.6500     6.5900     6.5430     7.7590     2.3790   -15.8170 
  150.6250    88.7800    23.5180     6.9660     7.0470     8.4640     2.4040   -15.7700 
  150.7500    83.0140    23.2200     8.0470     7.6890     9.2780     2.4430   -15.7230 
  150.8750    76.8600    23.1420    10.2720     8.2940     9.9750     2.4900   -15.7030 
