~V
VERS. 2.00: Ver 2.00
~W
STRT.M 70.0000:
STOP.M 278.0000:
STEP.M 0.1250:
NULL. -999.2500:
UWI. DF3060:
~C
DEPT.M :
SP.MV :
GR.API :
RML.OHMM :
RI. :
RXO.OHMM :
CALI.CM :
DEN.GM/CC :
~A
# ...
  227.5000   -30.0310    64.4400   123.0750   107.5540   107.0610    23.3820     2.2020 
  227.6250   -30.3300    62.3780   136.0420   118.8410   130.8460    23.3810     2.1990 
  227.7500   -30.6140    60.4510   151.9600   133.0470   161.2180    23.3810     2.1990 
  227.8750   -30.8980    58.9280   168.4940   148.1570   196.1940    23.3800     2.2010 
  228.0000   -31.1660    57.4660   183.2170   161.9830   227.9040    23.3810     2.2050 
  228.1250   -31.4040    56.1420   193.9410   172.4450   247.3620    23.3880     2.2080 
  228.2500   -31.6330    55.6950   201.5550   180.0460   257.8920    23.4040     2.2110 
  228.3750   -31.8160    55.9640   207.7220   186.0800   262.1150    23.4270     2.2150 
  228.5000   -31.9660    57.2160   214.2850   192.1960   266.8410    23.4470     2.2240 
  228.6250   -32.0850    59.3810   222.4060   199.6870   277.4920    23.4520     2.2410 
  228.7500   -32.1700    61.2880   230.9560   207.9020   281.2680    23.4470     2.2600 
  228.8750   -32.2280    61.3060   237.8530   215.1870   284.2330    23.4340     2.2730 
  229.0000   -32.2590    58.8120   240.8860   219.5730   290.2740    23.4110     2.2700 
  229.1250   -32.2720    55.8560   238.1720   219.1190   277.1300    23.3850     2.2510 
  229.2500   -32.2530    54.0370   231.8440   215.1710   243.3470    23.3750     2.2270 
  229.3750   -32.2240    53.3030   224.5730   209.7780   208.4620    23.3700     2.2100 
  229.5000   -32.1670    53.7200   218.9440   205.2810   186.7310    23.3620     2.2030 
  229.6250   -32.0770    55.4370   216.8020   203.7110   192.7690    23.3430     2.2060 
  229.7500   -31.9630    57.1640   217.0700   204.5570   216.6350    23.3000     2.2100 
  229.8750   -31.8160    57.6510   218.0760   206.4570   245.9100    23.2260     2.2110 
  230.0000   -31.6420    56.6840   217.9490   207.6060   266.6030    23.1500     2.2090 
  230.1250   -31.4270    55.8180   215.0450   206.1340   255.0240    23.0920     2.2050 
  230.2500   -31.1940    55.5500   209.9600   202.2370   221.7140    23.0390     2.2010 
  230.3750   -30.9330    56.1560   203.7560   196.7570   190.8710    22.9770     2.1980 
  230.5000   -30.6530    56.8410   197.4130   190.6980   170.6950    22.8980     2.1960 
  230.6250   -30.3850    56.9430   191.1220   184.4860   164.2210    22.8000     2.1980 
  230.7500   -30.0680    56.5280   184.1670   177.7160   168.7010    22.7500     2.2010 
  230.8750   -29.7230    55.7800   175.8510   169.7820   178.1090    22.7350     2.2060 
  231.0000   -29.3410    56.0610   166.1370   160.5570   182.1820    22.7350     2.2080 
  231.1250   -28.9540    57.3200   156.2680   151.0150   172.3020    22.7360     2.2060 
  231.2500   -28.5510    58.4630   148.5230   143.2360   157.2000    22.7380     2.2060 
  231.3750   -28.1390    58.9880   144.9580   139.2190   150.2150    22.7470     2.2110 
  231.5000   -27.6990    59.5590   146.9350   140.4060   148.2640    22.7780     2.2230 
  231.6250   -27.2200    60.2260   155.2840   147.8070   159.2310    22.8500     2.2360 
  231.7500   -26.7530    60.3260   166.9690   158.6740   178.3400    23.0030     2.2440 
  231.8750   -26.3050    59.3030   178.5350   169.8110   201.2780    23.2440     2.2430 
  232.0000   -25.8930    57.0700   186.0450   177.4970   211.4670    23.4420     2.2370 
  232.1250   -25.4880    55.5330   185.1980   177.5790   202.3580    23.5130     2.2300 
  232.2500   -25.0990    56.1450   177.1560   170.7770   182.6860    23.5220     2.2240 
  232.3750   -24.7330    58.2980   164.5140   159.2150   155.0010    23.5220     2.2190 
  232.5000   -24.4280    59.2680   150.6120   145.9270   129.4830    23.5220     2.2150 
  232.6250   -24.1650    57.9140   138.3180   133.7690   113.8970    23.5220     2.2130 
  232.7500   -23.9520    58.4320   128.3320   123.7550   106.4170    23.5220     2.2150 
  232.8750   -23.7660    61.5410   120.5500   115.9430   103.5180    23.5220     2.2200 
  233.0000   -23.6040    63.7140   114.7170   110.1170   100.5770    23.5220     2.2260 
  233.1250   -23.5020    61.6140   111.1480   106.5110    97.1540    23.5220     2.2340 
  233.2500   -23.4450    57.9170   109.8130   105.0000    94.0310    23.5230     2.2420 
  233.3750   -23.4350    55.3470   110.8710   105.7390    92.7380    23.5230     2.2520 
  233.5000   -23.4450    53.8610   113.9720   108.5010    95.0160    23.5230     2.2640 
  233.6250   -23.4820    52.0660   117.8680   112.3560   101.8680    23.5160     2.2790 
  233.7500   -23.5220    51.1130   120.3040   115.2800   109.8370    23.4910     2.2940 
  233.8750   -23.5700    51.9820   119.4410   115.5020   114.1250    23.4240     2.3040 
  234.0000   -23.6280    54.7040   114.3900   111.9520   109.8750    23.2930     2.3050 
  234.1250   -23.6590    56.3570   105.4840   104.4780    97.6980    23.0830     2.2920 
  234.2500   -23.6950    56.1660    95.5480    95.4740    85.8810    22.9200     2.2690 
  234.3750   -23.6740    55.9190    86.6120    86.8690    73.0480    22.8290     2.2450 
  234.5000   -23.6250    56.4760    79.8610    80.0040    65.3350    22.8020     2.2270 
  234.6250   -23.5760    57.2450    75.7740    75.5820    64.6620    22.8030     2.2210 
  234.7500   -23.5120    57.6590    73.2770    72.7150    66.8130    22.8070     2.2250 
  234.8750   -23.4640    58.2640    71.5550    70.6240    68.7810    22.8170     2.2330 
  235.0000   -23.4450    59.0230    69.9240    68.6220    68.4040    22.8420     2.2430 
  235.1250   -23.4360    59.5820    67.9840    66.2780    64.0940    22.8990     2.2490 
  235.2500   -23.4940    60.3640    65.9330    63.7670    59.0360    22.9920     2.2510 
  235.3750   -23.6120    61.0890    64.2080    61.5030    55.5600    23.1100     2.2510 
  235.5000   -23.7870    60.8320    63.2600    59.9230    53.4890    23.2520     2.2500 
  235.6250   -23.9990    58.6870    63.5740    59.5020    53.3080    23.3950     2.2510 
  235.7500   -24.2630    56.2530    65.0640    60.1810    55.5890    23.5120     2.2510 
  235.8750   -24.5450    55.9110    67.9110    62.0040    59.7600    23.5740     2.2510 
  236.0000   -24.8120    58.4720    72.2960    65.0720    64.8270    23.5930     2.2470 
  236.1250   -25.0570    62.0610    78.5410    69.7890    71.1760    23.5970     2.2400 
  236.2500   -25.2400    63.6680    86.0790    76.0010    78.4300    23.5970     2.2310 
  236.3750   -25.3400    63.3590    94.2410    83.5220    88.1130    23.5970     2.2230 
  236.5000   -25.3590    62.9110   101.8200    91.7950   101.7720    23.5970     2.2180 
  236.6250   -25.2900    63.0700   107.7650    99.6770   114.6990    23.5970     2.2190 
  236.7500   -25.1360    62.3200   112.0750   105.9670   120.4940    23.5970     2.2240 
  236.8750   -24.8770    60.4310   115.7610   109.8000   120.6470    23.5970     2.2300 
  237.0000   -24.5380    58.6140   117.4220   110.8040   118.9540    23.5970     2.2360 
  237.1250   -24.1120    57.3940   116.0290   108.8540   118.5620    23.5960     2.2420 
  237.2500   -23.6220    56.9850   112.6490   105.1910   117.4690    23.5930     2.2460 
  237.3750   -23.0530    57.8570   108.1430   100.6560   112.5850    23.5860     2.2470 
  237.5000   -22.4600    60.0430   103.3240    95.9620   103.6520    23.5710     2.2440 
  237.6250   -21.8750    62.1260    98.9240    91.6900    95.9840    23.5420     2.2400 
  237.7500   -21.3270    62.9870    95.2200    88.0290    93.7320    23.5040     2.2430 
  237.8750   -20.8390    62.5380    92.3070    85.0560    93.9630    23.4490     2.2590 
  238.0000   -20.4330    61.5050    90.2680    82.8560    94.7810    23.3860     2.2900 
  238.1250   -20.1140    61.8940    89.3740    81.6960    95.2950    23.3430     2.3290 
  238.2500   -19.8500    64.7860    89.3450    81.3790    87.7850    23.2930     2.3650 
  238.3750   -19.6810    69.2710    89.6330    81.5020    83.0630    23.2290     2.3910 
  238.5000   -19.5450    72.7860    89.3120    81.3260    87.8310    23.1800     2.4050 
  238.6250   -19.4180    71.2290    87.1070    79.7810    97.8070    23.1720     2.4040 
