~V
VERS. 2.00: Ver 2.00
~W
STRT.M 67.0000:
STOP.M 279.0000:
STEP.M 0.1250:
NULL. -999.2500:
UWI. DF3057:
~C
DEPT.M :
GR.API :
CALI.CM :
RXO.OHMM :
RI. :
RML.OHMM :
DEN.GM/CC :
SP.MV :
~A
   67.0000    68.4300    23.4890     9.7040     1.4070     0.7130  -999.2500    -0.4270 
   67.1250    65.8250    23.2830    11.3650     2.4520     1.9350  -999.2500    -4.8140 
   67.2500    62.3040    23.3120    11.6490     3.7320     3.3300  -999.2500    -8.8690 
   67.3750    62.6150    23.2800    11.6360     5.0600     4.6870  -999.2500   -12.5080 
   67.5000    64.0520    23.2230    11.6320     6.2390     5.7980  -999.2500   -15.6770 
   67.6250    63.6140    23.3200    11.6180     7.0880     6.5270  -999.2500   -18.1780 
   67.7500    62.9760    23.6300    11.6770     7.6810     7.0180  -999.2500   -20.0510 
   67.8750    62.7370    23.8160    11.8830     8.1220     7.4450  -999.2500   -21.3880 
   68.0000    63.4660    24.0340    12.2530     8.4000     7.7910  -999.2500   -22.3440 
   68.1250    65.6140    24.0410    12.4480     8.5200     8.0290  -999.2500   -23.0080 
   68.2500    67.5680    23.9790    12.3180     8.5470     8.1990  -999.2500   -23.5090 
   68.3750    68.1920    23.6270    11.8540     8.4980     8.2830  -999.2500   -23.9100 
   68.5000    68.2970    23.2800    11.3300     8.4050     8.3140  -999.2500   -24.2290 
   68.6250    66.9150    23.3020    10.8210     8.3280     8.3750  -999.2500   -24.4760 
   68.7500    65.3450    23.4400    10.4100     8.2810     8.4770  -999.2500   -24.7050 
   68.8750    65.8530    23.3260    10.7230     8.2770     8.6400  -999.2500   -24.9290 
   69.0000    69.4130    23.0570    11.6620     8.3230     8.8520  -999.2500   -25.1320 
   69.1250    71.6420    23.0640    12.0190     8.4080     9.1000  -999.2500   -25.3010 
   69.2500    69.7870    23.0120    11.8380     8.4960     9.3290  -999.2500   -25.4220 
   69.3750    65.0850    22.9140    11.5590     8.5790     9.5390  -999.2500   -25.4780 
   69.5000    63.3440    22.9330    11.2780     8.6290     9.7040  -999.2500   -25.5100 
   69.6250    68.9340    23.1700    11.4070     8.6060     9.7500  -999.2500   -25.5590 
   69.7500    73.0790    23.2770    11.5640     8.5180     9.7170  -999.2500   -25.6170 
   69.8750    72.9040    23.2520    11.5490     8.3830     9.6180  -999.2500   -25.6570 
   70.0000    72.5400    23.1950    11.3510     8.2190     9.4920  -999.2500   -25.6570 
   70.1250    72.3620    23.2370    11.0400     8.0600     9.3680  -999.2500   -25.5880 
   70.2500    68.7570    23.3960    10.6560     7.9530     9.2950  -999.2500   -25.4770 
   70.3750    63.3890    23.3920    10.4290     7.9040     9.2580  -999.2500   -25.3290 
   70.5000    62.9840    23.2230    10.4140     7.9100     9.2540  -999.2500   -25.1630 
   70.6250    68.4380    23.2420    10.3740     7.9850     9.3410  -999.2500   -24.9920 
   70.7500    73.1750    23.3060    10.3150     8.1080     9.4740  -999.2500   -24.8030 
   70.8750    74.9630    23.2390    10.3050     8.2230     9.5970  -999.2500   -24.6000 
   71.0000    75.4250    23.2150    10.4570     8.2880     9.6790  -999.2500   -24.3760 
   71.1250    76.8420    23.2950    10.3780     8.2220     9.6410  -999.2500   -24.1180 
   71.2500    78.1570    23.4760    10.1500     8.0100     9.4250  -999.2500   -23.8080 
   71.3750    78.9940    23.5200    10.1910     7.6330     8.9920  -999.2500   -23.4030 
   71.5000    82.3700    23.6310    10.2260     7.1020     8.3510  -999.2500   -22.9120 
   71.6250    88.9560    24.2940     8.7510     6.4900     7.5740  -999.2500   -22.3730 
   71.7500    95.5760    25.0790     7.2140     5.9790     6.9520  -999.2500   -21.8900 
   71.8750   101.3040    25.3200     6.4530     5.6760     6.6320  -999.2500   -21.5480 
   72.0000   103.5450    25.3700     6.1630     5.6140     6.6520  -999.2500   -21.3680 
   72.1250   100.3880    25.4410     6.1580     5.8330     7.0570  -999.2500   -21.3760 
   72.2500    94.8670    25.5070     6.4380     6.2700     7.7030  -999.2500   -21.5180 
   72.3750    90.0470    25.3150     8.1300     6.8290     8.4150  -999.2500   -21.7920 
   72.5000    87.2690    24.5110    11.5450     7.3930     9.0150  -999.2500   -22.1740 
   72.6250    84.1710    23.9730    12.4680     7.7980     9.3370  -999.2500   -22.5930 
   72.7500    80.4270    23.4560    10.5300     8.0140     9.4150  -999.2500   -23.0030 
   72.8750    77.3380    23.4730     8.7290     8.1320     9.4270  -999.2500   -23.3810 
   73.0000    75.8290    23.5610     8.5700     8.2720     9.5510  -999.2500   -23.7050 
   73.1250    73.8870    23.8100     9.6090     8.4640     9.8170  -999.2500   -23.9330 
   73.2500    68.9090    23.9050    10.1970     8.6690    10.1440  -999.2500   -24.0680 
   73.3750    62.7660    23.8270    10.5050     8.8260    10.4260  -999.2500   -24.1060 
   73.5000    60.3940    23.8290    10.9340     8.8090    10.4620  -999.2500   -24.0460 
   73.6250    67.9440    23.9730    12.2780     8.4420    10.0190  -999.2500   -23.8830 
   73.7500    84.1650    24.3960    12.7260     7.8270     9.2470  -999.2500   -23.6590 
   73.8750   100.4330    24.7540    10.5690     7.0890     8.3050  -999.2500   -23.3940 
   74.0000   107.4760    24.8930     7.2820     6.3780     7.4120  -999.2500   -23.1560 
   74.1250   105.0940    24.9220     6.8760     5.9440     6.9530  -999.2500   -23.0440 
   74.2500   101.7130    25.0270     7.0010     5.8690     7.0670  -999.2500   -23.0920 
   74.3750    97.6010    24.6640     7.6210     6.1990     7.8150  -999.2500   -23.2710 
   74.5000    89.9210    24.2290     8.0530     6.9610     9.2010  -999.2500   -23.5400 
   74.6250    81.1620    24.3030     9.1530     8.2090    11.1760  -999.2500   -23.8370 
   74.7500    75.3970    24.3870    12.0290     9.7090    13.2870  -999.2500   -24.1440 
   74.8750    71.0840    24.6790    18.0920    11.1410    15.0640  -999.2500   -24.4590 
   75.0000    67.6340    25.0030    25.0620    12.1340    16.0940  -999.2500   -24.7540 
   75.1250    70.1700    24.8620    25.7990    12.2870    15.9800  -999.2500   -25.0270 
   75.2500    75.7470    24.8430    19.6570    11.7600    15.0280  -999.2500   -25.3090 
   75.3750    77.5650    24.7080    13.2860    10.8910    13.6830  -999.2500   -25.6510 
   75.5000    74.3230    24.6000    10.9580    10.0230    12.4220  -999.2500   -26.0710 
   75.6250    71.0660    24.4710     9.7790     9.4160    11.6420  -999.2500   -26.6280 
   75.7500    69.0100    24.3660     9.5510     9.1140    11.3740  -999.2500   -27.2000 
   75.8750    65.8180    24.2600     9.9010     9.1150    11.5380  -999.2500   -27.7120 
   76.0000    64.3120    24.3210    10.5110     9.3200    11.9290  -999.2500   -28.1210 
   76.1250    66.2380    24.8070    10.9200     9.5590    12.2520  -999.2500   -28.3890 
   76.2500    66.8150    24.9900    11.3510     9.7000    12.3740  -999.2500   -28.5270 
   76.3750    65.3130    24.9270    11.6420     9.7060    12.2820  -999.2500   -28.5590 
   76.5000    64.0030    24.3940    11.5610     9.5830    12.0300  -999.2500   -28.5300 
   76.6250    63.0530    24.5570    10.8630     9.3790    11.7090  -999.2500   -28.4430 
   76.7500    61.7990    24.7490    10.5760     9.1610    11.4310  -999.2500   -28.3440 
   76.8750    62.6090    25.2600    10.5440     8.9740    11.2420  -999.2500   -28.2580 
   77.0000    66.2690    25.5160    10.5630     8.8200    11.1230  -999.2500   -28.2000 
   77.1250    68.2140    24.7290    10.0940     8.6900    11.0400  -999.2500   -28.1450 
   77.2500    67.4180    23.8690     9.2850     8.5500    10.9530  -999.2500   -28.0810 
   77.3750    67.6680    23.4690     8.7620     8.4050    10.8460  -999.2500   -28.0080 
   77.5000    70.8380    23.5200     9.0010     8.2740    10.7320  -999.2500   -27.9380 
   77.6250    74.1110    23.6840     9.7520     8.1770    10.6470  -999.2500   -27.8830 
   77.7500    75.0150    23.6650    10.0750     8.1440    10.6400  -999.2500   -27.8740 
   77.8750    74.1440    23.6480     9.8900     8.1930    10.7420  -999.2500   -27.9240 
   78.0000    72.4810    23.8880     9.4590     8.3200    10.9470  -999.2500   -28.0300 
   78.1250    68.6660    24.1300     9.9130     8.5080    11.2410  -999.2500   -28.1850 
