~V
VERS. 2.00: Ver 2.00
~W
STRT.M 62.0000:
STOP.M 265.0000:
STEP.M 0.1250:
NULL. -999.2500:
UWI. DF3071:
~C
DEPT.M :
GR.API :
CALI.CM :
RXO.OHMM :
RI. :
RML.OHMM :
DEN.GM/CC :
SP.MV :
~A
# ...
  197.0000    79.5600    24.9790     6.8420     6.1380     8.2790     2.4170   -26.5850 
  197.1250    67.1470    24.6220     6.0280     5.7550     7.8940     2.4240   -25.7140 
  197.2500    56.3770    24.3030     5.6960     5.5790     7.7630     2.4350   -24.8400 
  197.3750    49.7150    24.1080     5.6530     5.5630     7.8010     2.4420   -24.0570 
  197.5000    48.1910    24.0020     5.7100     5.6460     7.9180     2.4480   -23.3310 
  197.6250    49.2230    23.8310     5.7680     5.7640     8.0250     2.4590   -22.7320 
  197.7500    50.6990    23.5380     5.7650     5.8610     8.0770     2.4670   -22.2070 
  197.8750    54.7360    23.3120     5.7010     5.9190     8.0710     2.4600   -21.7720 
  198.0000    61.9180    23.4010     5.6090     5.9410     8.0260     2.4430   -21.4380 
  198.1250    69.0720    23.7530     5.5360     5.9450     7.9730     2.4320   -21.1700 
  198.2500    73.6090    24.0010     5.4820     5.9540     7.9380     2.4350   -20.9550 
  198.3750    76.9380    24.0360     5.5090     5.9730     7.9250     2.4410   -20.7910 
  198.5000    81.8540    23.9680     5.6300     5.9990     7.9250     2.4360   -20.6670 
  198.6250    86.4960    23.9140     5.8550     6.0190     7.9250     2.4210   -20.5510 
  198.7500    86.4580    23.9460     6.0940     6.0320     7.9230     2.4230   -20.4450 
  198.8750    83.0250    24.0540     6.2300     6.0490     7.9300     2.4490   -20.3350 
  199.0000    81.2030    24.2210     6.2770     6.0900     7.9680     2.4800   -20.2510 
  199.1250    82.6060    24.4370     6.4180     6.1730     8.0590     2.4790   -20.2220 
  199.2500    84.3850    24.6610     6.7420     6.2870     8.1980     2.4530   -20.2240 
  199.3750    85.9410    24.8370     7.1390     6.4250     8.3710     2.4280   -20.2510 
  199.5000    88.0370    24.9420     7.4270     6.5710     8.5540     2.4180   -20.2710 
  199.6250    90.3770    25.0230     7.5300     6.6930     8.7070     2.4110   -20.3130 
  199.7500    91.1850    25.0290     7.5950     6.7690     8.8050     2.3930   -20.3780 
  199.8750    91.6090    24.8800     7.7310     6.7870     8.8220     2.3750   -20.4490 
  200.0000    92.5180    24.5990     7.8970     6.7330     8.7320     2.3700   -20.5120 
  200.1250    91.4820    24.3330     7.9220     6.5740     8.5060     2.3800   -20.5110 
  200.2500    89.3330    24.2290     7.9800     6.3600     8.2300     2.3900   -20.5260 
  200.3750    89.0210    24.3060     8.1290     6.1990     8.0690     2.3880   -20.5260 
  200.5000    90.7990    24.5490     8.1810     6.2600     8.2820     2.3750   -20.5800 
  200.6250    89.3760    24.8720     8.2740     6.8570     9.2890     2.3600   -20.6230 
  200.7500    86.8110    25.1130     9.1740     8.2030    11.4990     2.3580   -20.6900 
  200.8750    84.9070    25.2100    12.5140    10.6250    15.4740     2.3750   -20.7470 
  201.0000    79.4090    25.1870    20.2390    14.4920    21.3160     2.3990   -20.7810 
  201.1250    67.8530    25.1200    32.5200    20.2260    28.4150     2.3980   -20.8260 
  201.2500    60.5880    25.0440    42.5550    26.9040    35.3380     2.3530   -20.8450 
  201.3750    61.7750    24.9660    46.1610    33.1420    41.1460     2.2810   -20.8280 
  201.5000    66.1300    24.9070    45.0290    37.7420    45.3570     2.2210   -20.7740 
  201.6250    68.8030    24.8840    43.8000    40.4560    47.9730     2.2080   -20.6890 
  201.7500    69.9510    24.8990    43.5230    42.4910    50.0900     2.2230   -20.6000 
  201.8750    69.5470    24.9520    44.1020    44.5460    52.3420     2.2430   -20.5310 
  202.0000    67.9790    25.0180    44.7840    46.8870    54.9480     2.2490   -20.4720 
  202.1250    67.9490    25.0280    45.4340    49.4890    57.7560     2.2370   -20.4200 
  202.2500    70.1610    24.9730    46.1920    52.0400    60.2940     2.2190   -20.4020 
  202.3750    72.0270    24.8980    47.2640    54.1290    62.0300     2.2060   -20.4080 
  202.5000    72.7460    24.8460    47.8480    55.2410    62.4150     2.2030   -20.4520 
  202.6250    71.9910    24.8300    47.4070    54.6330    60.8180     2.2090   -20.5060 
  202.7500    69.8550    24.8250    46.2590    52.4720    57.7090     2.2190   -20.5390 
  202.8750    68.0780    24.8290    43.7350    49.1870    53.6550     2.2280   -20.5580 
  203.0000    68.0340    24.8320    39.2780    45.3950    49.2500     2.2350   -20.5460 
  203.1250    69.9270    24.8200    34.6230    41.5150    44.8860     2.2380   -20.5510 
  203.2500    72.5120    24.7910    31.7780    37.7220    40.7330     2.2410   -20.4920 
  203.3750    75.2230    24.7650    31.3170    34.2360    37.0270     2.2480   -20.4130 
  203.5000    76.0510    24.7580    31.5570    31.4650    34.1870     2.2600   -20.2840 
  203.6250    74.3040    24.7590    29.4180    30.1580    33.0570     2.2670   -20.1950 
  203.7500    73.1770    24.7590    25.8360    30.6520    33.9530     2.2610   -20.1570 
  203.8750    73.2890    24.7720    25.6010    33.4680    37.2620     2.2450   -20.1790 
  204.0000    73.4970    24.8010    31.8870    39.1000    43.2210     2.2290   -20.2440 
  204.1250    73.8650    24.8280    41.0950    48.0930    52.0330     2.2190   -20.3060 
  204.2500    73.5210    24.8470    48.5870    58.8710    62.2010     2.2140   -20.4390 
  204.3750    70.2470    24.8640    52.1530    69.3340    72.0070     2.2120   -20.6370 
  204.5000    65.7080    24.8720    52.5910    77.3120    79.7380     2.2090   -20.8550 
  204.6250    64.5880    24.8570    51.4750    81.4350    84.1530     2.2020   -21.0290 
  204.7500    65.7810    24.8190    50.9230    83.2020    86.3550     2.1960   -21.1300 
  204.8750    66.5420    24.7700    51.0380    83.7780    87.3670     2.1990   -21.1650 
  205.0000    66.8170    24.7180    50.6400    83.9090    87.9680     2.2160   -21.1970 
  205.1250    69.3350    24.6570    49.4460    84.0160    88.7180     2.2490   -21.2200 
  205.2500    71.5200    24.6040    49.1530    84.5880    90.1640     2.2870   -21.2200 
  205.3750    70.8430    24.6090    50.6580    86.3750    93.0550     2.3170   -21.1850 
  205.5000    67.1020    24.6690    53.3970    90.3880    98.3400     2.3300   -21.1500 
  205.6250    64.5360    24.7250    55.6590    98.3840   107.7220     2.3190   -21.1110 
  205.7500    65.6250    24.7500    57.4060   110.6720   121.4380     2.2970   -21.1470 
  205.8750    68.6790    24.7470    59.5490   127.3630   139.5050     2.2760   -21.2070 
  206.0000    70.5080    24.7280    62.2590   147.5520   160.8070     2.2550   -21.2980 
  206.1250    69.1220    24.7180    64.3420   168.7530   182.4110     2.2330   -21.3760 
  206.2500    67.0170    24.7450    64.9480   187.1710   200.4910     2.2120   -21.4620 
  206.3750    66.1010    24.7910    65.4290   200.2340   212.7120     2.2030   -21.5530 
  206.5000    66.1440    24.8060    67.8800   207.4160   218.8220     2.2050   -21.6530 
  206.6250    66.6050    24.7950    71.8720   210.0480   219.9750     2.2090   -21.8260 
  206.7500    66.3350    24.7770    74.8810   211.1830   218.4230     2.2090   -21.9180 
  206.8750    63.6560    24.7590    76.2480   211.3440   217.8110     2.2090   -22.0260 
  207.0000    60.3120    24.7730    77.0620   209.4500   220.7110     2.2120   -22.1030 
  207.1250    60.8910    24.8790    77.6890   203.1380   221.9470     2.2120   -22.2440 
  207.2500    64.7660    25.0380    76.7990   192.6300   214.2820     2.2050   -22.3610 
  207.3750    66.5140    25.1870    74.0940   179.4850   198.6930     2.1910   -22.4730 
  207.5000    64.3960    25.2910    72.1890   166.4270   182.5160     2.1800   -22.5720 
  207.6250    61.9850    25.3540    74.1390   156.9860   172.0290     2.1830   -22.6600 
  207.7500    61.3370    25.3960    78.4630   152.3770   166.9470     2.2000   -22.7700 
  207.8750    62.1270    25.4340    83.7740   152.7920   167.1880     2.2210   -22.8810 
  208.0000    63.6930    25.4750    89.6580   157.5000   171.7260     2.2350   -22.9550 
  208.1250    65.8020    25.4690    96.7200   165.2540   179.1340     2.2270   -22.9550 
