~V
VERS. 2.00: Ver 2.00
~W
STRT.M 125.0000:
STOP.M 254.0000:
STEP.M 0.1250:
NULL. -999.2500:
UWI. DF3068:
~C
DEPT.M :
SP.MV :
GR.API :
CALI.CM :
RXO.OHMM :
RI. :
RML.OHMM :
DEN.GM/CC :
~A
# ...
  158.7500   -30.8440    68.9650    25.8720    87.1970   102.1030   108.6190     2.2710 
  158.8750   -31.0200    69.6940    25.8540    79.5020    99.9940   106.5980     2.2630 
  159.0000   -31.1440    71.1050    25.7700    76.3110    98.6730   105.5920     2.2590 
  159.1250   -31.1960    71.8630    25.6310    75.2110    97.8870   105.3580     2.2600 
  159.2500   -31.2600    70.3030    25.4730    72.0420    97.1190   105.3570     2.2640 
  159.3750   -31.3800    67.5410    25.2800    66.9920    95.6560   104.8410     2.2650 
  159.5000   -31.5580    66.1250    25.0430    59.4700    92.6100   102.7830     2.2640 
  159.6250   -31.7310    67.2700    24.8150    53.3350    87.1390    97.9940     2.2690 
  159.7500   -31.8600    70.7990    24.6630    49.9300    80.2240    91.1860     2.2800 
  159.8750   -31.9600    74.7890    24.5840    46.8200    73.2330    83.6540     2.2920 
  160.0000   -32.0740    76.8450    24.5260    39.7780    67.5950    76.9850     2.2980 
  160.1250   -32.2540    75.1190    24.4070    34.1540    64.8150    72.9920     2.3000 
  160.2500   -32.4590    72.9070    24.2500    33.6450    64.9260    72.0570     2.3020 
  160.3750   -32.6450    73.2990    24.1260    37.5590    67.8530    74.3110     2.3030 
  160.5000   -32.7840    76.5020    24.0910    39.1810    73.1600    79.4330     2.3000 
  160.6250   -32.8680    80.3050    24.2320    44.4370    79.9930    86.6250     2.2920 
  160.7500   -32.9580    81.0820    24.4470    50.7850    86.5150    93.7440     2.2840 
  160.8750   -33.1100    79.0620    24.4830    53.6860    91.4000    99.1110     2.2780 
  161.0000   -33.3360    75.8820    24.1960    52.1310    94.2840   101.9840     2.2760 
  161.1250   -33.5760    72.4020    23.8120    51.2350    96.3300   103.1140     2.2820 
  161.2500   -33.7220    70.7440    23.7400    49.9990   100.0410   105.1550     2.2870 
  161.3750   -33.7420    72.0100    24.0590    55.2430   107.7820   110.8300     2.2840 
  161.5000   -33.6670    73.8200    24.6510    76.9670   121.9360   123.0810     2.2720 
  161.6250   -33.5980    71.9840    25.2980   111.3050   146.6100   146.7040     2.2590 
  161.7500   -33.5900    68.3370    25.7570   138.8740   181.6400   182.7620     2.2490 
  161.8750   -33.6150    65.8210    25.9570   172.4340   227.2910   230.1670     2.2390 
  162.0000   -33.6100    64.1770    25.9810   227.8850   278.9520   284.9380     2.2260 
  162.1250   -33.5130    62.2850    25.9690   261.5990   326.2640   335.6860     2.2120 
  162.2500   -33.3620    60.9670    25.9690   261.4420   360.5530   371.8810     2.2010 
  162.3750   -33.2110    60.1630    25.9700   244.4690   379.0190   390.5960     2.1930 
  162.5000   -33.0780    59.4580    25.9690   225.2510   383.6150   394.6730     2.1850 
  162.6250   -32.9490    59.7570    25.9700   235.5450   376.7470   386.9940     2.1840 
  162.7500   -32.7890    60.9010    25.9640   229.1540   363.7910   373.0670     2.1940 
  162.8750   -32.6020    62.1060    25.9820   212.0590   347.5380   355.8290     2.2110 
  163.0000   -32.4050    62.2880    26.1240   198.9440   329.8400   337.2970     2.2210 
  163.1250   -32.2330    62.2830    26.3510   195.4270   310.5550   317.2980     2.2140 
  163.2500   -32.1090    63.3150    26.4780   200.5530   288.3130   294.1550     2.2090 
  163.3750   -32.0200    65.4700    26.4540   213.9440   261.5000   266.0050     2.2170 
  163.5000   -31.9600    67.2780    26.3840   224.6900   230.0800   233.0140     2.2360 
  163.6250   -31.9000    67.5800    26.3710   197.4030   197.3980   199.5980     2.2570 
  163.7500   -31.8100    67.0170    26.3620   149.0110   169.1330   171.9150     2.2750 
  163.8750   -31.6780    68.1200    26.3430   110.6290   149.0510   153.3000     2.2880 
  164.0000   -31.4930    72.5230    26.3270    92.1220   138.9160   144.7060     2.2880 
  164.1250   -31.2100    75.8030    26.3210    88.9700   140.4620   146.9560     2.2720 
  164.2500   -30.8170    74.2190    26.3350   114.8680   150.1140   156.1980     2.2540 
  164.3750   -30.3520    71.1320    26.3490   161.1190   163.7340   168.2780     2.2410 
  164.5000   -29.8790    70.6700    26.3110   206.1360   175.3710   177.3300     2.2330 
  164.6250   -29.4540    71.0330    26.3000   207.6850   177.6580   176.2330     2.2270 
  164.7500   -29.0730    70.3210    26.3010   185.2940   169.5630   164.7980     2.2270 
  164.8750   -28.7120    71.3770    26.0570   147.3680   152.4120   144.9610     2.2380 
  165.0000   -28.3540    73.1980    25.5010   121.8150   129.1780   120.1430     2.2560 
  165.1250   -28.0110    72.5640    25.0760   104.4030   103.5960    94.7170     2.2690 
  165.2500   -27.7330    70.9250    24.9840    91.8100    79.9170    72.5690     2.2750 
  165.3750   -27.5160    71.3130    24.9130    63.2730    60.6740    55.4750     2.2780 
  165.5000   -27.3290    74.0710    24.6850    32.3470    46.9420    43.7280     2.2880 
  165.6250   -27.1400    77.9200    24.7080    25.6830    39.1270    37.4540     2.3000 
  165.7500   -26.9360    81.7290    25.1250    25.0200    35.4270    35.1560     2.3030 
  165.8750   -26.7270    83.6580    25.6310    25.2650    35.3300    36.5000     2.2950 
  166.0000   -26.5340    82.4070    25.7240    26.9340    38.7520    41.3950     2.2800 
  166.1250   -26.4200    78.4000    25.2160    38.2820    46.4830    50.4320     2.2620 
  166.2500   -26.3900    75.6990    24.7510    58.8330    57.6610    62.6240     2.2520 
  166.3750   -26.4190    76.6150    24.8970    77.2720    70.8280    76.5590     2.2530 
  166.5000   -26.4720    79.9500    25.5850    86.3610    83.0750    89.3970     2.2560 
  166.6250   -26.5000    80.6950    26.1690    87.7710    89.9580    96.4530     2.2540 
  166.7500   -26.4990    79.2260    26.3930    89.9420    90.9660    97.2210     2.2580 
  166.8750   -26.4850    78.4130    26.4510    87.4240    87.9830    93.9860     2.2780 
  167.0000   -26.4790    77.8770    26.4750    79.4960    84.0300    90.1260     2.3100 
  167.1250   -26.4810    75.3570    26.3760    77.0260    81.9210    88.4520     2.3370 
  167.2500   -26.4610    73.1070    26.1840    83.7250    82.5310    89.4510     2.3450 
  167.3750   -26.4020    74.5580    26.0270    90.2450    85.9880    92.8680     2.3350 
  167.5000   -26.3090    77.9260    25.9590    91.2390    91.7140    97.7610     2.3140 
  167.6250   -26.2250    76.9970    25.9440    91.0820    98.0370   102.1140     2.2980 
  167.7500   -26.1950    73.5360    25.9280    98.3390   102.5000   103.8220     2.2940 
  167.8750   -26.2270    70.2420    25.9220   108.9080   103.2180   101.3680     2.2930 
  168.0000   -26.3040    68.3950    25.9240   100.0930    98.6430    93.6210     2.2800 
  168.1250   -26.3640    68.0670    25.9260    75.6850    86.7380    79.4340     2.2670 
  168.2500   -26.3730    69.9450    25.9270    64.5110    69.8590    61.9050     2.2780 
  168.3750   -26.3440    72.7600    25.9220    63.0750    51.6000    44.6510     2.3210 
  168.5000   -26.3040    74.1710    25.9010    52.0090    35.7910    30.6780     2.3740 
  168.6250   -26.2890    75.9420    25.8720    28.8250    25.2390    21.8010     2.4120 
  168.7500   -26.2950    81.2740    25.8550    13.4960    18.8760    16.6640     2.4340 
  168.8750   -26.3110    88.4190    25.8510     9.7350    15.6150    14.3500     2.4430 
  169.0000   -26.3230    94.1880    25.8520     9.9610    14.6040    14.2590     2.4440 
  169.1250   -26.3460    96.4940    25.8530    11.1670    15.9240    16.6520     2.4380 
  169.2500   -26.4160    96.5980    25.8590    13.9540    19.6490    21.5160     2.4250 
  169.3750   -26.5410    95.0020    25.8680    21.0480    26.6030    29.3590     2.4030 
  169.5000   -26.7110    89.2880    25.8710    47.1920    37.7060    40.6040     2.3710 
  169.6250   -26.9080    80.2630    25.8800    78.7740    53.6420    55.4250     2.3370 
  169.7500   -27.1120    74.0960    25.8850    89.3690    71.1610    71.1160     2.3120 
  169.8750   -27.3410    73.3840    25.8470    82.3430    85.7750    83.9330     2.2960 
