~V
VERS. 2.00: Ver 2.00
~W
STRT.M 105.0000:
STOP.M 269.0000:
STEP.M 0.1250:
NULL. -999.2500:
UWI. DF304:
~C
DEPT.M :
GR.API :
CALI.CM :
RXO.OHMM :
RI. :
RML.OHMM :
SP.MV :
DEN.GM/CC :
AC.US/MT :
~A
  105.0000    57.4380    23.8920     8.8740     6.9890     8.5560   -23.3630     2.2060   428.8870 
  105.1250    59.0790    23.9190     9.2550     7.3200     8.9610   -22.8990     2.2090   422.8830 
  105.2500    61.7000    24.0250     9.3370     7.4430     9.0790   -22.2590     2.2280   418.1860 
  105.3750    65.3200    24.2220     9.2860     7.2370     8.7590   -21.4310     2.2420   415.1190 
  105.5000    72.9710    24.3900     8.9290     6.7120     8.0270   -20.4350     2.2470   414.8900 
  105.6250    88.0420    24.5320     7.9140     5.9960     7.0690   -19.2970     2.2590   419.4020 
  105.7500   102.9280    24.6900     6.4470     5.3070     6.1810   -18.1350     2.2830   426.1690 
  105.8750   109.4340    24.8430     5.2980     4.7740     5.5430   -17.0330     2.3100   431.5660 
  106.0000   105.3770    24.9100     4.9610     4.4820     5.2600   -16.0550     2.3330   433.2410 
  106.1250    98.7540    24.8960     5.1520     4.5030     5.3990   -15.2740     2.3530   429.6850 
  106.2500    96.3910    24.8640     5.5430     4.7570     5.8130   -14.7160     2.3770   419.4180 
  106.3750    95.8170    24.8430     6.3650     5.1520     6.3630   -14.3960     2.4090   400.8090 
  106.5000    94.6960    24.8000     7.9380     5.5510     6.8600   -14.2860     2.4400   378.5140 
  106.6250    94.9040    24.6980     8.7740     5.7740     7.0760   -14.3610     2.4450   367.7360 
  106.7500    97.1070    24.5860     8.1420     5.7870     7.0070   -14.4870     2.4090   375.9060 
  106.8750    99.6930    24.5050     6.9600     5.6460     6.7530   -14.6050     2.3490   397.4390 
  107.0000    98.8100    24.4680     6.3890     5.4430     6.4510   -14.7130     2.2980   419.6540 
  107.1250    95.7340    24.4650     6.2710     5.2740     6.2300   -14.7990     2.2730   432.4200 
  107.2500    93.4420    24.5050     6.1550     5.1780     6.1260   -14.8440     2.2640   437.4530 
  107.3750    93.6630    24.5860     6.0740     5.1470     6.1110   -14.8580     2.2630   436.4840 
  107.5000    95.6010    24.6630     6.0290     5.1520     6.1340   -14.8540     2.2760   429.5470 
  107.6250    97.0980    24.7330     6.0450     5.1760     6.1730   -14.8660     2.3000   418.8940 
  107.7500    96.6960    24.7490     6.0510     5.2200     6.2370   -14.9110     2.3160   412.2290 
  107.8750    94.9510    24.5960     6.0770     5.2850     6.3310   -14.9940     2.3130   413.7960 
  108.0000    92.9290    24.2840     6.1050     5.3600     6.4390   -15.0730     2.2980   421.1180 
  108.1250    91.5220    24.0880     6.3880     5.4190     6.5210   -15.1390     2.2820   426.9270 
  108.2500    91.6830    23.9810     6.7930     5.4430     6.5450   -15.1800     2.2700   428.5460 
  108.3750    92.3230    23.9380     7.0470     5.4240     6.5070   -15.1750     2.2600   428.5270 
  108.5000    91.4420    23.9530     6.8430     5.3720     6.4220   -15.1340     2.2560   429.3920 
  108.6250    89.3940    23.9720     6.4520     5.3050     6.3250   -15.0520     2.2580   430.8080 
  108.7500    90.6540    23.9780     6.3970     5.2430     6.2520   -14.9330     2.2630   431.5610 
  108.8750    94.4960    23.9770     6.5440     5.2030     6.2220   -14.7770     2.2690   431.9260 
  109.0000    97.1280    23.9740     6.4830     5.1950     6.2410   -14.6100     2.2780   432.2740 
  109.1250    97.6990    23.9560     6.3230     5.2190     6.3070   -14.4430     2.2910   431.4740 
  109.2500    98.1080    23.8890     6.4280     5.2400     6.3790   -14.2830     2.2990   428.7310 
  109.3750    99.6030    23.7820     6.5540     5.2190     6.4100   -14.1230     2.3000   424.9220 
  109.5000   102.3520    23.7140     6.4870     5.1290     6.3590   -13.9320     2.2980   422.1660 
  109.6250   105.4740    23.6960     6.2090     4.9470     6.1800   -13.6670     2.3070   422.4110 
  109.7500   107.5410    23.6960     5.7860     4.6920     5.8770   -13.3740     2.3260   424.3300 
  109.8750   105.7800    23.6960     5.3500     4.3970     5.4760   -13.0860     2.3450   425.9740 
  110.0000   100.1040    23.6830     5.1370     4.1410     5.0930   -12.7980     2.3530   426.3520 
  110.1250    96.5360    23.6330     5.2620     4.0980     5.0030   -12.5070     2.3520   425.3140 
  110.2500    97.4070    23.5540     5.4390     4.4140     5.4450   -12.2120     2.3570   419.3940 
  110.3750    96.7180    23.5050     5.9400     5.2610     6.6780   -11.9450     2.3860   400.1400 
  110.5000    89.8340    23.4900     7.8620     6.8130     8.9180   -11.7430     2.4470   360.9460 
  110.6250    83.3300    23.4900    12.1930     9.2240    12.2570   -11.6480     2.5340   306.2400 
  110.7500    81.4860    23.4900    16.5030    11.7940    15.6310   -11.6270     2.6170   257.5480 
  110.8750    82.4680    23.4900    18.0250    13.2310    17.3210   -11.6690     2.6680   229.5090 
  111.0000    85.9360    23.4910    16.1190    12.5300    16.0380   -11.7970     2.6720   226.9200 
  111.1250    93.2840    23.5060    12.3700    10.1710    12.4940   -12.0630     2.6240   251.2420 
  111.2500   100.7710    23.5390     8.7140     7.8190     9.1270   -12.4620     2.5510   293.4250 
  111.3750   102.6820    23.5720     6.2400     6.0760     6.8430   -13.0040     2.4780   344.4930 
  111.5000   100.2180    23.5870     5.1570     5.0310     5.6950   -13.6940     2.4210   390.7630 
  111.6250    94.8640    23.5510     5.0650     4.6760     5.5540   -14.5240     2.3780   417.5710 
  111.7500    87.6760    23.4460     5.5870     4.7890     5.9940   -15.4020     2.3360   427.6370 
  111.8750    79.6710    23.3050     6.4130     5.2410     6.7720   -16.2310     2.2940   428.4870 
  112.0000    72.6220    23.2430     7.0940     5.8630     7.6210   -16.9400     2.2590   427.0570 
  112.1250    70.5300    23.2760     7.4290     6.3900     8.1900   -17.4400     2.2360   425.9480 
  112.2500    70.8800    23.3250     7.5500     6.6150     8.3790   -17.7270     2.2200   424.5060 
  112.3750    72.1070    23.3750     7.7370     6.8490     8.5010   -17.7750     2.2150   422.3910 
  112.5000    74.4520    23.4190     7.9080     6.9130     8.3690   -17.5500     2.2210   420.4510 
  112.6250    77.2810    23.4730     7.9730     6.7230     7.9790   -17.0070     2.2400   420.6480 
  112.7500    82.4370    23.5890     7.9040     6.4030     7.4940   -16.2630     2.2620   423.3360 
  112.8750    92.6560    23.8080     7.5350     6.0360     7.0090   -15.4310     2.2790   427.0780 
  113.0000   103.2760    24.1920     6.7960     5.6940     6.5950   -14.5610     2.2910   429.0290 
  113.1250   104.6380    24.5790     6.1950     5.4450     6.3280   -13.6730     2.2960   426.3900 
  113.2500    96.9240    24.7860     6.0770     5.2870     6.1910   -12.7800     2.2970   421.1700 
  113.3750    89.2290    24.8430     6.1190     5.1950     6.1340   -11.9130     2.2950   416.6750 
  113.5000    88.2600    24.8570     5.9600     5.1310     6.0900   -11.1200     2.2940   415.4880 
  113.6250    92.1410    24.8960     5.6460     5.0440     5.9850   -10.4630     2.3020   418.5480 
  113.7500    95.8070    24.9610     5.3400     4.9130     5.8070    -9.9220     2.3190   423.7440 
  113.8750    97.4390    25.0070     5.1120     4.7480     5.5840    -9.4630     2.3400   429.5170 
  114.0000    95.9730    25.0220     4.9850     4.5730     5.3540    -9.1200     2.3610   434.3920 
  114.1250    94.2530    25.0220     4.9010     4.4040     5.1410    -8.9430     2.3840   436.8320 
  114.2500    97.4170    25.0220     4.8510     4.2420     4.9450    -8.9430     2.4030   437.5280 
  114.3750   103.4270    25.0220     4.8040     4.0940     4.7790    -9.1160     2.4060   438.2090 
  114.5000   104.9020    25.0220     4.7020     3.9810     4.6760    -9.4370     2.3950   439.8570 
  114.6250    99.1380    25.0200     4.5790     3.9440     4.6980    -9.9020     2.3830   439.5070 
  114.7500    91.7550    24.9910     4.5850     3.9940     4.8470   -10.4950     2.3780   433.0660 
  114.8750    85.3430    24.8950     4.8660     4.1280     5.1000   -11.1890     2.3710   420.6330 
