~V
VERS. 2.00: Ver 2.00
~W
STRT.M 125.0000:
STOP.M 256.0000:
STEP.M 0.1250:
NULL. -999.2500:
UWI. DF3030:
~C
DEPT.M :
GR.API :
RML.OHMM :
RI. :
RXO.OHMM :
CALI.CM :
DEN.GM/CC :
SP.MV :
~A
# ...
  158.7500    60.7760    17.1190    13.9740    14.3130    24.3620     2.4990   -30.3440 
  158.8750    61.0360    17.4170    14.1530    14.4510    24.4450     2.4980   -30.4020 
  159.0000    60.3500    17.7990    14.3960    14.6750    24.4950     2.4980   -30.3590 
  159.1250    61.1960    18.1590    14.6340    14.9220    24.4940     2.4990   -30.3450 
  159.2500    63.4290    18.3770    14.7820    15.0140    24.5100     2.5020   -30.2550 
  159.3750    65.5320    18.3820    14.7750    15.1150    24.5100     2.5090   -30.2250 
  159.5000    64.5280    18.1600    14.5950    15.1230    24.4870     2.5160   -30.1940 
  159.6250    60.1820    17.7560    14.2620    14.9310    24.4540     2.5220   -30.1240 
  159.7500    56.4230    17.3100    13.8850    14.4930    24.3550     2.5250   -30.0990 
  159.8750    55.0230    16.9060    13.5330    14.0330    24.2890     2.5270   -30.0610 
  160.0000    56.1470    16.5860    13.2500    13.7110    24.3360     2.5280   -30.1210 
  160.1250    60.6170    16.3750    13.0630    13.7740    24.3820     2.5290   -30.1420 
  160.2500    65.7550    16.2620    12.9600    13.9440    24.3800     2.5280   -30.2860 
  160.3750    66.0470    16.2720    12.9550    14.1180    24.3880     2.5270   -30.3420 
  160.5000    59.0210    16.4380    13.0630    14.1440    24.4220     2.5260   -30.4260 
  160.6250    52.2470    16.7980    13.3100    14.3610    24.4630     2.5270   -30.6000 
  160.7500    51.3260    17.2530    13.6320    14.7930    24.4630     2.5330   -30.7250 
  160.8750    53.1260    17.6630    13.9370    14.8260    24.4340     2.5420   -30.8960 
  161.0000    54.6320    17.8600    14.1090    14.7400    24.4080     2.5530   -31.0420 
  161.1250    55.9850    17.6530    14.0080    14.6230    24.4110     2.5600   -31.1980 
  161.2500    56.9210    17.1180    13.6690    14.5970    24.4620     2.5640   -31.3380 
  161.3750    56.7290    16.4150    13.1870    14.3470    24.5180     2.5630   -31.4420 
  161.5000    57.9940    15.7710    12.7150    14.0520    24.5490     2.5620   -31.6040 
  161.6250    62.7110    15.4470    12.4380    13.7010    24.5490     2.5620   -31.7150 
  161.7500    65.6410    15.4810    12.4080    13.3840    24.5210     2.5640   -31.8910 
  161.8750    64.9210    15.8170    12.6100    13.2270    24.5480     2.5620   -32.0660 
  162.0000    62.3400    16.3090    12.9660    13.4980    24.6500     2.5540   -32.2020 
  162.1250    59.4680    16.7370    13.3360    13.9610    24.7700     2.5390   -32.4100 
  162.2500    58.7660    16.9390    13.5810    14.1960    24.9120     2.5240   -32.5320 
  162.3750    62.2480    16.8620    13.6340    14.3210    25.0100     2.5110   -32.7680 
  162.5000    68.0140    16.5480    13.5050    14.2330    25.0260     2.5030   -32.9220 
  162.6250    68.6740    16.1140    13.2710    13.9160    24.9280     2.5000   -33.1160 
  162.7500    64.0200    15.7330    13.0670    13.4020    24.7510     2.4990   -33.3370 
  162.8750    61.8790    15.5160    12.9840    13.1000    24.5750     2.4980   -33.5360 
  163.0000    64.6220    15.5300    13.0850    13.2080    24.4540     2.4960   -33.7520 
  163.1250    66.1180    15.8460    13.4370    13.4490    24.4040     2.4940   -33.8770 
  163.2500    64.7550    16.3970    13.9940    13.6510    24.3690     2.4920   -34.0850 
  163.3750    64.7150    17.1180    14.7060    13.6870    24.3310     2.4910   -34.2600 
  163.5000    67.1730    17.9060    15.4870    13.8150    24.2130     2.4930   -34.5820 
  163.6250    66.8630    18.6160    16.2020    14.1160    24.0710     2.4950   -34.8830 
  163.7500    65.0260    19.1470    16.7420    14.2600    23.9510     2.4910   -35.1260 
  163.8750    65.5880    19.4530    17.0440    14.2150    23.8900     2.4820   -35.4410 
  164.0000    67.5280    19.5380    17.0930    14.1400    23.7840     2.4690   -35.8640 
  164.1250    66.7880    19.4160    16.8860    13.8600    23.5790     2.4570   -36.3190 
  164.2500    64.1390    19.1560    16.5120    13.4640    23.4470     2.4490   -36.7430 
  164.3750    62.5650    18.7750    16.0180    13.1410    23.4070     2.4440   -37.1350 
  164.5000    62.5010    18.3560    15.4590    13.0290    23.4630     2.4400   -37.4690 
  164.6250    64.5720    18.0920    14.9870    13.0040    23.6060     2.4320   -37.8070 
  164.7500    69.2390    18.2750    14.8860    12.9310    23.7950     2.4190   -38.1990 
  164.8750    74.6180    19.7830    15.6760    12.8020    23.9260     2.3970   -38.4990 
  165.0000    77.5970    23.6250    18.2710    12.6710    23.9030     2.3680   -38.5920 
  165.1250    76.6730    33.2280    24.8980    13.0910    23.7950     2.3340   -38.6930 
  165.2500    73.5760    49.4670    36.8550    14.8400    23.6410     2.3000   -38.6690 
  165.3750    69.9010    73.7820    55.1340    18.3830    23.4130     2.2720   -38.5530 
  165.5000    67.4160   105.6280    79.2780    25.0390    23.2240     2.2530   -38.1710 
  165.6250    66.9270   139.1280   107.0600    31.3100    23.1560     2.2440   -37.5260 
  165.7500    67.1410   171.6990   134.0080    34.5800    23.1490     2.2400   -36.5690 
  165.8750    68.7720   200.2130   157.4270    35.8490    23.1440     2.2370   -35.3650 
  166.0000    70.8960   223.4260   176.3390    36.7210    23.1010     2.2340   -34.1670 
  166.1250    72.0920   239.8650   189.7230    36.2950    22.9890     2.2320   -32.8750 
  166.2500    71.4950   247.9540   196.8460    34.7670    22.8450     2.2290   -31.7080 
  166.3750    68.5680   243.8100   195.1760    33.8650    22.7070     2.2250   -30.6320 
  166.5000    64.8400   225.1920   182.9960    34.8130    22.5970     2.2200   -29.7850 
  166.6250    64.5310   193.5610   160.4640    37.4890    22.7300     2.2190   -29.1260 
  166.7500    66.5170   159.3360   134.4480    42.3330    23.1890     2.2260   -28.7230 
  166.8750    67.9730   130.0600   110.6240    47.4210    23.7160     2.2430   -28.6540 
  167.0000    68.2210   109.8650    93.0390    47.1500    23.9710     2.2640   -28.6380 
  167.1250    69.8630   101.0610    84.6320    41.3140    23.9790     2.2810   -28.6510 
  167.2500    72.9960   100.6150    83.5160    39.4190    23.9580     2.2850   -28.6620 
  167.3750    75.8480   106.3230    87.9990    41.6620    23.9470     2.2740   -28.5950 
  167.5000    76.6390   115.2110    95.6240    46.2690    23.9230     2.2520   -28.4970 
  167.6250    74.6720   123.0930   102.9580    50.2060    23.8710     2.2270   -28.4220 
  167.7500    73.1150   126.5620   106.9810    50.6540    23.8030     2.2120   -28.3200 
  167.8750    72.3500   124.3780   106.4260    48.5800    23.7230     2.2130   -28.2500 
  168.0000    70.6760   117.6650   101.8850    45.2470    23.6400     2.2290   -28.2160 
  168.1250    69.8080   109.2520    95.3500    41.6130    23.5320     2.2520   -28.2520 
  168.2500    71.7600   101.9450    89.3130    38.8880    23.4630     2.2710   -28.3930 
  168.3750    74.6260    96.4460    84.6170    38.1120    23.4400     2.2790   -28.7050 
  168.5000    75.2870    92.3040    81.1060    38.7300    23.4480     2.2760   -29.1500 
  168.6250    72.7000    88.4700    78.0220    39.6160    23.4760     2.2640   -29.6750 
  168.7500    70.5400    84.0730    74.5550    40.2220    23.5130     2.2530   -30.2860 
  168.8750    71.6060    79.0930    70.5560    39.4400    23.5590     2.2460   -30.6850 
  169.0000    75.9550    74.1620    66.4230    37.4380    23.6460     2.2480   -31.1220 
  169.1250    79.6030    70.3980    63.0030    34.3740    23.7600     2.2590   -31.5690 
  169.2500    80.3190    67.9650    60.5590    32.8730    23.8230     2.2720   -31.8140 
  169.3750    79.2230    66.2200    58.7140    33.5610    23.8550     2.2780   -31.9640 
  169.5000    77.5560    63.9720    56.6040    35.6220    23.8960     2.2750   -31.9270 
  169.6250    75.0540    59.7140    53.1160    38.8380    23.9470     2.2700   -31.7820 
  169.7500    71.8980    53.5670    48.3360    41.5630    23.9860     2.2740   -31.5150 
  169.8750    70.0150    46.8780    43.1550    37.3320    23.9630     2.2940   -31.3950 
