~V
VERS. 2.00: Ver 2.00
~W
STRT.M 61.0000:
STOP.M 318.0000:
STEP.M 0.1250:
NULL. -999.2500:
UWI. DF302:
~C
DEPT.M :
DEN.GM/CC :
SP.MV :
AC.US/MT :
GR.API :
CALI.CM :
RXO.OHMM :
RI. :
RML.OHMM :
~A
# ...
  241.0000     2.3340   -25.4140   412.3870    85.3160    26.2680    11.1620     7.7050    10.2080 
  241.1250     2.3700   -26.5180   411.0420    81.9840    25.1330    13.1600     8.3770    11.2150 
  241.2500     2.3870   -27.3720   408.1740    79.6810    24.8910    15.4500     9.2610    12.5930 
  241.3750     2.4000   -27.8990   399.8810    78.9770    24.8780    18.3620    10.3420    14.2970 
  241.5000     2.4150   -28.0140   386.3180    78.3570    24.6430    21.9220    11.4710    16.0320 
  241.6250     2.4070   -27.6180   374.0530    75.3180    24.1970    25.2340    12.1890    16.9530 
  241.7500     2.3570   -26.8150   368.6700    71.7740    23.8630    25.6710    12.0890    16.4240 
  241.8750     2.2830   -25.6780   372.6390    68.6520    23.7760    21.3770    11.0900    14.4700 
  242.0000     2.2270   -24.3120   383.9840    64.3150    23.9010    14.1940     9.5420    11.8490 
  242.1250     2.2080   -22.8670   394.9080    57.2210    24.2750     8.8410     8.0100     9.5650 
  242.2500     2.2240   -21.4750   400.0310    50.8520    24.8340     6.4590     6.8250     8.0060 
  242.3750     2.2450   -20.2110   397.1540    46.9490    25.3060     5.9190     6.0500     7.1530 
  242.5000     2.2320   -19.1630   388.5620    44.3260    25.4550     6.0480     5.6430     6.8430 
  242.6250     2.1880   -18.4080   381.7100    43.7520    25.3570     6.1100     5.5430     6.9010 
  242.7500     2.1520   -17.9180   380.7550    44.7780    25.4400     5.9990     5.5900     7.0680 
  242.8750     2.1670   -17.6490   385.4680    44.0110    25.8190     5.8220     5.6900     7.2190 
  243.0000     2.2220   -17.5440   391.0420    41.3140    26.1750     5.6540     5.7840     7.3060 
  243.1250     2.2910   -17.5110   392.1370    39.7300    26.0390     5.5470     5.8460     7.3360 
  243.2500     2.3580   -17.5040   387.7450    39.9110    25.5670     5.5630     5.8820     7.3390 
  243.3750     2.4080   -17.5090   380.5960    40.7710    25.1080     5.7170     5.8970     7.3190 
  243.5000     2.4390   -17.5150   374.8450    41.1090    24.8180     5.9020     5.8900     7.2720 
  243.6250     2.4490   -17.5290   371.3770    39.6760    24.6460     5.9810     5.8600     7.2050 
  243.7500     2.4440   -17.5400   368.9800    38.5470    24.5440     5.9960     5.8180     7.1410 
  243.8750     2.4340   -17.5570   366.6620    40.0350    24.4880     6.0100     5.7710     7.0990 
  244.0000     2.4290   -17.5790   364.6450    43.6310    24.4460     6.0210     5.7270     7.0820 
  244.1250     2.4330   -17.6160   363.7320    45.1200    24.4040     5.9970     5.6890     7.0770 
  244.2500     2.4420   -17.6770   364.6630    42.8950    24.3730     5.9430     5.6550     7.0650 
  244.3750     2.4510   -17.7440   367.7490    38.8000    24.3610     5.8630     5.6230     7.0430 
  244.5000     2.4520   -17.8350   373.3900    36.1740    24.3610     5.7700     5.5940     7.0160 
  244.6250     2.4440   -17.9260   380.5870    38.4150    24.3590     5.7130     5.5720     6.9970 
  244.7500     2.4310   -18.0160   387.9750    42.9730    24.3410     5.7100     5.5580     6.9900 
  244.8750     2.4200   -18.0940   393.5380    46.7190    24.3120     5.7380     5.5510     6.9880 
  245.0000     2.4120   -18.1640   394.2160    48.4840    24.3050     5.7810     5.5460     6.9760 
  245.1250     2.4090   -18.2090   390.1140    48.7820    24.3480     5.8370     5.5320     6.9330 
  245.2500     2.4090   -18.2210   383.1870    49.8330    24.3840     5.8520     5.5050     6.8580 
  245.3750     2.4090   -18.2200   376.2060    51.5190    24.3600     5.7520     5.4680     6.7680 
  245.5000     2.4060   -18.2020   372.2920    52.2350    24.2620     5.5440     5.4320     6.6900 
  245.6250     2.4010   -18.1830   371.6950    52.2270    24.1060     5.3410     5.4210     6.6680 
  245.7500     2.3960   -18.1440   373.0660    54.9850    23.9450     5.2280     5.4490     6.7140 
  245.8750     2.3920   -18.0930   374.5520    59.6340    23.8150     5.2300     5.5200     6.8220 
  246.0000     2.3930   -18.0400   375.3010    63.6940    23.7230     5.3890     5.6230     6.9750 
  246.1250     2.4090   -18.0060   376.3860    67.8760    23.6390     5.7560     5.7340     7.1410 
  246.2500     2.4340   -17.9930   378.4350    72.3760    23.6020     6.1820     5.8220     7.2680 
  246.3750     2.4390   -18.0090   380.8350    73.9700    23.7080     6.4540     5.8630     7.3030 
  246.5000     2.4120   -18.0610   382.1540    71.9760    24.0000     6.4460     5.8420     7.2080 
  246.6250     2.3700   -18.1530   381.8760    72.0480    24.3790     6.2690     5.7510     6.9710 
  246.7500     2.3380   -18.2850   380.5070    76.2200    24.6720     6.1780     5.6260     6.6850 
  246.8750     2.3230   -18.4560   379.5000    81.2720    24.8280     6.1820     5.5040     6.4480 
  247.0000     2.3160   -18.6500   380.1730    83.8350    24.8740     6.1820     5.4360     6.3620 
  247.1250     2.3200   -18.8570   381.6950    82.9950    24.8610     6.2530     5.4830     6.5220 
  247.2500     2.3350   -19.0520   383.0020    81.2080    24.8370     6.6030     5.6350     6.8690 
  247.3750     2.3520   -19.2140   383.6430    79.3140    24.8140     7.2420     5.8550     7.3040 
  247.5000     2.3580   -19.3290   384.0150    77.1210    24.7830     7.8570     6.0730     7.6810 
  247.6250     2.3520   -19.3980   385.0050    74.9440    24.7360     7.8480     6.1840     7.8010 
  247.7500     2.3430   -19.4300   386.9560    74.6410    24.6990     7.2530     6.1500     7.6340 
  247.8750     2.3450   -19.4390   389.5390    78.1160    24.6930     6.6100     6.0030     7.2710 
  248.0000     2.3520   -19.4400   391.9020    82.3940    24.7170     6.4870     5.8400     6.9150 
  248.1250     2.3530   -19.4550   393.3520    83.3290    24.7470     7.0930     5.8350     6.8870 
  248.2500     2.3420   -19.4980   393.2490    80.7100    24.7590     8.1750     6.1250     7.4030 
  248.3750     2.3320   -19.5730   390.7560    76.8080    24.7520     9.8710     6.8390     8.6380 
  248.5000     2.3350   -19.6790   385.4250    73.6850    24.7410    12.6000     8.0690    10.6690 
  248.6250     2.3530   -19.8170   379.3040    71.5940    24.7370    16.7020     9.8480    13.3930 
  248.7500     2.3750   -19.9800   374.6940    70.3920    24.7310    20.6200    11.7320    15.9870 
  248.8750     2.3860   -20.1600   373.6800    70.0590    24.7130    21.8930    13.0870    17.4460 
  249.0000     2.3860   -20.3330   377.5640    71.1620    24.6860    19.5280    13.3730    17.1500 
  249.1250     2.3820   -20.4900   383.8550    72.7690    24.6640    15.6350    12.5340    15.4350 
  249.2500     2.3810   -20.6230   389.6400    72.5150    24.6760    13.0900    11.3440    13.5700 
  249.3750     2.3810   -20.7310   392.3080    72.5310    24.7370    12.1300    10.2400    12.1110 
  249.5000     2.3770   -20.8070   390.6060    74.6080    24.8310    12.0440     9.4210    11.2030 
  249.6250     2.3680   -20.8420   386.3560    76.5770    24.9260    12.0990     8.9640    10.8160 
  249.7500     2.3560   -20.8560   380.9630    76.4720    24.9870    12.0030     8.7530    10.6930 
  249.8750     2.3430   -20.8340   375.8870    76.9110    24.9910    12.0260     8.7430    10.7610 
  250.0000     2.3390   -20.7900   371.4570    78.2490    24.9420    12.5330     8.9700    11.1180 
  250.1250     2.3550   -20.7090   365.2200    76.3900    24.8900    13.4850     9.6160    12.0820 
  250.2500     2.4000   -20.6190   354.5850    70.6510    24.8900    14.9880    10.7230    13.7020 
  250.3750     2.4600   -20.5200   339.3360    63.8490    24.9310    18.5730    12.2560    15.8490 
  250.5000     2.4980   -20.4350   323.7160    59.4320    24.9710    25.3750    13.9520    18.0280 
  250.6250     2.4920   -20.3480   314.5990    61.5890    24.9490    29.7490    15.0930    19.0850 
  250.7500     2.4550   -20.2520   316.1710    66.8200    24.8930    26.6080    15.1610    18.4950 
  250.8750     2.4120   -20.1590   327.8860    71.0930    24.9070    19.3970    14.2150    16.6450 
