~V
VERS. 2.00: Ver 2.00
~W
STRT.M 60.0000:
STOP.M 270.0000:
STEP.M 0.1250:
NULL. -999.2500:
UWI. DF3075:
~C
DEPT.M :
GR.API :
RML.OHMM :
RI. :
RXO.OHMM :
CALI.CM :
DEN.GM/CC :
SP.MV :
~A
# ...
  195.0000    49.7630     5.8320     6.1010     4.8300    23.1420     2.5640   -14.6040 
  195.1250    49.2440     6.1240     6.2380     4.8740    23.1480     2.5350   -14.6520 
  195.2500    50.2620     6.4690     6.5650     4.9500    23.1780     2.5010   -14.8180 
  195.3750    51.9460     6.7840     6.9530     5.0290    23.2230     2.4660   -15.0850 
  195.5000    56.5510     7.0420     7.3160     5.1410    23.2850     2.4370   -15.4590 
  195.6250    63.3550     7.2530     7.5900     5.3640    23.3740     2.4200   -15.8530 
  195.7500    68.8080     7.4440     7.7910     5.7510    23.4860     2.4150   -16.3010 
  195.8750    71.7570     7.6100     7.9200     6.2640    23.6090     2.4170   -16.7270 
  196.0000    73.3100     7.7360     7.9660     6.8910    23.6920     2.4210   -17.1250 
  196.1250    74.9440     7.8170     7.9320     7.3450    23.6940     2.4230   -17.5010 
  196.2500    77.6970     7.8840     7.8500     7.4320    23.6520     2.4270   -17.8450 
  196.3750    81.7430     7.9760     7.7650     7.2000    23.6010     2.4390   -18.1720 
  196.5000    88.3600     8.1350     7.7250     7.0480    23.5850     2.4570   -18.4860 
  196.6250    97.2940     8.4060     7.7800     7.2510    23.6300     2.4720   -18.8080 
  196.7500   105.3990     8.7780     7.9330     7.7030    23.6770     2.4730   -19.1300 
  196.8750   109.8050     9.2330     8.1730     8.3980    23.6640     2.4570   -19.4610 
  197.0000   109.3720     9.7590     8.4900     9.3190    23.5910     2.4280   -19.8230 
  197.1250   105.9490    10.3500     8.8770     9.9110    23.4630     2.3980   -20.1710 
  197.2500   102.2160    10.9690     9.3040     9.9720    23.2950     2.3760   -20.5220 
  197.3750    98.6750    11.5720     9.7620    10.3210    23.1360     2.3650   -20.8320 
  197.5000    94.9510    12.1260    10.2270    11.1380    23.0460     2.3640   -21.0990 
  197.6250    91.9130    12.5950    10.6660    12.0350    23.0090     2.3720   -21.2570 
  197.7500    91.6090    12.9730    11.0410    13.2680    22.9870     2.3830   -21.4040 
  197.8750    92.1100    13.2620    11.3210    14.8760    22.9790     2.3960   -21.4860 
  198.0000    92.9960    13.4630    11.4980    15.7360    22.9780     2.4090   -21.5320 
  198.1250    94.4300    13.5730    11.5840    15.1570    22.9810     2.4190   -21.4920 
  198.2500    95.0800    13.6560    11.6600    14.9430    22.9880     2.4260   -21.3950 
  198.3750    95.7580    13.7800    11.7860    15.2980    23.0050     2.4290   -21.2420 
  198.5000    98.7290    13.9990    11.9900    15.5790    23.0370     2.4280   -21.0310 
  198.6250   102.8420    14.3300    12.2780    15.4300    23.1120     2.4270   -20.8470 
  198.7500   103.4200    14.6690    12.5460    16.1980    23.2090     2.4290   -20.5950 
  198.8750   101.0460    14.8670    12.6820    18.0160    23.3240     2.4340   -20.3570 
  199.0000    99.9390    14.7650    12.5730    20.5180    23.4440     2.4390   -20.0550 
  199.1250   100.4040    14.2170    12.0970    18.1970    23.4490     2.4410   -19.7250 
  199.2500   101.0390    13.3400    11.3500    15.2220    23.4450     2.4370   -19.3160 
  199.3750   100.9550    12.2800    10.4450    13.2570    23.4390     2.4280   -18.8570 
  199.5000   100.6270    11.2270     9.5370    11.9600    23.4160     2.4180   -18.3400 
  199.6250    98.0980    10.4300     8.8030    10.5060    23.3840     2.4090   -17.7420 
  199.7500    91.4820     9.9920     8.3150     8.8780    23.3450     2.4060   -17.1620 
  199.8750    81.8620     9.9180     8.0980     7.6920    23.3210     2.4120   -16.5820 
  200.0000    74.2760    10.1190     8.1050     7.4620    23.3820     2.4310   -16.0570 
  200.1250    73.9380    10.4300     8.2420     8.1320    23.4960     2.4590   -15.5980 
  200.2500    76.9890    10.6450     8.3710     8.9300    23.5320     2.4890   -15.2030 
  200.3750    77.8410    10.6450     8.3950     9.2530    23.4700     2.5110   -14.8580 
  200.5000    74.5530    10.3820     8.2710     8.9820    23.4360     2.5200   -14.5310 
  200.6250    68.7570     9.8860     7.9880     7.9220    23.4170     2.5100   -14.2790 
  200.7500    63.3310     9.3340     7.6470     6.7980    23.3740     2.4900   -13.9880 
  200.8750    58.1120     8.8700     7.3270     6.1020    23.3070     2.4680   -13.7290 
  201.0000    53.6000     8.5930     7.0830     5.7470    23.2530     2.4510   -13.4880 
  201.1250    52.1270     8.5470     6.9690     5.6210    23.2650     2.4420   -13.2890 
  201.2500    54.2180     8.6350     6.9500     5.6550    23.2760     2.4380   -13.1520 
  201.3750    58.9320     8.7860     6.9940     5.7310    23.2860     2.4340   -13.0830 
  201.5000    64.5660     8.9320     7.0680     5.8120    23.2960     2.4290   -13.0910 
  201.6250    68.8510     9.0160     7.1360     5.8400    23.3260     2.4240   -13.1400 
  201.7500    72.1880     9.0420     7.1780     5.8990    23.3760     2.4230   -13.2250 
  201.8750    75.6930     9.0160     7.1870     5.9840    23.4500     2.4260   -13.2830 
  202.0000    80.5680     8.9460     7.1670     6.0770    23.5420     2.4330   -13.3170 
  202.1250    84.0010     8.8360     7.1150     6.1580    23.6200     2.4390   -13.3200 
  202.2500    84.8230     8.6990     7.0200     6.2100    23.6960     2.4420   -13.3350 
  202.3750    85.5350     8.5340     6.8920     6.1490    23.7640     2.4420   -13.3590 
  202.5000    88.2180     8.3410     6.7380     6.0140    23.8730     2.4370   -13.4200 
  202.6250    89.7620     8.1470     6.5900     5.9350    24.0350     2.4270   -13.4950 
  202.7500    87.4790     8.0120     6.4890     6.0030    24.2410     2.4140   -13.6190 
  202.8750    84.2900     8.0140     6.4730     6.2370    24.4270     2.4010   -13.7790 
  203.0000    84.5900     8.2120     6.5910     6.6270    24.4950     2.3910   -13.9570 
  203.1250    88.8250     8.6630     6.8990     6.9620    24.5130     2.3870   -14.1590 
  203.2500    92.2280     9.2760     7.3620     7.5490    24.4610     2.3860   -14.3480 
  203.3750    91.2570     9.9450     7.9260     8.5020    24.3890     2.3850   -14.5240 
  203.5000    85.9620    10.5310     8.4890     9.9020    24.3490     2.3810   -14.6650 
  203.6250    80.5290    10.8670     8.9400    11.7670    24.3440     2.3710   -14.7720 
  203.7500    78.5860    10.9500     9.2370    12.6140    24.3460     2.3600   -14.8790 
  203.8750    79.7520    10.8720     9.4080    12.5800    24.3550     2.3510   -14.9810 
  204.0000    82.8460    10.8140     9.5470    11.7780    24.3960     2.3460   -15.1050 
  204.1250    87.5630    11.0290     9.8150    11.4420    24.4270     2.3490   -15.2390 
  204.2500    89.4440    11.6080    10.3290    11.4260    24.4150     2.3560   -15.3670 
  204.3750    85.9180    12.5270    11.1330    12.5640    24.3790     2.3660   -15.5000 
  204.5000    81.1570    13.6630    12.1950    15.0720    24.3520     2.3770   -15.6660 
  204.6250    81.8670    14.8670    13.4200    19.0940    24.3420     2.3880   -15.8400 
  204.7500    84.3760    15.8560    14.6280    21.5650    24.3390     2.3990   -16.0200 
  204.8750    85.0170    16.4470    15.7160    22.4910    24.3380     2.4060   -16.1960 
  205.0000    83.7070    16.8760    16.6680    22.8280    24.3380     2.4080   -16.3930 
  205.1250    82.5840    17.5800    17.6340    23.4940    24.3390     2.4010   -16.6160 
  205.2500    80.5910    19.6410    18.9090    25.4030    24.3420     2.3890   -16.8750 
  205.3750    78.4890    23.6390    20.8380    30.2920    24.3480     2.3800   -17.1800 
  205.5000    76.7490    30.1180    23.8410    38.8110    24.3610     2.3800   -17.4910 
  205.6250    74.2560    39.3120    28.6470    45.2050    24.4300     2.3910   -17.8910 
  205.7500    72.2060    48.3420    35.3750    51.0730    24.5990     2.4020   -18.3180 
  205.8750    71.5620    59.0270    44.0980    57.7680    24.8660     2.4000   -18.7960 
  206.0000    70.6110    72.0300    54.5470    68.4420    25.2150     2.3790   -19.2920 
  206.1250    69.1020    86.6500    66.0270    82.9540    25.4530     2.3410   -19.8090 
