~V
VERS. 2.00: Ver 2.00
~W
STRT.M 64.0000:
STOP.M 268.0000:
STEP.M 0.1250:
NULL. -999.2500:
UWI. DF3002:
~C
DEPT.M :
GR.API :
RML.OHMM :
RI. :
RXO.OHMM :
DEN.GM/CC :
SP.MV :
~A
# ...
  192.7500    59.2080    11.7930    11.5310     9.0300     2.4500   -21.6280 
  192.8750    59.6180    11.4410    11.1990     8.9580     2.4410   -21.6750 
  193.0000    60.4930    11.2620    10.9930     8.5970     2.4420   -21.5820 
  193.1250    59.6340    11.3300    10.9800     8.4660     2.4490   -21.5990 
  193.2500    58.1090    11.5900    11.1110     8.9040     2.4590   -21.5790 
  193.3750    58.3600    11.9720    11.3300     9.5430     2.4670   -21.5450 
  193.5000    60.8590    12.3590    11.5470     9.7370     2.4740   -21.5640 
  193.6250    61.8700    12.5650    11.6190    10.4970     2.4800   -21.5270 
  193.7500    60.4200    12.4960    11.4730    11.1660     2.4840   -21.4480 
  193.8750    58.5090    12.1420    11.0890    11.0630     2.4800   -21.3680 
  194.0000    58.5920    11.5740    10.5140    10.6910     2.4680   -21.2950 
  194.1250    60.3020    10.9100     9.8350     9.4950     2.4530   -21.1530 
  194.2500    62.0330    10.2720     9.1610     8.7060     2.4440   -21.0240 
  194.3750    64.4550     9.7000     8.5410     8.2600     2.4440   -20.8850 
  194.5000    67.2850     9.1980     7.9970     7.9820     2.4520   -20.7270 
  194.6250    68.1010     8.7880     7.5570     7.6390     2.4650   -20.6010 
  194.7500    71.5110     8.4940     7.2320     7.1830     2.4750   -20.6300 
  194.8750    82.1570     8.3740     7.0560     6.7500     2.4810   -20.6770 
  195.0000    96.5090     8.4740     7.0580     6.8140     2.4780   -20.8860 
  195.1250   105.1250     8.8260     7.2740     7.1810     2.4670   -21.1900 
  195.2500   106.4130     9.3230     7.6360     7.8890     2.4510   -21.5480 
  195.3750   103.3400     9.8820     8.0890     8.8070     2.4330   -22.1040 
  195.5000    97.6920    10.4420     8.5800     9.9110     2.4190   -22.6380 
  195.6250    93.1150    11.0030     9.0820    10.6610     2.4140   -23.2820 
  195.7500    93.0930    11.6220     9.6030    11.0000     2.4210   -23.8710 
  195.8750    95.2860    12.3360    10.1610    11.2870     2.4410   -24.4550 
  196.0000    95.6850    13.1150    10.7450    11.9540     2.4710   -24.9690 
  196.1250    94.6850    13.7850    11.2500    13.2920     2.5010   -25.3660 
  196.2500    94.9940    14.1520    11.5470    13.8020     2.5200   -25.7570 
  196.3750    94.5220    14.0930    11.5330    14.0320     2.5200   -25.9510 
  196.5000    92.3040    13.6240    11.1990    14.3690     2.4990   -26.1530 
  196.6250    91.8930    12.9250    10.6500    13.6180     2.4650   -26.3260 
  196.7500    94.6160    12.3410    10.1410    11.8230     2.4330   -26.4040 
  196.8750    97.0180    12.0890     9.8460    10.8910     2.4140   -26.4820 
  197.0000    95.6250    12.2470     9.8500    10.8780     2.4120   -26.4830 
  197.1250    94.3860    12.7720    10.1700    11.4120     2.4260   -26.4500 
  197.2500    95.2260    13.4000    10.6300    12.2220     2.4430   -26.3950 
  197.3750    96.9740    13.9240    11.0730    12.8590     2.4570   -26.3260 
  197.5000    97.4090    14.1940    11.3560    13.1210     2.4640   -26.2270 
  197.6250    96.8540    14.1130    11.3560    12.3270     2.4630   -25.9750 
  197.7500    97.0270    13.7820    11.1280    11.7780     2.4590   -25.7350 
  197.8750    97.8450    13.2750    10.7270    11.5590     2.4530   -25.4270 
  198.0000    98.3740    12.6520    10.2150    11.4690     2.4460   -25.0730 
  198.1250    97.1350    11.9730     9.6520    11.2920     2.4360   -24.7420 
  198.2500    95.3400    11.3600     9.1380    11.1000     2.4270   -24.2890 
  198.3750    95.6480    10.9710     8.7820    10.7590     2.4190   -23.9140 
  198.5000    97.4530    10.9860     8.7120    10.2530     2.4160   -23.4740 
  198.6250    98.0020    11.6350     9.1120     9.7690     2.4190   -23.1090 
  198.7500    96.9050    12.7880     9.9190    10.1320     2.4320   -22.7690 
  198.8750    96.4180    14.1890    10.9880    11.5340     2.4540   -22.4240 
  199.0000    97.2580    15.4130    12.0250    13.0850     2.4860   -22.1010 
  199.1250    99.4470    15.8310    12.5460    13.7100     2.5190   -21.6640 
  199.2500   102.6690    15.2820    12.3350    13.5610     2.5410   -21.2920 
  199.3750   104.7730    13.8970    11.4180    12.6680     2.5340   -20.7960 
  199.5000   101.3130    12.0990    10.0830    10.7680     2.4820   -20.3370 
  199.6250    89.9320    10.4650     8.7580     8.5790     2.3730   -19.9050 
  199.7500    75.4710     9.3110     7.7330     7.0320     2.2420   -19.4180 
  199.8750    63.9310     8.6930     7.0920     6.3390     2.1270   -19.0140 
  200.0000    57.8320     8.5220     6.8110     6.2380     2.0620   -18.7070 
  200.1250    56.0910     8.6670     6.8390     6.4390     2.0780   -18.5070 
  200.2500    58.4690     8.9020     7.0140     6.6820     2.1530   -18.4080 
  200.3750    65.3410     9.1090     7.2360     6.9850     2.2480   -18.4190 
  200.5000    73.0120     9.2320     7.4400     7.1690     2.3190   -18.4690 
  200.6250    76.7610     9.2830     7.6020     7.1840     2.3340   -18.5500 
  200.7500    78.3890     9.3470     7.7550     7.1970     2.3210   -18.7160 
  200.8750    79.9170     9.4880     7.9380     7.2690     2.3110   -18.8960 
  201.0000    81.9290     9.7210     8.1660     7.3770     2.3220   -19.0120 
  201.1250    84.6130     9.9910     8.4070     7.6790     2.3570   -19.2380 
  201.2500    86.9530    10.1860     8.5880     8.1980     2.3990   -19.3850 
  201.3750    87.3980    10.2270     8.6440     8.5790     2.4280   -19.5630 
  201.5000    87.0490    10.0970     8.5540     8.8200     2.4350   -19.7940 
  201.6250    86.9620     9.8710     8.3610     8.7510     2.4220   -19.9920 
  201.7500    86.6450     9.7160     8.1980     8.4690     2.4040   -20.2970 
  201.8750    85.7560     9.7660     8.1760     8.3410     2.3880   -20.5570 
  202.0000    86.3420    10.0950     8.3690     8.6750     2.3790   -20.9110 
  202.1250    91.4370    10.7120     8.8150     9.3700     2.3760   -21.1870 
  202.2500    93.6690    11.4150     9.3790    10.1880     2.3740   -21.4630 
  202.3750    89.1180    11.9950     9.9050    10.7190     2.3700   -21.7760 
  202.5000    83.3910    12.2670    10.2330    10.7950     2.3650   -22.0280 
  202.6250    84.2540    12.0970    10.2210    11.1820     2.3590   -22.3510 
  202.7500    86.0370    11.6780     9.9810    11.0180     2.3580   -22.5550 
  202.8750    84.2030    11.2800     9.6950    10.0200     2.3630   -22.8420 
  203.0000    84.3320    11.1860     9.5860     9.4180     2.3750   -23.1630 
  203.1250    88.5420    11.6180     9.9260    10.2450     2.3890   -23.4560 
  203.2500    89.6150    12.6740    10.7860    12.0810     2.3950   -23.8340 
  203.3750    87.0570    14.3850    12.2440    14.4810     2.3850   -24.2260 
  203.5000    84.7490    17.1370    14.3930    18.1160     2.3610   -24.5970 
  203.6250    83.2840    21.1960    17.5740    21.1470     2.3340   -25.0030 
  203.7500    81.5510    27.1020    21.9560    23.5010     2.3220   -25.4670 
  203.8750    80.0500    34.9430    27.8300    27.4540     2.3310   -25.8900 
  204.0000    76.7250    43.6720    35.2860    34.9870     2.3570   -26.2760 
  204.1250    69.6480    53.4030    44.0410    48.3800     2.3800   -26.6830 
  204.2500    63.9380    62.9990    52.8400    61.5770     2.3850   -27.0900 
  204.3750    63.7830    71.3050    60.5600    71.1150     2.3670   -27.4200 
  204.5000    66.5020    77.6530    66.4610    76.7140     2.3340   -27.8380 
  204.6250    68.9970    82.1360    70.4340    72.8510     2.2940   -28.1490 
  204.7500    71.8790    86.1410    73.7150    70.8400     2.2550   -28.4610 
  204.8750    74.0660    90.4940    77.1410    74.7990     2.2220   -28.7440 
  205.0000    74.6540    95.4070    81.0700    82.4140     2.1970   -28.9790 
  205.1250    72.6720   100.5680    85.4020    96.0300     2.1840   -29.2830 
  205.2500    69.1800   105.5490    89.7580   103.6080     2.1810   -29.4680 
  205.3750    66.0460   110.3300    94.0610    97.9160     2.1870   -29.7350 
  205.5000    66.0980   115.2540    98.5460    90.7670     2.1980   -29.9320 
