~V
VERS. 2.00: Ver 2.00
~W
STRT.M 105.0000:
STOP.M 269.0000:
STEP.M 0.1250:
NULL. -999.2500:
UWI. DF304:
~C
DEPT.M :
GR.API :
CALI.CM :
RXO.OHMM :
RI. :
RML.OHMM :
SP.MV :
DEN.GM/CC :
AC.US/MT :
~A
# ...
  245.0000    90.8330    24.6650    13.9900    12.3920    15.4090   -27.7920     2.2890   337.1390 
  245.1250    91.6740    24.6600    14.6170    12.7060    15.8470   -27.7470     2.2910   338.0650 
  245.2500    94.1640    24.6550    15.0340    12.8390    16.0240   -27.6210     2.2930   336.2720 
  245.3750    95.9480    24.6530    14.9610    12.6660    15.7530   -27.4260     2.3000   334.9970 
  245.5000    95.4620    24.6520    14.1700    12.1960    15.0510   -27.1880     2.3150   337.8110 
  245.6250    93.0020    24.6540    12.6950    11.5980    14.1840   -26.9210     2.3270   343.9290 
  245.7500    91.7820    24.6580    11.1570    11.1170    13.5250   -26.6750     2.3240   346.9560 
  245.8750    91.6650    24.6620    10.2390    10.8610    13.2390   -26.4940     2.3160   346.6600 
  246.0000    90.8930    24.6670    10.4590    10.8310    13.3050   -26.3640     2.3140   338.9720 
  246.1250    89.9090    24.6580    11.5980    10.9270    13.5450   -26.2940     2.3110   329.2320 
  246.2500    94.1490    24.6300    12.5290    10.9660    13.6630   -26.2640     2.2960   324.6710 
  246.3750   102.9240    24.6000    12.6670    10.8430    13.5060   -26.2830     2.2810   328.3010 
  246.5000   108.7300    24.5870    11.9500    10.5540    13.0800   -26.3580     2.2820   335.6810 
  246.6250   105.7290    24.5870    11.0960    10.1930    12.5370   -26.4650     2.3000   338.9690 
  246.7500    98.9320    24.5870    11.1040     9.9080    12.1070   -26.5560     2.3100   336.4680 
  246.8750    93.2990    24.5870    11.9460     9.8080    11.9410   -26.6020     2.3050   331.0830 
  247.0000    93.7230    24.5870    12.4650     9.9830    12.1570   -26.6020     2.3000   325.8090 
  247.1250    97.8050    24.5870    11.8510    10.5550    12.9300   -26.5670     2.3140   318.9120 
  247.2500   101.9910    24.5870    11.6640    11.4680    14.1780   -26.5410     2.3520   307.0740 
  247.3750   104.1850    24.5870    13.1530    12.5940    15.7260   -26.5010     2.3920   290.8910 
  247.5000   104.3610    24.5870    16.0250    13.6350    17.1570   -26.4250     2.4090   279.2940 
  247.6250   100.5220    24.6040    18.6760    14.0070    17.6910   -26.3200     2.3910   280.9490 
  247.7500    94.4310    24.6540    19.1580    13.5290    17.0590   -26.2150     2.3470   296.8360 
  247.8750    91.2720    24.7220    16.8230    12.4100    15.5080   -26.1000     2.3110   320.1680 
  248.0000    92.3100    24.7630    13.0430    11.1310    13.6950   -25.9920     2.2980   339.7450 
  248.1250    93.4710    24.7720    10.3260    10.2210    12.4270   -25.9050     2.3060   349.3610 
  248.2500    95.9030    24.7720     9.8900     9.8670    12.0010   -25.8460     2.3200   348.2360 
  248.3750    98.4260    24.7720    11.2360    10.1250    12.4580   -25.8090     2.3280   339.2210 
  248.5000    97.1930    24.7720    13.3690    10.9780    13.6770   -25.7910     2.3290   328.1280 
  248.6250    93.0210    24.7720    15.5990    12.3870    15.4700   -25.7820     2.3240   321.1970 
  248.7500    91.6050    24.7720    17.6500    14.0370    17.3870   -25.7630     2.3170   320.2280 
  248.8750    93.0470    24.7720    19.0260    15.6470    19.0970   -25.7270     2.3110   323.2860 
  249.0000    94.5670    24.7720    19.2680    16.9690    20.3710   -25.6570     2.3040   326.7550 
  249.1250    96.1090    24.7720    19.1340    17.7530    21.0090   -25.4930     2.2970   328.7340 
  249.2500    97.8820    24.7720    19.0110    17.9440    21.0300   -25.2270     2.2970   329.5930 
  249.3750    97.4260    24.7720    18.7830    17.4240    20.3260   -24.8820     2.3100   330.4460 
  249.5000    96.4920    24.7720    18.5470    16.1540    18.8380   -24.4730     2.3340   333.5610 
  249.6250    96.8470    24.7720    17.9610    14.2820    16.6620   -24.0130     2.3570   340.1260 
  249.7500    94.4320    24.7720    15.9090    12.3290    14.3540   -23.5520     2.3660   349.0900 
  249.8750    89.3560    24.7720    12.4140    10.6470    12.3520   -23.1560     2.3600   356.6360 
  250.0000    85.7170    24.7680     9.4970     9.4560    10.9670   -22.8570     2.3430   357.4480 
  250.1250    86.4740    24.7460     9.5590     8.9550    10.4820   -22.7610     2.3230   352.2980 
  250.2500    88.4590    24.7100    11.2550     9.0660    10.7690   -22.8480     2.3080   344.2490 
  250.3750    90.8300    24.6830    12.7400     9.7770    11.7560   -23.0670     2.3010   336.0570 
  250.5000    95.2910    24.6740    13.7150    11.0490    13.3350   -23.4240     2.2960   328.9500 
  250.6250    99.4030    24.6740    15.5420    12.7980    15.3330   -23.8920     2.2890   323.7110 
  250.7500   101.3580    24.6740    17.8270    14.6000    17.2610   -24.3660     2.2780   321.9270 
  250.8750   101.3530    24.6740    19.3590    15.9550    18.5850   -24.7860     2.2700   324.0850 
  251.0000    98.9510    24.6720    20.1060    16.3450    18.7810   -25.0890     2.2700   327.9440 
  251.1250    92.0180    24.6650    20.1210    15.3820    17.4560   -25.1910     2.2810   330.2510 
  251.2500    85.7020    24.6570    18.8570    13.6610    15.2870   -25.1080     2.2960   330.9940 
  251.3750    84.8070    24.6530    15.9380    11.7700    12.9660   -24.9190     2.2990   332.3270 
  251.5000    87.1460    24.6520    12.2250    10.1430    11.0420   -24.6560     2.2880   336.1820 
  251.6250    87.8030    24.6540     9.7930     9.0560     9.8710   -24.3880     2.2700   341.1800 
  251.7500    87.5220    24.6560     8.9950     8.4400     9.3260   -24.1500     2.2590   345.7000 
  251.8750    88.2560    24.6580     9.0360     8.2250     9.2740   -23.9350     2.2520   349.2050 
  252.0000    89.2140    24.6610     9.1540     8.3100     9.5480   -23.7600     2.2510   352.1860 
  252.1250    88.3060    24.6630     9.0970     8.5940     9.9800   -23.6270     2.2600   354.4310 
  252.2500    87.7420    24.6720     9.0490     8.9330    10.4080   -23.5190     2.2820   353.8780 
  252.3750    88.4600    24.7080     9.2810     9.2630    10.7830   -23.3970     2.3050   348.2900 
  252.5000    90.2010    24.7870     9.7260     9.5670    11.1130   -23.2230     2.3190   337.4310 
  252.6250    91.3630    24.8520    10.0910     9.8540    11.4290   -22.9410     2.3280   326.3200 
  252.7500    92.4400    24.8770    10.3720    10.1400    11.7510   -22.5880     2.3440   318.6970 
  252.8750    92.7970    24.8800    10.8690    10.4380    12.1020   -22.2090     2.3670   314.9370 
  253.0000    90.5260    24.8780    11.8600    10.7790    12.5290   -21.8010     2.3850   312.2070 
  253.1250    87.2280    24.8740    12.6690    11.2320    13.1340   -21.3880     2.3840   307.8390 
  253.2500    88.1320    24.8570    12.9930    11.8280    13.9500   -20.9660     2.3730   301.3490 
  253.3750    91.2650    24.8150    13.1310    12.5740    14.9760   -20.5570     2.3760   292.9820 
  253.5000    91.5200    24.7820    13.6960    13.4300    16.1400   -20.1610     2.4000   283.7410 
  253.6250    91.2260    24.7550    15.3480    14.2830    17.2620   -19.7910     2.4350   276.5880 
  253.7500    94.4230    24.7200    17.0600    15.0110    18.1560   -19.4350     2.4670   273.5410 
  253.8750    96.4160    24.6870    17.8000    15.5560    18.7310   -19.0870     2.4890   273.5090 
  254.0000    92.9340    24.6640    17.2750    15.9330    19.0270   -18.7640     2.5000   272.9750 
  254.1250    87.1200    24.6290    16.7140    16.2540    19.2430   -18.4450     2.4990   270.9070 
  254.2500    84.5280    24.5710    17.8620    16.7060    19.6850   -18.1810     2.4910   268.9900 
  254.3750    83.6180    24.5280    20.1850    17.4370    20.5620   -17.9630     2.4880   268.2560 
  254.5000    82.8340    24.4950    21.8110    18.4900    21.9200   -17.7880     2.4940   267.2350 
  254.6250    82.8270    24.4830    21.6280    19.6570    23.4550   -17.6470     2.5040   264.0360 
  254.7500    83.2380    24.4790    22.3630    20.3690    24.4180   -17.5380     2.4990   258.9800 
  254.8750    84.5790    24.4790    24.6290    20.0500    24.0830   -17.4510     2.4730   255.4740 
