~V
VERS. 2.00: Ver 2.00
~W
STRT.M 55.0000:
STOP.M 272.0000:
STEP.M 0.1250:
NULL. -999.2500:
UWI. DF3078:
~C
DEPT.M :
GR.API :
CALI.CM :
RXO.OHMM :
RI. :
RML.OHMM :
DEN.GM/CC :
SP.MV :
~A
# ...
  178.7500    67.0300    23.9910    55.3950    62.6550    64.3700     2.2550   -18.5350 
  178.8750    66.0740    24.3820    64.5810    63.2800    65.4320     2.2610   -18.4300 
  179.0000    68.1920    24.7760    69.5520    63.7420    66.6260     2.2740   -18.3670 
  179.1250    71.3450    25.0090    69.2600    62.9630    66.7540     2.2900   -18.3020 
  179.2500    72.6310    25.1050    65.7070    60.7550    65.3500     2.3050   -18.2690 
  179.3750    73.0770    25.1120    59.8040    57.3780    62.4440     2.3180   -18.2790 
  179.5000    73.8050    25.1040    54.4530    53.4610    58.5380     2.3260   -18.3120 
  179.6250    73.8160    25.1130    51.2550    49.8540    54.4610     2.3340   -18.3820 
  179.7500    71.5260    25.1400    48.0360    47.1340    51.0230     2.3460   -18.4740 
  179.8750    68.9770    25.1580    43.7490    45.6650    48.7410     2.3540   -18.6160 
  180.0000    68.2840    25.1580    41.2740    45.7290    48.0170     2.3510   -18.7760 
  180.1250    67.9440    25.1160    43.6760    47.9080    49.5570     2.3340   -18.9820 
  180.2500    66.9330    25.1020    48.2110    52.1100    53.3610     2.3140   -19.2090 
  180.3750    65.8540    25.1310    54.2690    58.3310    59.5500     2.3000   -19.4410 
  180.5000    64.2170    25.1600    64.6830    66.1610    67.8470     2.2890   -19.7030 
  180.6250    63.2030    25.1270    84.5590    74.2420    77.1160     2.2770   -19.9420 
  180.7500    64.9860    25.1070   104.4380    80.1520    84.8580     2.2680   -20.1880 
  180.8750    68.8500    25.0950   112.4310    81.8030    88.7240     2.2660   -20.4060 
  181.0000    72.2030    25.0700   104.2120    78.6120    87.4590     2.2680   -20.6120 
  181.1250    72.7040    25.0280    87.8210    71.9790    81.4420     2.2700   -20.7860 
  181.2500    71.9610    25.0150    72.5070    65.2210    74.0550     2.2710   -20.9570 
  181.3750    71.7240    25.0190    60.8650    60.0410    67.5210     2.2770   -21.1090 
  181.5000    71.2460    25.0140    53.9060    57.1460    63.1350     2.2930   -21.2460 
  181.6250    70.5250    24.9630    52.4800    56.9500    61.7580     2.3120   -21.3760 
  181.7500    70.8260    24.7950    53.0960    58.7400    62.7730     2.3120   -21.4870 
  181.8750    72.6050    24.4540    53.2050    62.0820    65.7390     2.2960   -21.6210 
  182.0000    73.1490    24.1400    56.2230    66.4600    70.0660     2.2850   -21.7400 
  182.1250    68.6490    24.3190    65.3080    71.3220    75.0590     2.2990   -21.8680 
  182.2500    62.9180    24.5820    73.4670    76.1560    79.9570     2.3140   -21.9810 
  182.3750    60.1890    24.7460    74.8630    80.9960    84.6130     2.3080   -22.0800 
  182.5000    60.9930    24.7810    73.4120    86.4170    89.5400     2.2850   -22.1610 
  182.6250    61.5310    24.7570    78.1200    93.8570    96.2610     2.2700   -22.2250 
  182.7500    60.5510    24.7630    87.8460   104.2380   105.9550     2.2700   -22.2860 
  182.8750    61.0830    24.8580   100.7800   118.2210   119.4590     2.2670   -22.3060 
  183.0000    61.4060    24.9550   119.7310   135.5140   136.5690     2.2490   -22.3140 
  183.1250    58.1370    25.0290   148.2170   153.8190   155.0980     2.2230   -22.2860 
  183.2500    54.5450    25.0830   176.5980   168.6280   170.6220     2.2110   -22.2380 
  183.3750    55.0110    25.1200   193.2270   176.6380   179.7700     2.2220   -22.1610 
  183.5000    58.4450    25.1520   187.6430   177.4530   181.6180     2.2440   -22.0520 
  183.6250    61.1390    25.1970   162.2120   173.6170   177.9550     2.2560   -21.9070 
  183.7500    62.0110    25.2150   140.5440   169.7880   173.6580     2.2540   -21.7280 
  183.8750    61.4610    25.1700   130.2260   167.9520   171.2790     2.2520   -21.5220 
  184.0000    59.3710    25.0840   133.3770   168.4330   171.6210     2.2550   -21.2830 
  184.1250    59.1450    25.0510   151.3350   170.7260   174.4990     2.2530   -21.0270 
  184.2500    60.6670    25.0700   166.5660   173.5900   178.6090     2.2370   -20.7060 
  184.3750    61.5410    25.1110   167.6850   176.3260   183.2890     2.2150   -20.3720 
  184.5000    59.8660    25.1520   161.2480   178.1040   187.8620     2.2010   -20.0200 
  184.6250    58.1150    25.1800   168.6610   175.7970   189.6010     2.2040   -19.6390 
  184.7500    58.3470    25.2020   188.1570   165.7330   184.3120     2.2140   -19.2390 
  184.8750    60.3530    25.2060   205.7920   146.0190   168.5960     2.2260   -18.8080 
  185.0000    63.2610    25.1950   194.6860   119.5810   143.3010     2.2460   -18.3790 
  185.1250    66.6610    25.1710   142.5720    93.4120   114.2630     2.2790   -17.9260 
  185.2500    70.4530    25.1510    86.0690    72.5730    88.9140     2.3130   -17.5070 
  185.3750    73.2400    25.1260    54.7060    58.2060    70.2550     2.3320   -17.1060 
  185.5000    74.0870    25.1000    45.0770    49.6000    58.4560     2.3350   -16.7380 
  185.6250    72.8060    25.1270    43.6220    46.0110    52.9330     2.3310   -16.4360 
  185.7500    72.2630    25.1080    46.7250    45.3940    51.1820     2.3280   -16.1740 
  185.8750    73.2180    25.0550    54.0610    46.7960    52.0640     2.3210   -15.9800 
  186.0000    74.4820    25.0440    62.1490    49.4180    54.5840     2.3090   -15.8300 
  186.1250    73.5280    25.0890    65.8040    52.7600    58.0520     2.2990   -15.7590 
  186.2500    69.6790    25.0840    67.2580    56.4630    61.9470     2.2970   -15.7260 
  186.3750    65.4090    25.0500    68.9830    60.4400    66.1570     2.2990   -15.7330 
  186.5000    62.7580    25.0240    72.8050    64.5010    70.4830     2.2950   -15.7560 
  186.6250    62.1900    24.9890    85.3140    68.1530    74.3910     2.2880   -15.7960 
  186.7500    63.5520    24.8880    92.2120    70.9410    77.3110     2.2900   -15.8330 
  186.8750    66.2010    24.7200    84.5620    72.7490    78.9770     2.3040   -15.8740 
  187.0000    67.5760    24.5740    70.4490    74.1070    79.8740     2.3220   -15.9330 
  187.1250    65.0480    24.6110    69.2610    76.1060    81.3060     2.3260   -15.9650 
  187.2500    61.2430    24.7910    82.8880    78.9290    83.8140     2.3150   -16.0030 
  187.3750    58.1550    24.9720   105.3230    81.4900    86.5110     2.2990   -16.0320 
  187.5000    56.8250    25.0700   127.4260    81.7700    87.3960     2.2920   -16.0550 
  187.6250    59.1780    25.0620   125.9660    77.3690    83.7840     2.3000   -16.0780 
  187.7500    63.0080    25.0780   101.0710    69.7040    76.4490     2.3140   -16.1100 
  187.8750    65.9820    25.1020    69.4630    61.2990    67.5850     2.3280   -16.1470 
  188.0000    68.5580    25.0910    50.3010    54.4580    59.6840     2.3380   -16.1650 
  188.1250    71.8000    25.0530    46.4890    50.6560    54.6740     2.3380   -16.2110 
  188.2500    72.7090    25.0340    48.5460    49.2490    52.2600     2.3300   -16.2560 
  188.3750    69.1170    25.0240    50.6190    49.5650    51.9040     2.3220   -16.3160 
  188.5000    65.5040    25.0060    52.5040    50.7730    52.8170     2.3180   -16.3850 
  188.6250    67.5080    24.9680    55.6020    51.8980    53.9960     2.3150   -16.4620 
  188.7500    71.5090    24.9000    60.0050    52.2610    54.5360     2.3140   -16.5460 
  188.8750    73.6770    24.8070    63.5190    51.6990    54.1200     2.3220   -16.6390 
  189.0000    73.4250    24.7670    62.1220    50.4240    52.8500     2.3330   -16.7320 
  189.1250    73.5340    24.8030    53.7870    48.9300    51.1330     2.3330   -16.8180 
  189.2500    73.0910    24.8210    45.2830    47.8640    49.6630     2.3210   -16.8970 
  189.3750    71.1830    24.7910    42.1490    47.6650    48.9430     2.3110   -16.9530 
  189.5000    68.7660    24.7550    44.4780    48.5460    49.2710     2.3110   -17.0190 
  189.6250    67.8970    24.7330    49.5360    50.5280    50.7890     2.3180   -17.0490 
  189.7500    67.9960    24.7460    53.5230    53.2090    52.5590     2.3200   -17.0860 
  189.8750    68.5150    24.7810    56.1650    55.5340    54.2440     2.3160   -17.1090 
