~V
VERS. 2.00: Ver 2.00
~W
STRT.M 130.0000:
STOP.M 268.0000:
STEP.M 0.1250:
NULL. -999.2500:
UWI. DF3061:
~C
DEPT.M :
GR.API :
CALI.CM :
RXO.OHMM :
RI. :
RML.OHMM :
DEN.GM/CC :
SP.MV :
~A
# ...
  231.2500    64.6060    24.7070   199.7250    85.6070    94.3820     2.2040   -27.3130 
  231.3750    66.6110    24.6080   193.9700    84.4700    93.1280     2.2100   -27.2010 
  231.5000    69.8930    24.7780   127.8880    81.7220    90.0990     2.2430   -27.1330 
  231.6250    72.5600    24.8190    86.2660    78.4420    86.4820     2.2910   -27.0840 
  231.7500    72.0130    24.7350    78.7460    76.2300    84.0430     2.3430   -27.0170 
  231.8750    67.9570    24.7320    70.4910    75.8480    83.6230     2.3990   -26.9180 
  232.0000    64.1390    24.7680    67.4750    77.6500    85.6090     2.4580   -26.7550 
  232.1250    64.7300    24.4120    65.0730    81.3640    89.7040     2.4980   -26.4800 
  232.2500    67.5580    24.3970    81.0400    85.2670    94.0070     2.5010   -26.1200 
  232.3750    68.9690    24.3180   111.6610    87.9440    96.9580     2.4690   -25.6920 
  232.5000    68.4400    23.9670   139.7300    88.7720    97.8710     2.4380   -25.2240 
  232.6250    69.3600    23.9780   122.2330    87.4230    96.3840     2.4270   -24.7570 
  232.7500    70.1540    24.0890    96.9090    84.8700    93.5690     2.4440   -24.2960 
  232.8750    68.0900    24.2280    74.3890    82.2890    90.7230     2.4820   -23.8860 
  233.0000    65.5260    24.4510    64.8460    80.4710    88.7190     2.5200   -23.5220 
  233.1250    65.1460    24.1610    74.1680    79.5860    87.7430     2.5440   -23.1940 
  233.2500    65.3050    23.9510    76.3930    77.9370    85.9260     2.5640   -22.8630 
  233.3750    63.9670    23.8980    76.8480    73.5140    81.0500     2.6000   -22.5230 
  233.5000    60.4330    23.6810    84.8720    64.6080    71.2300     2.6430   -22.1430 
  233.6250    57.6830    23.8680   131.8740    51.6500    56.9440     2.6690   -21.6840 
  233.7500    58.3170    23.9640   148.7290    38.3360    42.7890     2.6650   -21.2100 
  233.8750    62.4610    23.9320   108.9050    26.9610    30.5740     2.6200   -20.6990 
  234.0000    66.3130    23.8080    47.2290    18.5850    21.0760     2.5510   -20.1730 
  234.1250    64.8210    23.4360    19.0890    13.3580    15.1480     2.4790   -19.6630 
  234.2500    63.9610    23.2430     9.1930    10.1680    11.5300     2.4280   -19.2120 
  234.3750    67.5140    23.2780     6.9450     8.4750     9.6100     2.4220   -18.8380 
  234.5000    74.1230    23.2550     6.3980     7.8570     8.9100     2.4440   -18.5870 
  234.6250    80.8530    23.4950     6.9530     8.1450     9.2360     2.4690   -18.4860 
  234.7500    87.6580    23.8570     7.7530     8.8830    10.0730     2.4700   -18.4710 
  234.8750    95.1880    24.0250     8.4020     9.7870    11.0980     2.4410   -18.5470 
  235.0000   101.2670    24.2290     8.7000    10.5860    12.0040     2.4090   -18.6780 
  235.1250   103.8150    24.0900     8.5440    11.0720    12.5550     2.3900   -18.8310 
  235.2500   106.7000    24.0260     8.4380    11.3040    12.8190     2.3870   -18.9740 
  235.3750   111.0870    23.7780     8.4310    11.3580    12.8800     2.3900   -19.0760 
  235.5000   115.5190    23.4470     8.4230    11.3390    12.8590     2.3940   -19.1110 
  235.6250   118.6230    23.3500     8.5200    11.2960    12.8100     2.3990   -19.0660 
  235.7500   122.2120    23.8240     8.7870    11.2150    12.7180     2.4040   -18.9680 
  235.8750   125.7550    24.4640     9.0670    11.0830    12.5680     2.4070   -18.8150 
  236.0000   124.9240    25.0690     9.0770    10.9040    12.3650     2.4090   -18.6480 
  236.1250   116.3290    24.9730     8.8760    10.6740    12.1040     2.4120   -18.4970 
  236.2500   109.0150    24.9990     8.6000    10.4620    11.8640     2.4130   -18.3640 
  236.3750   109.5290    25.0230     8.3700    10.3350    11.7200     2.4130   -18.2820 
  236.5000   114.8370    24.9920     8.1940    10.3410    11.7260     2.4170   -18.2630 
  236.6250   116.3080    24.7460     8.2450    10.5240    11.9340     2.4300   -18.3320 
  236.7500   113.3300    24.7110     8.3050    10.8150    12.2650     2.4460   -18.4560 
  236.8750   110.0340    24.7110     8.5630    11.1040    12.5920     2.4450   -18.6520 
  237.0000   104.9320    24.7680     9.8670    11.2640    12.7740     2.4310   -18.8980 
  237.1250    97.6620    24.7130    12.4630    11.3060    12.8210     2.4160   -19.1780 
  237.2500    94.9170    24.6280    12.5170    11.3830    12.9090     2.4130   -19.4960 
  237.3750    97.5490    24.7490    10.6220    11.6730    13.2370     2.4190   -19.8310 
  237.5000   101.5200    24.7570     9.2190    12.4360    14.1020     2.4280   -20.1540 
  237.6250   103.8730    24.8080     9.4010    14.0910    15.9790     2.4370   -20.4500 
  237.7500   101.6510    24.7000    14.2550    16.6420    18.8720     2.4340   -20.7250 
  237.8750    93.1630    24.2920    29.5570    20.1240    22.8210     2.3940   -20.9350 
  238.0000    82.8530    24.2630    46.2670    24.7020    28.0130     2.3310   -21.0820 
  238.1250    80.0750    24.4450    42.8740    30.7250    34.6550     2.2790   -21.1840 
  238.2500    82.2060    24.4900    29.4010    37.7230    41.8890     2.2620   -21.2580 
  238.3750    82.9010    24.6400    29.0350    45.3020    49.6000     2.2640   -21.3010 
  238.5000    82.5390    24.7470    43.3660    53.0300    56.7380     2.2540   -21.3260 
  238.6250    81.6570    24.8210    65.4780    61.0700    64.2630     2.2330   -21.3380 
  238.7500    78.0190    24.9160    79.3930    69.9800    72.7400     2.2160   -21.3470 
  238.8750    72.1540    24.9040    86.1840    79.7310    82.7200     2.2170   -21.3930 
  239.0000    67.7220    24.7200    90.1860    88.7410    92.7320     2.2200   -21.4780 
  239.1250    67.0340    24.7590    98.6930    94.1280    99.3370     2.2140   -21.5920 
  239.2500    67.3530    24.8930   108.8390    96.7250   103.0630     2.2020   -21.7040 
  239.3750    66.7160    24.8530   113.7290    97.7820   104.5860     2.1980   -21.8110 
  239.5000    66.0950    24.7940   112.0210    97.2370   102.8800     2.2010   -21.9110 
  239.6250    66.8280    24.7230   113.1550    94.4430    97.9430     2.1990   -21.9920 
  239.7500    67.4930    24.7590   111.7500    88.9930    91.1450     2.1920   -22.0450 
  239.8750    67.7330    24.6270   104.4870    80.9220    82.6770     2.1920   -22.0620 
  240.0000    68.5530    24.4930    96.1880    70.6760    72.6530     2.2000   -22.0520 
  240.1250    71.4950    24.4560    89.8560    59.8510    62.4970     2.2080   -21.9840 
  240.2500    75.4910    24.3730    76.8920    49.8760    52.9770     2.2160   -21.8840 
  240.3750    80.3950    24.3870    61.3290    41.5610    45.0060     2.2280   -21.7510 
  240.5000    87.3120    24.4390    46.1480    35.5480    39.3010     2.2370   -21.5940 
  240.6250    93.1340    24.3980    30.0370    32.3760    36.2440     2.2360   -21.4280 
  240.7500    93.1140    24.4640    21.8740    31.1440    35.0980     2.2250   -21.2710 
  240.8750    86.9840    24.4450    26.2540    31.4850    35.7510     2.2180   -21.1140 
  241.0000    77.8350    24.5510    33.6730    33.1110    38.0250     2.2250   -20.9540 
  241.1250    71.1460    24.3850    36.3650    36.0130    41.8360     2.2420   -20.8060 
  241.2500    69.2760    24.3810    32.8530    39.9220    46.6680     2.2540   -20.6850 
  241.3750    71.1590    24.4520    30.0710    44.9670    52.3270     2.2450   -20.6060 
  241.5000    72.5330    24.4010    29.6730    51.0710    58.3180     2.2240   -20.5750 
  241.6250    70.7640    24.3840    34.9790    58.1530    64.7300     2.2040   -20.5830 
  241.7500    69.0050    24.3840    49.0250    65.9110    71.6670     2.1950   -20.5940 
  241.8750    69.0880    24.4500    72.0710    74.1560    78.8710     2.1930   -20.6230 
  242.0000    70.2910    24.3760    93.9030    81.4440    85.8020     2.1920   -20.6730 
  242.1250    70.9180    24.3690    95.9640    85.8650    91.0940     2.1900   -20.7400 
  242.2500    69.5810    24.3020    85.4280    87.5500    93.6080     2.1930   -20.7950 
  242.3750    66.2350    24.1840    76.0320    87.1580    93.6870     2.2000   -20.8220 
