~V
VERS. 2.00: Ver 2.00
~W
STRT.M 60.0000:
STOP.M 268.0000:
STEP.M 0.1250:
NULL. -999.2500:
UWI. DF3035:
~C
DEPT.M :
GR.API :
CALI.CM :
RXO.OHMM :
RI. :
RML.OHMM :
SP.MV :
DEN.GM/CC :
AC.US/MT :
~A
# ...
  230.0000    69.7390    24.9480   142.7220   124.7840   164.4430   -23.2660     2.2550   383.8730 
  230.1250    68.9740    24.9420   167.3660   130.1830   167.2930   -22.9660     2.2510   387.6700 
  230.2500    68.5620    25.0040   171.4980   127.6600   159.5430   -22.6580     2.2310   391.1230 
  230.3750    69.0930    25.0060   156.3560   120.7940   148.4980   -22.3300     2.2100   390.1810 
  230.5000    71.1700    24.9390   132.5850   113.9740   139.4920   -21.9680     2.2110   379.9300 
  230.6250    72.4850    24.9360   114.2360   107.6650   129.9930   -21.5540     2.2480   356.9240 
  230.7500    70.4270    24.9700   116.6910    96.2260   111.2800   -21.0930     2.3300   321.4470 
  230.8750    68.1300    24.9210   153.1170    75.5670    81.6520   -20.6090     2.4390   285.0420 
  231.0000    70.6660    24.7410   187.8360    50.0550    50.8290   -20.1150     2.5490   260.1200 
  231.1250    81.5300    24.4960   144.3030    29.9230    29.7680   -19.6210     2.6250   256.5000 
  231.2500    94.9700    24.2900    65.4640    17.4990    17.3410   -19.1760     2.6290   278.6370 
  231.3750   103.3620    24.2080    19.7790    10.8810    10.7250   -18.8010     2.5820   312.6560 
  231.5000   103.8000    24.2900     7.8630     7.7100     7.5910   -18.5180     2.5170   345.8920 
  231.6250   102.1860    24.4720     6.5130     6.5190     6.6640   -18.3280     2.4600   369.1560 
  231.7500   102.7750    24.6360     7.1990     6.1940     6.7430   -18.2110     2.4280   378.4500 
  231.8750   101.7780    24.7550     7.7920     6.3990     7.3350   -18.1410     2.4210   380.0900 
  232.0000    97.5820    24.8380     7.7990     6.8610     8.0250   -18.1120     2.4340   378.7670 
  232.1250    97.4250    24.8250     7.6730     7.2940     8.4400   -18.1280     2.4550   377.0730 
  232.2500   102.8840    24.7190     7.7490     7.5500     8.5460   -18.1420     2.4670   375.3650 
  232.3750   108.0990    24.6370     8.0080     7.6360     8.4540   -18.1430     2.4650   373.2100 
  232.5000   110.0230    24.7020     8.2240     7.6150     8.2890   -18.1250     2.4570   370.5730 
  232.6250   110.1440    24.8950     8.2280     7.5400     8.1250   -18.0960     2.4510   367.7940 
  232.7500   109.7300    25.0460     8.1960     7.4500     7.9920   -18.0630     2.4450   365.5850 
  232.8750   108.5540    25.1060     8.2710     7.3520     7.8980   -18.0560     2.4390   364.4860 
  233.0000   107.8890    25.1060     8.4060     7.2450     7.8380   -18.0780     2.4350   364.8250 
  233.1250   108.9040    25.1060     8.4260     7.1290     7.8050   -18.1200     2.4380   366.5510 
  233.2500   111.6780    25.1350     8.3430     7.0230     7.7940   -18.1910     2.4380   369.1560 
  233.3750   113.6070    25.1690     8.2710     6.9480     7.8140   -18.3080     2.4290   371.5220 
  233.5000   113.7060    25.1630     8.2610     6.9260     7.8850   -18.4670     2.4190   373.0160 
  233.6250   118.2370    25.1030     8.3200     6.9740     8.0250   -18.6650     2.4170   373.6810 
  233.7500   127.3150    25.0450     8.5020     7.0710     8.2100   -18.8890     2.4230   374.1590 
  233.8750   132.9580    25.0050     8.8120     7.1930     8.4040   -19.0910     2.4250   374.9950 
  234.0000   128.7840    24.9740     9.0870     7.3070     8.5610   -19.2400     2.4170   376.1030 
  234.1250   123.3570    24.9510     9.0960     7.3740     8.6300   -19.3380     2.4090   377.0820 
  234.2500   125.1410    24.9520     8.9310     7.3860     8.6170   -19.3780     2.4090   377.6130 
  234.3750   130.3970    24.9770     8.7410     7.3520     8.5560   -19.3520     2.4150   377.9320 
  234.5000   133.9190    25.0070     8.5410     7.3030     8.5040   -19.2520     2.4190   378.2170 
  234.6250   132.3350    25.0140     8.2660     7.2910     8.5610   -19.0690     2.4250   378.2590 
  234.7500   127.5600    25.0080     8.0810     7.3620     8.7880   -18.8490     2.4420   377.2660 
  234.8750   125.0120    25.0100     8.2140     7.5390     9.2050   -18.6290     2.4640   375.1440 
  235.0000   126.0340    25.0250     8.8360     7.8110     9.7700   -18.4410     2.4720   372.6390 
  235.1250   128.7830    25.0220    10.0400     8.1300    10.3590   -18.2880     2.4530   371.0560 
  235.2500   129.7790    24.9930    11.3460     8.4100    10.8200   -18.1870     2.4190   371.5210 
  235.3750   129.2430    24.9630    12.0810     8.6200    11.1230   -18.1500     2.3990   373.0070 
  235.5000   126.5310    24.9460    11.9910     8.8340    11.4460   -18.1980     2.3980   373.7230 
  235.6250   117.7520    24.9320    11.6100     9.3410    12.3800   -18.3690     2.4050   371.7640 
  235.7500   105.5510    24.9060    12.2360    10.5130    14.5560   -18.6380     2.4140   365.6750 
  235.8750    92.4780    24.8730    16.1520    12.8990    18.7360   -18.9930     2.4210   357.3820 
  236.0000    81.0790    24.8400    28.2350    17.2650    25.7890   -19.4230     2.4220   349.6650 
  236.1250    73.0590    24.8250    58.0140    25.0030    37.2640   -19.9410     2.4110   345.3830 
  236.2500    68.8240    24.8380    92.8390    35.6830    52.3400   -20.4820     2.3940   346.7390 
  236.3750    69.3180    24.8610   108.7120    47.4430    68.1710   -21.0140     2.3780   351.7790 
  236.5000    72.4910    24.8460    98.4070    56.9250    79.6070   -21.4900     2.3600   358.1170 
  236.6250    74.6990    24.7580    81.2300    61.0070    82.4850   -21.8710     2.3390   363.6960 
  236.7500    73.9760    24.6390    73.1430    61.5790    81.0450   -22.1670     2.3230   367.7660 
  236.8750    71.9090    24.5340    72.7310    60.7430    78.7180   -22.3860     2.3190   371.3420 
  237.0000    71.7800    24.4720    71.3240    59.4940    76.4260   -22.5360     2.3240   374.8520 
  237.1250    74.0760    24.4490    64.7880    57.2380    72.8350   -22.6110     2.3210   377.7310 
  237.2500    76.1380    24.4350    60.6350    53.5730    67.4180   -22.6580     2.3060   378.5980 
  237.3750    77.2580    24.4150    59.1390    48.9890    61.1710   -22.6950     2.2990   377.5380 
  237.5000    77.0440    24.3910    53.1450    44.7490    55.9480   -22.7580     2.3090   375.4440 
  237.6250    74.6170    24.3460    42.6020    42.7560    54.0940   -22.8980     2.3270   373.4990 
  237.7500    71.7920    24.2430    39.2970    43.9120    56.2990   -23.1060     2.3310   372.5250 
  237.8750    70.4060    24.1380    51.5660    48.9450    63.2530   -23.3690     2.3270   372.0700 
  238.0000    68.8050    24.1740    79.9930    58.2490    75.5360   -23.6720     2.3300   371.4190 
  238.1250    65.1540    24.4450   108.8940    71.8300    93.7760   -24.0330     2.3380   370.1540 
  238.2500    62.3960    24.7630   125.0560    86.5660   114.1260   -24.4400     2.3300   368.5990 
  238.3750    62.1650    24.9670   132.8420    98.7340   130.6870   -24.8740     2.3050   367.5720 
  238.5000    62.9310    25.0260   138.7090   105.1830   138.0810   -25.3120     2.2780   367.4140 
  238.6250    64.4600    24.9990   138.0540   104.6190   135.1830   -25.7460     2.2620   367.9330 
  238.7500    68.0160    24.9620   129.0650   100.2930   127.9160   -26.1570     2.2610   368.5770 
  238.8750    72.0270    24.9260   114.7970    94.3390   119.3880   -26.5490     2.2700   369.0210 
  239.0000    74.1570    24.8620    99.9790    88.2130   111.2740   -26.9260     2.2820   369.4690 
  239.1250    72.3010    24.7190    89.6010    83.0240   104.7470   -27.2690     2.2880   370.2440 
  239.2500    69.4390    24.5370    84.1570    79.1410    99.9890   -27.5960     2.2820   371.2870 
  239.3750    68.4940    24.4150    81.0600    76.6570    96.9910   -27.9230     2.2770   371.9650 
  239.5000    68.9200    24.4230    77.5960    75.4140    95.4560   -28.2490     2.2840   371.8340 
  239.6250    68.1100    24.5030    75.2540    75.1860    95.0090   -28.5160     2.2970   370.9710 
  239.7500    67.3740    24.5140    77.0300    75.4180    94.9440   -28.7170     2.2950   369.9420 
  239.8750    69.7990    24.4600    81.5640    75.6410    94.6420   -28.8340     2.2800   369.3420 
