~V
VERS. 2.00: Ver 2.00
~W
STRT.M 65.0000:
STOP.M 267.0000:
STEP.M 0.1250:
NULL. -999.2500:
UWI. DF3007:
~C
DEPT.M :
GR.API :
RML.OHMM :
RI. :
RXO.OHMM :
CALI.CM :
DEN.GM/CC :
SP.MV :
~A
# ...
  188.7500    70.2060    41.0790    34.7560    40.5360    24.7040     2.4190   -22.6470 
  188.8750    66.0430    36.9640    30.6740    32.2010    24.6940     2.5190   -22.0440 
  189.0000    63.7720    32.8550    26.7870    33.3630    24.7240     2.6010   -21.5390 
  189.1250    66.0600    28.6400    23.0710    35.1340    24.7500     2.6340   -20.9850 
  189.2500    70.6380    24.8850    19.8680    25.9690    24.7300     2.6270   -20.3890 
  189.3750    76.5070    22.4200    17.7180    17.6610    24.6830     2.5960   -19.9160 
  189.5000    80.7340    21.9530    17.0790    13.9230    24.6880     2.5560   -19.3970 
  189.6250    77.5060    24.0640    18.3600    13.3090    24.7410     2.5240   -18.8550 
  189.7500    69.4010    27.6720    20.8240    16.4630    24.7640     2.5160   -18.5330 
  189.8750    61.4900    31.2020    23.4840    23.2440    24.7500     2.5400   -18.2070 
  190.0000    54.9170    32.9560    25.0310    33.5590    24.7080     2.5940   -17.8770 
  190.1250    51.7580    30.7020    23.9450    45.0840    24.7050     2.6540   -17.8120 
  190.2500    56.0570    25.6460    20.7380    40.2440    24.7180     2.6830   -17.7760 
  190.3750    67.7580    19.3280    16.6810    26.0830    24.7680     2.6670   -17.7370 
  190.5000    80.2130    13.6040    13.0860    15.7170    24.8200     2.6150   -17.9200 
  190.6250    87.2880    11.3290    10.7750    10.2170    24.8490     2.5490   -18.1580 
  190.7500    93.7040    10.3100     9.5300     8.7020    24.7720     2.4910   -18.4390 
  190.8750   101.2800    10.2350     9.1310     8.8730    24.7490     2.4470   -18.8160 
  191.0000   105.2700    10.8170     9.3770     9.4530    24.7640     2.4200   -19.2930 
  191.1250   102.2960    11.8680    10.1450    10.0050    24.7650     2.4130   -19.7170 
  191.2500    98.3120    13.0770    11.1440    10.9220    24.7410     2.4200   -20.1600 
  191.3750    96.7920    14.1920    12.1390    12.3490    24.7170     2.4380   -20.7030 
  191.5000    94.5850    14.9610    12.8780    13.9530    24.7070     2.4610   -21.1430 
  191.6250    90.0670    15.0990    13.0710    15.0040    24.7070     2.4770   -21.5380 
  191.7500    87.5150    14.6870    12.7480    15.2720    24.7070     2.4800   -21.9150 
  191.8750    89.5300    13.8970    12.0340    14.3120    24.7070     2.4710   -22.2320 
  192.0000    95.0150    12.9990    11.1570    12.5730    24.7070     2.4530   -22.4120 
  192.1250    98.8460    12.3340    10.4090    11.2070    24.7060     2.4340   -22.5940 
  192.2500    97.9070    12.0780     9.9670    10.7010    24.6890     2.4230   -22.7570 
  192.3750    94.0370    12.3130     9.9180    10.8470    24.6130     2.4240   -22.7000 
  192.5000    91.9810    13.0150    10.2720    11.3580    24.4670     2.4390   -22.6440 
  192.6250    94.9270    14.0850    10.9840    12.3900    24.3810     2.4660   -22.5600 
  192.7500    97.9940    15.2150    11.8150    13.6460    24.4760     2.4960   -22.3240 
  192.8750    97.3000    16.1500    12.5530    15.0160    24.6350     2.5220   -22.1650 
  193.0000    93.8460    16.6710    13.0010    16.8010    24.7270     2.5380   -22.0280 
  193.1250    92.8530    16.5650    12.9620    16.1510    24.7450     2.5430   -21.7180 
  193.2500    94.7350    15.9510    12.5080    14.6750    24.7390     2.5410   -21.4390 
  193.3750    96.6120    14.9490    11.7370    13.4360    24.7310     2.5350   -21.2010 
  193.5000    97.7680    13.7130    10.7800    12.1540    24.7390     2.5220   -20.8190 
  193.6250    99.9350    12.4240     9.7820    10.9110    24.7780     2.4910   -20.4730 
  193.7500   101.0170    11.3040     8.9050     9.6580    24.8480     2.4460   -20.0770 
  193.8750    99.2940    10.5770     8.2970     8.4090    25.0010     2.3940   -19.5450 
  194.0000    96.5090    10.4710     8.1170     7.4960    25.2370     2.3530   -19.0370 
  194.1250    93.5370    11.2450     8.5690     7.2110    25.3590     2.3480   -18.5780 
  194.2500    91.5140    12.6290     9.5110     7.6110    25.2110     2.3870   -18.1520 
  194.3750    92.5440    14.1890    10.6800     8.7520    24.8630     2.4610   -17.7580 
  194.5000    96.3870    15.3100    11.6440    10.4570    24.3770     2.5430   -17.4380 
  194.6250    96.2010    15.2020    11.7660    12.0240    23.8290     2.5770   -17.1480 
  194.7500    91.2630    13.8950    10.9470    11.1450    23.5160     2.5330   -16.8430 
  194.8750    82.9090    11.8100     9.4410     8.9320    23.4440     2.4160   -16.5830 
  195.0000    72.3580     9.6380     7.7610     6.9670    23.9110     2.2710   -16.3150 
  195.1250    61.7130     8.0910     6.4400     5.9670    25.3910     2.1590   -16.0640 
  195.2500    55.1420     7.2940     5.6170     5.5430    26.9890     2.1040   -15.9150 
  195.3750    53.2810     7.1590     5.2810     5.0260    27.8630     2.1030   -15.5500 
  195.5000    53.9090     7.4970     5.3580     4.5780    27.9470     2.1260   -15.2530 
  195.6250    56.8060     8.1070     5.7790     4.4260    27.5090     2.1310   -14.8760 
  195.7500    60.9520     8.7280     6.3500     4.6290    27.6310     2.0950   -14.5720 
  195.8750    66.4420     9.2180     6.9350     4.9160    28.3250     2.0340   -14.4240 
  196.0000    74.1730     9.5010     7.4170     5.2120    29.8500     1.9780   -14.2270 
  196.1250    80.7200     9.5620     7.6990     5.4240    31.7150     1.9670   -14.1620 
  196.2500    82.7970     9.5150     7.8230     5.5820    32.1300     2.0070   -14.2550 
  196.3750    82.5290     9.4350     7.8400     5.7280    30.2520     2.0890   -14.2610 
  196.5000    83.8910     9.3740     7.8050     5.8450    27.6690     2.1900   -14.3130 
  196.6250    87.0340     9.3630     7.7570     5.9520    25.9360     2.2760   -14.5250 
  196.7500    88.5130     9.4030     7.7220     6.0980    25.0960     2.3310   -14.6640 
  196.8750    87.8420     9.4990     7.7140     6.2500    24.7440     2.3610   -14.8570 
  197.0000    86.8310     9.6550     7.7460     6.3190    24.6460     2.3780   -15.1000 
  197.1250    88.7160     9.8680     7.8250     6.5380    24.5920     2.3920   -15.3170 
  197.2500    92.6730    10.0960     7.9270     6.9660    24.4900     2.4090   -15.4880 
  197.3750    96.3420    10.2920     8.0210     7.4550    24.3950     2.4270   -15.7590 
  197.5000    98.0090    10.4180     8.0760     7.7650    24.3700     2.4390   -16.0340 
  197.6250    97.0230    10.4530     8.0680     7.7720    24.4140     2.4370   -16.2320 
  197.7500    94.1630    10.4350     8.0180     7.7420    24.4740     2.4250   -16.5500 
  197.8750    90.2090    10.4040     7.9530     7.6220    24.5020     2.4080   -16.8030 
  198.0000    86.5750    10.3940     7.9040     7.6150    24.5070     2.3920   -17.0960 
  198.1250    84.2360    10.4670     7.9250     7.8640    24.5080     2.3850   -17.4770 
  198.2500    85.8930    10.7140     8.0770     8.4260    24.5060     2.3870   -17.8280 
  198.3750    90.6080    11.2960     8.4650     8.9710    24.5030     2.3960   -18.1880 
  198.5000    91.8460    12.4250     9.2420     9.5170    24.5020     2.4060   -18.6100 
  198.6250    87.5600    14.4560    10.7080    10.2440    24.4910     2.4130   -19.0730 
  198.7500    84.3730    17.3740    12.9440    12.1750    24.4600     2.4130   -19.5220 
  198.8750    84.4940    21.1530    16.0410    15.7060    24.4170     2.4020   -20.0070 
  199.0000    84.3420    25.6750    19.9960    20.6760    24.4010     2.3790   -20.3980 
  199.1250    80.6420    30.9260    24.8590    26.8280    24.4150     2.3460   -20.7370 
  199.2500    76.9150    36.8380    30.4500    30.7130    24.4340     2.3080   -21.1030 
  199.3750    74.1700    43.5900    36.8230    32.9930    24.3950     2.2720   -21.3870 
  199.5000    72.4210    51.3400    44.0480    37.0810    24.3320     2.2420   -21.6250 
  199.6250    72.0020    60.0420    52.0920    43.9540    24.2540     2.2230   -21.8310 
  199.7500    72.3590    68.8710    60.2820    51.0390    24.1960     2.2120   -21.9120 
  199.8750    71.5030    76.9830    67.9140    56.8620    24.1760     2.2080   -22.0020 
