~V
VERS. 2.00: Ver 2.00
~W
STRT.M 130.0000:
STOP.M 280.0000:
STEP.M 0.1250:
NULL. -999.2500:
UWI. DF3042:
~C
DEPT.M :
DEN.GM/CC :
GR.API :
RML.OHMM :
RI. :
RXO.OHMM :
CALI.CM :
SP.MV :
~A
# ...
  242.5000     2.1890    61.3930   181.5070   163.4210   175.2250    24.9420   -22.8270 
  242.6250     2.1980    66.8590   171.3670   156.8530   166.2100    24.9650   -22.8180 
  242.7500     2.2050    72.0750   151.1170   141.0320   149.9030    25.0380   -22.7690 
  242.8750     2.2060    73.3700   125.7720   119.7570   132.1180    25.0940   -22.7570 
  243.0000     2.2050    74.5970   101.3850    98.0600   116.3420    25.1030   -22.6870 
  243.1250     2.2100    77.5060    84.1300    81.5610    95.6810    25.0710   -22.6680 
  243.2500     2.2280    77.1090    74.9190    71.9580    68.4250    25.0540   -22.6530 
  243.3750     2.2630    73.6090    72.9410    69.0760    51.0380    25.0500   -22.6560 
  243.5000     2.3040    71.7080    75.9290    71.1630    52.3670    25.0500   -22.6620 
  243.6250     2.3430    73.1380    80.5960    75.3750    68.0060    25.0490   -22.7160 
  243.7500     2.3700    76.0270    83.3390    78.2300    89.4220    25.0470   -22.7510 
  243.8750     2.3770    77.7300    82.5820    78.0830    93.9750    25.0440   -22.8130 
  244.0000     2.3670    77.9720    78.8090    75.0920    75.8170    25.0580   -22.8820 
  244.1250     2.3410    77.4030    74.6670    71.3260    62.6680    25.0880   -22.9900 
  244.2500     2.3060    76.9390    73.0430    69.4620    53.2380    25.0760   -23.0680 
  244.3750     2.2710    74.7360    75.0350    70.6920    54.9670    24.9720   -23.1510 
  244.5000     2.2420    71.1960    80.3710    74.9270    61.5600    24.7830   -23.2060 
  244.6250     2.2220    70.7130    88.0720    81.2950    75.2020    24.8760   -23.2600 
  244.7500     2.2100    71.2710    96.2110    87.9760    87.3880    24.9400   -23.2850 
  244.8750     2.2030    69.2680   103.7000    93.9190    91.7200    25.0010   -23.3370 
  245.0000     2.1970    65.6460   110.0600    98.6650    90.4290    25.0070   -23.3400 
  245.1250     2.1930    63.9070   115.3840   102.2760    92.2230    24.9650   -23.3570 
  245.2500     2.1930    64.5390   120.3480   105.4280    98.0120    24.9390   -23.3860 
  245.3750     2.1970    65.2230   125.1810   108.3840   107.0440    25.0170   -23.4010 
  245.5000     2.1990    67.1200   129.8250   111.1670   116.4950    25.0710   -23.4010 
  245.6250     2.1960    69.3550   134.1230   113.7290   121.6140    25.0560   -23.3550 
  245.7500     2.1900    68.5340   138.3010   116.3120   125.8010    24.9820   -23.2970 
  245.8750     2.1880    65.0570   142.8300   119.3470   128.3390    24.9150   -23.1700 
  246.0000     2.2030    61.7900   148.2110   123.2660   127.9740    24.8290   -23.0410 
  246.1250     2.2410    60.4430   154.5450   128.1660   134.3080    24.9560   -22.8130 
  246.2500     2.2960    60.1410   160.6200   133.0230   137.3640    25.0760   -22.5400 
  246.3750     2.3490    61.9060   164.7160   136.4870   140.5450    25.1680   -22.2300 
  246.5000     2.3750    66.1290   164.9820   137.1200   148.7650    25.1900   -21.8990 
  246.6250     2.3710    70.5260   159.2390   133.1820   159.7960    25.1440   -21.5500 
  246.7500     2.3460    74.2740   148.5070   125.2610   155.7500    25.0800   -21.2070 
  246.8750     2.3230    76.9670   134.1950   114.2210   133.3230    25.0260   -20.8450 
  247.0000     2.3150    79.0080   118.3150   101.4690   118.3060    24.9430   -20.5020 
  247.1250     2.3140    80.4420   103.2180    88.7890   105.4320    24.8050   -20.1550 
  247.2500     2.3140    80.6970    90.3690    77.6250    89.8850    24.5330   -19.8150 
  247.3750     2.3110    80.2530    80.4410    68.7350    72.4540    24.5040   -19.4750 
  247.5000     2.3130    81.1370    73.7060    62.5110    61.5670    24.6920   -19.1340 
  247.6250     2.3280    81.8690    71.1020    59.8730    55.7660    25.0330   -18.7620 
  247.7500     2.3560    80.6410    72.9840    61.0690    53.7060    25.0760   -18.4020 
  247.8750     2.3910    79.2140    80.4630    66.9140    52.4640    24.9960   -18.0370 
  248.0000     2.4210    80.9180    93.6830    77.5140    56.9490    24.8680   -17.6510 
  248.1250     2.4420    84.8800   110.3320    91.0870    75.8340    24.8550   -17.3020 
  248.2500     2.4540    86.0030   123.5430   102.1320   104.7340    24.8560   -16.9160 
  248.3750     2.4610    82.4990   126.0210   104.9860   128.4680    24.8550   -16.5340 
  248.5000     2.4670    76.5900   112.7350    95.7070   144.3100    24.8460   -16.1680 
  248.6250     2.4700    70.8840    84.7630    74.4960   146.8840    24.8090   -15.8570 
  248.7500     2.4670    65.0340    56.1630    51.2390   142.0490    24.7130   -15.5520 
  248.8750     2.4500    58.1800    34.4270    32.6530    91.4080    24.5490   -15.2920 
  249.0000     2.4220    52.9240    20.4740    20.7310    40.6040    24.3840   -15.1060 
  249.1250     2.3960    52.4430    14.2200    14.6500    20.2850    24.2090   -14.9060 
  249.2500     2.3810    55.5630    11.4390    11.3610    10.7520    24.0380   -14.7830 
  249.3750     2.3820    60.6350     9.8260     9.5870     8.0300    23.9210   -14.6910 
  249.5000     2.3890    65.0340     8.8120     8.6300     7.4150    23.8830   -14.6360 
  249.6250     2.3900    67.0640     8.1470     8.1670     7.3840    23.9580   -14.5770 
  249.7500     2.3810    68.1210     7.9630     7.9320     7.3330    24.0360   -14.5350 
  249.8750     2.3620    68.6560     7.8740     7.8440     7.2290    24.0590   -14.4710 
  250.0000     2.3420    67.9680     7.8690     7.8620     7.1200    24.0510   -14.4160 
  250.1250     2.3300    67.5730     7.9280     7.9630     7.1410    23.9990   -14.3540 
  250.2500     2.3280    68.5490     7.9950     8.0890     7.2690    23.8520   -14.3250 
  250.3750     2.3370    68.6530     8.0420     8.1920     7.4010    23.6330   -14.2960 
  250.5000     2.3520    66.6690     8.0560     8.2370     7.4200    23.5750   -14.2640 
  250.6250     2.3670    64.9770     8.0310     8.1910     7.4510    23.7870   -14.2640 
  250.7500     2.3790    65.7980     7.9720     8.0700     7.4790    24.1590   -14.2790 
  250.8750     2.3840    66.5840     7.8880     7.8910     7.4100    24.4210   -14.3170 
  251.0000     2.3840    67.8180     7.7960     7.6820     7.2880    24.5160   -14.3430 
  251.1250     2.3790    68.6570     7.7320     7.4810     7.2240    24.5310   -14.3920 
  251.2500     2.3680    67.4960     7.7180     7.3140     7.2530    24.5530   -14.4770 
  251.3750     2.3510    65.3190     7.7570     7.1940     7.3550    24.5630   -14.5580 
  251.5000     2.3340    64.6740     7.8260     7.1150     7.5190    24.5090   -14.7160 
  251.6250     2.3250    66.2460     7.8780     7.0560     7.8070    24.2760   -14.8650 
  251.7500     2.3280    64.7240     7.8780     6.9830     8.2090    24.0570   -15.0600 
  251.8750     2.3450    59.3100     7.8140     6.8780     8.3250    23.8880   -15.2600 
  252.0000     2.3680    55.2620     7.7030     6.7430     7.7840    23.8020   -15.4910 
  252.1250     2.3920    56.9110     7.6020     6.6200     7.0620    23.7920   -15.6980 
  252.2500     2.4170    58.8350     7.5940     6.5720     6.8060    23.8160   -15.8540 
  252.3750     2.4450    57.4580     7.7570     6.6660     6.7980    23.8560   -16.0050 
  252.5000     2.4720    56.0640     8.1500     6.9540     6.7770    23.9210   -16.0770 
  252.6250     2.4900    58.7390     8.8160     7.4840     6.7420    23.9560   -16.1380 
  252.7500     2.4860    62.2960     9.6290     8.1630     6.8940    23.9830   -16.1350 
  252.8750     2.4520    64.6110    10.4450     8.8780     7.3590    24.0740   -16.0900 
  253.0000     2.4040    65.4680    11.0970     9.4830     8.1330    24.2990   -15.9610 
  253.1250     2.3560    65.1420    11.3830     9.7890     8.9100    24.6630   -15.8310 
  253.2500     2.3200    64.3580    11.3130     9.7820     8.9660    24.8140   -15.6800 
  253.3750     2.3010    63.3000    10.9620     9.5120     8.0270    24.7650   -15.5110 
  253.5000     2.2930    63.2170    10.4710     9.0940     7.1150    24.6520   -15.3260 
  253.6250     2.2950    64.9080    10.0180     8.6790     6.7470    24.5650   -15.1230 
