~V
VERS. 2.00: Ver 2.00
~W
STRT.M 60.0000:
STOP.M 264.0000:
STEP.M 0.1250:
NULL. -999.2500:
UWI. DF303:
~C
DEPT.M :
DEN.GM/CC :
SP.MV :
AC.US/MT :
GR.API :
CALI.CM :
RXO.OHMM :
RI. :
RML.OHMM :
~A
# ...
  180.0000     2.5100   -19.3860   416.5550    50.2520    24.4830     4.4600     4.4890     4.6130 
  180.1250     2.5160   -19.2330   414.4100    53.3930    24.4830     4.5010     4.1600     4.5760 
  180.2500     2.5310   -19.1240   409.3290    59.7250    24.4830     4.5720     4.1470     4.8090 
  180.3750     2.5320   -19.0460   407.7510    62.1590    24.4730     4.4920     4.2700     5.0610 
  180.5000     2.5060   -18.9950   411.4720    58.4080    24.4380     4.2220     4.4180     5.2050 
  180.6250     2.4660   -18.9660   418.8080    53.9060    24.3630     4.0190     4.5520     5.2500 
  180.7500     2.4360   -18.9410   425.0790    52.8160    24.3150     4.1100     4.6790     5.2860 
  180.8750     2.4180   -18.9100   428.0570    53.7270    24.2970     4.4050     4.7810     5.3280 
  181.0000     2.4050   -18.8860   428.7240    55.3040    24.2920     4.6310     4.8270     5.3420 
  181.1250     2.3920   -18.8610   429.1370    52.9590    24.2880     4.6240     4.7710     5.2880 
  181.2500     2.3860   -18.8190   427.7500    48.0730    24.2680     4.5740     4.6350     5.1880 
  181.3750     2.3930   -18.7670   421.4580    45.8580    24.2320     4.7360     4.4560     5.0780 
  181.5000     2.4120   -18.7270   411.0770    48.8780    24.2080     5.2450     4.2780     4.9900 
  181.6250     2.4240   -18.6750   404.8950    51.6380    24.1980     5.6710     4.1430     4.9510 
  181.7500     2.4180   -18.6320   408.8600    49.6810    24.1820     5.4980     4.0650     4.9680 
  181.8750     2.4010   -18.6030   420.4100    44.8620    24.1420     4.9510     4.0550     5.0600 
  182.0000     2.3920   -18.5930   431.2280    40.6580    24.1070     4.5880     4.1180     5.2450 
  182.1250     2.4060   -18.5960   432.8450    38.3100    24.0960     4.6260     4.2600     5.5330 
  182.2500     2.4320   -18.6230   427.0620    37.1250    24.1250     4.9130     4.4520     5.8760 
  182.3750     2.4510   -18.6740   418.2870    37.2120    24.2290     5.2510     4.6680     6.2250 
  182.5000     2.4570   -18.7450   410.2050    38.5050    24.4360     5.4940     4.8740     6.5360 
  182.6250     2.4500   -18.8550   405.0790    40.5540    24.5370     5.6240     5.0280     6.7570 
  182.7500     2.4410   -18.9830   403.1510    42.3930    24.5700     5.7130     5.1140     6.8850 
  182.8750     2.4320   -19.1160   404.8850    47.1390    24.5710     5.7760     5.1320     6.9290 
  183.0000     2.4210   -19.2450   409.9920    55.0870    24.5820     5.7680     5.1000     6.9170 
  183.1250     2.4110   -19.3930   416.3090    58.3040    24.6130     5.6550     5.0520     6.8970 
  183.2500     2.4100   -19.5600   420.5670    57.4280    24.6650     5.5080     5.0200     6.9100 
  183.3750     2.4210   -19.7440   421.6650    59.4240    24.7090     5.4490     5.0140     6.9700 
  183.5000     2.4360   -19.9470   420.5720    65.1440    24.7470     5.5510     5.0410     7.0790 
  183.6250     2.4430   -20.2050   419.0670    67.8320    24.8120     5.7390     5.1110     7.2530 
  183.7500     2.4460   -20.4960   418.0340    67.8420    24.8500     5.9080     5.2300     7.5040 
  183.8750     2.4520   -20.8420   417.4960    69.9750    24.8700     6.0780     5.4020     7.8470 
  184.0000     2.4620   -21.2460   417.5570    74.8510    24.8930     6.3850     5.6210     8.2760 
  184.1250     2.4680   -21.6890   418.5520    80.3320    24.9420     6.9160     5.8560     8.7270 
  184.2500     2.4660   -22.1670   420.4450    85.5050    24.9940     7.4800     6.0650     9.1000 
  184.3750     2.4580   -22.6650   423.8960    89.3940    25.0530     7.8630     6.2280     9.3460 
  184.5000     2.4490   -23.1620   429.8060    93.6730    25.1170     7.9680     6.3530     9.4890 
  184.6250     2.4440   -23.6120   437.6010   100.5860    25.1450     7.9810     6.4800     9.6310 
  184.7500     2.4420   -24.0030   443.6680   104.5980    25.2080     8.1700     6.6480     9.8740 
  184.8750     2.4300   -24.2900   445.4400   102.1430    25.3490     8.7590     6.8660    10.2410 
  185.0000     2.4070   -24.4490   443.4920    96.5170    25.4870     9.5730     7.0940    10.6520 
  185.1250     2.3870   -24.4440   441.6820    94.2530    25.3460    10.0180     7.2270    10.8830 
  185.2500     2.3840   -24.2810   442.5700    93.5360    25.0620     9.9720     7.1900    10.7750 
  185.3750     2.3970   -23.9620   444.4700    88.9260    24.8850     9.4730     6.9590    10.3040 
  185.5000     2.4120   -23.4730   443.5240    79.0520    24.7990     8.5460     6.5790     9.5900 
  185.6250     2.4220   -22.8280   436.8580    64.5650    24.6400     7.4170     6.1400     8.8380 
  185.7500     2.4310   -22.1310   428.0020    51.4970    24.3980     6.5500     5.7440     8.2130 
  185.8750     2.4390   -21.4380   421.0730    45.2280    24.2380     6.1030     5.4370     7.7700 
  186.0000     2.4410   -20.7770   418.0710    47.2250    24.1700     5.8810     5.2390     7.5170 
  186.1250     2.4360   -20.1960   418.1250    49.9960    24.1220     5.7360     5.1630     7.4620 
  186.2500     2.4330   -19.7030   418.5230    52.3530    24.0980     5.6280     5.1690     7.5320 
  186.3750     2.4360   -19.3200   418.1620    56.4770    24.0920     5.5610     5.2250     7.6720 
  186.5000     2.4440   -19.0560   416.7530    57.9820    24.0910     5.5560     5.2950     7.8150 
  186.6250     2.4530   -18.9390   414.8940    51.7620    24.0910     5.6300     5.3390     7.8860 
  186.7500     2.4580   -18.8890   414.3530    45.6120    24.0910     5.7190     5.3400     7.8700 
  186.8750     2.4580   -18.8890   416.1940    43.2430    24.0910     5.7520     5.2990     7.7840 
  187.0000     2.4530   -18.9160   419.6310    41.7490    24.0930     5.7110     5.2290     7.6720 
  187.1250     2.4470   -18.9710   421.9480    43.6200    24.0950     5.6350     5.1550     7.5850 
  187.2500     2.4410   -19.0260   421.8120    49.4220    24.0980     5.5900     5.0960     7.5420 
  187.3750     2.4370   -19.0630   420.1430    51.3260    24.1020     5.5670     5.0600     7.5370 
  187.5000     2.4350   -19.0810   418.6270    47.9350    24.1000     5.5740     5.0480     7.5520 
  187.6250     2.4350   -19.0700   417.9260    46.2510    24.1030     5.6310     5.0580     7.5740 
  187.7500     2.4310   -19.0290   417.0540    48.0540    24.1010     5.6940     5.0800     7.6010 
  187.8750     2.4250   -18.9420   415.2900    49.5500    24.0970     5.6580     5.1100     7.6360 
  188.0000     2.4230   -18.8370   412.4850    49.8960    24.0940     5.5320     5.1420     7.6790 
  188.1250     2.4340   -18.6870   408.8970    48.4870    24.0910     5.4880     5.1660     7.7140 
  188.2500     2.4510   -18.5140   405.6840    46.1910    24.0920     5.5690     5.1730     7.7160 
  188.3750     2.4630   -18.3260   404.2370    44.4830    24.0930     5.6200     5.1570     7.6650 
  188.5000     2.4650   -18.1540   405.3280    43.7110    24.0960     5.5780     5.1220     7.5590 
  188.6250     2.4630   -17.9570   408.3450    43.4040    24.0930     5.4990     5.0790     7.4210 
  188.7500     2.4660   -17.7480   411.1090    44.3510    24.0920     5.4980     5.0410     7.2940 
  188.8750     2.4750   -17.5530   412.5530    46.2020    24.0910     5.5230     5.0130     7.2000 
  189.0000     2.4770   -17.3420   412.9220    47.6760    24.0910     5.5220     4.9920     7.1380 
  189.1250     2.4610   -17.1380   413.2620    48.5490    24.0930     5.4870     4.9710     7.0890 
  189.2500     2.4420   -16.9430   413.8930    48.2140    24.0950     5.4210     4.9420     7.0290 
  189.3750     2.4320   -16.7570   414.0170    46.3570    24.0940     5.3290     4.9060     6.9530 
  189.5000     2.4330   -16.5800   413.1030    45.7740    24.0930     5.2390     4.8650     6.8630 
  189.6250     2.4310   -16.4330   412.1690    49.0690    24.0910     5.1870     4.8190     6.7570 
  189.7500     2.4200   -16.3210   412.8410    53.2580    24.0910     5.1640     4.7660     6.6310 
  189.8750     2.4080   -16.2530   415.4090    58.6070    24.0910     5.1570     4.7120     6.4940 
