~V
VERS. 2.00: Ver 2.00
~W
STRT.M 90.0000:
STOP.M 264.0000:
STEP.M 0.1250:
NULL. -999.2500:
UWI. DF3021:
~C
DEPT.M :
AC.US/MT :
DEN.GM/CC :
GR.API :
CALI.CM :
RXO.OHMM :
RI. :
RML.OHMM :
SP.MV :
~A
# ...
  130.0000   518.8500     2.2820   102.0680    23.9920     5.7270     4.9740     5.8490   -18.6360 
  130.1250   503.2520     2.2920   100.4710    23.9440     5.5550     5.0850     5.9330   -18.3760 
  130.2500   477.4010     2.3060    97.6430    23.8970     5.4720     5.1620     5.9320   -18.1630 
  130.3750   448.9090     2.3150    96.8800    23.8300     5.5510     5.1890     5.8730   -17.9900 
  130.5000   428.4250     2.3120    97.6530    23.6570     5.6230     5.1650     5.7790   -17.8490 
  130.6250   423.2650     2.3040    97.5020    23.4120     5.5560     5.0920     5.6470   -17.6920 
  130.7500   426.5280     2.3000    96.5960    23.1900     5.3650     4.9860     5.4860   -17.5310 
  130.8750   431.4120     2.3020    96.2850    23.0870     5.2110     4.8620     5.3150   -17.4120 
  131.0000   434.4400     2.3090    98.1680    23.1040     5.1190     4.7340     5.1610   -17.2940 
  131.1250   435.8710     2.3180   102.5280    23.2480     5.0310     4.6280     5.0660   -17.1870 
  131.2500   437.1510     2.3230   105.2490    23.4380     5.0000     4.5550     5.0360   -17.1230 
  131.3750   438.0820     2.3150   103.6780    23.5830     5.0620     4.5190     5.0620   -17.0770 
  131.5000   437.9040     2.2950   101.4810    23.7250     5.1990     4.5180     5.1250   -17.0190 
  131.6250   436.0410     2.2740   101.2200    23.9120     5.3420     4.5490     5.2040   -16.9930 
  131.7500   433.3160     2.2670   100.5360    24.0870     5.3970     4.5910     5.2770   -16.9920 
  131.8750   430.6490     2.2800    99.1490    24.1500     5.3540     4.6340     5.3300   -17.0170 
  132.0000   428.7240     2.3050    99.2300    24.1410     5.3020     4.6710     5.3600   -17.0560 
  132.1250   427.7070     2.3220   101.3780    24.1130     5.3290     4.7090     5.3740   -17.0820 
  132.2500   426.9600     2.3220   103.4110    24.0810     5.4040     4.7590     5.3950   -17.1260 
  132.3750   426.0940     2.3070   105.4950    24.0670     5.5230     4.8350     5.4480   -17.1840 
  132.5000   425.1090     2.2850   105.8880    24.0470     5.7170     4.9450     5.5550   -17.2510 
  132.6250   424.3220     2.2690   102.1060    23.9780     5.8810     5.0960     5.7330   -17.2920 
  132.7500   423.6020     2.2630    99.6810    23.8580     6.0300     5.2740     5.9560   -17.3090 
  132.8750   422.3520     2.2650   102.9080    23.7230     6.2070     5.4530     6.1930   -17.3120 
  133.0000   420.2880     2.2690   106.4970    23.6100     6.4360     5.6020     6.4000   -17.3060 
  133.1250   418.3540     2.2650   104.1490    23.6580     6.5250     5.6690     6.5080   -17.2520 
  133.2500   417.8310     2.2530    99.0810    23.9180     6.4310     5.6360     6.4770   -17.1650 
  133.3750   418.8540     2.2400    97.1340    24.1300     6.1830     5.4880     6.2760   -17.0690 
  133.5000   420.8990     2.2350    99.1240    24.1410     5.9640     5.2210     5.8920   -16.9640 
  133.6250   424.9460     2.2380   102.4890    23.9280     5.7610     4.8640     5.3760   -16.8740 
  133.7500   432.4390     2.2440   105.5560    23.6670     5.4160     4.5460     4.9320   -16.7780 
  133.8750   441.3710     2.2560   106.0490    23.5110     4.9750     4.4030     4.7710   -16.6550 
  134.0000   442.9000     2.2870   104.3780    23.5390     4.7680     4.5480     5.0540   -16.5490 
  134.1250   421.7120     2.3450   104.0140    23.8130     5.6830     5.0960     5.9370   -16.5050 
  134.2500   382.7780     2.4040   104.4540    24.0970     8.9300     5.9490     7.2370   -16.4670 
  134.3750   345.3560     2.4390    99.4040    24.1630    14.3660     6.9070     8.6070   -16.4330 
  134.5000   331.9940     2.4330    89.6210    24.1200    16.9530     7.5910     9.4680   -16.3910 
  134.6250   353.7040     2.3830    88.8710    24.1330    13.4070     7.5500     9.1850   -16.3620 
  134.7500   387.9830     2.3270    99.1510    24.1740     8.7730     6.9990     8.1620   -16.3450 
  134.8750   414.9460     2.2890   109.5940    24.2070     6.6980     6.3240     7.0260   -16.3560 
  135.0000   424.5330     2.2760   109.0000    24.2180     6.2000     5.8520     6.2800   -16.3660 
  135.1250   415.1430     2.2800    96.5530    24.2180     6.5060     5.8300     6.2720   -16.3400 
  135.2500   395.0600     2.3000    84.9880    24.2150     7.5950     6.2690     6.9390   -16.3360 
  135.3750   368.9360     2.3420    78.7230    24.2030     9.2960     7.1970     8.2650   -16.3170 
  135.5000   340.4180     2.3960    75.0080    24.1850    10.3730     8.6340    10.2140   -16.2990 
  135.6250   312.4400     2.4410    68.3980    24.1880    11.2260    10.6040    12.7390   -16.2780 
  135.7500   288.3430     2.4710    61.6780    24.1940    13.3530    12.8060    15.4170   -16.2690 
  135.8750   272.7870     2.4980    57.9000    24.1560    17.2000    14.8540    17.7490   -16.2640 
  136.0000   269.1890     2.5250    56.1700    24.1110    19.9870    16.3350    19.2490   -16.2750 
  136.1250   275.8720     2.5370    55.6080    24.0950    19.4210    16.9370    19.6030   -16.2730 
  136.2500   282.7870     2.5270    56.7130    24.0760    17.8940    16.9700    19.3220   -16.2320 
  136.3750   284.5840     2.5080    57.1970    24.0510    17.1400    16.7510    18.8840   -16.1950 
  136.5000   281.4340     2.4970    56.2770    24.0480    17.1380    16.5500    18.6500   -16.1650 
  136.6250   276.8330     2.5020    54.4020    24.0320    17.2930    16.5450    18.8080   -16.1190 
  136.7500   273.5250     2.5110    52.9330    23.9860    17.5740    16.7110    19.2060   -16.0340 
  136.8750   272.1340     2.5160    53.3910    23.9590    18.1840    16.9830    19.6980   -15.9300 
  137.0000   272.6580     2.5200    54.8370    23.9870    18.6880    17.2980    20.1710   -15.8050 
  137.1250   274.2020     2.5300    56.5000    24.0680    18.6770    17.6140    20.5630   -15.7170 
  137.2500   275.1900     2.5360    57.4510    24.1460    18.8140    17.9150    20.8830   -15.6650 
  137.3750   275.6040     2.5260    58.1490    24.1570    19.2430    18.1810    21.1220   -15.6080 
  137.5000   276.7090     2.5050    58.5270    24.1020    19.5960    18.3750    21.2490   -15.5610 
  137.6250   279.8630     2.4860    59.3330    23.9190    19.3440    18.4430    21.2170   -15.5250 
  137.7500   284.3950     2.4760    61.5570    23.6580    19.0530    18.3830    21.0370   -15.5310 
  137.8750   289.3070     2.4740    63.8370    23.4250    18.5400    18.1830    20.7010   -15.5410 
  138.0000   293.4000     2.4750    65.1020    23.3020    18.1110    17.8360    20.2030   -15.5370 
  138.1250   294.8460     2.4760    65.8530    23.2410    17.5980    17.3320    19.5250   -15.5170 
  138.2500   293.5450     2.4790    65.1860    23.1710    17.0910    16.7310    18.7220   -15.4730 
  138.3750   290.7830     2.4840    62.8820    23.0370    16.4580    16.1050    17.8780   -15.4100 
  138.5000   288.6560     2.4920    60.6880    22.8670    15.7440    15.5690    17.1420   -15.3350 
  138.6250   288.9120     2.5010    62.5610    22.7270    15.1500    15.2870    16.7380   -15.2520 
  138.7500   290.8800     2.5050    66.4630    22.8420    15.2860    15.2930    16.7180   -15.1650 
  138.8750   293.4220     2.5000    69.7330    23.2950    16.2930    15.5720    17.0640   -15.0690 
  139.0000   295.4420     2.4900    70.7580    23.9390    17.3430    16.0270    17.6380   -15.0000 
  139.1250   296.1480     2.4800    67.8930    24.2620    17.6800    16.4200    18.1180   -14.9330 
  139.2500   296.1810     2.4720    63.7000    24.3200    17.6020    16.4950    18.1690   -14.8810 
  139.3750   296.9050     2.4610    61.2760    24.2730    17.5160    16.1390    17.6490   -14.8340 
  139.5000   299.6620     2.4460    62.4200    24.2520    17.1450    15.4280    16.6670   -14.7990 
  139.6250   304.3560     2.4340    64.6160    24.2380    15.6860    14.5950    15.5490   -14.7680 
  139.7500   308.1300     2.4370    67.3550    24.1820    13.6620    13.9300    14.6860   -14.7160 
  139.8750   308.8270     2.4480    71.0520    24.1180    12.4950    13.5970    14.2930   -14.6830 
