~V
VERS. 2.00: Ver 2.00
~W
STRT.M 56.0000:
STOP.M 296.0000:
STEP.M 0.1250:
NULL. -999.2500:
UWI. DF301:
~C
DEPT.M :
DEN.GM/CC :
SP.MV :
AC.US/MT :
GR.API :
CALI.CM :
RXO.OHMM :
RI. :
RML.OHMM :
~A
# ...
  166.0000     2.1900     2.2420   431.4800    69.3070    22.7860    14.2600    20.6490    21.4950 
  166.1250     2.2010     2.1810   432.3040    68.0870    22.6400    13.7310    20.2470    21.0120 
  166.2500     2.2120     2.1500   432.3940    69.5210    22.6120    13.3220    19.5440    20.2360 
  166.3750     2.2100     2.0780   431.0750    71.5230    22.7610    13.0350    18.7070    19.3650 
  166.5000     2.2030     2.0000   428.1820    72.1750    22.9720    12.8410    17.8400    18.5240 
  166.6250     2.2000     1.9680   424.4600    72.0600    23.1520    12.7130    17.0810    17.8590 
  166.7500     2.2000     1.9680   421.8110    72.2930    23.2860    12.4880    16.6860    17.6260 
  166.8750     2.1930     2.0970   421.5600    72.1450    23.3140    12.2040    16.7890    17.9500 
  167.0000     2.1840     2.3960   423.8920    72.3630    23.2400    12.5360    17.5010    18.9120 
  167.1250     2.1840     2.8080   427.8010    72.7590    23.2920    14.4150    18.8370    20.4630 
  167.2500     2.1920     3.2920   431.4590    69.7360    23.5260    17.9930    20.6800    22.3680 
  167.3750     2.1970     3.7590   433.7400    64.4840    23.9020    21.2090    22.5380    24.1160 
  167.5000     2.1960     4.2160   434.5290    63.0640    24.2290    22.5680    23.9820    25.3340 
  167.6250     2.1900     4.6580   434.3340    66.4450    24.3380    22.0360    24.7490    25.8700 
  167.7500     2.1820     5.0150   433.9460    65.7850    24.0060    20.9600    24.8640    25.8490 
  167.8750     2.1810     5.2720   434.1570    58.8090    23.5600    20.5700    24.8250    25.7430 
  168.0000     2.1870     5.3980   435.4420    52.7580    23.4760    21.0140    24.9150    25.7920 
  168.1250     2.1910     5.3950   437.8000    52.9420    23.8940    21.7420    25.1490    25.9860 
  168.2500     2.1830     5.2280   440.5100    56.1710    24.1860    22.1040    25.2570    26.0490 
  168.3750     2.1710     4.9910   442.1740    57.4740    24.1740    21.5880    24.9540    25.7040 
  168.5000     2.1700     4.6460   441.7800    57.8090    23.9900    19.7110    24.1090    24.8410 
  168.6250     2.1760     4.2050   439.1780    59.9840    23.7570    16.8440    22.8040    23.5500 
  168.7500     2.1800     3.7470   435.2150    63.9240    23.5480    14.4430    21.2950    22.0790 
  168.8750     2.1790     3.2090   431.5890    66.7020    23.4570    13.1770    19.9020    20.7390 
  169.0000     2.1790     2.6220   429.0310    68.0240    23.4360    12.6530    18.7840    19.6880 
  169.1250     2.1830     2.0390   427.3640    69.8020    23.4160    12.3770    18.0140    18.9880 
  169.2500     2.1920     1.5050   425.8150    71.4150    23.4180    12.3230    17.6430    18.6770 
  169.3750     2.2030     1.0270   423.8810    71.3750    23.5690    12.4810    17.5620    18.6470 
  169.5000     2.2100     0.6700   421.8920    71.0310    23.7930    12.6640    17.7160    18.8460 
  169.6250     2.2110     0.4480   420.5200    71.0050    23.9460    12.7070    18.0570    19.2190 
  169.7500     2.2070     0.2540   420.3960    70.5770    23.9770    12.7390    18.5250    19.7030 
  169.8750     2.2020     0.1350   421.1030    69.8590    23.9140    12.9780    19.0080    20.2040 
  170.0000     2.2010     0.1070   421.8630    68.4450    23.7910    13.2830    19.4420    20.6730 
  170.1250     2.2040     0.1120   421.9040    65.7300    23.7420    13.5660    19.7900    21.0720 
  170.2500     2.2090     0.1990   420.9690    64.2060    23.7350    13.7520    19.9750    21.3000 
  170.3750     2.2160     0.2990   420.0630    65.0650    23.6450    13.8590    19.9000    21.2500 
  170.5000     2.2230     0.3750   420.3300    67.2830    23.5000    13.7800    19.4500    20.8290 
  170.6250     2.2320     0.4480   422.3630    69.5940    23.4920    13.4450    18.6240    20.0600 
  170.7500     2.2470     0.5680   425.6580    72.8340    23.5890    12.7100    17.6150    19.1490 
  170.8750     2.2730     0.7550   428.3820    75.7390    23.6660    12.0430    16.7730    18.4590 
  171.0000     2.3000     0.9620   429.3450    78.2140    23.6850    11.8010    16.3420    18.2510 
  171.1250     2.3070     1.1980   428.5060    79.9650    23.6690    12.3840    16.4570    18.6510 
  171.2500     2.2800     1.4310   427.0450    78.6060    23.6890    13.5000    17.1960    19.6590 
  171.3750     2.2480     1.6730   426.4760    73.3990    23.7590    14.2530    18.2720    20.8850 
  171.5000     2.2310     1.9350   427.2180    67.1500    23.8680    14.3920    19.3600    21.9550 
  171.6250     2.2260     2.1420   428.8160    63.5420    23.9310    14.2660    20.0960    22.5350 
  171.7500     2.2190     2.2650   430.3370    64.4430    23.9320    14.0550    20.1300    22.3730 
  171.8750     2.2080     2.2970   431.2540    66.5050    23.8970    13.7140    19.6320    21.7110 
  172.0000     2.1990     2.2670   431.5760    66.2400    23.8700    13.3390    18.8620    20.8110 
  172.1250     2.1960     2.2070   431.5040    63.4560    23.8590    13.1810    18.0790    19.9290 
  172.2500     2.1980     2.1020   431.2320    62.4860    23.8630    13.3310    17.4990    19.2910 
  172.3750     2.2010     2.0000   431.0010    65.3050    23.9260    13.5580    17.1820    18.9520 
  172.5000     2.1990     1.9030   431.0680    67.9280    24.0790    13.5850    17.1490    18.9240 
  172.6250     2.1880     1.8060   431.6860    66.8330    24.2430    13.3780    17.3780    19.1630 
  172.7500     2.1790     1.7030   432.9740    63.3810    24.2830    13.1450    17.8020    19.5560 
  172.8750     2.1800     1.6020   434.4420    61.8450    24.2890    13.4100    18.2200    19.8560 
  173.0000     2.1880     1.4340   435.3670    61.1910    24.2670    14.0910    18.3990    19.8070 
  173.1250     2.1930     1.1340   435.0430    59.3690    24.2420    14.2160    18.0770    19.1850 
  173.2500     2.1940     0.7460   433.0780    60.2410    24.2630    12.7740    16.9990    17.8270 
  173.3750     2.1990     0.2410   430.3240    65.6720    24.2310    10.7310    15.4340    16.0480 
  173.5000     2.2160    -0.3840   427.6050    72.4570    24.1090     9.5660    13.7150    14.1720 
  173.6250     2.2400    -1.0520   425.2270    76.1330    23.9700     9.2780    12.1380    12.4880 
  173.7500     2.2610    -1.7200   422.2950    78.1780    24.0170     8.7900    10.9200    11.2180 
  173.8750     2.2700    -2.3520   417.8290    81.8070    24.2060     8.5470    10.0190    10.3060 
  174.0000     2.2710    -2.8770   412.0400    86.6850    24.3650     8.5280     9.3660     9.6760 
  174.1250     2.2770    -3.2500   406.7540    92.8590    24.4380     8.3950     8.8830     9.2370 
  174.2500     2.2990    -3.5140   404.9790    98.5370    24.4720     7.8770     8.5280     8.9340 
  174.3750     2.3260    -3.6420   406.9440   101.4380    24.5000     7.4760     8.2550     8.7000 
  174.5000     2.3430    -3.6670   411.1990   101.0370    24.5500     7.3870     8.0490     8.5110 
  174.6250     2.3400    -3.6710   415.4740    99.7500    24.5680     7.4920     7.8830     8.3280 
  174.7500     2.3210    -3.5870   418.0100    96.8220    24.5430     7.6110     7.6940     8.0730 
  174.8750     2.3090    -3.5580   419.3840    93.7780    24.4690     7.5090     7.4100     7.7000 
  175.0000     2.3120    -3.5720   420.6580    95.2520    24.2650     7.2320     7.0210     7.2480 
  175.1250     2.3260    -3.5800   421.8540   100.7950    23.8960     6.8720     6.6460     6.8790 
  175.2500     2.3350    -3.6320   419.0760   103.6910    23.4490     6.7450     6.5800     6.9360 
  175.3750     2.3490    -3.7030   407.3580   101.0480    23.2810     7.0900     7.0110     7.6090 
  175.5000     2.3870    -3.7550   384.0390    96.3870    23.3480     8.2000     8.0590     8.9540 
  175.6250     2.4600    -3.7810   352.9540    92.0100    23.7260    12.5290     9.6990    10.7490 
  175.7500     2.5350    -3.8920   327.5220    84.7950    24.1950    20.6860    11.4520    12.2550 
  175.8750     2.5590    -3.9710   319.9600    77.8880    24.4080    24.0150    12.2790    12.7000 
