~V
VERS. 2.00: Ver 2.00
~W
STRT.M 100.0000:
STOP.M 258.0000:
STEP.M 0.1250:
NULL. -999.2500:
UWI. DF3025:
~C
DEPT.M :
AC.US/MT :
DEN.GM/CC :
GR.API :
CALI.CM :
RXO.OHMM :
RI. :
RML.OHMM :
SP.MV :
~A
# ...
  170.0000   420.6090     2.2700    73.4440    23.0220    55.3930   104.3560   103.9250   -38.0980 
  170.1250   414.2290     2.2760    71.8330    23.0250    56.2740   104.0390   103.4950   -38.1570 
  170.2500   402.9610     2.2820    68.1280    23.0360    56.5130   104.5090   103.9690   -38.2300 
  170.3750   394.4730     2.2840    65.2830    23.0190    56.2870   105.6130   105.2030   -38.3150 
  170.5000   396.4240     2.2810    63.9590    22.9440    56.1470   107.4140   107.1970   -38.3840 
  170.6250   407.1840     2.2750    64.3140    22.8550    56.9120   110.3540   110.2910   -38.4230 
  170.7500   415.1340     2.2660    68.0010    22.8340    57.2490   114.6390   114.6270   -38.4420 
  170.8750   416.4810     2.2560    74.5600    22.8900    55.3230   120.4390   120.4630   -38.4570 
  171.0000   414.3430     2.2460    78.7580    22.9640    53.5610   127.6580   127.8700   -38.4630 
  171.1250   413.5570     2.2380    77.8180    23.0010    55.1140   135.9680   136.5830   -38.4420 
  171.2500   414.4190     2.2290    76.0330    23.0190    59.5280   144.1770   145.3550   -38.4330 
  171.3750   416.1670     2.2220    75.4220    23.0660    64.8740   151.0430   152.8430   -38.4600 
  171.5000   418.1720     2.2210    74.2800    23.1860    69.6970   155.5430   157.8670   -38.5220 
  171.6250   419.0110     2.2270    71.4260    23.4420    72.0490   157.1510   159.6950   -38.6010 
  171.7500   418.3780     2.2330    68.3880    23.8110    79.5920   157.2540   159.7260   -38.6410 
  171.8750   417.3040     2.2340    66.2920    24.1870    96.9500   157.1730   159.3780   -38.6310 
  172.0000   416.8400     2.2330    67.0790    24.4410   116.9100   158.2110   160.0790   -38.6200 
  172.1250   416.9440     2.2380    69.2400    24.5220   124.6970   161.7910   163.4020   -38.6340 
  172.2500   416.8460     2.2480    69.3320    24.5440   125.7810   167.9430   169.5310   -38.6560 
  172.3750   416.3840     2.2590    68.1480    24.5620   127.8590   176.3060   178.2040   -38.6840 
  172.5000   415.9440     2.2610    68.1610    24.5720   133.2080   185.8390   188.4370   -38.7410 
  172.6250   415.3940     2.2490    69.9690    24.5780   140.6640   194.7950   198.5600   -38.8450 
  172.7500   414.6530     2.2340    71.4960    24.5840   152.9270   201.9280   207.1870   -38.9230 
  172.8750   414.0180     2.2250    72.1410    24.5820   162.0330   206.8440   213.8050   -38.9400 
  173.0000   413.4790     2.2220    71.1040    24.5630   167.4320   209.7520   218.5080   -38.9190 
  173.1250   412.5920     2.2240    68.5860    24.5550   169.6880   210.7810   221.4070   -38.8930 
  173.2500   411.6860     2.2290    66.8430    24.5870   169.4550   209.8310   222.4550   -38.8780 
  173.3750   412.0160     2.2330    66.3960    24.6550   170.4710   205.5960   220.3100   -38.8290 
  173.5000   413.7430     2.2330    66.9060    24.7280   177.6610   196.9140   213.5540   -38.7100 
  173.6250   415.2370     2.2290    67.8710    24.7670   186.3050   183.6580   201.4450   -38.5630 
  173.7500   415.5400     2.2330    68.9780    24.7420   186.9640   168.9150   186.8480   -38.4420 
  173.8750   415.0650     2.2450    69.9260    24.6410   185.9170   155.2120   172.4480   -38.3520 
  174.0000   414.8770     2.2560    70.9980    24.5400   131.3660   144.3780   160.5090   -38.2500 
  174.1250   415.9820     2.2580    72.7800    24.5540   113.7620   137.7630   152.9230   -38.1250 
  174.2500   417.6400     2.2540    73.1860    24.6390   116.5960   134.3880   148.9800   -38.0380 
  174.3750   418.4420     2.2480    72.0690    24.7010   122.0240   133.3130   147.7780   -38.0070 
  174.5000   417.8730     2.2390    71.2360    24.6850   123.9960   133.3880   148.0730   -38.0250 
  174.6250   417.1830     2.2300    72.2060    24.5890   129.2980   133.4830   148.5250   -38.0510 
  174.7500   417.4480     2.2270    73.0420    24.5030   133.2410   133.1820   148.4720   -38.0580 
  174.8750   418.0790     2.2340    73.0250    24.5170   127.3430   132.9010   148.2590   -38.0820 
  175.0000   418.1350     2.2450    72.3640    24.6050   113.0250   133.3990   148.7090   -38.1340 
  175.1250   417.4580     2.2460    71.4280    24.5610   121.1510   135.4560   150.7960   -38.1890 
  175.2500   417.2770     2.2310    70.7550    24.3850   140.5330   138.7560   154.3330   -38.2180 
  175.3750   418.1920     2.2080    71.4030    24.2860   157.3280   142.7530   158.8030   -38.2100 
  175.5000   419.4200     2.1870    72.9640    24.4210   169.0840   146.6990   163.4080   -38.2010 
  175.6250   419.3730     2.1790    72.4190    24.6890   165.4030   149.6620   167.1040   -38.2150 
  175.7500   418.3340     2.1840    69.4170    24.8640   146.9910   151.3320   169.4500   -38.2490 
  175.8750   417.1670     2.2000    67.4140    24.9170   141.6190   151.5630   170.2490   -38.3150 
  176.0000   416.2580     2.2200    68.6000    24.9050   158.5460   150.2940   169.4340   -38.3790 
  176.1250   415.1790     2.2380    70.3410    24.8620   162.5450   147.4980   166.9180   -38.4170 
  176.2500   414.0360     2.2500    69.7480    24.8000   157.2460   144.1110   163.5940   -38.4490 
  176.3750   413.4620     2.2520    69.0480    24.7360   137.4630   141.0220   160.3890   -38.4790 
  176.5000   414.0800     2.2450    69.8730    24.6850   122.5540   138.7970   158.0250   -38.5130 
  176.6250   415.8500     2.2380    69.7880    24.6440   114.8020   137.2560   156.4900   -38.5280 
  176.7500   417.1320     2.2360    68.8350    24.6010   125.4830   135.2200   154.5930   -38.5220 
  176.8750   417.0990     2.2350    67.9230    24.5500   132.4970   131.6870   151.1910   -38.5360 
  177.0000   416.0260     2.2310    66.6410    24.4840   131.3050   126.3620   145.7810   -38.5730 
  177.1250   414.9700     2.2270    65.0640    24.4160   109.2480   119.9700   138.8890   -38.6190 
  177.2500   414.7410     2.2260    65.6840    24.3690    94.0780   114.2050   132.3580   -38.6470 
  177.3750   415.3690     2.2310    68.8100    24.3500    92.3160   110.2470   127.6190   -38.6400 
  177.5000   416.1730     2.2380    71.2100    24.3470    99.4870   108.7510   125.5780   -38.6380 
  177.6250   415.9610     2.2420    71.2900    24.3480    97.4370   110.2560   127.0360   -38.6780 
  177.7500   415.0430     2.2390    72.2570    24.3480    92.2930   113.8700   131.1210   -38.7310 
  177.8750   414.4470     2.2320    73.7570    24.3480    98.6620   118.6640   136.7780   -38.7650 
  178.0000   414.7050     2.2320    71.8210    24.3480   113.2460   123.5380   142.6230   -38.7460 
  178.1250   416.0100     2.2420    66.9670    24.3480   124.2670   127.6560   147.5340   -38.6950 
  178.2500   417.9460     2.2510    66.2740    24.3480   137.1910   131.0610   151.5660   -38.6400 
  178.3750   419.7350     2.2500    69.0900    24.3490   134.1020   133.4310   154.5090   -38.5640 
  178.5000   420.7640     2.2370    70.4880    24.3450   106.9360   133.4730   155.0450   -38.4630 
  178.6250   421.5180     2.2230    68.3530    24.3470   102.4430   128.9660   150.6000   -38.3350 
  178.7500   422.1590     2.2170    67.1370    24.4040   120.7560   121.0190   141.9380   -38.2360 
  178.8750   422.0220     2.2190    67.6860    24.5130   135.9540   112.0000   131.3170   -38.1900 
  179.0000   421.1630     2.2200    67.0820    24.5780   129.2820   104.5180   121.6940   -38.1500 
  179.1250   421.6980     2.2180    65.7130    24.5240   101.4440   101.1380   116.4360   -38.0340 
  179.2500   425.5650     2.2170    65.1600    24.4440    93.2000   102.0920   116.3770   -37.8320 
  179.3750   431.2500     2.2170    65.0090    24.4000   107.4120   107.3190   121.5170   -37.6260 
  179.5000   434.7040     2.2160    64.2320    24.3540   101.2700   116.2180   130.8530   -37.4990 
  179.6250   432.1490     2.2180    65.1420    24.2170    82.4930   127.7570   142.7480   -37.4720 
  179.7500   426.1130     2.2250    67.8960    23.9570    77.5260   139.4200   154.4100   -37.4470 
  179.8750   419.9510     2.2360    68.1840    23.6000    89.2860   149.3580   164.0970   -37.3490 
