~V
VERS. 2.00: Ver 2.00
~W
STRT.M 60.0000:
STOP.M 250.0000:
STEP.M 0.1250:
NULL. -999.2500:
UWI. DF3018:
~C
DEPT.M :
DEN.GM/CC :
GR.API :
RML.OHMM :
RI. :
RXO.OHMM :
CALI.CM :
SP.MV :
~A
# ...
  116.2500     2.3790   105.9960     7.2540     5.5910     5.4520    22.9880   -11.0500 
  116.3750     2.3970   107.3260     7.0860     5.4240     5.7420    23.2340   -11.2910 
  116.5000     2.4070   107.3100     6.8390     5.2080     5.8450    23.6730   -11.6330 
  116.6250     2.4060   103.5490     6.6290     5.0090     5.4670    24.1270   -12.0710 
  116.7500     2.3950    98.8270     6.5850     4.9160     5.1780    24.4570   -12.6370 
  116.8750     2.3770    97.6580     6.7690     4.9870     5.1240    24.6180   -13.3090 
  117.0000     2.3520    99.2660     7.1640     5.2350     5.4020    24.5910   -14.0690 
  117.1250     2.3250    95.2690     7.6920     5.6360     6.2300    24.3090   -14.9020 
  117.2500     2.3000    87.1780     8.1930     6.0790     7.5470    23.9140   -15.7500 
  117.3750     2.2770    80.8560     8.5650     6.4870     8.7860    23.6630   -16.5980 
  117.5000     2.2570    78.0320     8.7710     6.8080     8.6600    23.5990   -17.4320 
  117.6250     2.2370    76.8980     8.8540     7.0300     8.1900    23.5690   -18.1260 
  117.7500     2.2210    75.7810     8.9250     7.2090     8.3990    23.5100   -18.6770 
  117.8750     2.2120    74.2090     9.0330     7.3840     8.9390    23.4600   -19.0670 
  118.0000     2.2110    73.0540     9.1760     7.5690     9.2880    23.4220   -19.3240 
  118.1250     2.2150    72.2670     9.3100     7.7460     9.3780    23.3600   -19.4350 
  118.2500     2.2170    71.2200     9.4090     7.8940     9.3220    23.2940   -19.4430 
  118.3750     2.2140    70.5070     9.5010     8.0170     9.4710    23.2510   -19.3270 
  118.5000     2.2050    71.4900     9.6430     8.1400     9.6500    23.2630   -19.0800 
  118.6250     2.1950    73.1190     9.8650     8.2740     9.6030    23.2780   -18.7410 
  118.7500     2.1870    72.9540    10.0610     8.3680     9.2610    23.2890   -18.2950 
  118.8750     2.1850    71.6040    10.0650     8.3200     9.0180    23.2910   -17.7670 
  119.0000     2.1940    72.8730     9.7180     8.0250     9.0900    23.3140   -17.1200 
  119.1250     2.2180    77.7390     8.9140     7.3980     9.0550    23.4640   -16.4260 
  119.2500     2.2550    84.1470     7.8910     6.5870     8.2850    23.8070   -15.7960 
  119.3750     2.2960    89.3900     6.9310     5.7770     6.8570    24.2350   -15.3170 
  119.5000     2.3260    90.9100     6.3010     5.1670     5.3160    24.5330   -15.0390 
  119.6250     2.3300    90.9710     6.2450     4.9570     4.9300    24.6140   -15.0130 
  119.7500     2.3100    90.5940     6.6770     5.1310     5.0940    24.5550   -15.1950 
  119.8750     2.2770    88.6560     7.4660     5.6320     5.7440    24.3390   -15.5090 
  120.0000     2.2470    83.7680     8.3870     6.3260     6.8860    24.0050   -15.9730 
  120.1250     2.2320    77.0300     9.0930     6.9830     8.3080    23.7240   -16.4860 
  120.2500     2.2310    74.0050     9.3610     7.3930     8.8040    23.5840   -16.9740 
  120.3750     2.2350    74.5930     9.1520     7.4640     8.6380    23.5620   -17.3610 
  120.5000     2.2360    76.0290     8.6250     7.2490     8.1710    23.5960   -17.6150 
  120.6250     2.2280    76.3260     8.1170     6.9440     7.5820    23.6160   -17.7470 
  120.7500     2.2200    75.2550     7.9420     6.8090     7.3100    23.6230   -17.7980 
  120.8750     2.2230    75.1760     8.2420     6.9910     7.3370    23.6240   -17.8850 
  121.0000     2.2460    75.4710     8.9930     7.5230     7.6750    23.6300   -18.0240 
  121.1250     2.2890    75.1560    10.0090     8.3200     8.4660    23.6690   -18.2650 
  121.2500     2.3280    75.4830    10.9070     9.1030     9.9520    23.7300   -18.5820 
  121.3750     2.3440    76.5820    11.4090     9.6350    12.2190    23.7220   -18.9500 
  121.5000     2.3270    78.0820    11.3950     9.7740    14.3120    23.5730   -19.3600 
  121.6250     2.2850    77.5210    10.9580     9.5190    12.1730    23.2900   -19.7800 
  121.7500     2.2450    74.6710    10.4840     9.1490     9.7930    23.0830   -20.2210 
  121.8750     2.2190    71.6080    10.2000     8.8600     8.8900    22.8940   -20.6390 
  122.0000     2.2090    69.3640    10.1800     8.7520     8.9320    22.7030   -21.0200 
  122.1250     2.2060    67.8510    10.3820     8.8420     9.2010    22.5980   -21.3040 
  122.2500     2.2030    68.6230    10.6300     9.0110     9.2870    22.6010   -21.5060 
  122.3750     2.1970    71.9070    10.8170     9.1650     9.3820    22.6350   -21.6750 
  122.5000     2.1910    77.1290    10.8930     9.2480     9.5640    22.6450   -21.7650 
  122.6250     2.1910    79.5140    10.8410     9.2290     9.5230    22.6440   -21.7760 
  122.7500     2.1940    77.9570    10.7030     9.1350     9.4270    22.6540   -21.7250 
  122.8750     2.1980    74.3840    10.4970     8.9800     9.3710    22.6780   -21.6380 
  123.0000     2.2010    72.3250    10.2440     8.7810     9.3320    22.7210   -21.4970 
  123.1250     2.2000    74.2350     9.9910     8.5610     9.1480    22.7400   -21.3550 
  123.2500     2.1980    76.9100     9.7900     8.3660     8.7670    22.7470   -21.2070 
  123.3750     2.1960    77.3580     9.6850     8.2310     8.3870    22.7390   -21.0490 
  123.5000     2.1970    76.0010     9.6910     8.1810     8.1590    22.7150   -20.9230 
  123.6250     2.2010    74.6700     9.8040     8.2310     8.0440    22.6500   -20.7950 
  123.7500     2.2060    73.9800     9.9540     8.3340     7.8950    22.5920   -20.7030 
  123.8750     2.2100    73.2210    10.0840     8.4480     7.9250    22.5530   -20.6160 
  124.0000     2.2140    73.4140    10.1630     8.5400     8.1120    22.5460   -20.5750 
  124.1250     2.2150    75.7300    10.1960     8.6030     8.2700    22.5630   -20.5380 
  124.2500     2.2160    80.0170    10.2490     8.6760     8.3370    22.5950   -20.5320 
  124.3750     2.2190    83.5500    10.3720     8.7940     8.3410    22.6260   -20.5310 
  124.5000     2.2280    82.9410    10.5800     8.9750     8.4130    22.6390   -20.5440 
  124.6250     2.2440    77.5380    10.8330     9.1970     8.7080    22.6390   -20.5900 
  124.7500     2.2610    72.8210    11.0380     9.3960     9.1170    22.6390   -20.6420 
  124.8750     2.2690    71.9700    11.1290     9.5170     9.5480    22.6390   -20.6980 
  125.0000     2.2640    72.7760    11.0770     9.5280     9.6800    22.6500   -20.7270 
  125.1250     2.2440    72.5140    10.9030     9.4230     9.0050    22.7110   -20.7290 
  125.2500     2.2220    72.8310    10.7050     9.2680     8.7070    22.8540   -20.6970 
  125.3750     2.2070    74.9600    10.5550     9.1210     8.7690    23.0530   -20.6600 
  125.5000     2.2010    78.4900    10.5080     9.0410     9.0000    23.2430   -20.6300 
  125.6250     2.2070    82.8290    10.6160     9.0890     9.1980    23.3400   -20.6250 
  125.7500     2.2220    84.4140    10.8390     9.2540     9.4190    23.3590   -20.6050 
  125.8750     2.2430    81.5880    11.1030     9.4870     9.7090    23.3310   -20.5720 
  126.0000     2.2670    77.8290    11.3060     9.7100    10.1370    23.2970   -20.5320 
  126.1250     2.2820    77.0680    11.3240     9.8170    10.6380    23.2160   -20.4560 
  126.2500     2.2780    75.2240    11.1760     9.7930    10.9200    23.0130   -20.3310 
  126.3750     2.2550    71.8980    10.9560     9.6840    10.9020    22.7490   -20.1320 
  126.5000     2.2230    70.9440    10.7990     9.5820    10.7790    22.6600   -19.7940 
  126.6250     2.2000    73.4520    10.8120     9.5740    10.6370    22.8320   -19.3010 
  126.7500     2.1980    75.3570    10.9060     9.6250    10.5740    23.0570   -18.6830 
  126.8750     2.2200    75.1490    10.9310     9.6420    10.5930    23.2660   -17.9550 
  127.0000     2.2590    73.7080    10.7490     9.5140    10.5070    23.5230   -17.1390 
  127.1250     2.3000    74.3790    10.2820     9.1400     9.9830    23.8210   -16.3390 
  127.2500     2.3260    78.8640     9.6680     8.5950     9.1870    24.0460   -15.6070 
  127.3750     2.3330    84.8450     9.0400     7.9810     8.1430    24.1480   -14.9700 
