~V
VERS. 2.00: Ver 2.00
~W
STRT.M 63.0000:
STOP.M 272.0000:
STEP.M 0.1250:
NULL. -999.2500:
UWI. DF3013:
~C
DEPT.M :
DEN.GM/CC :
SP.MV :
AC.US/MT :
GR.API :
CALI.CM :
RXO.OHMM :
RI. :
RML.OHMM :
~A
# ...
  133.0000     2.3640   -13.3940   371.3930    69.1430    23.5430     9.9950    10.3490    12.4890 
  133.1250     2.4230   -13.0420   327.9610    67.8190    23.6860    14.4710    11.3930    13.6980 
  133.2500     2.4970   -12.7050   294.8840    66.8120    23.9560    17.2470    12.1270    14.4240 
  133.3750     2.5570   -12.3990   284.2690    66.7030    24.1980    15.4550    12.0850    14.0380 
  133.5000     2.5770   -12.1270   293.9400    68.3810    24.2230    12.4620    11.0220    12.3380 
  133.6250     2.5460   -11.8920   323.8000    73.0540    24.0990    12.1620     9.1410     9.8680 
  133.7500     2.4920   -11.6850   368.8750    78.3590    24.1560    10.1840     7.1960     7.6260 
  133.8750     2.4310   -11.5000   415.7500    84.2030    24.4320     6.2720     5.5940     6.0040 
  134.0000     2.3820   -11.3430   448.8220    91.5850    24.7120     4.0220     4.4740     5.0250 
  134.1250     2.3620   -11.2420   459.7770    98.0870    24.8190     3.7180     3.8600     4.6150 
  134.2500     2.3630   -11.2150   458.8610   100.9900    24.8400     3.6600     3.5830     4.5310 
  134.3750     2.3690   -11.2770   453.2640   100.2250    24.8460     3.8950     3.5730     4.6720 
  134.5000     2.3610   -11.4230   445.7820    97.9710    24.8420     4.1620     3.7560     4.9540 
  134.6250     2.3360   -11.6350   440.6010    94.7990    24.8260     4.2930     4.0580     5.3040 
  134.7500     2.3110   -11.8660   438.7410    91.2350    24.7560     4.3990     4.3680     5.6350 
  134.8750     2.2960   -12.0930   438.7520    88.1490    24.5550     5.0290     4.6130     5.8630 
  135.0000     2.2980   -12.3050   438.5280    85.4060    24.2310     5.8910     4.7410     5.9300 
  135.1250     2.3140   -12.4870   435.0480    84.8710    23.9900     5.6330     4.7580     5.8680 
  135.2500     2.3400   -12.6420   428.3450    87.1980    24.0090     4.9750     4.7750     5.8490 
  135.3750     2.3650   -12.7870   420.7750    91.8180    24.2160     4.9940     4.8880     6.0020 
  135.5000     2.3750   -12.9390   416.8610    96.9940    24.3460     5.4810     5.1610     6.3940 
  135.6250     2.3470   -13.0960   419.6850    99.0900    24.1330     6.4060     5.6320     7.0190 
  135.7500     2.2920   -13.2330   425.4750    95.9490    23.7470     7.1010     6.1800     7.6750 
  135.8750     2.2350   -13.3150   431.0290    89.3710    23.4610     7.3460     6.6300     8.1250 
  136.0000     2.1990   -13.3210   434.7090    82.9960    23.3990     7.2440     6.7930     8.1700 
  136.1250     2.1990   -13.2500   436.5950    79.6880    23.4930     7.1980     6.5310     7.7330 
  136.2500     2.2260   -13.1420   436.9940    80.8730    23.6030     6.5520     6.0240     7.0880 
  136.3750     2.2690   -13.0230   435.3660    87.1940    23.7370     5.3750     5.4510     6.4560 
  136.5000     2.3100   -12.9040   432.0020    94.4490    23.9140     4.4200     4.9560     5.9750 
  136.6250     2.3260   -12.7890   427.8540    95.6100    24.0650     4.3870     4.6320     5.7170 
  136.7500     2.3240   -12.6810   424.6860    93.1040    24.2290     4.5050     4.4500     5.6160 
  136.8750     2.3200   -12.5840   423.3850    91.8930    24.4910     4.6290     4.3710     5.6150 
  137.0000     2.3230   -12.5090   423.7940    92.6840    24.8030     4.6910     4.3380     5.6500 
  137.1250     2.3260   -12.4800   424.6820    94.0590    24.9650     4.6040     4.3120     5.6690 
  137.2500     2.3210   -12.4950   424.6570    96.5440    24.9670     4.6540     4.2930     5.6870 
  137.3750     2.3140   -12.5520   423.8790    99.1890    24.9380     4.6500     4.3210     5.7530 
  137.5000     2.3120   -12.6500   422.6120    98.3140    24.9130     4.6910     4.4330     5.9080 
  137.6250     2.3100   -12.7850   419.7780    92.5590    24.7770     5.0520     4.6460     6.1590 
  137.7500     2.3000   -12.9500   415.7500    86.9360    24.5030     5.8130     4.9050     6.4510 
  137.8750     2.2850   -13.1300   412.4220    82.7550    24.1620     6.5490     5.1830     6.7660 
  138.0000     2.2690   -13.3020   411.7010    81.0990    23.8430     6.9660     5.5010     7.1330 
  138.1250     2.2650   -13.4430   409.5320    83.6890    23.6610     6.8590     5.9370     7.6500 
  138.2500     2.2860   -13.5380   398.2730    87.4600    23.6380     6.5760     6.5270     8.3540 
  138.3750     2.3260   -13.5860   378.2210    88.7020    23.6470     9.1740     7.2570     9.2220 
  138.5000     2.3570   -13.5880   361.2500    84.8290    23.5320    13.9350     8.0310    10.1100 
  138.6250     2.3370   -13.5370   366.6380    78.2100    23.3210    14.8820     8.6030    10.6550 
  138.7500     2.2770   -13.4330   389.5750    73.4380    23.2140    11.5300     8.7990    10.6410 
  138.8750     2.2140   -13.2640   414.2760    72.0840    23.2000     8.9900     8.5700    10.0750 
  139.0000     2.1750   -13.0220   428.9560    72.0330    23.1760     8.2840     8.0020     9.1690 
  139.1250     2.1700   -12.7030   433.0850    71.0800    23.2120     8.1540     7.2500     8.2030 
  139.2500     2.1860   -12.3480   435.0160    71.5730    23.3490     7.6880     6.5020     7.3540 
  139.3750     2.2170   -12.0030   436.1420    76.3850    23.5890     6.4930     5.8330     6.6450 
  139.5000     2.2540   -11.7030   435.7830    86.0750    23.9750     5.1310     5.2830     6.0810 
  139.6250     2.2830   -11.4790   434.3670    95.8810    24.4350     4.4730     4.9100     5.7230 
  139.7500     2.2940   -11.3130   432.4880    99.1560    24.7290     4.4680     4.7010     5.5600 
  139.8750     2.2940   -11.1930   429.8440    98.4240    24.7480     4.6140     4.6370     5.5540 
  140.0000     2.2910   -11.1090   426.7730    99.0350    24.6520     4.7300     4.6710     5.6250 
  140.1250     2.2880   -11.0670   425.7850   100.5040    24.6590     4.8190     4.7470     5.6910 
  140.2500     2.2880   -11.0620   427.6830    99.5480    24.7450     4.7860     4.8290     5.7320 
  140.3750     2.2930   -11.0940   430.4310    99.4010    24.8430     4.6530     4.9190     5.7810 
  140.5000     2.2990   -11.1570   431.2730   101.9780    24.9020     4.4770     5.0250     5.8670 
  140.6250     2.2910   -11.2420   429.4040   101.2890    24.8830     4.6010     5.1150     5.9490 
  140.7500     2.2710   -11.3280   428.0180    98.1120    24.7640     5.1190     5.1150     5.9190 
  140.8750     2.2580   -11.3960   429.6270    97.6630    24.5910     5.3410     4.9600     5.7020 
  141.0000     2.2620   -11.4300   435.5860   100.7130    24.4780     4.8280     4.6590     5.3370 
  141.1250     2.2810   -11.4240   445.2680   103.2020    24.4990     4.2600     4.3300     5.0060 
  141.2500     2.3100   -11.3980   446.2030   104.3450    24.5570     3.8520     4.1260     4.8930 
  141.3750     2.3520   -11.3790   427.0560   105.5630    24.5020     3.7070     4.1400     5.0840 
  141.5000     2.3950   -11.3890   391.3570   104.3110    24.2000     4.7150     4.4050     5.5740 
  141.6250     2.3990   -11.4410   367.5010    96.1120    23.6560     7.8650     4.9180     6.2900 
  141.7500     2.3560   -11.5270   373.6840    85.7390    23.1320    10.4280     5.5500     7.0530 
  141.8750     2.2870   -11.6230   398.4990    77.3990    22.8010    11.1870     6.2380     7.8140 
  142.0000     2.2300   -11.6970   415.4890    72.0720    22.6540    11.3280     7.0250     8.6940 
  142.1250     2.2350   -11.7010   400.3910    70.4520    22.6000    11.7940     8.1910    10.1010 
  142.2500     2.3090   -11.6190   359.4300    70.9800    22.5720    14.6680    10.0330    12.3530 
  142.3750     2.4320   -11.4640   307.3390    70.9460    22.5950    21.0880    12.8200    15.7070 
  142.5000     2.5630   -11.2690   260.8780    67.7510    22.7220    29.5950    16.5350    20.0950 
  142.6250     2.6480   -11.0640   236.7780    63.0830    23.0210    33.5860    20.3520    24.4040 
  142.7500     2.6780   -10.8650   231.0440    60.0160    23.4590    31.6310    22.7320    26.6580 
  142.8750     2.6720   -10.6670   235.2600    57.7410    23.9640    24.7210    22.9310    26.0990 
