~V
VERS. 2.00: Ver 2.00
~W
STRT.M 60.0000:
STOP.M 277.0000:
STEP.M 0.1250:
NULL. -999.2500:
UWI. DF3048:
~C
DEPT.M :
SP.MV :
GR.API :
RML.OHMM :
RI. :
RXO.OHMM :
CALI.CM :
DEN.GM/CC :
~A
# ...
  240.0000   -18.0970    84.5390    65.6910    53.2520    50.7740    24.4380     2.2400 
  240.1250   -18.1180    84.1290    67.7560    53.9430    53.1950    24.3960     2.2440 
  240.2500   -18.1460    81.6110    73.6490    58.0010    65.4150    24.3540     2.2440 
  240.3750   -18.2100    77.7280    82.5750    64.7390    81.2180    24.3140     2.2400 
  240.5000   -18.3040    74.7780    93.4730    73.2880    85.7550    24.2090     2.2390 
  240.6250   -18.4040    73.8690   104.5850    82.3050    86.2180    24.1210     2.2410 
  240.7500   -18.5120    72.3220   113.6340    89.9970   100.2910    24.1040     2.2430 
  240.8750   -18.6070    70.3720   118.7330    94.9130   138.1160    24.1810     2.2350 
  241.0000   -18.6580    70.1330   118.7610    96.1110   186.0760    24.3560     2.2160 
  241.1250   -18.6840    71.3420   113.4020    93.0340   138.6300    24.5790     2.1930 
  241.2500   -18.6860    71.4950   105.4880    87.5040    90.8810    24.5120     2.1750 
  241.3750   -18.6650    71.9390    97.1920    81.0880    77.7340    24.2730     2.1740 
  241.5000   -18.6280    73.2290    89.9260    75.0880    76.3140    24.1140     2.1840 
  241.6250   -18.5970    73.5260    84.1350    70.2070    77.6540    24.0900     2.1970 
  241.7500   -18.5700    73.2550    79.0450    66.0290    75.2920    24.0830     2.2070 
  241.8750   -18.5840    74.2650    74.1510    62.1230    71.7170    24.0560     2.2160 
  242.0000   -18.5910    76.4700    69.2850    58.2570    66.6760    23.9850     2.2250 
  242.1250   -18.6490    77.0220    64.7340    54.5610    61.9120    23.9290     2.2350 
  242.2500   -18.7190    76.3970    60.9360    51.3710    54.9330    23.9540     2.2430 
  242.3750   -18.8260    77.0360    58.3560    49.0770    51.9630    24.1120     2.2440 
  242.5000   -18.9510    79.7870    57.3560    48.0190    51.5200    24.4650     2.2380 
  242.6250   -19.0960    83.8200    58.3350    48.6180    50.6170    24.6400     2.2280 
  242.7500   -19.2410    87.1080    60.6900    50.4950    51.9810    24.6780     2.2170 
  242.8750   -19.3680    87.8520    63.7610    53.2020    55.2580    24.6200     2.2150 
  243.0000   -19.5310    84.3500    66.7130    56.0860    61.0310    24.5860     2.2210 
  243.1250   -19.6640    78.3380    68.5930    58.3170    67.7280    24.5470     2.2370 
  243.2500   -19.7910    75.3130    69.2360    59.5450    71.0020    24.5110     2.2570 
  243.3750   -19.8810    76.0610    68.8230    59.7480    67.4180    24.4540     2.2750 
  243.5000   -19.9220    77.5100    67.7070    59.1230    62.9020    24.4010     2.2870 
  243.6250   -19.9140    77.0690    66.1130    57.8460    62.9450    24.3310     2.2870 
  243.7500   -19.9040    78.2880    64.2120    56.1880    66.5490    24.2970     2.2770 
  243.8750   -19.8970    82.1270    61.9450    54.1780    74.2670    24.2910     2.2590 
  244.0000   -19.9040    85.3180    59.1510    51.7250    90.5810    24.3400     2.2430 
  244.1250   -19.9340    84.9960    55.6120    48.6330   103.9200    24.2150     2.2350 
  244.2500   -20.0010    83.9380    51.7110    45.1830    81.8790    24.2430     2.2340 
  244.3750   -20.1050    84.4760    48.1320    41.9380    63.8030    24.3480     2.2360 
  244.5000   -20.2640    87.2810    45.8640    39.7820    59.6580    24.5270     2.2330 
  244.6250   -20.4970    90.7530    46.7860    40.4580    51.1400    24.6160     2.2230 
  244.7500   -20.7820    89.5430    51.9810    44.9880    44.0480    24.5900     2.2130 
  244.8750   -21.1270    83.4040    62.3020    54.1200    49.6000    24.5450     2.2110 
  245.0000   -21.5030    78.1150    77.3180    67.3920    67.8990    24.5300     2.2190 
  245.1250   -21.9190    75.9580    94.2650    82.2610    93.6550    24.5030     2.2310 
  245.2500   -22.3540    72.8150   107.5230    93.8950   114.7210    24.4460     2.2370 
  245.3750   -22.7980    67.8250   112.2170    98.3610   129.1050    24.3690     2.2320 
  245.5000   -23.2050    64.8210   106.3140    94.1210   141.6540    24.4150     2.2240 
  245.6250   -23.4850    66.6990    92.3220    82.7840   133.7800    24.4720     2.2200 
  245.7500   -23.6170    70.9030    77.7120    70.1160   100.6320    24.5030     2.2260 
  245.8750   -23.5720    75.4380    65.8540    59.1600    65.1800    24.5080     2.2370 
  246.0000   -23.3950    79.1730    57.5660    51.0930    49.1460    24.5500     2.2440 
  246.1250   -23.1280    81.7030    52.8640    46.2750    42.7120    24.7110     2.2440 
  246.2500   -22.8330    81.8100    50.5330    43.7020    39.6990    24.7120     2.2360 
  246.3750   -22.5390    79.3480    50.1550    42.9820    38.3410    24.4640     2.2250 
  246.5000   -22.2780    77.7300    51.5710    43.9360    39.2800    24.2600     2.2210 
  246.6250   -22.1020    77.7080    55.2370    46.9430    42.3180    24.2250     2.2290 
  246.7500   -22.0120    77.2480    61.1850    51.9750    46.1120    24.2790     2.2530 
  246.8750   -21.9680    76.4400    69.6590    59.1760    52.9060    24.4160     2.2990 
  247.0000   -21.9600    76.9140    80.4700    68.2920    65.5100    24.5470     2.3630 
  247.1250   -21.9020    78.4980    92.5770    78.3420    79.7540    24.1750     2.4380 
  247.2500   -21.7740    78.5050   103.5210    87.3060    86.1110    24.0270     2.5110 
  247.3750   -21.5770    76.4150   110.9660    93.3660    91.1120    24.1160     2.5560 
  247.5000   -21.3070    74.8510   113.2830    95.2950   104.0020    24.1740     2.5610 
  247.6250   -20.9590    76.3060   109.8520    92.4840   103.5990    23.8200     2.5270 
  247.7500   -20.5630    80.1350   103.5980    87.0530    78.1630    23.6930     2.4690 
  247.8750   -20.1570    83.8590    96.8160    80.7580    60.6170    23.9480     2.4110 
  248.0000   -19.7020    88.5420    91.2300    75.1330    56.8200    24.1980     2.3720 
  248.1250   -19.1680    93.4680    88.2120    71.6020    64.7700    24.3110     2.3620 
  248.2500   -18.5490    95.4640    87.7970    70.4790    72.3070    24.3510     2.3830 
  248.3750   -17.8240    94.6790    90.3720    72.1690    72.1130    24.0660     2.4280 
  248.5000   -17.0960    91.1030    96.7750    77.2090    66.7290    23.4820     2.4750 
  248.6250   -16.3590    85.1160   108.7270    86.7820    64.9280    23.1730     2.5110 
  248.7500   -15.6280    79.7120   124.6040    99.6760    73.1740    23.3220     2.5320 
  248.8750   -14.8930    77.8380   140.7570   113.3910    92.8570    23.7620     2.5450 
  249.0000   -14.2210    79.4880   150.9750   123.4260   126.5920    24.1380     2.5580 
  249.1250   -13.6430    80.7300   145.2170   122.2420   155.7360    24.2840     2.5710 
  249.2500   -13.1900    80.6550   122.9080   108.2730   158.5670    24.2670     2.5740 
  249.3750   -12.8600    79.8060    90.2130    84.2810   153.0610    24.2570     2.5550 
  249.5000   -12.5670    76.8370    58.8450    57.6180   131.9260    24.2890     2.5170 
  249.6250   -12.3380    72.2410    37.0140    36.9200    81.7340    24.2730     2.4710 
  249.7500   -12.1610    67.2950    23.2910    23.5860    38.5330    24.2270     2.4290 
  249.8750   -12.0620    64.0740    15.6160    16.0030    18.1900    24.2050     2.4000 
  250.0000   -11.9750    64.1730    11.5910    12.0390    11.8060    23.8370     2.3820 
  250.1250   -11.9260    65.6430    10.3730    10.3180    10.7360    23.7310     2.3710 
  250.2500   -11.8770    66.3350     9.9530     9.5970    10.9140    23.7150     2.3640 
  250.3750   -11.8380    67.2030     9.9520     9.4400    11.1900    23.8460     2.3610 
  250.5000   -11.8350    69.0480    10.1060     9.5470    11.4060    23.6850     2.3640 
  250.6250   -11.8680    68.6460    10.2470     9.6940    11.0050    23.6200     2.3720 
  250.7500   -11.9020    65.2830    10.2700     9.7510    10.4530    23.5550     2.3840 
  250.8750   -11.9170    61.4850    10.1680     9.6880    10.0710    23.3890     2.3970 
  251.0000   -11.8710    60.0900     9.8940     9.5170     9.8800    23.1380     2.4050 
  251.1250   -11.7900    61.5630     9.5270     9.2560     9.9500    22.9390     2.4050 
