~V
VERS. 2.00: Ver 2.00
~W
STRT.M 125.0000:
STOP.M 254.0000:
STEP.M 0.1250:
NULL. -999.2500:
UWI. DF3068:
~C
DEPT.M :
SP.MV :
GR.API :
CALI.CM :
RXO.OHMM :
RI. :
RML.OHMM :
DEN.GM/CC :
~A
# ...
  215.0000   -16.8160    86.7600    25.5680     8.2500     6.8740     7.5140     2.5190 
  215.1250   -16.9360    84.5710    25.6430     8.5310     7.4440     7.8990     2.5160 
  215.2500   -17.0820    87.1900    25.6480     8.3710     7.7700     8.0120     2.5060 
  215.3750   -17.2200    94.9930    25.6430     8.0750     7.8440     7.9020     2.4950 
  215.5000   -17.3350   102.8370    25.6450     7.8650     7.7400     7.6850     2.4870 
  215.6250   -17.4200   107.7460    25.6390     7.8430     7.5610     7.4970     2.4840 
  215.7500   -17.4960   112.9890    25.6010     7.9180     7.3920     7.4010     2.4780 
  215.8750   -17.5730   120.1130    25.5260     7.9980     7.2470     7.3940     2.4660 
  216.0000   -17.6420   125.7570    25.4400     7.9790     7.1200     7.4450     2.4530 
  216.1250   -17.7090   127.3650    25.3820     7.8840     7.0210     7.5370     2.4430 
  216.2500   -17.7760   127.9510    25.3560     7.7730     6.9690     7.6690     2.4370 
  216.3750   -17.8450   130.4220    25.3560     7.7510     6.9810     7.8460     2.4340 
  216.5000   -17.9270   132.3910    25.3990     7.8430     7.0400     8.0400     2.4330 
  216.6250   -17.9980   129.3830    25.4930     8.0790     7.0740     8.1600     2.4300 
  216.7500   -18.0470   124.1900    25.5860     8.3310     7.0090     8.1350     2.4300 
  216.8750   -18.0630   120.2260    25.6320     8.4880     6.8340     7.9710     2.4380 
  217.0000   -18.0510   120.5500    25.6360     8.0860     6.6180     7.7760     2.4500 
  217.1250   -18.0260   124.0520    25.6320     7.5720     6.5220     7.7970     2.4510 
  217.2500   -17.9760   124.0660    25.6330     7.6320     6.6890     8.2230     2.4370 
  217.3750   -17.9030   118.8410    25.6330     8.7210     7.2440     9.1960     2.4190 
  217.5000   -17.8230   112.8390    25.6330    10.8340     8.2990    10.7830     2.4050 
  217.6250   -17.7620   110.2510    25.6330    13.5640    10.0060    12.9840     2.3980 
  217.7500   -17.7440   107.9150    25.6330    16.9480    12.1310    15.3670     2.3950 
  217.8750   -17.7690   104.3950    25.6330    19.6430    14.2850    17.3980     2.3950 
  218.0000   -17.8300   101.4040    25.6330    20.3480    15.9230    18.5210     2.3960 
  218.1250   -17.8990   101.4590    25.6330    21.7540    16.4420    18.2560     2.3940 
  218.2500   -17.9500   101.8910    25.6330    20.2940    15.9680    17.0270     2.3890 
  218.3750   -17.9930   100.7860    25.6330    16.4870    14.7790    15.2760     2.3850 
  218.5000   -18.0400    99.4240    25.6330    14.2690    13.2220    13.3980     2.3840 
  218.6250   -18.1010   101.0790    25.6330    13.2170    11.5980    11.6850     2.3840 
  218.7500   -18.1790   105.5110    25.6330    10.9000    10.1310    10.2650     2.3880 
  218.8750   -18.2800   109.2170    25.6360     8.6790     8.9340     9.1960     2.3980 
  219.0000   -18.3940   110.2890    25.6390     7.9250     8.0420     8.4650     2.4120 
  219.1250   -18.5290   111.7410    25.6420     7.5330     7.4670     8.0440     2.4220 
  219.2500   -18.6990   115.0460    25.6450     7.5200     7.1020     7.8130     2.4320 
  219.3750   -18.9060   117.2810    25.6460     7.3160     6.9160     7.7640     2.4430 
  219.5000   -19.1440   114.8360    25.6440     7.3460     6.9410     8.0010     2.4500 
  219.6250   -19.4150   109.3510    25.6430     8.0980     7.4210     8.9380     2.4410 
  219.7500   -19.7280   105.4180    25.6450     9.4660     8.6670    10.9710     2.4270 
  219.8750   -20.0940   101.5330    25.6460    12.6180    11.3230    14.6880     2.4240 
  220.0000   -20.5210    94.8830    25.6430    31.4540    16.4700    20.8990     2.4350 
  220.1250   -21.0140    86.8370    25.6430    69.9280    26.5050    31.5730     2.4380 
  220.2500   -21.5210    80.2120    25.6500   106.4230    41.8640    47.4020     2.4110 
  220.3750   -22.0270    74.9430    25.6580   115.8520    61.0900    67.8110     2.3620 
  220.5000   -22.5340    71.8920    25.6650   105.6330    79.6960    88.4020     2.3150 
  220.6250   -23.0470    70.0290    25.6720   104.6080    91.9370   101.5090     2.2930 
  220.7500   -23.5480    68.1110    25.6730   111.8010    98.8270   108.0330     2.2900 
  220.8750   -24.0070    67.1110    25.6580   116.5600   103.4180   112.3640     2.2960 
  221.0000   -24.3900    68.0240    25.6340   125.0350   108.0140   117.5190     2.3000 
  221.1250   -24.6390    69.0270    25.6240   139.0470   112.7600   123.5330     2.2970 
  221.2500   -24.7750    69.7760    25.6220   148.6800   116.2400   128.2120     2.2880 
  221.3750   -24.8350    70.9820    25.6160   144.0540   117.2800   129.7290     2.2810 
  221.5000   -24.8580    72.1880    25.6130   136.8560   115.6220   127.6050     2.2820 
  221.6250   -24.8790    72.2210    25.6190   128.8450   111.9240   122.8640     2.2910 
  221.7500   -24.9050    72.1330    25.6140   117.4820   108.0380   118.0630     2.3000 
  221.8750   -24.9280    71.7610    25.5900   107.5610   105.2380   114.7290     2.3030 
  222.0000   -24.9190    70.7320    25.5660   105.9570   104.3330   113.6640     2.3000 
  222.1250   -24.8390    69.9580    25.5580   109.3000   105.9700   115.3680     2.2970 
  222.2500   -24.7030    69.2400    25.5590   114.5240   109.5420   118.9850     2.2980 
  222.3750   -24.5060    67.2310    25.5610   123.1040   114.3520   123.6320     2.3000 
  222.5000   -24.2640    64.2680    25.5630   130.1050   119.3070   128.0670     2.2990 
  222.6250   -23.9960    63.3570    25.5660   138.6470   122.9300   130.6690     2.2940 
  222.7500   -23.7340    64.2370    25.5600   146.5250   124.6470   130.9980     2.2910 
  222.8750   -23.4680    64.9160    25.5330   145.4030   124.4480   129.2520     2.2940 
  223.0000   -23.1680    65.2870    25.4780   131.1950   122.7690   126.0960     2.3010 
  223.1250   -22.8280    66.1550    25.4070   120.7130   120.0500   122.1190     2.3050 
  223.2500   -22.4710    65.9620    25.3530   118.6390   116.8140   117.8010     2.3060 
  223.3750   -22.1250    65.1860    25.3270   119.7380   113.2750   113.3360     2.3110 
  223.5000   -21.7940    66.4770    25.3230   122.8440   108.8650   109.6140     2.3220 
  223.6250   -21.4300    69.3570    25.3270   119.3460   104.0400   105.6580     2.3310 
  223.7500   -20.9840    70.6110    25.3360   107.5020    97.7790   100.6040     2.3330 
  223.8750   -20.4470    70.5680    25.3280   100.7880    88.7240    93.2460     2.3290 
  224.0000   -19.8530    69.9420    25.2780   100.3160    76.4030    82.7350     2.3270 
  224.1250   -19.2610    68.7370    25.2020    96.7830    62.4110    69.4870     2.3320 
  224.2500   -18.6940    68.9560    25.1530    76.9770    50.0050    56.4450     2.3380 
  224.3750   -18.1540    71.3030    25.1410    52.7040    40.9050    45.8520     2.3390 
  224.5000   -17.6310    73.6490    25.1570    32.5850    35.4960    38.8280     2.3350 
  224.6250   -17.1160    73.3890    25.2300    26.4390    33.7790    35.8970     2.3360 
  224.7500   -16.5980    71.5010    25.3420    28.5100    34.2970    35.6670     2.3460 
  224.8750   -16.0800    69.1870    25.4310    39.7500    35.8830    36.9620     2.3700 
  225.0000   -15.5840    67.7710    25.4620    54.2790    36.9500    38.1600     2.4040 
  225.1250   -15.1500    67.1640    25.4580    56.4890    35.6130    37.2520     2.4300 
  225.2500   -14.7900    67.1150    25.4560    44.5310    32.4440    34.3600     2.4300 
  225.3750   -14.5000    68.6380    25.4620    30.2180    29.0290    30.8140     2.3980 
  225.5000   -14.2610    71.8920    25.4710    23.7330    26.7380    28.0500     2.3580 
  225.6250   -14.0410    75.5400    25.4230    22.2920    26.3340    27.0820     2.3480 
  225.7500   -13.8230    79.5800    25.3070    27.8150    27.2560    27.5550     2.3800 
  225.8750   -13.6080    82.6310    25.1990    38.5000    28.7810    28.8190     2.4350 
  226.0000   -13.3970    84.5460    25.2110    44.6550    29.9130    29.9030     2.4780 
  226.1250   -13.1960    85.8730    25.3670    37.5960    29.5900    29.7230     2.4750 
