~V
VERS. 2.00: Ver 2.00
~W
STRT.M 130.0000:
STOP.M 268.0000:
STEP.M 0.1250:
NULL. -999.2500:
UWI. DF3061:
~C
DEPT.M :
GR.API :
CALI.CM :
RXO.OHMM :
RI. :
RML.OHMM :
DEN.GM/CC :
SP.MV :
~A
# ...
  141.2500    82.2700    23.9920     6.1360     6.9640     7.9860     2.3100   -17.3970 
  141.3750    82.3890    24.3980     6.2860     6.8660     7.8850     2.2840   -17.3380 
  141.5000    83.9060    24.6330     6.1500     7.1460     8.1720     2.2350   -17.3790 
  141.6250    82.4420    24.6990     6.4470     7.8180     8.8770     2.1820   -17.6460 
  141.7500    78.2920    24.3990     7.3770     8.6940     9.7520     2.1500   -18.0680 
  141.8750    74.7170    24.0520     9.0260     9.5890    10.6030     2.1460   -18.5550 
  142.0000    72.0320    23.7950    10.4940    10.3270    11.2080     2.1590   -19.0010 
  142.1250    69.5930    23.6530    10.6960    10.7690    11.5060     2.1690   -19.3200 
  142.2500    68.9540    23.6060    10.3370    10.9310    11.5560     2.1660   -19.5350 
  142.3750    68.9420    23.5930    10.2970    10.8510    11.3810     2.1530   -19.6500 
  142.5000    67.3440    23.3190    10.4940    10.6810    11.1150     2.1400   -19.6850 
  142.6250    61.8700    23.1390    10.5220    10.5710    10.9600     2.1350   -19.6080 
  142.7500    58.9360    23.5480    10.9200    10.6090    10.9840     2.1370   -19.4530 
  142.8750    61.2420    23.9940    11.4210    10.7820    11.2050     2.1380   -19.2380 
  143.0000    64.7980    24.1470    11.4840    11.0140    11.5220     2.1380   -18.9410 
  143.1250    66.2040    24.2090    11.4420    11.1540    11.8430     2.1400   -18.5380 
  143.2500    67.6270    24.3660    11.5050    11.0980    12.0570     2.1460   -18.0530 
  143.3750    70.7040    24.4580    11.5010    10.7700    12.0620     2.1570   -17.4900 
  143.5000    72.5250    24.5130    11.4600    10.1460    11.7880     2.1760   -16.8540 
  143.6250    72.0910    24.6510    11.2430     9.2800    11.2070     2.2120   -16.1500 
  143.7500    75.5760    24.6980    10.3030     8.3960    10.6090     2.2520   -15.4210 
  143.8750    82.6730    24.7410     8.3900     7.5990    10.0270     2.2790   -14.6420 
  144.0000    87.6940    24.7700     6.6020     6.9590     9.5090     2.2850   -13.8470 
  144.1250    87.0600    24.7500     6.2820     6.5380     9.1400     2.2800   -13.1330 
  144.2500    86.2420    24.6370     6.3530     6.2970     8.9060     2.2830   -12.5510 
  144.3750    88.2560    24.6210     6.2780     6.2110     8.8480     2.2900   -12.1560 
  144.5000    92.6860    24.7270     6.0320     6.2460     8.9470     2.2880   -11.9500 
  144.6250    97.8160    24.6590     6.1490     6.3510     9.1260     2.2700   -11.9090 
  144.7500   100.5950    24.6090     6.1480     6.4630     9.2550     2.2500   -11.9190 
  144.8750    99.3370    24.5340     6.1700     6.5650     9.3410     2.2380   -11.9440 
  145.0000    95.8660    24.4080     6.6880     6.6630     9.4180     2.2370   -11.9930 
  145.1250    93.3850    24.3110     7.1840     6.7190     9.4270     2.2420   -12.0900 
  145.2500    92.2390    24.0250     7.8440     6.7270     9.3900     2.2510   -12.2120 
  145.3750    91.0540    24.0290     7.9600     6.6780     9.2980     2.2580   -12.3250 
  145.5000    90.6530    23.8930     7.1940     6.5890     9.1820     2.2620   -12.4130 
  145.6250    91.3790    23.9400     6.7290     6.4760     9.0530     2.2640   -12.4440 
  145.7500    93.4500    24.0180     6.5930     6.3640     8.9500     2.2700   -12.4010 
  145.8750    94.9710    24.0950     6.7010     6.2640     8.8440     2.2810   -12.3490 
  146.0000    93.7700    24.2080     6.5000     6.1890     8.7230     2.2950   -12.3220 
  146.1250    89.0880    24.4050     6.0440     6.1630     8.6380     2.3100   -12.3360 
  146.2500    87.3550    24.3220     5.9140     6.1740     8.6040     2.3220   -12.3860 
  146.3750    90.2980    24.2760     5.8880     6.2270     8.6440     2.3250   -12.4590 
  146.5000    92.9330    24.3060     5.9540     6.3260     8.7600     2.3130   -12.5420 
  146.6250    91.3060    24.0410     6.4430     6.4760     8.9310     2.2960   -12.6440 
  146.7500    89.9970    23.5460     7.1780     6.6600     9.1210     2.2820   -12.7520 
  146.8750    91.1430    23.0640     7.6110     6.8710     9.2880     2.2710   -12.8470 
  147.0000    90.5160    22.9490     7.5280     7.1070     9.4340     2.2580   -12.9620 
  147.1250    86.5460    23.0310     7.6770     7.3650     9.5260     2.2440   -13.1150 
  147.2500    83.1400    23.2950     7.8350     7.6270     9.5340     2.2330   -13.2550 
  147.3750    80.9110    23.4540     8.1490     7.8600     9.4950     2.2210   -13.3410 
  147.5000    79.2640    23.5280     8.5040     8.0090     9.3700     2.2060   -13.3220 
  147.6250    80.7670    23.5150     9.0290     7.9840     9.1450     2.1990   -13.1760 
  147.7500    85.9790    23.3840     9.7530     7.7690     8.8370     2.2140   -13.0020 
  147.8750    91.2070    23.2490    10.2910     7.3650     8.4120     2.2520   -12.8650 
  148.0000    94.7200    23.2060     9.9330     6.8560     7.8920     2.2990   -12.7370 
  148.1250    98.4440    23.4260     8.2540     6.4090     7.4310     2.3310   -12.5320 
  148.2500   103.7340    23.8430     6.6600     6.1360     7.1330     2.3510   -12.2490 
  148.3750   106.8980    24.2930     5.4360     6.1310     7.0790     2.3750   -11.9150 
  148.5000   104.4590    24.4930     5.0140     6.4460     7.3310     2.4040   -11.6080 
  148.6250    98.3070    24.7330     5.8520     7.0590     7.8560     2.4070   -11.3950 
  148.7500    92.6300    24.7340     8.7660     7.7190     8.4390     2.3730   -11.2790 
  148.8750    86.4950    24.5510    13.1970     8.3160     9.0160     2.3250   -11.2590 
  149.0000    79.9070    24.4110    13.8520     8.7950     9.5100     2.2880   -11.2970 
  149.1250    77.9990    24.3230    10.7850     9.0600     9.7530     2.2750   -11.3400 
  149.2500    81.3600    24.0320     8.5450     9.2030     9.8460     2.2860   -11.3700 
  149.3750    86.1950    23.8690     8.2770     9.3230     9.8720     2.3180   -11.4010 
  149.5000    88.7730    23.9900     7.8700     9.4380     9.8340     2.3500   -11.4250 
  149.6250    87.6940    24.1790     8.9230     9.5210     9.7480     2.3430   -11.4820 
  149.7500    84.6730    24.3500    10.4350     9.5220     9.6130     2.3060   -11.5750 
  149.8750    83.1570    24.3770    10.5500     9.3150     9.3370     2.2730   -11.6130 
  150.0000    84.5150    24.1520     9.2650     8.8730     8.9040     2.2730   -11.5600 
  150.1250    83.3860    23.8710     8.6000     8.4860     8.5990     2.3060   -11.4270 
  150.2500    80.0350    23.6800     7.6740     8.3870     8.6270     2.3530   -11.2390 
  150.3750    76.6080    23.5510     6.9050     8.7400     9.1860     2.4100   -11.0380 
  150.5000    73.0990    23.5390     7.2850     9.7230    10.4340     2.4740   -10.8460 
  150.6250    68.5060    23.5440     9.9460    11.5100    12.5250     2.5390   -10.6580 
  150.7500    67.4650    23.5820    16.6420    13.8340    15.1900     2.5960   -10.4370 
  150.8750    70.8880    23.6910    24.3070    16.4190    18.1090     2.6390   -10.1790 
  151.0000    72.3030    23.9130    24.7850    18.8850    20.9720     2.6600    -9.8820 
  151.1250    67.6590    24.3850    23.7080    20.6360    23.0000     2.6580    -9.5950 
  151.2500    62.1140    24.5700    22.1990    21.5540    24.0000     2.6490    -9.4180 
  151.3750    59.0330    24.5700    21.8220    21.8330    24.2060     2.6410    -9.3470 
  151.5000    57.9090    24.5350    22.0280    21.7360    24.0500     2.6390    -9.3700 
  151.6250    56.2600    24.5210    23.6900    21.6760    24.0270     2.6420    -9.4060 
  151.7500    54.2390    24.5830    24.1160    21.8030    24.2180     2.6380    -9.3940 
  151.8750    52.7640    24.4350    22.7710    21.9690    24.4160     2.6210    -9.3590 
  152.0000    53.3140    24.2130    20.6460    21.9880    24.3730     2.6000    -9.3390 
  152.1250    54.8020    24.4350    19.3940    21.8200    24.1080     2.5940    -9.3650 
  152.2500    54.0810    24.6090    19.5490    21.5130    23.7080     2.5970    -9.4120 
  152.3750    50.8190    24.7010    19.8520    21.1130    23.1930     2.5970    -9.4920 
