~V
VERS. 2.00: Ver 2.00
~W
STRT.M 125.0000:
STOP.M 275.0000:
STEP.M 0.1250:
NULL. -999.2500:
UWI. DF3046:
~C
DEPT.M :
GR.API :
CALI.CM :
RXO.OHMM :
RI. :
RML.OHMM :
DEN.GM/CC :
SP.MV :
~A
# ...
  215.0000    65.5080    24.3060    71.6250    77.6460    96.4360     2.2420   -22.1940 
  215.1250    63.4740    24.3930    76.3940    79.3800    98.6890     2.2390   -22.3870 
  215.2500    63.2890    24.5080    86.2320    82.3270   102.3550     2.2290   -22.5300 
  215.3750    62.7570    24.5740    95.9750    86.0200   106.7490     2.2140   -22.6590 
  215.5000    61.1500    24.5520   100.5230    89.8810   111.0650     2.1990   -22.7840 
  215.6250    61.4270    24.5690    99.2920    93.1290   114.3010     2.1880   -22.9130 
  215.7500    64.0460    24.6380    98.3870    95.2670   116.0340     2.1850   -23.0070 
  215.8750    66.9350    24.6950    96.1300    96.0640   116.0990     2.1870   -23.0550 
  216.0000    68.2450    24.6190    91.3240    95.5740   114.6580     2.1910   -23.0860 
  216.1250    68.4280    24.3100    85.8420    94.0190   112.1220     2.1910   -23.1960 
  216.2500    65.9850    24.0760    81.6680    92.2120   109.5040     2.1880   -23.3440 
  216.3750    62.4550    24.2160    81.7940    90.8860   107.6530     2.1810   -23.5150 
  216.5000    61.0330    24.6270    88.7870    90.7020   107.3070     2.1740   -23.6830 
  216.6250    62.3720    25.0680   102.3810    92.3910   109.3010     2.1750   -23.8510 
  216.7500    63.8650    25.2760   113.1980    95.8170   113.3480     2.1800   -24.0320 
  216.8750    63.2270    25.3630   118.7990   100.7060   119.0060     2.1860   -24.2220 
  217.0000    60.6670    25.3640   123.0000   106.2950   125.3100     2.1900   -24.4120 
  217.1250    59.1820    25.3100   128.0780   111.0640   130.4580     2.1930   -24.5230 
  217.2500    61.1000    25.2380   131.2400   113.7030   133.0390     2.1940   -24.6060 
  217.3750    63.7120    25.1760   131.7660   113.5990   132.4890     2.1890   -24.6760 
  217.5000    64.0080    25.1390   129.0480   111.1200   129.3700     2.1840   -24.7380 
  217.6250    63.5690    25.1280   118.5280   107.6030   125.2470     2.1870   -24.7900 
  217.7500    65.0170    25.1210   105.2170   104.8530   122.0550     2.1930   -24.8300 
  217.8750    66.5810    25.1250    96.1140   103.7290   120.6850     2.1930   -24.8740 
  218.0000    66.1010    25.1310    95.4180   104.3570   121.1670     2.1890   -24.9080 
  218.1250    64.2750    25.1330   103.3150   106.2270   122.7290     2.1890   -24.9460 
  218.2500    62.9790    25.1320   112.7770   107.9310   123.8030     2.1950   -24.9930 
  218.3750    62.5240    25.1250   118.0790   108.4300   123.3770     2.2010   -24.9930 
  218.5000    62.9640    25.1120   114.2290   107.2950   121.1910     2.2040   -24.9710 
  218.6250    62.8710    25.0950   101.4270   104.8720   117.8780     2.2100   -24.9180 
  218.7500    61.3380    25.0950    89.7300   102.4840   114.9550     2.2160   -24.8860 
  218.8750    59.7000    25.1000    83.4620   101.1150   113.4610     2.2180   -24.8970 
  219.0000    61.1620    25.0980    84.3760   101.4100   113.9750     2.2190   -24.9830 
  219.1250    65.1790    25.0940    93.1910   103.8560   116.8920     2.2250   -25.1480 
  219.2500    67.0710    25.0880   104.4960   107.8880   121.5390     2.2320   -25.3160 
  219.3750    65.1730    25.0670   116.0670   113.1420   127.5610     2.2360   -25.4940 
  219.5000    62.3400    25.0390   132.7680   119.3510   134.7050     2.2330   -25.6680 
  219.6250    62.8760    24.9540   157.4340   126.5080   142.9020     2.2210   -25.8180 
  219.7500    64.0650    24.8040   180.4770   134.1920   151.4340     2.2070   -25.9040 
  219.8750    63.6230    24.6570   197.9150   141.5430   159.0010     2.1950   -25.9200 
  220.0000    63.0950    24.6720   220.8590   146.8910   163.5070     2.1910   -25.8880 
  220.1250    65.0360    24.8050   261.3030   147.2660   161.7210     2.1980   -25.7780 
  220.2500    66.2810    24.9240   278.9890   142.2490   153.8910     2.2080   -25.6310 
  220.3750    64.4650    24.9810   242.3570   132.7440   141.5560     2.2150   -25.4590 
  220.5000    62.6230    24.9900   172.8130   120.9280   127.4040     2.2200   -25.2790 
  220.6250    63.0700    24.9380   123.4770   109.5590   114.4690     2.2280   -25.1480 
  220.7500    64.7340    24.8690   103.2360   100.4310   104.2330     2.2340   -25.0870 
  220.8750    67.2770    24.8440    97.6070    94.1720    97.1030     2.2330   -25.0730 
  221.0000    69.5650    24.8330    97.2030    90.7520    92.9350     2.2260   -25.0340 
  221.1250    69.5650    24.7730   102.3980    90.1690    91.5610     2.2230   -24.9350 
  221.2500    67.9730    24.6600   115.5760    91.2710    91.5050     2.2290   -24.8330 
  221.3750    67.7650    24.5190   131.0650    92.6650    91.2300     2.2430   -24.7780 
  221.5000    68.1390    24.4380   134.6370    92.3030    89.0350     2.2570   -24.7450 
  221.6250    66.4480    24.4950   125.0800    87.8820    83.4330     2.2610   -24.6800 
  221.7500    64.9800    24.5930   110.6800    80.3470    75.5890     2.2580   -24.5660 
  221.8750    64.8670    24.6680    87.0890    71.6130    67.1610     2.2540   -24.4090 
  222.0000    66.1460    24.7390    56.1990    63.7630    59.8160     2.2480   -24.2480 
  222.1250    67.7930    24.8080    41.9770    58.5700    54.9610     2.2320   -24.1750 
  222.2500    70.4260    24.8200    44.3830    55.7700    52.3050     2.2110   -24.1540 
  222.3750    73.4900    24.8020    50.3640    54.7400    51.3220     2.2020   -24.1480 
  222.5000    74.1890    24.7760    50.4930    54.6860    51.3040     2.2110   -24.1540 
  222.6250    72.6410    24.7930    46.8830    54.9140    51.6950     2.2250   -24.1760 
  222.7500    71.5060    24.8310    49.2230    55.1570    52.3530     2.2320   -24.2230 
  222.8750    71.3390    24.8360    56.1230    55.8970    53.7830     2.2400   -24.2840 
  223.0000    71.4940    24.7410    61.5490    58.1030    56.8540     2.2540   -24.3870 
  223.1250    71.2440    24.5590    68.0040    63.5090    63.0910     2.2720   -24.5200 
  223.2500    70.4940    24.4980    90.5490    72.6110    72.8230     2.2840   -24.6630 
  223.3750    69.5140    24.5140   129.3070    85.5210    86.1340     2.2820   -24.8440 
  223.5000    69.0280    24.5390   160.8550   101.2360   102.1280     2.2640   -25.0710 
  223.6250    67.6970    24.5790   182.2410   116.7180   118.1100     2.2310   -25.3460 
  223.7500    64.6250    24.6920   190.8650   127.9720   130.4030     2.2100   -25.6210 
  223.8750    62.9300    24.8840   181.1830   132.6820   136.5730     2.1880   -25.8910 
  224.0000    63.7430    25.0250   159.9970   130.9740   136.1430     2.1770   -26.1080 
  224.1250    63.9350    24.9750   149.5540   124.2410   129.8920     2.1750   -26.2310 
  224.2500    62.6590    24.8250   138.6970   115.2560   120.8430     2.1700   -26.2810 
  224.3750    62.0220    24.7480   119.4240   105.1970   110.4780     2.1540   -26.2420 
  224.5000    62.4210    24.8370    99.3250    94.9650    99.9060     2.1370   -26.1140 
  224.6250    61.9370    24.9160    79.9050    85.6990    90.4600     2.1350   -25.9200 
  224.7500    60.9030    24.9690    64.1710    78.3190    83.0840     2.1510   -25.7060 
  224.8750    61.9670    25.0010    54.3680    73.5210    78.4720     2.1750   -25.5210 
  225.0000    65.5700    25.0020    50.0000    71.5940    76.9330     2.1950   -25.3670 
  225.1250    68.4090    24.9830    51.3620    72.8830    78.8240     2.2070   -25.2660 
  225.2500    67.4640    24.9500    61.6610    76.4070    83.0240     2.2090   -25.2220 
  225.3750    65.5950    24.9120    77.1810    81.2400    88.4980     2.2050   -25.2300 
  225.5000    66.6820    24.8830    91.1180    86.0920    93.8790     2.2050   -25.2790 
  225.6250    68.1720    24.8880   105.2310    89.3240    97.5370     2.2120   -25.3560 
  225.7500    66.8070    24.8930   123.7670    90.6300    99.2310     2.2220   -25.4550 
  225.8750    63.8050    24.8550   135.4890    90.5400    99.4930     2.2310   -25.5300 
  226.0000    61.6540    24.7760   129.6740    89.9450    99.2260     2.2390   -25.6050 
  226.1250    61.3950    24.6970   116.8450    89.3950    99.0810     2.2450   -25.6980 
