~V
VERS. 2.00: Ver 2.00
~W
STRT.M 62.0000:
STOP.M 282.0000:
STEP.M 0.1250:
NULL. -999.2500:
UWI. DF3054:
~C
DEPT.M :
DEN.GM/CC :
GR.API :
CALI.CM :
RXO.OHMM :
RI. :
RML.OHMM :
SP.MV :
~A
# ...
  107.0000     2.1600    59.5830    23.5410    10.7580     7.9730     9.4800   -21.1960 
  107.1250     2.1600    61.8730    23.5880    10.6290     8.1170     9.7560   -21.4160 
  107.2500     2.1630    65.2790    23.5960    10.3480     8.3550    10.1450   -21.5180 
  107.3750     2.1830    66.2160    23.6270    10.2660     8.6180    10.5030   -21.4600 
  107.5000     2.2220    64.5630    23.5930    10.6630     8.8290    10.6830   -21.2500 
  107.6250     2.2740    64.4070    23.5500    11.2090     8.8840    10.5520   -20.8640 
  107.7500     2.3120    66.5310    23.4530    11.6480     8.7710    10.1920   -20.3440 
  107.8750     2.3110    68.0510    23.3950    11.6770     8.5270     9.7200   -19.6980 
  108.0000     2.2650    68.2900    23.2720    11.3330     8.2260     9.2660   -18.9620 
  108.1250     2.2040    70.5410    23.0820    10.8310     7.9420     8.9350   -18.1570 
  108.2500     2.1660    73.9460    22.8860    10.2740     7.7150     8.7130   -17.3850 
  108.3750     2.1550    74.2270    22.7620     9.7930     7.5490     8.5610   -16.7090 
  108.5000     2.1610    72.1280    22.7480     9.5140     7.4360     8.4390   -16.1100 
  108.6250     2.1710    71.1160    22.8430     9.5300     7.3680     8.3400   -15.5500 
  108.7500     2.1770    71.5110    22.9430    10.0520     7.3230     8.2860   -14.9860 
  108.8750     2.1800    72.3440    23.0230    10.7570     7.2790     8.2890   -14.4170 
  109.0000     2.1820    73.0420    23.1060    11.0730     7.2000     8.3140   -13.8350 
  109.1250     2.1860    74.2200    23.2780    10.5660     7.0420     8.2580   -13.2130 
  109.2500     2.1920    77.2720    23.5390     9.5370     6.8060     8.0660   -12.5200 
  109.3750     2.2040    83.2840    23.9020     8.2210     6.5190     7.7450   -11.7270 
  109.5000     2.2300    88.3910    24.1880     7.1620     6.2240     7.3550   -10.8560 
  109.6250     2.2710    87.9490    24.3110     6.9160     5.9780     6.9690    -9.9670 
  109.7500     2.3090    86.3640    24.4250     6.9050     5.8030     6.6280    -9.1350 
  109.8750     2.3250    87.1180    24.5240     6.7630     5.7000     6.3530    -8.3680 
  110.0000     2.3170    89.7040    24.5850     6.3790     5.6500     6.1770    -7.6690 
  110.1250     2.3040    91.7710    24.5180     6.0810     5.6330     6.1570    -7.0730 
  110.2500     2.3030    93.9600    24.4290     6.1800     5.6310     6.2670    -6.6490 
  110.3750     2.3100    96.2680    24.3550     6.4690     5.6430     6.4500    -6.4410 
  110.5000     2.3090    98.4290    24.1400     6.6930     5.6670     6.6390    -6.4540 
  110.6250     2.2960    98.6320    23.7450     6.9230     5.6990     6.7780    -6.6710 
  110.7500     2.2880    96.0230    23.5340     6.9020     5.7170     6.8460    -6.9910 
  110.8750     2.2950    92.7740    23.6770     6.5470     5.6790     6.8060    -7.3370 
  111.0000     2.3090    91.3670    23.9320     6.1270     5.5360     6.5990    -7.6890 
  111.1250     2.3110    91.8980    24.2610     6.0380     5.2440     6.1540    -8.1100 
  111.2500     2.2950    92.6530    24.7100     6.0210     4.8740     5.5780    -8.5710 
  111.3750     2.2760    94.8870    25.1290     5.7920     4.5230     5.0310    -9.0430 
  111.5000     2.2670    99.3930    25.4300     5.4540     4.3070     4.7070    -9.5010 
  111.6250     2.2660   101.0970    25.4180     5.4800     4.3630     4.8500    -9.9860 
  111.7500     2.2750    99.0350    25.3070     6.4130     4.7070     5.4650   -10.5440 
  111.8750     2.3050    94.1050    25.0520     8.1680     5.3510     6.4950   -11.2890 
  112.0000     2.3510    86.7010    24.5500     9.7520     6.2300     7.7460   -12.3120 
  112.1250     2.3750    78.8730    23.8490    10.2910     7.1390     8.8560   -13.6070 
  112.2500     2.3560    73.9140    23.4800    10.1530     7.7940     9.5440   -14.9930 
  112.3750     2.3110    72.4730    23.7030    10.1160     8.0620     9.7380   -16.3780 
  112.5000     2.2620    72.0790    24.1850    10.1980     8.0010     9.5560   -17.7340 
  112.6250     2.2230    71.4070    24.4070    10.0950     7.7850     9.2070   -18.9890 
  112.7500     2.2000    72.8400    24.4970     9.8210     7.6120     8.9100   -20.0490 
  112.8750     2.1960    75.2750    24.5960     9.5180     7.5530     8.7580   -20.8270 
  113.0000     2.2050    76.4980    24.6240     9.5370     7.6210     8.7810   -21.2700 
  113.1250     2.2070    75.5700    24.5900    10.0590     7.8020     8.9570   -21.4340 
  113.2500     2.2010    72.8040    24.5730    10.6260     8.0280     9.1660   -21.5620 
  113.3750     2.1970    68.0470    24.5950    10.8600     8.2540     9.3310   -21.7200 
  113.5000     2.2010    63.3980    24.6050    10.7840     8.4420     9.4280   -21.8940 
  113.6250     2.2070    62.7900    24.5600    10.6920     8.5550     9.4830   -22.0740 
  113.7500     2.2070    65.5790    24.5190    10.9820     8.5900     9.5420   -22.2870 
  113.8750     2.2040    68.2000    24.5850    11.4830     8.5540     9.6150   -22.5650 
  114.0000     2.1950    69.5100    24.8440    11.7460     8.4630     9.7030   -22.9540 
  114.1250     2.1750    68.5480    25.2260    11.6010     8.3550     9.8050   -23.3540 
  114.2500     2.1470    65.9370    25.3960    11.3400     8.2800     9.9090   -23.6720 
  114.3750     2.1270    64.0360    25.4440    11.1820     8.2670     9.9890   -23.8950 
  114.5000     2.1250    66.3540    25.4170    11.1900     8.3190    10.0170   -24.0350 
  114.6250     2.1360    71.1070    25.3720    11.3340     8.4110     9.9590   -24.0830 
  114.7500     2.1470    71.4490    25.3500    11.3870     8.4750     9.8260   -24.1390 
  114.8750     2.1570    67.7400    25.3340    11.2610     8.4640     9.6250   -24.2340 
  115.0000     2.1660    65.0820    25.2860    10.9650     8.3610     9.3680   -24.3100 
  115.1250     2.1740    65.5330    25.1410    10.4710     8.1640     9.0690   -24.3550 
  115.2500     2.1800    66.5790    24.9120     9.8620     7.9270     8.7860   -24.3770 
  115.3750     2.1810    66.7310    24.6290     9.3500     7.7080     8.5860   -24.4040 
  115.5000     2.1720    66.8680    24.4020     9.1010     7.5620     8.5320   -24.4440 
  115.6250     2.1520    66.4010    24.3980     9.1300     7.5430     8.6890   -24.5010 
  115.7500     2.1410    67.3820    24.5940     9.4080     7.6250     8.9990   -24.5180 
  115.8750     2.1480    70.3140    24.8750     9.7470     7.7740     9.3920   -24.4440 
  116.0000     2.1650    71.7260    25.2010     9.9400     7.9430     9.7680   -24.3030 
  116.1250     2.1710    69.5480    25.5590     9.9700     8.0780     9.9790   -24.1150 
  116.2500     2.1640    66.9630    25.7740     9.9670     8.1280     9.9460   -23.9070 
  116.3750     2.1530    65.3050    25.7590     9.9380     8.0500     9.6390   -23.6690 
  116.5000     2.1500    64.0500    25.5460     9.9030     7.8320     9.1140   -23.3840 
  116.6250     2.1580    65.5610    25.2880     9.7200     7.5300     8.5360   -23.0160 
  116.7500     2.1730    69.3300    25.1000     9.2740     7.2760     8.1260   -22.5480 
  116.8750     2.1880    71.8260    24.9490     8.7890     7.1660     8.0140   -21.9900 
  117.0000     2.1950    72.4040    24.8030     8.6070     7.2490     8.2190   -21.3980 
  117.1250     2.1900    73.3030    24.7310     8.8100     7.5130     8.6270   -20.8410 
  117.2500     2.1720    73.3810    24.6230     9.1890     7.7970     8.9530   -20.2640 
  117.3750     2.1470    71.3220    24.3950     9.6770     7.9440     8.9940   -19.6660 
  117.5000     2.1210    68.9180    24.0850     9.8180     7.8570     8.6750   -19.0290 
  117.6250     2.1060    68.9740    23.7410     9.3030     7.5470     8.0820   -18.3140 
  117.7500     2.1100    74.3280    23.4900     8.3580     7.1920     7.4920   -17.5060 
  117.8750     2.1440    83.5230    23.5150     7.5850     6.9020     7.0760   -16.6220 
  118.0000     2.2090    91.7410    23.7340     7.3930     6.7150     6.8890   -15.6810 
  118.1250     2.2720    94.2040    23.9260     7.7210     6.5960     6.8760   -14.6760 
