~V
VERS. 2.00: Ver 2.00
~W
STRT.M 64.0000:
STOP.M 257.0000:
STEP.M 0.1250:
NULL. -999.2500:
UWI. DF3069:
~C
DEPT.M :
GR.API :
CALI.CM :
RXO.OHMM :
RI. :
RML.OHMM :
DEN.GM/CC :
SP.MV :
~A
# ...
   86.5000    91.3540    23.6990     7.8480     7.1700    10.6400  -999.2500   -23.2960 
   86.6250    85.9170    23.6830     9.8240     8.3400    12.3270  -999.2500   -23.5690 
   86.7500    81.4540    23.7060    15.4930     9.3780    13.5980  -999.2500   -23.9000 
   86.8750    82.1040    23.7290    21.1500     9.9900    14.1510  -999.2500   -24.2310 
   87.0000    83.4680    23.7280    19.8860     9.9600    13.7920  -999.2500   -24.5160 
   87.1250    79.1270    23.6940    14.0350     9.2450    12.5120  -999.2500   -24.6650 
   87.2500    73.5590    23.6840    10.2690     8.2760    10.9470  -999.2500   -24.7110 
   87.3750    72.3500    23.5220     8.9350     7.3250     9.5160  -999.2500   -24.6700 
   87.5000    76.4770    23.5170     7.9450     6.5670     8.4990  -999.2500   -24.5710 
   87.6250    81.1150    23.4940     7.3780     6.1310     8.0730  -999.2500   -24.4200 
   87.7500    83.2680    23.4560     7.3050     5.9340     7.9670  -999.2500   -24.2510 
   87.8750    84.0040    23.4160     7.2290     5.8790     7.9450  -999.2500   -24.1220 
   88.0000    84.2660    23.4850     7.3250     5.8830     7.9010  -999.2500   -24.0650 
   88.1250    82.5110    23.4870     7.4990     5.9100     7.8380  -999.2500   -24.1290 
   88.2500    82.9340    23.4730     7.4530     5.9210     7.7380  -999.2500   -24.2930 
   88.3750    87.0360    23.4440     7.3090     5.9170     7.6560  -999.2500   -24.5360 
   88.5000    89.5150    23.4940     7.1940     5.9490     7.6920  -999.2500   -24.8390 
   88.6250    84.9630    23.5080     7.1520     6.0840     7.9150  -999.2500   -25.1580 
   88.7500    80.0570    23.4650     7.3960     6.2980     8.2690  -999.2500   -25.4580 
   88.8750    78.8710    23.4180     8.1170     6.5580     8.6680  -999.2500   -25.6950 
   89.0000    78.3010    23.4870     8.7500     6.8220     9.0200  -999.2500   -25.8640 
   89.1250    76.3110    23.4980     8.9000     6.9960     9.1980  -999.2500   -25.9840 
   89.2500    74.3660    23.4860     9.2180     7.0320     9.1730  -999.2500   -26.0500 
   89.3750    74.4940    23.6180     9.4960     6.9180     8.9190  -999.2500   -26.0740 
   89.5000    78.4860    23.8560     9.1440     6.6750     8.5420  -999.2500   -26.0710 
   89.6250    84.3860    24.1050     8.1170     6.3640     8.1560  -999.2500   -26.0840 
   89.7500    86.6740    24.0550     7.2940     6.0840     7.8380  -999.2500   -26.1690 
   89.8750    83.8540    24.0500     7.1510     5.8790     7.6170  -999.2500   -26.3230 
   90.0000    80.3130    24.1140     7.4190     5.7390     7.4690  -999.2500   -26.5290 
   90.1250    79.2600    23.9930     7.3680     5.6440     7.3920  -999.2500   -26.7900 
   90.2500    78.3650    23.7610     7.4280     5.5920     7.3750  -999.2500   -27.0960 
   90.3750    76.5010    23.7330     7.8520     5.6280     7.5010  -999.2500   -27.4070 
   90.5000    76.1990    23.6450     8.3530     5.8090     7.8930  -999.2500   -27.7000 
   90.6250    77.5590    24.0400     8.6470     6.2760     8.7980  -999.2500   -27.9240 
   90.7500    77.1420    23.4750     8.8180     6.9930    10.1250  -999.2500   -28.0420 
   90.8750    73.5700    23.2210     9.6990     7.9080    11.6610  -999.2500   -28.1000 
   91.0000    67.0500    23.1290    12.3790     8.9100    13.1530  -999.2500   -28.1270 
   91.1250    60.3390    23.3200    20.6380     9.8370    14.2430  -999.2500   -28.1420 
   91.2500    59.0390    23.9540    26.7920    10.5320    14.8330  -999.2500   -28.1670 
   91.3750    62.8110    23.9860    26.4700    11.0130    15.1220  -999.2500   -28.2280 
   91.5000    67.2330    23.9260    20.9120    11.5410    15.6910  -999.2500   -28.3100 
   91.6250    68.3290    23.6920    15.3190    12.6110    17.2690  -999.2500   -28.4260 
   91.7500    66.4990    23.6700    19.9230    14.4440    20.0360  -999.2500   -28.5820 
   91.8750    61.3890    23.7060    34.4420    17.1410    23.9470  -999.2500   -28.7420 
   92.0000    54.8480    23.7620    53.6050    20.4690    28.3420  -999.2500   -28.8960 
   92.1250    53.6010    23.6760    74.6710    23.3420    31.5540  -999.2500   -29.0150 
   92.2500    55.6380    23.6490    92.3460    24.3910    32.1480  -999.2500   -29.1210 
   92.3750    56.9310    23.5540    91.9550    22.8950    29.5620  -999.2500   -29.2280 
   92.5000    57.7480    23.5110    74.9280    19.3660    24.5320  -999.2500   -29.3720 
   92.6250    60.9040    23.5150    49.8590    15.3930    19.0930  -999.2500   -29.5730 
   92.7500    66.1700    23.2290    30.0260    12.1230    14.8310  -999.2500   -29.8020 
   92.8750    72.3850    23.0820    16.8540     9.7890    11.9960  -999.2500   -30.0810 
   93.0000    76.4110    23.0340    11.7300     8.3060    10.4300  -999.2500   -30.4020 
   93.1250    74.5600    23.0420    10.5630     7.5800     9.9500  -999.2500   -30.7240 
   93.2500    69.7490    23.0350    10.0880     7.3340     9.9960  -999.2500   -31.0030 
   93.3750    67.7560    23.0170    10.2860     7.4080    10.3020  -999.2500   -31.2140 
   93.5000    69.1390    23.0250    10.8500     7.6710    10.6820  -999.2500   -31.3300 
   93.6250    68.5180    22.8910    11.2680     7.9530    10.9480  -999.2500   -31.3460 
   93.7500    65.4650    22.8220    11.3240     8.1640    11.0600  -999.2500   -31.2690 
   93.8750    63.5930    22.7390    11.3340     8.2970    11.0480  -999.2500   -31.0630 
   94.0000    63.3990    22.8950    11.4420     8.3550    10.9860  -999.2500   -30.7560 
   94.1250    63.6000    22.9950    11.5770     8.3830    10.9100  -999.2500   -30.4100 
   94.2500    65.5280    22.9480    11.7170     8.4130    10.8960  -999.2500   -30.0490 
   94.3750    67.9810    23.0660    11.7650     8.4780    10.9820  -999.2500   -29.6870 
   94.5000    67.6650    23.1120    11.6950     8.5540    11.0750  -999.2500   -29.3230 
   94.6250    65.4080    23.0340    11.6280     8.5870    11.0960  -999.2500   -28.9510 
   94.7500    64.7670    22.9370    11.5910     8.5130    10.9710  -999.2500   -28.5910 
   94.8750    66.4160    22.9550    11.5200     8.2900    10.6510  -999.2500   -28.2400 
   95.0000    70.4030    23.1700    11.4200     7.9250    10.1190  -999.2500   -27.8530 
   95.1250    78.3620    23.2920    10.9260     7.4470     9.4410  -999.2500   -27.3770 
   95.2500    86.0860    23.3780     9.7110     6.9470     8.7620  -999.2500   -26.8490 
   95.3750    89.7100    23.4870     8.0640     6.4950     8.1740  -999.2500   -26.3220 
   95.5000    89.9800    23.3990     6.8800     6.1390     7.7880  -999.2500   -25.8520 
   95.6250    87.9090    23.5240     6.9730     5.9240     7.6170  -999.2500   -25.4960 
   95.7500    84.7470    23.5600     7.2250     5.8050     7.5640  -999.2500   -25.3000 
   95.8750    83.9100    23.5380     7.2920     5.7650     7.6020  -999.2500   -25.2810 
   96.0000    86.5360    23.5470     7.1960     5.7820     7.6930  -999.2500   -25.4800 
   96.1250    89.5510    23.6270     7.1940     5.8670     7.8600  -999.2500   -25.9110 
   96.2500    89.7830    23.6340     7.3490     6.0170     8.0970  -999.2500   -26.4830 
   96.3750    89.8770    23.3860     7.6320     6.2350     8.4350  -999.2500   -27.1190 
   96.5000    89.1850    23.2700     8.0350     6.5250     8.8660  -999.2500   -27.7850 
   96.6250    81.8410    23.3510     9.1240     6.8780     9.3960  -999.2500   -28.4840 
   96.7500    70.0990    23.2160    11.6670     7.2420     9.9350  -999.2500   -29.1700 
   96.8750    63.0420    23.2490    16.3320     7.5670    10.3980  -999.2500   -29.8470 
   97.0000    63.9850    23.0210    18.3720     7.8180    10.7500  -999.2500   -30.4690 
   97.1250    68.6980    22.7660    15.5910     7.9610    10.9230  -999.2500   -31.0250 
   97.2500    70.8670    22.7230    12.2290     8.0240    10.9820  -999.2500   -31.5280 
   97.3750    70.6320    22.7090    11.3470     8.0330    11.0160  -999.2500   -31.9900 
   97.5000    70.1640    22.7190    11.2410     8.0140    11.0340  -999.2500   -32.3850 
   97.6250    70.6430    22.7560    11.3740     7.9840    11.0560  -999.2500   -32.6350 
