~V
VERS. 2.00: Ver 2.00
~W
STRT.M 67.0000:
STOP.M 279.0000:
STEP.M 0.1250:
NULL. -999.2500:
UWI. DF3057:
~C
DEPT.M :
GR.API :
CALI.CM :
RXO.OHMM :
RI. :
RML.OHMM :
DEN.GM/CC :
SP.MV :
~A
# ...
  247.0000    77.0290    25.5470    49.9400    68.6480    82.6220     2.5190   -16.1890 
  247.1250    79.1140    25.4290    58.9760    73.2180    87.8160     2.5660   -16.2110 
  247.2500    82.1940    25.1800    67.0940    79.4820    94.7750     2.6030   -16.1220 
  247.3750    81.4060    25.3140    70.1710    85.9690   101.4930     2.6230   -15.9330 
  247.5000    77.6940    25.3910    75.6120    89.0160   103.5850     2.6360   -15.7200 
  247.6250    74.8930    25.4390    80.0270    82.9360    95.3800     2.6530   -15.6280 
  247.7500    70.5040    25.3760    85.6970    68.8340    78.9280     2.6710   -15.6830 
  247.8750    61.8140    25.1530    86.5640    51.1880    58.8180     2.6860   -15.7560 
  248.0000    52.0940    24.8310    72.7800    34.8600    39.8480     2.6990   -15.7990 
  248.1250    45.8760    24.6980    47.4030    22.9350    25.6330     2.6960   -15.7900 
  248.2500    42.1590    24.4730    22.8440    14.8400    16.0030     2.6580   -15.7930 
  248.3750    39.8430    24.2430    11.0220     9.8560    10.1820     2.5870   -15.8690 
  248.5000    38.8650    24.1740     5.7820     7.1160     7.0540     2.5040   -16.0610 
  248.6250    38.8370    24.2150     5.3360     5.8920     5.7990     2.4380   -16.3500 
  248.7500    40.7110    24.3420     5.3420     5.3900     5.4110     2.3950   -16.6160 
  248.8750    45.8260    24.4710     5.3680     5.4390     5.6180     2.3730   -16.8650 
  249.0000    54.3080    24.4560     5.2910     5.9210     6.2390     2.3680   -17.1040 
  249.1250    61.7600    24.3590     5.4460     6.7510     7.2000     2.3800   -17.3680 
  249.2500    66.4810    24.1410     5.8590     7.7980     8.3550     2.3960   -17.7020 
  249.3750    70.2990    24.1170     6.6950     9.0180     9.6770     2.4150   -18.0910 
  249.5000    74.3950    24.4250     8.5140    10.3410    11.0750     2.4350   -18.5070 
  249.6250    78.5660    24.8160    12.7510    11.4860    12.2580     2.4460   -18.8810 
  249.7500    82.6750    25.0460    16.1820    12.1700    12.9880     2.4440   -19.1630 
  249.8750    86.6440    25.0970    16.5910    12.2600    13.1890     2.4340   -19.3450 
  250.0000    87.3390    25.2290    14.1890    11.8400    12.9270     2.4210   -19.4590 
  250.1250    82.9460    25.3640    11.5730    11.0660    12.3250     2.4060   -19.6040 
  250.2500    78.2630    25.2400    10.5860    10.2450    11.6800     2.3870   -19.7820 
  250.3750    78.8680    25.0830     9.7110     9.5210    11.1420     2.3670   -19.9290 
  250.5000    83.2430    24.8850     8.4010     8.9670    10.7870     2.3610   -19.9780 
  250.6250    85.9190    24.9070     7.9100     8.6640    10.7060     2.3840   -19.9120 
  250.7500    85.3170    24.9690     9.5270     8.5900    10.8860     2.4160   -19.8620 
  250.8750    82.7800    25.0380    10.9740     8.7220    11.3060     2.4330   -19.9300 
  251.0000    80.4630    25.0660    10.6610     9.0500    11.9610     2.4240   -20.1240 
  251.1250    80.3000    25.0760     8.4230     9.6220    12.8780     2.3990   -20.3820 
  251.2500    83.4580    25.0050     8.4040    10.3490    13.9010     2.3780   -20.5750 
  251.3750    86.9210    24.7970    10.9680    11.1430    14.9130     2.3650   -20.7090 
  251.5000    88.0090    24.5250    15.0690    11.9690    15.8580     2.3520   -20.8130 
  251.6250    88.1040    24.5560    17.1850    12.7680    16.6620     2.3290   -20.9430 
  251.7500    87.9970    24.6430    15.8190    13.4470    17.2400     2.3060   -21.0970 
  251.8750    87.0320    24.5220    13.7070    13.9370    17.5180     2.2990   -21.2370 
  252.0000    85.5580    24.6470    13.0010    14.2160    17.5170     2.3100   -21.3560 
  252.1250    86.8590    24.7680    15.9610    14.2870    17.2800     2.3210   -21.3640 
  252.2500    90.2560    25.0260    19.3730    14.2110    16.8910     2.3190   -21.3010 
  252.3750    92.2700    24.9980    20.3660    13.9630    16.3380     2.3130   -21.2340 
  252.5000    91.5730    24.9060    16.9470    13.5040    15.5770     2.2960   -21.1980 
  252.6250    89.9670    24.8670    12.4910    12.8080    14.5910     2.2880   -21.2400 
  252.7500    88.2500    25.0270    10.6890    11.9530    13.4630     2.2960   -21.3320 
  252.8750    85.1030    25.0500    11.9220    10.9960    12.2690     2.3070   -21.3820 
  253.0000    79.1070    25.0110    13.2150    10.0270    11.0930     2.3120   -21.3320 
  253.1250    71.8150    24.9630    12.1400     9.1700    10.0770     2.3190   -21.2750 
  253.2500    67.1410    24.8370     8.8870     8.4880     9.2860     2.3430   -21.3410 
  253.3750    65.2950    24.7430     7.0180     8.0450     8.7850     2.3840   -21.5250 
  253.5000    64.7970    24.5540     6.7900     7.8760     8.6370     2.4270   -21.8010 
  253.6250    64.5560    24.7240     7.4720     8.0450     8.9260     2.4530   -22.0700 
  253.7500    65.9420    24.9210     8.7200     8.5190     9.5960     2.4600   -22.2740 
  253.8750    69.3460    25.0590    10.0270     9.2770    10.5900     2.4490   -22.5330 
  254.0000    73.6630    25.1160    10.9940    10.2520    11.8070     2.4260   -22.9910 
  254.1250    78.4730    25.3480    12.2500    11.3710    13.1530     2.4020   -23.6250 
  254.2500    83.5260    25.4320    13.7320    12.5490    14.5300     2.3890   -24.2440 
  254.3750    89.2910    25.3400    15.5550    13.7530    15.9280     2.3870   -24.7720 
  254.5000    94.5570    25.0680    17.5270    14.9680    17.3720     2.3820   -25.1810 
  254.6250    95.5680    24.8200    17.9800    16.1930    18.8840     2.3620   -25.5450 
  254.7500    94.2270    24.8770    17.5350    17.4240    20.4490     2.3360   -25.9620 
  254.8750    94.2440    25.2530    18.9270    18.6350    22.0190     2.3080   -26.4010 
  255.0000    95.2390    25.3270    22.4260    19.7750    23.5500     2.2780   -26.7000 
  255.1250    93.2950    25.1160    26.7910    20.6980    24.8380     2.2600   -26.7880 
  255.2500    90.0580    25.0930    29.1790    21.3490    25.8010     2.2730   -26.7850 
  255.3750    87.5700    25.1910    28.3360    21.7150    26.4130     2.3190   -26.7640 
  255.5000    86.6310    25.1500    24.7580    21.8050    26.6460     2.3730   -26.7970 
  255.6250    90.3060    25.1470    22.9440    21.6540    26.5520     2.3970   -26.8700 
  255.7500    96.1460    25.2280    21.7270    21.4350    26.3470     2.3890   -26.8980 
  255.8750   100.1990    25.3480    21.4660    21.2620    26.1650     2.3650   -26.8020 
  256.0000   100.1290    25.3530    21.5040    21.1930    26.0470     2.3450   -26.6200 
  256.1250    97.6510    25.3370    21.3220    21.2540    26.0290     2.3370   -26.4650 
  256.2500    92.1200    25.4130    21.1930    21.3610    26.0210     2.3340   -26.3730 
  256.3750    84.1090    25.5030    21.8570    21.4170    25.8840     2.3310   -26.3230 
  256.5000    80.4080    25.1570    22.8460    21.3620    25.5660     2.3260   -26.2850 
  256.6250    85.4500    25.1470    22.5730    21.1420    25.0760     2.3220   -26.1250 
  256.7500    92.3500    25.2400    20.8520    20.7370    24.4000     2.3200   -25.8550 
  256.8750    95.3290    25.1680    19.1830    20.0900    23.4920     2.3190   -25.5990 
  257.0000    93.2780    24.8870    18.5720    19.2110    22.3580     2.3180   -25.4490 
  257.1250    93.2110    25.1700    18.5860    18.1010    20.9940     2.3160   -25.3700 
  257.2500    95.7640    25.1980    18.7420    16.8200    19.4380     2.3100   -25.2570 
  257.3750    95.6780    25.2060    18.1240    15.4210    17.7490     2.2960   -25.0480 
  257.5000    92.0900    25.0270    14.1600    13.9790    16.0070     2.2740   -24.7480 
  257.6250    89.0130    24.9730    10.0000    12.6100    14.3350     2.2480   -24.5740 
  257.7500    88.6930    24.9860     8.4610    11.3980    12.8520     2.2280   -24.5650 
  257.8750    90.0790    24.6300     8.5070    10.4100    11.6620     2.2260   -24.6100 
  258.0000    92.4420    24.3740     8.3300     9.7060    10.8340     2.2440   -24.6200 
  258.1250    93.8630    24.1590     7.7790     9.3740    10.4990     2.2730   -24.5750 
