~V
VERS. 2.00: Ver 2.00
~W
STRT.M 64.0000:
STOP.M 257.0000:
STEP.M 0.1250:
NULL. -999.2500:
UWI. DF3069:
~C
DEPT.M :
GR.API :
CALI.CM :
RXO.OHMM :
RI. :
RML.OHMM :
DEN.GM/CC :
SP.MV :
~A
# ...
  176.5000    81.8600    23.3220    43.5110    41.8160    46.7020     2.2640   -45.0240 
  176.6250    82.7790    23.3460    24.0920    38.3880    43.5580     2.3090   -45.1110 
  176.7500    80.9740    23.3890    14.9760    38.4720    44.9880     2.3470   -45.3170 
  176.8750    76.9600    23.5860    13.1520    42.7630    51.5160     2.3560   -45.6460 
  177.0000    72.8130    23.8930    21.4920    51.7510    63.4800     2.3260   -46.0240 
  177.1250    69.8600    24.1110    49.8220    66.7200    81.7040     2.2770   -46.3340 
  177.2500    68.1170    24.2440    80.9910    86.9640   105.3530     2.2430   -46.5430 
  177.3750    67.9490    24.2440    99.3130   111.9780   134.0530     2.2310   -46.7290 
  177.5000    67.6770    24.2410   103.1910   140.0810   166.7130     2.2290   -46.9880 
  177.6250    67.2400    24.2370   104.3270   169.3820   201.5250     2.2240   -47.3160 
  177.7500    66.0780    24.2630   111.3460   198.6160   236.6260     2.2160   -47.5490 
  177.8750    63.4600    24.2480   131.6720   228.4840   273.5770     2.2050   -47.5770 
  178.0000    59.8670    24.2460   156.4190   259.9690   315.4560     2.1860   -47.3850 
  178.1250    57.6120    24.2530   182.8610   291.3570   361.9730     2.1650   -47.0160 
  178.2500    57.2970    24.2420   213.3370   318.4590   405.9980     2.1510   -46.6310 
  178.3750    56.8800    24.2680   237.5610   336.7200   437.5090     2.1470   -46.2110 
  178.5000    56.6870    24.2360   236.0420   343.8530   450.0040     2.1530   -45.7070 
  178.6250    57.4580    24.2440   201.1560   340.6670   443.8640     2.1630   -45.0260 
  178.7500    57.4300    24.2430   172.9920   332.1170   428.9390     2.1690   -44.1760 
  178.8750    57.5860    24.2390   175.2350   321.8470   411.1350     2.1710   -43.2720 
  179.0000    59.5980    24.2820   196.0070   310.6170   391.6280     2.1750   -42.4130 
  179.1250    60.9240    24.2540   196.8060   297.3360   369.2770     2.1830   -41.6920 
  179.2500    58.9930    24.2590   181.3370   282.6060   346.1050     2.1880   -41.0100 
  179.3750    57.4170    24.2340   168.7230   267.7360   323.9670     2.1870   -40.2870 
  179.5000    58.4800    24.1670   163.4060   253.2400   303.5150     2.1860   -39.4670 
  179.6250    57.8490    23.9620   153.9870   238.8450   284.2320     2.1920   -38.6360 
  179.7500    55.5500    23.9510   150.7690   225.6110   267.2440     2.1970   -37.9730 
  179.8750    54.7190    24.0090   146.8680   214.9680   253.9530     2.1970   -37.5060 
  180.0000    55.7780    24.0120   140.7600   207.5240   244.5610     2.1990   -37.1250 
  180.1250    55.4550    24.0030   128.6150   203.6270   239.2290     2.2070   -36.7010 
  180.2500    54.0040    23.8890   118.5240   201.7470   236.1810     2.2140   -36.2130 
  180.3750    53.9170    23.7480   113.8690   200.9720   234.1290     2.2120   -35.7160 
  180.5000    55.4800    23.9060   120.5100   200.0050   231.2180     2.2000   -35.3370 
  180.6250    57.4000    24.2090   155.9850   196.1360   224.1870     2.1840   -35.1470 
  180.7500    57.1320    24.4870   204.6520   188.9030   213.3010     2.1760   -34.9900 
  180.8750    54.4250    24.5070   222.5420   177.9970   198.6780     2.1820   -34.7180 
  181.0000    51.6850    24.2680   192.2380   162.2510   179.1860     2.1970   -34.3370 
  181.1250    51.3390    24.0380   152.6480   141.5740   155.2060     2.2110   -33.9300 
  181.2500    52.5420    24.0090   129.8810   119.3650   130.7150     2.2360   -33.6170 
  181.3750    54.1760    23.9570   106.7410    98.1370   108.2340     2.3000   -33.4370 
  181.5000    55.1340    23.9060    91.8440    79.9620    89.5140     2.4110   -33.2940 
  181.6250    56.9990    23.6660    91.3510    66.6150    75.9020     2.5170   -33.0450 
  181.7500    59.8720    23.5510    82.9890    56.7520    65.9390     2.5630   -32.6930 
  181.8750    62.3250    23.3950    54.6810    49.1500    58.3960     2.5540   -32.3090 
  182.0000    62.2050    23.3320    37.3830    43.4510    52.6300     2.5460   -31.9760 
  182.1250    58.8160    23.3520    43.2700    39.0310    47.9210     2.5870   -31.7490 
  182.2500    55.7700    23.4050    56.8210    34.7840    43.1430     2.6540   -31.5490 
  182.3750    56.2440    23.3790    63.3150    30.7520    38.3870     2.7050   -31.2950 
  182.5000    59.5170    23.3280    52.8930    27.1550    33.9700     2.7220   -30.9580 
  182.6250    63.1920    23.3130    29.8390    24.0730    30.0070     2.7130   -30.5760 
  182.7500    65.1290    23.3070    23.8630    21.3170    26.4460     2.6970   -30.2770 
  182.8750    65.1170    23.3010    25.4500    18.8700    23.3400     2.6830   -30.1160 
  183.0000    62.5930    23.2990    27.7090    16.5920    20.4850     2.6740   -30.0120 
  183.1250    59.8430    23.2340    28.5070    14.3500    17.6540     2.6760   -29.8720 
  183.2500    61.2390    23.1850    24.4560    12.2340    14.9320     2.6850   -29.6340 
  183.3750    66.0940    23.0720    17.0230    10.2960    12.3980     2.6860   -29.3640 
  183.5000    68.9810    23.0150    10.1450     8.6230    10.2340     2.6660   -29.1460 
  183.6250    66.8860    23.0680     7.5600     7.3760     8.7370     2.6260   -29.0820 
  183.7500    63.3460    23.0560     6.9640     6.5020     7.8150     2.5880   -29.0970 
  183.8750    60.3940    23.0090     7.0550     5.9310     7.3370     2.5650   -29.0800 
  184.0000    58.7560    22.9880     7.2950     5.6120     7.1740     2.5540   -29.0060 
  184.1250    58.2720    22.9780     6.9260     5.4840     7.1750     2.5380   -28.9000 
  184.2500    58.0800    22.9910     6.1700     5.4280     7.1700     2.5070   -28.8710 
  184.3750    57.1490    22.9790     5.9650     5.3980     7.1170     2.4720   -28.9520 
  184.5000    55.8680    22.9690     6.3960     5.3770     7.0270     2.4450   -29.1090 
  184.6250    55.6840    22.9640     6.3990     5.3650     6.9390     2.4280   -29.2270 
  184.7500    54.9260    22.9680     6.3120     5.3820     6.9450     2.4120   -29.2280 
  184.8750    52.9140    22.9710     6.2150     5.4300     7.0250     2.3970   -29.1700 
  185.0000    50.8100    22.9740     6.1970     5.5000     7.1800     2.3890   -29.1700 
  185.1250    48.2480    22.9920     6.3110     5.6050     7.4180     2.3860   -29.2850 
  185.2500    45.3010    23.0220     6.3850     5.7600     7.7460     2.3810   -29.4720 
  185.3750    43.6470    22.9900     6.4960     5.9520     8.1430     2.3740   -29.6640 
  185.5000    44.8410    23.0490     6.6650     6.1600     8.5430     2.3720   -29.7920 
  185.6250    49.5240    23.0540     6.9490     6.3480     8.9060     2.3910   -29.8810 
  185.7500    57.4470    23.0040     7.3950     6.5000     9.2000     2.4240   -30.0700 
  185.8750    67.1400    22.9880     7.8640     6.6190     9.4520     2.4570   -30.4100 
  186.0000    74.1010    22.9920     8.1610     6.7210     9.7270     2.4850   -30.8420 
  186.1250    76.8060    23.0170     8.2820     6.8460    10.0460     2.5060   -31.2980 
  186.2500    80.4070    22.9990     8.4340     7.0070    10.4280     2.5200   -31.6800 
  186.3750    87.4850    22.9880     8.6700     7.2250    10.9050     2.5170   -31.9900 
  186.5000    95.9650    23.0110     9.0380     7.5170    11.5280     2.4970   -32.3480 
  186.6250   100.3730    23.0090     9.5030     7.9110    12.2690     2.4740   -32.8360 
  186.7500    99.2380    23.1750    10.3310     8.3290    13.0040     2.4600   -33.3430 
  186.8750    95.6900    23.5000    11.9870     8.7130    13.6270     2.4490   -33.7850 
  187.0000    92.6460    23.5660    13.6290     8.9960    14.0210     2.4340   -34.0990 
  187.1250    89.1900    23.6570    13.8850     9.1000    14.0910     2.4240   -34.2710 
  187.2500    86.6440    23.5900    13.4020     9.0780    13.9300     2.4280   -34.4590 
  187.3750    88.2230    23.6340    13.0390     8.9900    13.6730     2.4390   -34.7240 
  187.5000    90.9390    23.6100    12.5370     8.8980    13.4300     2.4400   -35.0140 
  187.6250    89.4760    23.4620    11.8570     8.8960    13.3870     2.4310   -35.2150 
