~V
VERS. 2.00: Ver 2.00
~W
STRT.M 64.0000:
STOP.M 259.0000:
STEP.M 0.1250:
NULL. -999.2500:
UWI. DF3067:
~C
DEPT.M :
DEN.GM/CC :
GR.API :
CALI.CM :
RXO.OHMM :
RI. :
RML.OHMM :
SP.MV :
~A
# ...
  187.7500     2.4260    80.4880    23.5260     6.0090     5.7820     7.7310   -24.8590 
  187.8750     2.4220    70.2870    23.4050     5.5670     5.4840     7.2840   -24.6040 
  188.0000     2.4170    62.5570    23.2790     5.5230     5.2470     6.9920   -24.4070 
  188.1250     2.4100    57.8050    23.1710     5.4110     5.1090     6.8640   -24.2440 
  188.2500     2.4060    55.3020    23.0590     5.3550     5.0320     6.8150   -24.1090 
  188.3750     2.4080    55.5430    22.9500     5.2470     4.9840     6.7960   -24.0240 
  188.5000     2.4140    57.0070    22.9110     5.1230     4.9460     6.7900   -23.9970 
  188.6250     2.4170    55.0360    22.9940     5.0570     4.9260     6.7980   -24.0410 
  188.7500     2.4170    52.3010    23.1340     5.0770     4.9320     6.8190   -24.1200 
  188.8750     2.4190    53.2750    23.2480     5.2290     4.9710     6.8540   -24.2110 
  189.0000     2.4240    58.8700    23.2820     5.4930     5.0520     6.9320   -24.3010 
  189.1250     2.4320    67.7540    23.2520     5.7020     5.2090     7.1180   -24.3910 
  189.2500     2.4380    77.4270    23.2240     5.7530     5.4520     7.4310   -24.4890 
  189.3750     2.4430    86.1320    23.2030     5.9220     5.7720     7.8450   -24.6090 
  189.5000     2.4460    91.6270    23.1820     6.6460     6.1290     8.2770   -24.7500 
  189.6250     2.4470    93.8150    23.1790     7.6710     6.4220     8.5590   -24.9120 
  189.7500     2.4450    96.5030    23.2050     7.9230     6.5550     8.5930   -25.0810 
  189.8750     2.4430    99.7260    23.2300     7.1700     6.4770     8.3700   -25.2530 
  190.0000     2.4420   100.8270    23.2250     6.3040     6.2180     7.9720   -25.4220 
  190.1250     2.4410    98.0490    23.2010     5.9830     5.8490     7.5150   -25.5680 
  190.2500     2.4410    95.1570    23.1810     5.9300     5.4710     7.0920   -25.6710 
  190.3750     2.4360    95.4610    23.1820     5.9040     5.1380     6.7480   -25.7330 
  190.5000     2.4220    98.6370    23.2010     5.8320     4.8950     6.5370   -25.7740 
  190.6250     2.4030    98.1380    23.2170     5.7570     4.8290     6.5880   -25.8560 
  190.7500     2.3890    94.4360    23.2250     5.7250     4.9880     6.9670   -26.0200 
  190.8750     2.3800    93.6460    23.2300     6.1300     5.4310     7.7180   -26.2790 
  191.0000     2.3680    97.4280    23.2210     8.0110     6.1710     8.7700   -26.6260 
  191.1250     2.3490    97.2670    23.1870    11.0490     7.1290     9.8730   -27.0380 
  191.2500     2.3290    90.8230    23.1450    12.5170     8.0220    10.6790   -27.4860 
  191.3750     2.3150    85.2300    23.0880    12.0480     8.6500    11.0740   -27.9670 
  191.5000     2.3090    83.7090    22.9950    10.5210     9.0360    11.2860   -28.4740 
  191.6250     2.3160    83.2720    22.9090     9.2670     9.4910    11.8660   -29.0070 
  191.7500     2.3400    81.6610    22.8360    10.1310    10.3390    13.1470   -29.3310 
  191.8750     2.3800    80.0110    22.6570    13.9250    11.7530    15.2090   -30.2020 
  192.0000     2.4240    79.2990    22.3220    17.9800    13.7050    17.8290   -30.7620 
  192.1250     2.4500    78.9870    22.0100    20.5230    15.7820    20.2490   -31.3540 
  192.2500     2.4440    80.9380    21.9180    18.9250    17.2760    21.6430   -31.9860 
  192.3750     2.4110    83.7500    22.0810    17.5030    17.9360    21.9330   -32.6570 
  192.5000     2.3670    84.9850    22.4230    19.7660    18.1660    21.9070   -33.3740 
  192.6250     2.3310    83.9580    22.8450    21.7180    18.9400    22.9480   -34.1300 
  192.7500     2.3010    83.4970    23.2000    20.4570    21.1960    25.9520   -34.9160 
  192.8750     2.2730    84.7040    23.4030    23.3580    25.9920    31.8100   -35.7180 
  193.0000     2.2420    86.1570    23.4870    40.9470    34.5610    41.5880   -36.5010 
  193.1250     2.2110    84.4550    23.6270    73.7110    48.7990    57.5060   -37.2470 
  193.2500     2.1920    79.0990    23.9030   101.9200    67.4740    79.0940   -37.9440 
  193.3750     2.1880    72.3820    24.2000   110.4570    87.8680   103.7330   -38.5860 
  193.5000     2.1900    68.9250    24.3570   104.9650   105.5160   124.9550   -39.1680 
  193.6250     2.1880    69.1890    24.3750   103.7150   115.6830   135.1330   -39.6970 
  193.7500     2.1880    68.6790    24.3670   108.6710   119.9440   137.5810   -40.1760 
  193.8750     2.1980    66.6250    24.3500   111.3180   120.6520   136.5730   -40.6060 
  194.0000     2.2130    66.2590    24.3100   104.2540   119.7300   134.7080   -40.9840 
  194.1250     2.2200    69.0830    24.2680    96.8130   118.1200   132.8320   -41.3320 
  194.2500     2.2220    71.6750    24.2500    99.4500   116.0740   130.5860   -41.6520 
  194.3750     2.2240    71.8600    24.2510    99.3740   113.4860   127.5780   -41.9540 
  194.5000     2.2260    69.3810    24.2460    96.5360   110.6840   124.2270   -42.2420 
  194.6250     2.2210    66.0390    24.2180    96.7880   109.0090   122.2270   -42.5210 
  194.7500     2.2140    64.7600    24.1830    94.1410   109.8930   123.1810   -42.7840 
  194.8750     2.2080    67.4170    24.1620    80.2240   114.6250   128.3710   -43.0210 
  195.0000     2.1980    72.5390    24.1650    80.2940   123.9400   138.4970   -43.2110 
  195.1250     2.1750    73.3580    24.1760    96.2480   137.8190   153.5840   -43.3670 
  195.2500     2.1470    69.3910    24.1630   114.6280   153.0610   170.0450   -43.5050 
  195.3750     2.1290    64.2840    24.1230   119.1750   166.3470   183.7680   -43.6500 
  195.5000     2.1290    61.8470    24.0810   111.5920   174.6560   191.0280   -43.7980 
  195.6250     2.1440    63.1580    24.1150   107.3870   175.6370   189.5560   -43.9220 
  195.7500     2.1620    65.8970    24.2160   117.2590   171.6110   182.8520   -43.9890 
  195.8750     2.1770    67.8920    24.2920   129.6690   164.6370   173.4190   -43.9850 
  196.0000     2.1870    67.7380    24.2720   126.9980   156.2800   162.8280   -43.9050 
  196.1250     2.1900    68.1880    24.1950   109.6630   147.5860   152.2470   -43.7940 
  196.2500     2.1890    71.5580    24.1560    97.1360   139.7730   143.0630   -43.6820 
  196.3750     2.1860    74.1280    24.1550    94.2440   134.0480   136.5550   -43.5990 
  196.5000     2.1820    72.0330    24.1570    96.2340   131.4010   133.5650   -43.5450 
  196.6250     2.1750    67.3890    24.1560    95.1120   132.7550   134.7540   -43.5080 
  196.7500     2.1660    65.8460    24.1560    97.9940   136.9360   138.6880   -43.4710 
  196.8750     2.1610    66.5750    24.1600   106.0980   142.7260   144.0100   -43.4240 
  197.0000     2.1660    66.1150    24.1650   112.2500   148.6400   149.1380   -43.3560 
  197.1250     2.1760    64.0600    24.1690   111.8720   152.4050   153.0470   -43.2770 
  197.2500     2.1790    62.7990    24.1830   113.0530   153.6760   155.5180   -43.2040 
  197.3750     2.1840    64.2860    24.2120   115.6140   153.3610   156.1690   -43.1640 
  197.5000     2.2070    67.2060    24.2430   112.5570   152.0050   155.3700   -43.1710 
  197.6250     2.2570    66.5010    24.2520   102.2060   149.8000   153.3000   -43.2110 
  197.7500     2.3040    63.5600    24.2310   108.6480   146.9460   150.4310   -43.2560 
  197.8750     2.3220    63.6370    24.1960   124.3330   143.6960   147.1210   -43.2850 
  198.0000     2.3010    67.7000    24.1640   127.8710   140.8040   144.0450   -43.2850 
  198.1250     2.2580    70.3380    24.1550   108.1430   139.9660   142.7110   -43.2590 
  198.2500     2.2220    70.3710    24.1560    99.7190   142.3000   144.2970   -43.2130 
  198.3750     2.2030    70.8650    24.1560   102.2240   148.5700   149.7400   -43.1480 
  198.5000     2.1990    71.7810    24.1550   114.3470   158.8580   159.3430   -43.0730 
  198.6250     2.2050    70.1500    24.1640   129.3690   172.6430   172.9730   -43.0010 
  198.7500     2.2100    67.2410    24.1730   133.9370   187.1730   188.1530   -42.9300 
  198.8750     2.2080    64.6490    24.1580   131.4340   199.7720   202.4680   -42.8500 
