~V
VERS. 2.00: Ver 2.00
~W
STRT.M 59.0000:
STOP.M 281.0000:
STEP.M 0.1250:
NULL. -999.2500:
UWI. DF3005:
~C
DEPT.M :
DEN.GM/CC :
SP.MV :
AC.US/MT :
GR.API :
CALI.CM :
RXO.OHMM :
RI. :
RML.OHMM :
~A
# ...
  129.0000     2.2040   -36.9930   422.2930    66.7100    27.4650    16.4140     8.7800     9.7760 
  129.1250     2.2040   -37.1740   423.5460    64.9510    27.5010    13.1490     9.0220    10.0310 
  129.2500     2.2060   -37.3760   423.9900    63.6600    27.5730    12.6500     9.1430    10.1180 
  129.3750     2.2040   -37.5170   424.4100    64.4390    27.6610    12.5770     9.1220    10.0390 
  129.5000     2.1990   -37.5520   424.9250    66.2920    27.7600    12.2980     8.9760     9.8260 
  129.6250     2.1920   -37.4430   424.8270    67.3420    27.8700    11.9430     8.7460     9.5300 
  129.7500     2.1860   -37.2430   424.3260    66.5590    27.9670    11.8330     8.5050     9.2290 
  129.8750     2.1840   -36.9870   423.9850    64.4650    28.0200    11.8170     8.2920     8.9680 
  130.0000     2.1830   -36.7150   423.8280    62.6070    28.0310    11.6470     8.1360     8.7900 
  130.1250     2.1830   -36.4840   423.3130    61.8640    28.0300    11.4040     8.0560     8.7330 
  130.2500     2.1830   -36.3110   422.4750    61.5790    28.0260    11.3200     8.0300     8.7690 
  130.3750     2.1830   -36.1990   421.8390    61.1410    28.0110    11.3900     8.0440     8.8740 
  130.5000     2.1840   -36.1270   421.8400    60.5230    27.9860    11.5520     8.0920     9.0160 
  130.6250     2.1850   -36.0620   422.7610    59.4280    27.9600    11.6300     8.1710     9.1620 
  130.7500     2.1850   -36.0040   424.2310    58.1590    27.9340    11.5200     8.2660     9.2800 
  130.8750     2.1840   -35.9620   425.5950    58.7410    27.9030    11.4180     8.3610     9.3590 
  131.0000     2.1890   -35.9250   426.1370    61.4560    27.8680    11.5150     8.4370     9.4110 
  131.1250     2.2030   -35.8780   425.4650    62.0860    27.8120    11.6430     8.4750     9.4620 
  131.2500     2.2150   -35.8060   424.0580    60.3900    27.7160    11.7840     8.4880     9.5250 
  131.3750     2.2170   -35.7130   422.6900    59.9760    27.5970    12.0640     8.4960     9.5840 
  131.5000     2.2100   -35.6010   422.2270    62.2770    27.5000    12.2650     8.5160     9.6100 
  131.6250     2.2010   -35.4440   422.8050    63.2030    27.4660    12.2830     8.5560     9.5860 
  131.7500     2.1950   -35.2430   423.4280    62.1710    27.4570    12.3900     8.6000     9.5600 
  131.8750     2.1930   -34.9690   423.3910    61.5640    27.4410    12.6330     8.6250     9.5730 
  132.0000     2.1970   -34.5940   423.0080    62.0070    27.4140    12.7370     8.6070     9.6290 
  132.1250     2.2040   -34.0950   423.1950    62.9630    27.3980    12.5370     8.5300     9.6530 
  132.2500     2.2090   -33.4960   423.8390    64.1500    27.3950    12.5870     8.4090     9.5550 
  132.3750     2.2130   -32.8260   424.1390    65.9690    27.3940    12.7940     8.2610     9.3050 
  132.5000     2.2170   -32.0910   423.6270    66.6740    27.3900    12.6970     8.1070     8.9650 
  132.6250     2.2250   -31.2750   422.9800    65.5720    27.3900    12.1130     7.9850     8.6830 
  132.7500     2.2330   -30.4270   423.0900    64.8530    27.3830    11.4860     7.9180     8.5580 
  132.8750     2.2360   -29.5910   423.4540    65.9490    27.3450    11.1430     7.9100     8.5870 
  133.0000     2.2340   -28.8070   422.9710    67.6750    27.2740    11.4640     7.9330     8.6840 
  133.1250     2.2310   -28.0830   421.2270    67.7020    27.2110    11.9240     7.9360     8.7060 
  133.2500     2.2310   -27.3790   420.4830    66.9540    27.1860    12.0640     7.8940     8.6110 
  133.3750     2.2300   -26.6740   422.6720    66.7970    27.1850    11.5140     7.8320     8.4700 
  133.5000     2.2200   -25.9480   427.1020    66.6580    27.1850    10.3310     7.8040     8.4120 
  133.6250     2.1990   -25.1910   429.8960    67.2980    27.1860    10.2150     7.8590     8.5250 
  133.7500     2.1860   -24.4010   429.0500    69.1150    27.1980    10.8780     7.9260     8.6680 
  133.8750     2.1940   -23.5630   426.7950    69.4070    27.2190    11.5520     7.8600     8.6110 
  134.0000     2.2260   -22.6830   427.5880    68.0140    27.2380    11.9900     7.5090     8.1380 
  134.1250     2.2650   -21.7610   433.7570    70.3960    27.2460    11.8450     6.8020     7.1950 
  134.2500     2.2890   -20.8290   440.7230    77.4830    27.2620     8.8720     5.9630     6.1370 
  134.3750     2.2930   -19.8960   443.0520    84.4120    27.2900     5.3740     5.1920     5.2470 
  134.5000     2.2860   -18.9690   438.8350    87.4810    27.3050     4.2050     4.6220     4.6680 
  134.6250     2.2880   -18.1280   432.9050    88.4040    27.2880     4.5000     4.3230     4.4210 
  134.7500     2.3040   -17.4460   432.0760    88.5870    27.2580     5.0770     4.1940     4.3350 
  134.8750     2.3260   -16.9810   437.4530    88.8820    27.2300     5.0530     4.1490     4.2950 
  135.0000     2.3430   -16.7300   444.7970    90.6280    27.1890     4.3630     4.1100     4.2340 
  135.1250     2.3510   -16.6400   448.6730    93.2600    27.1240     4.1520     4.0570     4.1680 
  135.2500     2.3540   -16.6230   449.0470    95.9940    27.0590     4.3660     4.0300     4.1470 
  135.3750     2.3530   -16.6450   447.3700    98.2930    26.9850     4.4060     4.0590     4.1860 
  135.5000     2.3470   -16.7100   444.7930    98.1820    26.8760     4.2400     4.1360     4.2580 
  135.6250     2.3400   -16.8510   442.0680    94.7820    26.7350     4.4590     4.2110     4.3000 
  135.7500     2.3420   -17.0450   441.0990    92.5620    26.6180     4.7690     4.2190     4.2640 
  135.8750     2.3530   -17.2650   443.5280    94.2440    26.5530     4.6890     4.1340     4.1390 
  136.0000     2.3680   -17.4780   448.8070    97.4370    26.5310     4.2420     3.9750     3.9800 
  136.1250     2.3740   -17.6640   453.3750    99.5740    26.5250     4.3840     3.8210     3.8970 
  136.2500     2.3650   -17.8510   453.2760   101.6810    26.5080     4.2480     3.7620     3.9640 
  136.3750     2.3380   -18.0560   447.6010   102.7050    26.4760     4.0110     3.8520     4.2070 
  136.5000     2.2980   -18.2950   438.2030   101.1260    26.4220     4.2770     4.1080     4.6110 
  136.6250     2.2610   -18.5780   428.7000    95.8720    26.3610     5.4740     4.5240     5.1450 
  136.7500     2.2410   -18.8840   421.4840    87.5870    26.3220     6.9760     5.0150     5.7340 
  136.8750     2.2370   -19.2180   417.4490    78.3310    26.3070     7.8620     5.5140     6.3180 
  137.0000     2.2400   -19.5860   416.9620    72.2760    26.2920     7.9410     5.9480     6.8040 
  137.1250     2.2380   -19.9460   418.6870    72.3710    26.2120     8.0430     6.2110     7.0280 
  137.2500     2.2350   -20.2440   419.2000    74.7780    26.0460     9.2100     6.2960     7.0050 
  137.3750     2.2390   -20.4330   417.8630    77.2410    25.8730    10.8330     6.2800     6.8810 
  137.5000     2.2600   -20.4960   416.4250    79.0200    25.8240    10.8040     6.3230     6.9270 
  137.6250     2.3090   -20.4070   408.6760    78.9510    25.9320     9.7770     6.7040     7.5550 
  137.7500     2.3840   -20.1620   382.6820    75.1570    26.0400    10.3510     7.6320     8.9680 
  137.8750     2.4780   -19.7670   335.6300    68.5170    26.1170    15.9610     9.3630    11.3820 
  138.0000     2.5650   -19.2760   282.3610    62.6580    26.2330    29.7830    12.0770    14.9060 
  138.1250     2.6110   -18.7500   249.1800    62.1620    26.3990    44.7920    15.4640    18.9530 
  138.2500     2.6090   -18.2450   239.2580    64.5200    26.5150    45.9510    17.8230    21.1040 
  138.3750     2.5670   -17.7610   248.8030    65.9570    26.5520    36.2700    17.5090    19.3260 
  138.5000     2.5000   -17.3000   278.3300    67.3060    26.5610    25.8930    14.6340    14.6970 
  138.6250     2.4310   -16.9320   330.6640    71.3610    26.5820    16.1170    11.0060    10.2580 
  138.7500     2.3790   -16.7040   386.2840    77.1430    26.5920     8.7570     8.0880     7.2210 
  138.8750     2.3520   -16.6300   425.4160    83.2770    26.5770     5.0570     6.0950     5.4290 
