~V
VERS. 2.00: Ver 2.00
~W
STRT.M 61.0000:
STOP.M 276.0000:
STEP.M 0.1250:
NULL. -999.2500:
UWI. DF3051:
~C
DEPT.M :
SP.MV :
GR.API :
CALI.CM :
RXO.OHMM :
RI. :
RML.OHMM :
DEN.GM/CC :
~A
# ...
  241.0000   -22.8130    61.4840    26.5810   120.5060    83.4610    90.7680     2.2450 
  241.1250   -22.9090    60.5440    26.6110   119.1690    89.4890    97.2630     2.2700 
  241.2500   -23.1080    64.2410    26.6400   116.3510    89.1280    95.9520     2.2880 
  241.3750   -23.3310    67.7900    26.6610   107.9100    84.5560    90.1500     2.2930 
  241.5000   -23.4500    68.0600    26.6830    94.3390    78.7280    83.6250     2.3040 
  241.6250   -23.4110    66.7610    26.7340    83.6540    73.7120    78.4770     2.3350 
  241.7500   -23.2890    66.4370    26.7940    83.6590    70.0380    74.8940     2.3780 
  241.8750   -23.2470    66.4820    26.8040    95.7650    67.7240    72.7390     2.4040 
  242.0000   -23.3730    67.0650    26.7370   110.2280    66.5480    71.7270     2.4100 
  242.1250   -23.6120    68.8140    26.6360   110.1990    66.4530    71.8440     2.4060 
  242.2500   -23.7870    70.5760    26.5840    98.6680    67.3360    73.0450     2.4030 
  242.3750   -23.7860    72.5570    26.6260    88.5270    69.4030    75.6000     2.4050 
  242.5000   -23.6220    75.9270    26.7690    89.5560    72.8500    79.7830     2.4140 
  242.6250   -23.4670    78.4060    26.9300   110.8250    77.7730    85.7640     2.4290 
  242.7500   -23.4700    76.3510    26.9800   139.7950    83.1690    92.3380     2.4370 
  242.8750   -23.5640    71.6090    26.8980   148.6380    88.0410    98.2060     2.4300 
  243.0000   -23.6040    70.3350    26.7860   126.2510    91.9840   102.8150     2.4240 
  243.1250   -23.4060    70.1250    26.7680    95.3360    95.7940   107.1960     2.4430 
  243.2500   -23.0490    65.8500    26.8250    82.8450   100.9350   113.1880     2.4990 
  243.3750   -22.6950    58.4200    26.8940    94.9180   108.2290   121.7900     2.5640 
  243.5000   -22.4800    53.2420    26.9320   132.9420   117.0270   132.2350     2.6240 
  243.6250   -22.4070    53.3650    26.9260   166.8380   123.2070   138.6250     2.6770 
  243.7500   -22.3280    52.7210    26.8960   169.0300   121.1760   132.6220     2.7170 
  243.8750   -22.1450    48.6220    26.8630   152.5360   107.4430   111.0170     2.7370 
  244.0000   -21.7880    42.7140    26.8250   136.6010    84.0120    80.8660     2.7260 
  244.1250   -21.2700    39.0660    26.7130   115.7080    58.6040    54.1510     2.6770 
  244.2500   -20.7470    40.5150    26.4830    90.6330    38.3070    35.0320     2.5920 
  244.3750   -20.2820    46.4230    26.1840    64.3330    24.5740    22.6580     2.4940 
  244.5000   -19.8300    52.9360    25.9460    37.3080    16.1950    15.1040     2.4110 
  244.6250   -19.2990    54.7570    25.8720    18.0090    11.7360    11.0290     2.3700 
  244.7500   -18.6680    53.6140    25.8810     9.6580     9.1800     8.7160     2.3740 
  244.8750   -18.0080    53.6550    25.8940     6.9590     7.7730     7.4960     2.3890 
  245.0000   -17.4440    54.2020    25.8920     6.2620     7.0650     6.9330     2.3920 
  245.1250   -17.1660    54.9220    25.8880     6.1130     6.8140     6.7700     2.3830 
  245.2500   -17.1150    59.0570    25.8910     6.1130     6.7520     6.7510     2.3730 
  245.3750   -17.2010    64.6760    25.9020     6.2360     6.7630     6.7690     2.3630 
  245.5000   -17.3090    64.6500    25.9180     6.3540     6.7730     6.7610     2.3550 
  245.6250   -17.3160    57.0690    25.9320     6.3680     6.7450     6.7030     2.3520 
  245.7500   -17.2740    51.5290    25.9450     6.3680     6.6850     6.6150     2.3540 
  245.8750   -17.2560    50.8380    25.9580     6.3970     6.6040     6.5150     2.3570 
  246.0000   -17.3310    52.7770    25.9710     6.4040     6.5120     6.4210     2.3560 
  246.1250   -17.4750    56.4610    25.9780     6.3500     6.4090     6.3530     2.3530 
  246.2500   -17.5980    59.8480    25.9830     6.2950     6.3000     6.3170     2.3500 
  246.3750   -17.6020    58.6350    25.9860     6.2500     6.1890     6.3110     2.3510 
  246.5000   -17.5170    53.6810    25.9790     6.1850     6.0850     6.3240     2.3570 
  246.6250   -17.4660    53.0060    25.9590     6.1200     6.0050     6.3450     2.3650 
  246.7500   -17.5320    56.8530    25.9470     6.1320     5.9550     6.3660     2.3760 
  246.8750   -17.7020    59.7890    25.9580     6.3340     5.9350     6.3980     2.3870 
  247.0000   -17.8650    59.3770    25.9960     6.7850     5.9420     6.4540     2.3960 
  247.1250   -17.9000    59.3660    26.0560     7.3020     5.9730     6.5410     2.3980 
  247.2500   -17.7940    61.5140    26.1100     7.5250     6.0120     6.6360     2.3920 
  247.3750   -17.6790    63.0240    26.1270     7.3960     6.0420     6.7080     2.3870 
  247.5000   -17.6640    61.2600    26.0990     7.1570     6.0430     6.7330     2.3870 
  247.6250   -17.7750    57.6660    26.0550     7.0350     5.9930     6.6950     2.3900 
  247.7500   -17.9140    55.4300    26.0320     6.9590     5.9070     6.6200     2.3900 
  247.8750   -17.9380    54.9820    26.0230     6.8570     5.8140     6.5410     2.3850 
  248.0000   -17.7810    55.2840    26.0140     6.7230     5.7450     6.4910     2.3820 
  248.1250   -17.5740    55.7890    26.0040     6.5030     5.7320     6.5010     2.3860 
  248.2500   -17.5100    55.5230    25.9970     6.2090     5.7690     6.5620     2.3980 
  248.3750   -17.5720    54.9020    25.9860     5.9980     5.8420     6.6600     2.4100 
  248.5000   -17.6750    55.8500    25.9580     6.1080     5.9330     6.7750     2.4150 
  248.6250   -17.7090    57.6460    25.9380     6.6090     6.0260     6.8900     2.4140 
  248.7500   -17.6010    57.4480    25.9620     7.1120     6.1090     7.0000     2.4060 
  248.8750   -17.4360    55.8570    26.0280     7.3180     6.1800     7.1090     2.4010 
  249.0000   -17.3670    56.3810    26.1020     7.2380     6.2440     7.2290     2.4060 
  249.1250   -17.4700    58.4200    26.1480     7.2160     6.3090     7.3730     2.4160 
  249.2500   -17.6400    59.1500    26.1370     7.5000     6.3760     7.5200     2.4170 
  249.3750   -17.7910    59.3360    26.0220     7.9460     6.4330     7.6330     2.4080 
  249.5000   -17.8500    59.2360    25.8190     8.1190     6.4630     7.6710     2.4020 
  249.6250   -17.8370    58.3660    25.6880     7.7420     6.4440     7.6090     2.4060 
  249.7500   -17.8470    57.4620    25.7280     7.2850     6.3880     7.4900     2.4170 
  249.8750   -17.9530    57.6190    25.8690     7.1260     6.3150     7.3580     2.4290 
  250.0000   -18.1360    59.0100    25.9810     7.2010     6.2510     7.2570     2.4340 
  250.1250   -18.2470    59.3980    26.0120     7.2210     6.2250     7.2270     2.4270 
  250.2500   -18.2290    58.2000    26.0390     7.1720     6.2460     7.2690     2.4160 
  250.3750   -18.0820    55.8120    26.1070     7.1790     6.3230     7.3840     2.4090 
  250.5000   -17.8500    54.4400    26.2200     7.2450     6.4580     7.5600     2.4090 
  250.6250   -17.6420    55.7600    26.3500     7.3280     6.6530     7.7860     2.4120 
  250.7500   -17.5610    57.7000    26.4590     7.4800     6.8680     8.0150     2.4290 
  250.8750   -17.5880    58.2930    26.5330     7.7350     7.0500     8.1970     2.4650 
  251.0000   -17.6310    57.1360    26.5660     8.0300     7.1330     8.2630     2.5020 
  251.1250   -17.5520    57.3270    26.5640     8.2560     7.0470     8.1250     2.5170 
  251.2500   -17.2960    60.3110    26.5620     8.2040     6.8350     7.8290     2.5000 
  251.3750   -16.9960    62.6070    26.5750     7.6310     6.5630     7.4670     2.4750 
  251.5000   -16.8250    60.6760    26.5970     6.6470     6.3110     7.1520     2.4540 
  251.6250   -16.8070    56.6310    26.6250     5.8290     6.1520     6.9890     2.4420 
  251.7500   -16.7780    55.6860    26.6900     5.4880     6.0910     6.9630     2.4410 
  251.8750   -16.6250    57.4710    26.7800     5.4640     6.1170     7.0330     2.4440 
  252.0000   -16.3350    58.4950    26.8060     5.4890     6.2040     7.1430     2.4460 
  252.1250   -16.1120    56.6730    26.6550     5.4520     6.3250     7.2500     2.4430 
