~V
VERS. 2.00: Ver 2.00
~W
STRT.M 100.0000:
STOP.M 264.0000:
STEP.M 0.1250:
NULL. -999.2500:
UWI. DF3023:
~C
DEPT.M :
GR.API :
CALI.CM :
RXO.OHMM :
RI. :
RML.OHMM :
SP.MV :
DEN.GM/CC :
AC.US/MT :
~A
# ...
  250.0000    71.1830    24.8340    16.3560    17.7090    18.2990   -12.1600     2.5820   235.0450 
  250.1250    73.1660    24.8630    14.8650    17.6080    18.1380   -12.1170     2.5420   234.9620 
  250.2500    74.2770    24.8730    13.8700    17.5230    17.9850   -12.1420     2.5300   234.9650 
  250.3750    72.7590    24.8710    13.5540    17.4450    17.8420   -12.2310     2.5550   235.8860 
  250.5000    71.8180    24.8710    13.9970    17.3780    17.7330   -12.3530     2.5840   237.1410 
  250.6250    74.2030    24.8710    14.6430    17.3450    17.7010   -12.4540     2.5770   237.9030 
  250.7500    76.0520    24.8710    15.1470    17.3610    17.7450   -12.5030     2.5480   237.9810 
  250.8750    74.9110    24.8710    15.4710    17.4330    17.8450   -12.5160     2.5310   238.1070 
  251.0000    72.1270    24.8690    16.6740    17.5620    17.9720   -12.5230     2.5330   239.1730 
  251.1250    70.3070    24.8670    18.4640    17.7450    18.1050   -12.5480     2.5400   240.9200 
  251.2500    70.5970    24.8660    19.5530    17.9520    18.2420   -12.5710     2.5470   242.3140 
  251.3750    72.0990    24.8680    20.6650    18.1530    18.3890   -12.5830     2.5400   242.0780 
  251.5000    73.1860    24.8690    21.0360    18.3170    18.5390   -12.6010     2.5280   241.1770 
  251.6250    73.4280    24.8690    20.1960    18.3910    18.6390   -12.6310     2.5410   241.4580 
  251.7500    73.7720    24.8710    18.9090    18.3620    18.6400   -12.6580     2.5540   244.4650 
  251.8750    73.4000    24.8620    19.1680    18.2340    18.5140   -12.6770     2.5180   249.3020 
  252.0000    71.8440    24.8230    19.7160    18.0330    18.2870   -12.6700     2.4610   252.8980 
  252.1250    70.6260    24.7460    19.7990    17.8070    18.0270   -12.6170     2.4690   254.4270 
  252.2500    70.0420    24.6600    19.9230    17.6150    17.8150   -12.5310     2.5110   254.7250 
  252.3750    69.0250    24.5910    19.7870    17.4900    17.6950   -12.4640     2.5410   254.6690 
  252.5000    67.7150    24.5650    19.4160    17.4510    17.6790   -12.4660     2.5330   254.2150 
  252.6250    67.0180    24.5930    19.6010    17.5150    17.7730   -12.5530     2.4850   252.9450 
  252.7500    66.7020    24.6390    19.6240    17.6480    17.9340   -12.6580     2.4610   250.5700 
  252.8750    66.2470    24.6490    19.1230    17.8180    18.1260   -12.6900     2.4760   247.7570 
  253.0000    66.6040    24.5790    18.8960    17.9880    18.3070   -12.5880     2.5050   245.8860 
  253.1250    68.7390    24.4450    19.2600    18.1100    18.4290   -12.4000     2.5200   244.7420 
  253.2500    69.7500    24.3500    19.2330    18.1820    18.4910   -12.2710     2.5300   243.2640 
  253.3750    69.7500    24.3380    19.2440    18.2240    18.5190   -12.2860     2.5520   240.9520 
  253.5000    69.7500    24.3650    18.5120    18.2720    18.5550   -12.4460     2.5620   237.9590 
  253.6250    69.7500    24.3500    17.8230    18.3740    18.6540   -12.6790     2.5450   234.7740 
  253.7500    69.7500    24.3110    18.6230    18.5400    18.8180   -12.8840     2.5310   232.6160 
  253.8750    69.7500    24.3180    22.0720    18.7460    19.0160   -13.0100     2.5360   233.4160 
  254.0000    69.7500    24.3870    26.0360    18.9390    19.1920   -13.0380     2.5350   236.2300 
  254.1250    69.7500    24.4550    28.3300    19.0310    19.2630   -12.9570     2.5010   239.0680 
  254.2500    69.7500    24.4690    27.4710    18.9920    19.2000   -12.8200     2.4720   240.4030 
  254.3750    69.7500    24.4410    25.1720    18.8210    19.0040   -12.6920     2.4860   240.4150 
  254.5000    69.7500    24.4070    23.7590    18.5570    18.7160   -12.6210     2.5180   240.9930 
  254.6250    69.7500    24.3870    22.6510    18.2640    18.4010   -12.6360     2.5360   243.3080 
  254.7500    69.7500    24.3860    21.3610    18.0040    18.1320   -12.6920     2.5530   247.1070 
  254.8750    69.7500    24.4030    19.9140    17.8050    17.9510   -12.7370     2.5660   249.7410 
  255.0000    69.7500    24.4250    19.9320    17.6850    17.8660   -12.7420     2.5530   248.9180 
  255.1250    69.7500    24.4420    18.6990    17.6590    17.8650   -12.7330     2.5260   244.3730 
  255.2500    69.7500    24.4740    17.8660    17.6920    17.8920   -12.7430     2.5200   238.0890 
  255.3750    69.7500    24.5570    17.1160    17.7490    17.9110   -12.7580     2.5280   233.3990 
  255.5000    69.7500    24.6790    16.5400    17.8000    17.9050   -12.7540     2.5250   232.0500 
  255.6250    69.7500    24.7900    16.3350    17.8140    17.8700   -12.7280     2.5100   233.8430 
  255.7500    69.7500    24.8770    16.6120    17.7860    17.8160   -12.7260     2.5050   237.4180 
  255.8750    69.7500    24.9470    17.1140    17.7270    17.7400   -12.7880     2.5220   241.1940 
  256.0000    69.7500    24.9590    17.4260    17.6540    17.6340   -12.9100     2.5400   244.0100 
  256.1250    69.7500    24.8700    18.5790    17.5750    17.4920   -13.0440     2.5380   245.1130 
  256.2500    69.7500    24.7630    19.4640    17.4940    17.3340   -13.1420     2.5310   244.3730 
  256.3750    69.7500    24.7100    19.2950    17.4130    17.1970   -13.2120     2.5410   242.9980 
  256.5000    69.7500    24.7100    18.2000    17.3390    17.1170   -13.2850     2.5530   242.3820 
  256.6250    69.7500    24.7120    17.8220    17.2830    17.1200   -13.3770     2.5300   242.6530 
  256.7500    69.7500    24.6820    17.0830    17.2480    17.1680   -13.4560     2.5000   243.1980 
  256.8750    69.7500    24.6230    17.0390    17.2260    17.2180   -13.4680     2.4970   243.4870 
  257.0000    69.7500    24.5620    17.8150    17.1980    17.2330   -13.4150     2.5140   243.4120 
  257.1250    69.7500    24.5340    18.0440    17.1420    17.1930   -13.3480     2.5270   242.5600 
  257.2500    69.7500    24.5260    17.3050    17.0760    17.1410   -13.2930     2.5230   240.6460 
  257.3750    69.7500    24.5290    16.8750    17.0520    17.1390   -13.2410     2.5030   238.3710 
  257.5000    69.7500    24.5530    17.3250    17.1210    17.2380   -13.1810     2.4730   236.9700 
  257.6250    69.7500    24.6120    17.8050    17.3130    17.4560   -13.1110     2.4740   236.8430 
  257.7500    69.7500    24.6420    17.9980    17.5660    17.7220   -13.0560     2.4990   237.9710 
  257.8750    69.7500    24.5860    17.9460    17.8180    17.9650   -13.0230     2.5290   239.7220 
  258.0000    69.7500    24.4690    17.6940    18.0180    18.1360   -12.9970     2.5560   241.0940 
  258.1250    69.7500    24.3910    17.2020    18.1430    18.2170   -12.9460     2.5700   241.4270 
  258.2500    69.7500    24.3880    16.6590    18.2300    18.2580   -12.8840     2.5600   240.7940 
  258.3750    69.7500    24.4220    16.3740    18.2930    18.2850   -12.8690     2.5430   240.2160 
  258.5000    69.7500    24.4390    16.4540    18.3250    18.3050   -12.9290     2.5590   240.1310 
  258.6250    69.7500    24.3970    17.7330    18.3170    18.3150   -13.0570     2.5790   240.5290 
  258.7500    69.7500    24.3080    19.2200    18.2860    18.3170   -13.1970     2.5610   241.1010 
  258.8750    69.7500    24.2190    19.4420    18.2450    18.3130   -13.3110     2.5260   240.4970 
  259.0000    69.7500    24.1690    18.4610    18.2060    18.3070   -13.4040     2.5230   236.9830 
  259.1250    69.7500    24.1680    18.1640    18.2060    18.3070   -13.4880     2.5480   230.8050 
  259.2500    69.7500    24.1850    18.0210    18.2060    18.3070   -13.5530     2.5550   225.2520 
  259.3750    69.7500    24.2060    18.4450    18.2060    18.3070   -13.5720     2.5440   225.6440 
  259.5000    69.7500    24.2320    19.4900    18.2060    18.3070   -13.5410     2.5370   231.2610 
  259.6250    69.7500    24.2730    21.0510    18.2060    18.3070   -13.4910     2.5370   238.3530 
  259.7500    69.7500    24.3300    23.1270    18.2060    18.3070   -13.4410     2.5470   243.1930 
  259.8750    69.7500    24.4080    24.5490    18.2060    18.3070   -13.3980     2.5660   244.4560 
