~V
VERS. 2.00: Ver 2.00
~W
STRT.M 60.0000:
STOP.M 283.0000:
STEP.M 0.1250:
NULL. -999.2500:
UWI. DF3045:
~C
DEPT.M :
DEN.GM/CC :
SP.MV :
AC.US/MT :
GR.API :
CALI.CM :
RXO.OHMM :
RI. :
RML.OHMM :
~A
# ...
   70.0000  -999.2500   -37.8570  -999.2500    70.4870    23.7040    14.4520    11.1260    13.2060 
   70.1250  -999.2500   -38.1890  -999.2500    74.2910    23.3870    14.1960    10.8780    12.9000 
   70.2500  -999.2500   -38.5030  -999.2500    76.2190    23.2030    13.7200    10.4410    12.3900 
   70.3750  -999.2500   -38.7900  -999.2500    76.6520    23.1040    13.2620     9.8970    11.7610 
   70.5000  -999.2500   -39.0460  -999.2500    77.5680    23.1810    13.3090     9.3650    11.1620 
   70.6250  -999.2500   -39.2690  -999.2500    77.7650    23.7350    13.6250     8.9520    10.7360 
   70.7500  -999.2500   -39.4520  -999.2500    75.5010    24.5370    13.4640     8.6720    10.4790 
   70.8750  -999.2500   -39.5750  -999.2500    73.3750    24.8610    13.1820     8.5260    10.3630 
   71.0000  -999.2500   -39.6380  -999.2500    73.7210    24.9290    13.4390     8.4990    10.3450 
   71.1250  -999.2500   -39.6150  -999.2500    73.6160    24.8570    13.8160     8.5310    10.3670 
   71.2500  -999.2500   -39.5040  -999.2500    71.6070    24.7850    13.5560     8.5650    10.3680 
   71.3750  -999.2500   -39.3150  -999.2500    70.6210    24.6950    13.0250     8.5820    10.3570 
   71.5000  -999.2500   -39.0580  -999.2500    72.4900    24.6740    12.9590     8.5650    10.3350 
   71.6250  -999.2500   -38.7660  -999.2500    74.6800    24.7000    12.3670     8.5280    10.3090 
   71.7500  -999.2500   -38.4450  -999.2500    73.4970    24.7040    11.2450     8.4890    10.3050 
   71.8750  -999.2500   -38.0700  -999.2500    71.1340    24.6630    10.4710     8.4360    10.2930 
   72.0000  -999.2500   -37.6190  -999.2500    69.3680    24.6050    10.5560     8.3890    10.2760 
   72.1250  -999.2500   -37.1060  -999.2500    68.9950    24.4030    11.0600     8.3500    10.2440 
   72.2500  -999.2500   -36.5820  -999.2500    71.7820    24.3840    11.0990     8.2770    10.1370 
   72.3750  -999.2500   -36.0570  -999.2500    78.1930    24.3620    10.7650     8.0950     9.8620 
   72.5000  -999.2500   -35.5570  -999.2500    85.2060    24.3630    10.6350     7.7900     9.4200 
   72.6250  -999.2500   -35.1120  -999.2500    89.2390    24.4130    10.3480     7.4040     8.8950 
   72.7500  -999.2500   -34.7390  -999.2500    92.4360    24.5100    10.9930     7.0260     8.4370 
   72.8750  -999.2500   -34.4540  -999.2500    98.6390    24.6210    10.6910     6.7600     8.1940 
   73.0000  -999.2500   -34.3000  -999.2500   106.2850    24.6170     8.7690     6.6700     8.2110 
   73.1250  -999.2500   -34.3130  -999.2500   106.3220    24.5350     6.7750     6.7770     8.4660 
   73.2500  -999.2500   -34.3890  -999.2500    96.7350    24.2500     7.4750     7.0020     8.8240 
   73.3750  -999.2500   -34.4920  -999.2500    84.5370    23.8980     9.1650     7.2510     9.1570 
   73.5000  -999.2500   -34.5990  -999.2500    78.2800    23.7870    11.0470     7.4260     9.3400 
   73.6250  -999.2500   -34.7000  -999.2500    80.0920    23.9390    10.8410     7.3960     9.2260 
   73.7500  -999.2500   -34.8220  -999.2500    85.0990    24.1920     9.4100     7.1900     8.8910 
   73.8750  -999.2500   -34.9940  -999.2500    90.4370    24.8490     7.7080     6.8960     8.4710 
   74.0000  -999.2500   -35.2090  -999.2500    91.6610    25.7970     6.6440     6.6490     8.2000 
   74.1250  -999.2500   -35.4470  -999.2500    87.4400    26.2860     6.5120     6.6140     8.2870 
   74.2500  -999.2500   -35.7490  -999.2500    82.0490    26.1540     7.4180     6.8200     8.7030 
   74.3750  -999.2500   -36.1330  -999.2500    78.4680    25.8810     9.0740     7.2570     9.3980 
   74.5000  -999.2500   -36.6060  -999.2500    75.6790    25.2860    10.2200     7.8620    10.2360 
   74.6250  -999.2500   -37.1490  -999.2500    71.7940    24.7240    11.3550     8.4940    10.9950 
   74.7500  -999.2500   -37.6950  -999.2500    68.2770    24.6050    13.4890     9.0140    11.5560 
   74.8750  -999.2500   -38.2230  -999.2500    66.9330    24.4900    14.6380     9.3400    11.8510 
   75.0000  -999.2500   -38.7170  -999.2500    67.1140    24.6940    13.5730     9.4320    11.8700 
   75.1250  -999.2500   -39.1320  -999.2500    65.8660    25.0670    12.5140     9.3100    11.6490 
   75.2500  -999.2500   -39.4730  -999.2500    65.3130    25.4220    11.7090     9.0970    11.3810 
   75.3750  -999.2500   -39.7420  -999.2500    67.7800    25.5810    11.6480     8.8630    11.1110 
   75.5000  -999.2500   -39.9370  -999.2500    70.1700    25.6120    11.7910     8.6320    10.8830 
   75.6250  -999.2500   -40.0500  -999.2500    70.0170    25.7490    11.6480     8.4660    10.7610 
   75.7500  -999.2500   -40.1110  -999.2500    69.5780    26.2010    11.4800     8.3720    10.7160 
   75.8750  -999.2500   -40.1440  -999.2500    69.4850    26.3920    11.2810     8.3450    10.7340 
   76.0000  -999.2500   -40.1620  -999.2500    67.0550    26.3500    10.8610     8.3840    10.8270 
   76.1250  -999.2500   -40.1700  -999.2500    62.1920    26.0120    11.0660     8.4960    10.9930 
   76.2500  -999.2500   -40.1810  -999.2500    59.9740    25.4550    11.9010     8.6550    11.2150 
   76.3750  -999.2500   -40.2050  -999.2500    60.1610    24.9820    12.4880     8.8180    11.4280 
   76.5000  -999.2500   -40.2540  -999.2500    59.5880    24.5930    12.5780     8.9580    11.5760 
   76.6250  -999.2500   -40.3100  -999.2500    58.0910    24.4310    12.8240     9.0500    11.6360 
   76.7500  -999.2500   -40.3440  -999.2500    58.9070    24.4350    13.1510     9.0900    11.6340 
   76.8750  -999.2500   -40.4030  -999.2500    61.7270    24.4770    13.2240     9.0850    11.5900 
   77.0000  -999.2500   -40.4490  -999.2500    63.1180    24.2890    13.1700     9.0550    11.5380 
   77.1250  -999.2500   -40.4520  -999.2500    61.9830    24.2570    13.0350     9.0630    11.5540 
   77.2500  -999.2500   -40.4280  -999.2500    61.5560    24.0880    13.1330     9.1160    11.6270 
   77.3750  -999.2500   -40.3760  -999.2500    62.6020    23.9620    13.4160     9.1910    11.7120 
   77.5000  -999.2500   -40.2840  -999.2500    63.2570    23.9670    13.9610     9.2630    11.8050 
   77.6250  -999.2500   -40.1260  -999.2500    62.0300    24.1390    14.1010     9.3040    11.8490 
   77.7500  -999.2500   -39.9280  -999.2500    61.7470    24.1610    13.7800     9.2900    11.8010 
   77.8750  -999.2500   -39.6840  -999.2500    63.0220    24.0340    13.4910     9.2130    11.6590 
   78.0000  -999.2500   -39.4120  -999.2500    64.7320    24.0180    13.4050     9.0780    11.4590 
   78.1250  -999.2500   -39.1130  -999.2500    65.6580    24.3500    12.9030     8.9080    11.2350 
   78.2500  -999.2500   -38.8050  -999.2500    67.9380    24.4280    11.9380     8.7290    11.0250 
   78.3750  -999.2500   -38.4880  -999.2500    72.0620    24.3440    11.0690     8.5740    10.8500 
   78.5000  -999.2500   -38.1800  -999.2500    75.0310    24.4070    10.8580     8.4600    10.7300 
   78.6250  -999.2500   -37.9010  -999.2500    76.2780    24.7590    10.9590     8.3860    10.6570 
   78.7500  -999.2500   -37.6460  -999.2500    76.0500    24.9420    11.0390     8.3430    10.6290 
   78.8750  -999.2500   -37.4330  -999.2500    75.6860    24.9100    11.2790     8.3190    10.6310 
   79.0000  -999.2500   -37.2590  -999.2500    75.7470    24.6390    11.4220     8.3010    10.6300 
   79.1250  -999.2500   -37.1470  -999.2500    75.2590    24.2390    11.5030     8.2670    10.6010 
   79.2500  -999.2500   -37.0970  -999.2500    74.5510    23.7930    11.2940     8.2160    10.5550 
   79.3750  -999.2500   -37.1150  -999.2500    74.7330    23.5340    11.1610     8.1590    10.5170 
   79.5000  -999.2500   -37.2160  -999.2500    75.8710    23.4580    11.0970     8.1140    10.4730 
   79.6250  -999.2500   -37.3850  -999.2500    73.0930    23.5130    11.3480     8.1410    10.5260 
   79.7500  -999.2500   -37.6100  -999.2500    67.3280    23.3840    11.6380     8.3060    10.7760 
   79.8750  -999.2500   -37.8750  -999.2500    63.3030    23.4290    12.2340     8.6530    11.2820 
