~V
VERS. 2.00: Ver 2.00
~W
STRT.M 105.0000:
STOP.M 269.0000:
STEP.M 0.1250:
NULL. -999.2500:
UWI. DF304:
~C
DEPT.M :
GR.API :
CALI.CM :
RXO.OHMM :
RI. :
RML.OHMM :
SP.MV :
DEN.GM/CC :
AC.US/MT :
~A
# ...
  195.0000    53.3880    24.4030     5.8360     5.9250     8.2310   -13.5850     2.4550   393.0400 
  195.1250    55.4990    24.4030     5.7710     5.8260     8.0730   -13.4960     2.4600   394.3310 
  195.2500    54.3090    24.3980     5.6510     5.7190     7.9100   -13.3900     2.4670   394.1710 
  195.3750    52.3350    24.3810     5.5080     5.6160     7.7490   -13.2960     2.4690   392.9570 
  195.5000    52.5470    24.3420     5.3810     5.5330     7.6110   -13.2070     2.4690   391.0320 
  195.6250    55.8110    24.3220     5.2810     5.4970     7.5370   -13.1240     2.4720   388.6160 
  195.7500    59.5020    24.3160     5.2250     5.5170     7.5430   -13.0510     2.4820   386.2730 
  195.8750    63.0970    24.3160     5.2710     5.5900     7.6230   -12.9910     2.4970   384.4350 
  196.0000    67.3320    24.3160     5.4160     5.7010     7.7400   -12.9140     2.5120   383.3850 
  196.1250    72.4440    24.3160     5.5230     5.8150     7.8310   -12.8180     2.5150   383.5920 
  196.2500    76.1850    24.3200     5.5590     5.8960     7.8590   -12.7340     2.5080   384.8620 
  196.3750    77.7450    24.3390     5.6050     5.9340     7.8240   -12.6500     2.4970   386.4130 
  196.5000    78.9880    24.3910     5.6590     5.9390     7.7680   -12.5780     2.4870   386.9410 
  196.6250    80.9870    24.4630     5.6640     5.9480     7.7680   -12.5390     2.4800   385.5260 
  196.7500    80.3890    24.5760     5.7240     5.9900     7.8630   -12.5320     2.4790   383.6740 
  196.8750    78.8340    24.7160     5.9340     6.0590     8.0340   -12.5680     2.4820   383.3030 
  197.0000    79.7370    24.8320     6.2650     6.1190     8.2080   -12.6760     2.4850   385.4530 
  197.1250    81.2550    24.8720     6.5490     6.0840     8.2360   -12.8470     2.4780   389.7010 
  197.2500    81.0790    24.8810     6.6330     5.9250     8.0560   -13.0840     2.4620   393.9050 
  197.3750    83.0910    24.8810     6.4890     5.6750     7.7150   -13.3680     2.4410   396.4350 
  197.5000    89.8210    24.8810     6.2500     5.4380     7.3790   -13.6880     2.4180   396.3590 
  197.6250    92.9520    24.8810     6.2170     5.4170     7.3890   -14.0670     2.3920   393.8790 
  197.7500    87.6100    24.8810     6.7400     5.7530     8.0020   -14.4780     2.3670   391.1520 
  197.8750    77.5550    24.8810     8.4400     6.5840     9.4330   -14.9080     2.3490   389.2390 
  198.0000    68.7820    24.8810    11.2110     8.0270    11.7950   -15.3170     2.3440   386.9790 
  198.1250    65.6310    24.8810    15.5520    10.2400    15.1180   -15.7490     2.3580   380.4550 
  198.2500    65.6710    24.8810    19.8780    12.9540    18.8120   -16.1530     2.3870   368.6880 
  198.3750    65.2130    24.8810    22.9840    15.7830    22.2590   -16.5340     2.4190   353.8690 
  198.5000    62.1610    24.8810    24.0840    18.3120    24.9920   -16.8970     2.4410   340.0750 
  198.6250    60.6120    24.8810    23.8450    20.3650    27.0160   -17.2290     2.4410   332.5480 
  198.7500    61.1670    24.8810    24.5520    22.2820    29.0200   -17.5370     2.4260   333.1730 
  198.8750    61.5430    24.8810    27.4970    24.3250    31.4440   -17.8180     2.4020   341.5930 
  199.0000    61.4260    24.8810    32.2670    26.5870    34.3800   -18.0860     2.3790   353.5600 
  199.1250    63.6570    24.8810    35.7380    28.9450    37.5470   -18.3370     2.3720   360.8010 
  199.2500    66.8610    24.8810    36.1960    31.1700    40.4750   -18.5710     2.3780   359.6700 
  199.3750    68.1090    24.8810    34.9140    33.2410    43.0780   -18.7880     2.3800   353.2080 
  199.5000    70.8770    24.8810    34.8150    35.4130    45.7330   -19.0010     2.3620   348.6850 
  199.6250    76.5360    24.8760    37.8990    38.2790    49.3220   -19.1830     2.3200   353.5990 
  199.7500    79.1230    24.8410    42.6020    42.1620    54.3010   -19.3520     2.2830   364.3350 
  199.8750    74.6050    24.7630    47.3040    47.1860    60.7910   -19.5080     2.2740   372.1480 
  200.0000    66.3890    24.7050    51.9600    53.2380    68.5670   -19.6720     2.2990   369.5180 
  200.1250    61.0840    24.6930    58.5190    60.0250    77.1530   -19.8040     2.3270   357.7420 
  200.2500    56.9860    24.7460    65.6880    66.8800    85.6910   -19.9230     2.3260   350.8110 
  200.3750    58.2070    24.8840    71.0720    73.2200    93.4780   -20.0600     2.2990   357.5650 
  200.5000    64.7400    25.0610    74.6180    78.3400    99.6530   -20.1670     2.2680   376.0850 
  200.6250    68.7440    25.1830    77.7870    81.0680   102.6370   -20.2640     2.2530   394.2920 
  200.7500    65.7630    25.2110    81.0070    81.4150   102.3980   -20.3530     2.2520   403.0570 
  200.8750    61.1200    25.2200    81.6350    79.8800    99.6650   -20.4320     2.2590   403.0670 
  201.0000    58.8780    25.2340    77.6830    77.4530    95.8550   -20.4780     2.2650   399.5700 
  201.1250    57.5840    25.2530    72.0540    75.2980    92.5450   -20.4990     2.2620   396.8450 
  201.2500    57.8930    25.2650    70.5380    74.0680    90.5110   -20.5020     2.2520   395.2090 
  201.3750    60.4030    25.2700    74.3340    73.8730    89.8270   -20.4820     2.2490   393.7930 
  201.5000    61.2040    25.2680    78.3070    74.5070    90.1370   -20.4720     2.2570   392.3850 
  201.6250    60.1510    25.2440    76.6140    75.6870    90.9530   -20.4530     2.2630   391.8200 
  201.7500    61.3170    25.1940    71.8320    77.0120    91.7520   -20.4170     2.2510   392.6110 
  201.8750    62.6810    25.1260    68.6240    78.1550    92.1720   -20.3660     2.2280   394.5440 
  202.0000    60.5090    25.0310    68.2790    78.6140    91.6580   -20.3190     2.2180   396.6670 
  202.1250    58.8820    24.9310    69.1580    77.4080    89.0420   -20.2700     2.2430   397.2760 
  202.2500    61.6620    24.8780    69.2650    74.3050    84.1060   -20.2460     2.2830   395.8960 
  202.3750    65.5630    24.8140    64.7690    69.6230    77.3400   -20.2120     2.3130   393.5120 
  202.5000    67.4380    24.6670    54.7940    64.3590    70.0760   -20.1670     2.3170   391.9950 
  202.6250    68.6040    24.4520    43.8520    59.9480    64.1230   -20.1280     2.2940   392.2520 
  202.7500    69.6530    24.2160    36.9340    56.9490    60.0590   -20.1000     2.2710   392.2540 
  202.8750    69.6520    24.0280    34.6960    55.1560    57.5850   -20.0800     2.2640   390.5930 
  203.0000    69.0180    23.9450    35.3720    53.8240    55.7930   -20.0450     2.2800   387.9600 
  203.1250    69.8600    23.9350    36.0320    51.8600    53.4150   -20.0260     2.3090   386.7310 
  203.2500    72.6110    23.9350    34.6190    48.8460    49.9370   -19.9870     2.3290   387.3420 
  203.3750    75.9130    23.9370    31.7010    45.0850    45.6920   -19.9520     2.3350   388.6830 
  203.5000    76.1640    23.9700    29.3360    41.3130    41.5070   -19.9290     2.3310   389.6870 
  203.6250    72.0130    24.1460    28.7740    38.4010    38.3760   -19.9000     2.3230   389.9950 
  203.7500    68.9790    24.5100    29.2060    36.5690    36.5120   -19.8770     2.3160   389.8500 
  203.8750    68.9390    24.9320    30.3870    35.8660    35.9140   -19.8630     2.3130   389.2460 
  204.0000    68.7310    25.2430    32.2180    36.3110    36.5330   -19.8680     2.3140   387.8560 
  204.1250    67.0980    25.3430    34.3840    38.2640    38.6930   -19.9040     2.3110   384.8170 
  204.2500    66.4130    25.3670    36.8290    41.8550    42.5230   -19.9710     2.2990   380.9120 
  204.3750    65.7630    25.3690    40.4510    47.6210    48.5550   -20.0520     2.2780   378.7450 
  204.5000    64.6430    25.3690    47.9240    56.2930    57.4720   -20.1540     2.2530   381.5410 
  204.6250    64.7370    25.3690    65.7070    69.1080    70.4490   -20.2900     2.2300   390.4360 
  204.7500    65.4230    25.3690    88.2130    84.9650    86.5260   -20.4560     2.2160   400.2340 
  204.8750    62.7460    25.3690   104.9590   101.4550   103.4520   -20.6410     2.2110   406.5910 
