~V
VERS. 2.00: Ver 2.00
~W
STRT.M 56.0000:
STOP.M 260.0000:
STEP.M 0.1250:
NULL. -999.2500:
UWI. DF3033:
~C
DEPT.M :
GR.API :
RML.OHMM :
RI. :
RXO.OHMM :
CALI.CM :
DEN.GM/CC :
SP.MV :
~A
# ...
   89.7500    81.6810    10.4520     9.2210    10.4210    23.0230  -999.2500   -33.9050 
   89.8750    79.6640    10.4780     9.2300    10.3750    23.0320  -999.2500   -33.9840 
   90.0000    77.5410    10.4710     9.2170    10.3060    23.0440  -999.2500   -34.1860 
   90.1250    76.1860    10.4100     9.1580    10.2520    23.0860  -999.2500   -34.3700 
   90.2500    76.5400    10.3180     9.0670    10.2400    23.1740  -999.2500   -34.6280 
   90.3750    78.3910    10.2220     8.9680    10.2410    23.2810  -999.2500   -34.9820 
   90.5000    78.5980    10.1510     8.8860    10.2360    23.3860  -999.2500   -35.4250 
   90.6250    75.3690    10.1370     8.8520    10.2830    23.5260  -999.2500   -35.8870 
   90.7500    72.4430    10.1710     8.8660    10.3910    23.7860  -999.2500   -36.3830 
   90.8750    71.2030    10.2340     8.9210    10.5850    24.1830  -999.2500   -36.8740 
   91.0000    69.2940    10.2970     9.0000    10.9430    24.5850  -999.2500   -37.3410 
   91.1250    66.4980    10.3270     9.0790    11.3160    24.7500  -999.2500   -37.7970 
   91.2500    66.1860    10.3220     9.1400    11.5740    24.7020  -999.2500   -38.2540 
   91.3750    68.0920    10.2920     9.1730    11.6820    24.5840  -999.2500   -38.6180 
   91.5000    68.3080    10.2610     9.1790    11.7340    24.5720  -999.2500   -38.8300 
   91.6250    63.9390    10.2480     9.1670    11.7190    24.7560  -999.2500   -39.0780 
   91.7500    59.9470    10.2530     9.1510    11.6990    25.0150  -999.2500   -39.1300 
   91.8750    60.9600    10.2620     9.1370    11.7050    25.1630  -999.2500   -39.1400 
   92.0000    65.2550    10.2680     9.1280    11.7280    25.2010  -999.2500   -39.0380 
   92.1250    66.6090    10.2760     9.1250    11.7600    25.2530  -999.2500   -38.8180 
   92.2500    63.7410    10.2970     9.1270    11.7230    25.3000  -999.2500   -38.6020 
   92.3750    60.4140    10.3360     9.1390    11.5590    25.2000  -999.2500   -38.2200 
   92.5000    59.5710    10.3880     9.1620    11.2950    24.9850  -999.2500   -37.8420 
   92.6250    60.0320    10.4500     9.2010    11.1640    24.6860  -999.2500   -37.3090 
   92.7500    60.2820    10.5220     9.2510    11.2660    24.4350  -999.2500   -36.7830 
   92.8750    62.8390    10.6050     9.3070    11.3050    24.1700  -999.2500   -36.2200 
   93.0000    68.8650    10.6890     9.3590    11.1130    23.8700  -999.2500   -35.6690 
   93.1250    74.7640    10.7440     9.3860    10.8960    23.6350  -999.2500   -35.2740 
   93.2500    75.6360    10.7440     9.3740    10.8060    23.5990  -999.2500   -34.7930 
   93.3750    73.6050    10.6750     9.3130    10.8480    23.6980  -999.2500   -34.4080 
   93.5000    72.9410    10.5490     9.2150    10.9660    23.8210  -999.2500   -34.1190 
   93.6250    74.4920    10.4130     9.1180    11.0670    23.9140  -999.2500   -33.8380 
   93.7500    75.2450    10.3350     9.0670    11.0330    23.9770  -999.2500   -33.5850 
   93.8750    74.1420    10.3560     9.0880    10.9170    24.0250  -999.2500   -33.3860 
   94.0000    72.9540    10.4830     9.1830    10.7700    24.0500  -999.2500   -33.1300 
   94.1250    74.3760    10.6700     9.3270    10.7620    23.9660  -999.2500   -32.8510 
   94.2500    76.8360    10.8240     9.4620    10.9500    23.8340  -999.2500   -32.5930 
   94.3750    77.4460    10.8860     9.5450    11.0490    23.7490  -999.2500   -32.2570 
   94.5000    75.6440    10.8440     9.5550    11.1020    23.7140  -999.2500   -31.7930 
   94.6250    75.2510    10.7230     9.4960    11.2570    23.7490  -999.2500   -31.2360 
   94.7500    78.6010    10.5880     9.4110    11.3220    23.7880  -999.2500   -30.6490 
   94.8750    82.2570    10.4650     9.3210    10.9050    23.8180  -999.2500   -29.9060 
   95.0000    82.2250    10.3440     9.2240    10.2990    23.8290  -999.2500   -29.1500 
   95.1250    78.7130    10.1740     9.0830    10.0770    23.8300  -999.2500   -28.1840 
   95.2500    77.0700     9.9310     8.8780    10.2840    23.8480  -999.2500   -27.1090 
   95.3750    80.4620     9.6310     8.6130    10.2860    23.9310  -999.2500   -26.0420 
   95.5000    88.9350     9.3170     8.3210     9.6090    24.1320  -999.2500   -24.9140 
   95.6250    95.8770     9.0600     8.0500     8.3800    24.4120  -999.2500   -24.0050 
   95.7500    97.1220     8.8770     7.8270     7.3400    24.4770  -999.2500   -23.1230 
   95.8750    94.5110     8.7410     7.6460     6.9480    24.2770  -999.2500   -22.3650 
   96.0000    92.6290     8.5920     7.4770     6.9870    24.1150  -999.2500   -21.7100 
   96.1250    95.0310     8.3570     7.2820     7.0800    24.2140  -999.2500   -21.1810 
   96.2500    98.6270     8.0510     7.0600     6.7150    24.4480  -999.2500   -20.8740 
   96.3750    99.3340     7.7420     6.8480     6.3060    24.6200  -999.2500   -20.6410 
   96.5000    98.4450     7.5260     6.7090     6.1910    24.6840  -999.2500   -20.6360 
   96.6250    99.0090     7.5200     6.7330     6.0250    24.6830  -999.2500   -20.7810 
   96.7500    98.5310     7.7050     6.9180     6.0000    24.6450  -999.2500   -20.9690 
   96.8750    94.7720     8.0160     7.2240     6.1670    24.5310  -999.2500   -21.2710 
   97.0000    89.8370     8.3520     7.5670     6.5990    24.3640  -999.2500   -21.6120 
   97.1250    86.1830     8.5790     7.8210     7.2530    24.2450  -999.2500   -21.8990 
   97.2500    82.9200     8.6420     7.9120     7.6480    24.3030  -999.2500   -22.2110 
   97.3750    81.4520     8.5430     7.8270     7.3900    24.4600  -999.2500   -22.5720 
   97.5000    85.0210     8.3430     7.6090     6.7760    24.5280  -999.2500   -22.8760 
   97.6250    91.8010     8.1390     7.3450     6.6350    24.4540  -999.2500   -23.1140 
   97.7500    94.6760     8.0020     7.1160     6.7600    24.3630  -999.2500   -23.3550 
   97.8750    91.6480     7.9240     6.9390     6.9210    24.3950  -999.2500   -23.6460 
   98.0000    87.5210     7.8400     6.7900     7.1390    24.5590  -999.2500   -23.9810 
   98.1250    87.7000     7.6560     6.6200     8.2950    24.5770  -999.2500   -24.5560 
   98.2500    88.4550     7.3900     6.4340     9.9690    24.4440  -999.2500   -25.0820 
   98.3750    86.2080     7.2000     6.3220    10.4850    24.2740  -999.2500   -25.5540 
   98.5000    82.0930     7.3930     6.4830     9.5350    24.1940  -999.2500   -26.0070 
   98.6250    77.9860     8.5590     7.3700     9.9440    24.2070  -999.2500   -26.2630 
   98.7500    73.6280    10.8760     9.2080    12.4960    24.2770  -999.2500   -26.6050 
   98.8750    70.3910    14.2310    12.0420    17.8810    24.4040  -999.2500   -26.9060 
   99.0000    69.9370    18.0020    15.4960    27.2120    24.4910  -999.2500   -27.2770 
   99.1250    71.5940    20.8330    18.5030    37.4190    24.5090  -999.2500   -27.6370 
   99.2500    72.1230    21.6690    19.9310    45.3650    24.4970  -999.2500   -28.1130 
   99.3750    71.1550    20.2070    19.2350    47.5120    24.4290  -999.2500   -28.7760 
   99.5000    69.7290    17.1900    16.8530    37.1810    24.2360  -999.2500   -29.4370 
   99.6250    68.6180    14.0770    14.0110    22.7350    23.8990  -999.2500   -30.3450 
   99.7500    67.1760    11.8320    11.7350    13.9590    23.5930  -999.2500   -31.2260 
   99.8750    66.1250    10.5570    10.2360    10.8680    23.4970  -999.2500   -32.0100 
  100.0000    66.5780    10.0300     9.4170    10.2160    23.5840  -999.2500   -32.7270 
  100.1250    68.0600     9.9980     9.1430    10.2700    23.9550  -999.2500   -33.2670 
  100.2500    69.3150    10.1260     9.1310    10.2850    24.5390  -999.2500   -33.6090 
  100.3750    69.5040    10.2660     9.2280    10.2950    24.9070  -999.2500   -33.8270 
  100.5000    68.7650    10.3430     9.3290    10.3740    24.7050  -999.2500   -33.9350 
  100.6250    68.9030    10.3210     9.3690    10.4100    24.1680  -999.2500   -33.7430 
  100.7500    69.1750    10.2340     9.3490    10.3610    23.7990  -999.2500   -33.4750 
  100.8750    69.3610    10.1180     9.2850    10.2170    23.6110  -999.2500   -33.1560 
