~V
VERS. 2.00: Ver 2.00
~W
STRT.M 56.0000:
STOP.M 263.0000:
STEP.M 0.1250:
NULL. -999.2500:
UWI. DF3034:
~C
DEPT.M :
DEN.GM/CC :
GR.API :
RML.OHMM :
RI. :
RXO.OHMM :
CALI.CM :
SP.MV :
~A
# ...
  146.0000     2.2610    82.9050     8.5230     7.1750     7.5090    24.1530   -16.9010 
  146.1250     2.3140    80.9350     9.0200     7.6450     8.9910    24.0880   -16.5450 
  146.2500     2.3630    83.3310     9.2300     7.9320    11.1430    23.9420   -16.2990 
  146.3750     2.3910    89.2900     9.0410     7.9010    12.4260    23.5590   -16.1000 
  146.5000     2.3960    95.6420     8.5140     7.5460    10.7370    23.0940   -15.9480 
  146.6250     2.3830   100.9940     7.8640     6.9840     7.6440    22.7610   -15.7390 
  146.7500     2.3640   105.0750     7.3140     6.4330     6.4470    22.6720   -15.5240 
  146.8750     2.3460   105.3110     6.9280     5.9900     6.1200    22.8020   -15.2590 
  147.0000     2.3290   102.0960     6.6780     5.6780     6.0750    23.1690   -14.9960 
  147.1250     2.3150    99.1790     6.5220     5.4950     5.9980    23.6210   -14.7930 
  147.2500     2.3060    98.6270     6.4250     5.4010     5.8670    23.8850   -14.6670 
  147.3750     2.3030    99.5920     6.4140     5.4000     5.7390    24.0370   -14.6450 
  147.5000     2.3030   100.3020     6.5330     5.5110     5.6450    24.0880   -14.6730 
  147.6250     2.3070    99.2630     6.8450     5.7860     5.8120    23.9320   -14.7980 
  147.7500     2.3170    95.9310     7.3070     6.2040     6.2900    23.3810   -14.8190 
  147.8750     2.3350    92.0350     7.8370     6.7150     7.0710    22.8620   -14.8960 
  148.0000     2.3620    89.1140     8.2940     7.2090     7.8430    22.5610   -14.8680 
  148.1250     2.3910    87.9270     8.4520     7.4920     8.3030    22.5830   -14.7510 
  148.2500     2.4110    89.6040     8.2440     7.4670     9.0010    22.7410   -14.6060 
  148.3750     2.4160    94.2630     7.7110     7.1270     9.3640    22.8200   -14.4060 
  148.5000     2.4060   100.3630     7.0230     6.5840     8.1460    22.6630   -14.2090 
  148.6250     2.3880   105.1300     6.4520     6.0500     6.4240    22.6480   -13.9450 
  148.7500     2.3720   107.1320     6.1580     5.6960     5.7340    22.9510   -13.7820 
  148.8750     2.3590   106.1920     6.1770     5.5840     5.5880    23.4900   -13.5590 
  149.0000     2.3490   103.0620     6.4420     5.6920     5.6930    23.8420   -13.4150 
  149.1250     2.3420   101.8100     6.7990     5.9270     6.0180    23.6030   -13.3290 
  149.2500     2.3360   104.0040     7.0360     6.1210     6.4870    23.0650   -13.2170 
  149.3750     2.3270   105.8450     7.0380     6.1680     6.9760    22.7380   -13.1190 
  149.5000     2.3180   103.2310     6.7990     6.0400     7.2570    22.7640   -13.0130 
  149.6250     2.3180    96.8820     6.4280     5.8190     7.1460    23.0740   -12.9180 
  149.7500     2.3380    92.7680     6.2450     5.7160     6.7790    23.4630   -12.8330 
  149.8750     2.3840    92.9720     6.5050     5.9360     6.7140    23.7560   -12.7750 
  150.0000     2.4480    93.7170     7.5570     6.6790     7.6420    23.9200   -12.7140 
  150.1250     2.5190    87.9000     9.6610     8.2450     9.9160    24.0000   -12.7070 
  150.2500     2.5790    77.5440    12.7990    10.5720    13.4180    24.0770   -12.6950 
  150.3750     2.6220    67.0630    16.6330    13.5030    17.8450    24.1710   -12.7150 
  150.5000     2.6490    59.4620    20.2320    16.6550    22.5850    24.2360   -12.7140 
  150.6250     2.6580    55.7770    22.9660    19.3470    24.2840    24.0530   -12.7260 
  150.7500     2.6530    56.0430    24.5030    21.1200    24.6690    23.9820   -12.6830 
  150.8750     2.6390    58.7250    24.8070    21.8380    24.5110    23.8500   -12.7270 
  151.0000     2.6200    60.6920    24.2470    21.7080    23.5710    23.6810   -12.7010 
  151.1250     2.6040    60.7950    23.3770    21.1160    22.3870    23.5920   -12.7090 
  151.2500     2.6010    59.2650    22.6940    20.5390    22.2050    23.5990   -12.7560 
  151.3750     2.6100    55.9560    22.3940    20.2050    22.0300    23.7070   -12.7580 
  151.5000     2.6260    51.3040    22.5230    20.2200    22.9920    23.8860   -12.7990 
  151.6250     2.6350    49.7640    23.0540    20.6350    24.8910    23.9710   -12.8010 
  151.7500     2.6280    52.0350    23.7700    21.2960    25.2650    23.9700   -12.8690 
  151.8750     2.6050    53.4550    24.5330    22.0900    24.8370    23.7590   -12.8330 
  152.0000     2.5760    51.5350    25.2430    22.9150    25.2450    23.5730   -12.8720 
  152.1250     2.5550    50.9980    25.8250    23.6730    26.1350    23.6270   -12.8660 
  152.2500     2.5480    53.1370    26.2840    24.3220    26.7400    23.8350   -12.8170 
  152.3750     2.5530    54.2120    26.5970    24.8150    27.2350    24.1600   -12.8100 
  152.5000     2.5630    53.4830    26.7020    25.0860    27.5300    24.3300   -12.7810 
  152.6250     2.5680    53.5100    26.4320    24.9760    28.1730    24.3280   -12.7620 
  152.7500     2.5670    53.7810    25.7540    24.4610    28.3260    24.2990   -12.7170 
  152.8750     2.5610    54.2060    24.6670    23.5370    27.8510    24.2870   -12.6940 
  153.0000     2.5540    56.3900    23.2690    22.2870    27.1100    24.2830   -12.6710 
  153.1250     2.5470    58.0840    21.7670    20.8840    24.6540    24.2800   -12.6780 
  153.2500     2.5420    58.5320    20.4360    19.5950    22.0250    24.2780   -12.6950 
  153.3750     2.5380    60.0440    19.4670    18.6090    19.7030    24.2910   -12.7170 
  153.5000     2.5330    63.8810    18.9720    18.0520    18.2430    24.3350   -12.7260 
  153.6250     2.5270    66.6770    19.0420    18.0340    18.1060    24.4660   -12.7880 
  153.7500     2.5180    67.5620    19.5120    18.4180    18.2720    24.5080   -12.8510 
  153.8750     2.5080    67.7100    20.2530    19.0990    19.1880    24.4240   -12.9910 
  154.0000     2.5010    66.7740    21.1230    19.9500    21.5360    24.3950   -13.0490 
  154.1250     2.5020    63.7930    21.9610    20.8270    23.7150    24.3830   -13.1410 
  154.2500     2.5110    62.2280    22.6300    21.5800    24.0410    24.2120   -13.2380 
  154.3750     2.5240    63.9380    23.0130    22.0820    24.3010    23.9960   -13.3000 
  154.5000     2.5350    66.6040    23.0110    22.2230    24.8910    23.9220   -13.4090 
  154.6250     2.5380    66.9850    22.5260    21.8820    24.8850    23.9170   -13.4380 
  154.7500     2.5330    67.1560    21.7220    21.1960    25.2460    23.9190   -13.4950 
  154.8750     2.5250    67.6020    20.7660    20.3070    24.3370    23.9480   -13.4510 
  155.0000     2.5180    67.0880    19.8130    19.3650    22.4520    24.1850   -13.4340 
  155.1250     2.5120    66.4550    18.9600    18.4810    21.9350    24.1940   -13.3480 
  155.2500     2.5050    67.7840    18.1850    17.6670    22.2650    24.2810   -13.2420 
  155.3750     2.4940    69.5300    17.4630    16.9200    21.7280    24.3200   -13.1670 
  155.5000     2.4770    68.2170    16.8170    16.2610    20.3850    24.3340   -13.0550 
  155.6250     2.4580    65.8200    16.3620    15.7900    18.7240    24.3530   -12.9790 
  155.7500     2.4430    65.1200    16.1670    15.5610    16.6390    24.4040   -12.8540 
  155.8750     2.4400    65.7720    16.2680    15.6130    15.8920    24.4690   -12.7750 
  156.0000     2.4510    66.8490    16.6340    15.9320    16.3490    24.5050   -12.7140 
  156.1250     2.4730    68.2630    17.1940    16.4680    17.9210    24.5130   -12.6750 
  156.2500     2.4940    69.7310    17.8050    17.0770    19.1190    24.5060   -12.6340 
  156.3750     2.5050    70.0860    18.3950    17.6710    19.7990    24.4870   -12.5840 
  156.5000     2.5020    69.5910    18.9280    18.1930    20.5740    24.4940   -12.5300 
  156.6250     2.4880    69.7530    19.3530    18.5870    21.9590    24.5210   -12.4800 
  156.7500     2.4760    68.7850    19.6280    18.8320    22.2130    24.5540   -12.4390 
  156.8750     2.4700    66.7870    19.6790    18.8760    21.7020    24.5880   -12.3840 
  157.0000     2.4730    65.5460    19.4480    18.6710    21.5320    24.6110   -12.3410 
  157.1250     2.4810    66.6190    18.9120    18.1800    20.8260    24.5440   -12.3030 
