~V
VERS. 2.00: Ver 2.00
~W
STRT.M 64.0000:
STOP.M 278.0000:
STEP.M 0.1250:
NULL. -999.2500:
UWI. DF3056:
~C
DEPT.M :
SP.MV :
GR.API :
CALI.CM :
RXO.OHMM :
RI. :
RML.OHMM :
DEN.GM/CC :
~A
# ...
  266.5000   -12.8650    61.1530    24.7220     7.0030     8.5960    11.0080     2.4650 
  266.6250   -12.7990    61.1670    24.7890     6.9290     8.5000    10.9350     2.4470 
  266.7500   -12.8130    62.0140    24.8040     7.0460     8.4110    10.8570     2.4240 
  266.8750   -12.7720    60.5750    24.8170     7.2330     8.3320    10.7740     2.4180 
  267.0000   -12.6880    60.0850    24.9240     7.4840     8.2760    10.7160     2.4320 
  267.1250   -12.6830    60.0850    24.7670     7.7030     8.2580    10.7080     2.4520 
  267.2500   -12.6970    60.0850    24.7920     7.6580     8.2710    10.7350     2.4540 
  267.3750   -12.6330    60.0850    24.8750     7.5340     8.3060    10.7710     2.4350 
  267.5000   -12.5970    60.0850    24.7390     7.4690     8.3440    10.8120     2.4060 
  267.6250   -12.5900    60.0850    24.7210     7.1860     8.3650    10.8460     2.3820 
  267.7500   -12.5600    60.0850    24.7410     6.9310     8.3650    10.8660     2.3760 
  267.8750   -12.5430    60.0850    24.7590     6.7180     8.3530    10.8850     2.3840 
  268.0000   -12.5110    60.0850    24.9150     6.4150     8.3400    10.8970     2.3960 
  268.1250   -12.4990    60.0850    24.8010     6.1680     8.3090    10.9020     2.4050 
  268.2500   -12.4500    60.0850    24.8360     6.1890     8.2700    10.9050     2.4090 
  268.3750   -12.3830    60.0850    24.7450     6.0600     8.2220    10.9010     2.4110 
  268.5000   -12.2980    60.0850    24.7020     5.6160     8.1750    10.8840     2.4110 
  268.6250   -12.2020    60.0850    24.7000     5.2870     8.1330    10.8530     2.4100 
  268.7500   -12.1150    60.0850    24.7150     5.6630     8.1010    10.8240     2.4160 
  268.8750   -12.0190    60.0850    24.7310     6.0780     8.0920    10.8150     2.4300 
  269.0000   -11.9260    60.0850    24.7330     6.1950     8.1130    10.8470     2.4500 
  269.1250   -11.8130    60.0850    24.7320     6.2010     8.1790    10.9340     2.4700 
  269.2500   -11.7030    60.0850    24.7590     6.7120     8.2740    11.0520     2.4870 
  269.3750   -11.6300    60.0850    24.7960     7.4370     8.3850    11.1890     2.4960 
  269.5000   -11.5600    60.0850    24.8240     7.9900     8.4930    11.3260     2.4930 
  269.6250   -11.5230    60.0850    24.8920     8.8800     8.5830    11.4410     2.4810 
  269.7500   -11.5170    60.0850    24.8270     9.9950     8.6480    11.5220     2.4680 
  269.8750   -11.5060    60.0850    24.8540    11.0350     8.6740    11.5630     2.4620 
  270.0000   -11.5530    60.0850    24.7530    11.2140     8.6620    11.5490     2.4580 
  270.1250   -11.5590    60.0850    24.8660    10.2930     8.6210    11.5020     2.4520 
  270.2500   -11.5320    60.0850    24.8270     9.6690     8.5710    11.4600     2.4420 
  270.3750   -11.4820    60.0850    24.8640     9.0720     8.5290    11.4300     2.4450 
  270.5000   -11.5170    60.0850    24.8720     8.2610     8.5040    11.4220     2.4710 
  270.6250   -11.5530    60.0850    24.8180     7.6290     8.4890    11.4270     2.5100 
  270.7500   -11.5080    60.0850    24.9610     7.4490     8.4770    11.4410     2.5230 
  270.8750   -11.4160    60.0850    24.9310     7.8240     8.4730    11.4480     2.5050 
  271.0000   -11.2970    60.0850    24.8960     8.6810     8.4700    11.4330     2.4770 
  271.1250   -11.2180    60.0850    24.8190     9.4920     8.4560    11.3960     2.4670 
  271.2500   -11.1660    60.0850    24.9260     9.1720     8.4220    11.3330     2.4800 
  271.3750   -11.1230    60.0850    24.9280     8.4980     8.3810    11.2600     2.4910 
  271.5000   -11.0290    60.0850    24.9690     8.2570     8.3410    11.1950     2.4950 
  271.6250   -10.8720    60.0850    24.9190     8.7390     8.3120    11.1410     2.4910 
  271.7500   -10.8210    60.0850    24.8580     9.3450     8.2890    11.1010     2.4810 
  271.8750   -10.8170    60.0850    24.9580     9.4280     8.2730    11.0820     2.4720 
  272.0000   -10.7970    60.0850    24.9780     8.6860     8.2660    11.0830     2.4720 
  272.1250   -10.7730    60.0850    24.9260     8.3410     8.2680    11.0850     2.4850 
  272.2500   -10.7820    60.0850    24.8810     8.7260     8.2740    11.0850     2.5010 
  272.3750   -10.7820    60.0850    24.9730    10.3420     8.2760    11.0820     2.5140 
  272.5000   -10.8150    60.0850    24.9940    12.1810     8.2750    11.0790     2.5260 
  272.6250   -10.8870    60.0850    25.0190    13.0430     8.2750    11.0810     2.5330 
  272.7500   -10.8950    60.0850    25.1440    12.0160     8.2730    11.0820     2.5250 
  272.8750   -10.8750    60.0850    25.2510    10.6540     8.2720    11.0830     2.5040 
  273.0000   -10.8340    60.0850    25.1220    10.0100     8.2720    11.0830     2.4770 
  273.1250   -10.7360    60.0850    25.1790     9.9370     8.2720    11.0830     2.4540 
  273.2500   -10.6260    60.0850    25.3940     9.4710     8.2720    11.0830     2.4450 
  273.3750   -10.5070    60.0850    25.7180     8.3160     8.2720    11.0830     2.4480 
  273.5000   -10.2970    60.0850    25.7050     7.2640     8.2720    11.0830     2.4550 
  273.6250   -10.0970    60.0850    25.0440     6.2220     8.2720    11.0830     2.4500 
  273.7500    -9.8300    60.0850    24.3610     6.0140     8.2720    11.0830     2.4360 
  273.8750    -9.6040    60.0850    23.8760     6.0190     8.2720    11.0830     2.4340 
  274.0000    -9.5650    60.0850    23.4550     6.1060     8.2720    11.0830     2.4510 
  274.1250    -9.5650    60.0850    23.2250     6.2550     8.2720    11.0830     2.4750 
  274.2500  -999.2500    60.0850    23.2620     6.5260     8.2720    11.0830     2.4910 
  274.3750  -999.2500    60.0850    23.2050     6.9030     8.2720    11.0830     2.4930 
  274.5000  -999.2500    60.0850    23.0630     7.4940     8.2720    11.0830     2.4830 
  274.6250  -999.2500    60.0850    23.0460     7.5590     8.2720    11.0830     2.4690 
  274.7500  -999.2500    60.0850    22.9240     7.1640     8.2720    11.0830     2.4650 
  274.8750  -999.2500    60.0850    22.8250     6.6640     8.2720    11.0830     2.4730 
  275.0000  -999.2500    60.0850    22.7730     6.3570     8.2720    11.0830     2.4850 
  275.1250  -999.2500    60.0850    22.5020     6.4700     8.2720    11.0830     2.4900 
  275.2500  -999.2500    60.0850    22.3840     6.6160     8.2720    11.0830     2.4830 
  275.3750  -999.2500    60.0850    22.2020     6.6060     8.2720    11.0830     2.4670 
  275.5000  -999.2500    60.0850    22.0000     6.4230     8.2720    11.0830     2.4480 
  275.6250  -999.2500    60.0850    21.8770     6.7240     8.2720    11.0830     2.4340 
  275.7500  -999.2500    60.0850    21.7480     7.1950     8.2720    11.0830     2.4240 
  275.8750  -999.2500    60.0850    21.5790     7.3050     8.2720    11.0830     2.3870 
  276.0000  -999.2500    60.0850    21.3750     6.9780     8.2720    11.0830     2.2960 
  276.1250  -999.2500    60.0850    21.1360     6.7310     8.2720    11.0830     2.1610 
  276.2500  -999.2500    60.0850    20.5740     6.6390     8.2720    11.0830     2.0530 
  276.3750  -999.2500    60.0850    19.6090     6.5110     8.2720    11.0830     2.0080 
  276.5000  -999.2500    60.0850    17.5640     6.3000     8.2720    11.0830     2.0000 
  276.6250  -999.2500    60.0850    15.4150     6.1530     8.2720    11.0830     2.0000 
  276.7500  -999.2500    60.0850    15.0570     6.1020     8.2720    11.0830     2.0120 
  276.8750  -999.2500    60.0850    14.9920     6.1000     8.2720    11.0830     2.0450 
  277.0000  -999.2500    60.0850    14.9940     6.1240     8.2720    11.0830     2.0750 
  277.1250  -999.2500    60.0850    15.0070     6.1230     8.2720    11.0830     2.1210 
  277.2500  -999.2500    60.0850    14.9930     6.1090     8.2720    11.0830     2.0720 
  277.3750  -999.2500    60.0850    14.9920     6.0950     8.2720    11.0830     1.6380 
  277.5000  -999.2500    60.0850    14.9940     6.1110     8.2720    11.0830     0.8620 
  277.6250  -999.2500    60.0850    15.0040     6.1160     8.2720    11.0830     0.1680 
