~V
VERS. 2.00: Ver 2.00
~W
STRT.M 62.0000:
STOP.M 282.0000:
STEP.M 0.1250:
NULL. -999.2500:
UWI. DF3054:
~C
DEPT.M :
DEN.GM/CC :
GR.API :
CALI.CM :
RXO.OHMM :
RI. :
RML.OHMM :
SP.MV :
~A
# ...
  163.2500     2.3810   100.8480    25.4790    10.1510     9.5240    11.6980   -11.4000 
  163.3750     2.3890   100.5600    25.3550    11.6530    10.8590    13.2930   -11.7750 
  163.5000     2.3710    96.6930    25.3310    15.0120    12.7720    15.4130   -12.1440 
  163.6250     2.3500    88.1450    25.4600    21.9130    15.3390    18.1430   -12.5450 
  163.7500     2.3340    80.6990    25.5320    28.3500    18.1940    21.1500   -12.9800 
  163.8750     2.3240    77.1940    25.4370    30.4240    20.9780    24.1370   -13.4390 
  164.0000     2.3200    76.6650    25.1600    29.0550    23.4960    26.9960   -13.8890 
  164.1250     2.3220    76.1960    24.9650    28.2850    25.9490    30.0450   -14.3500 
  164.2500     2.3190    74.8650    24.8790    31.5850    28.8550    33.7560   -14.8220 
  164.3750     2.3070    74.9990    24.8440    41.6740    32.5120    38.2060   -15.3280 
  164.5000     2.2900    77.2720    24.8240    55.6290    36.5940    42.6640   -15.8420 
  164.6250     2.2770    79.6230    24.8240    61.2640    39.5830    45.2180   -16.3370 
  164.7500     2.2750    81.3150    24.8270    57.9800    40.2050    44.9420   -16.8350 
  164.8750     2.2820    82.7330    24.8240    48.5650    38.3860    42.1940   -17.3130 
  165.0000     2.2920    83.9480    24.8140    38.0330    35.2820    38.4490   -17.7740 
  165.1250     2.3010    85.2880    24.7910    31.6600    32.6230    35.6310   -18.1330 
  165.2500     2.3090    87.3800    24.7580    29.8860    31.3230    34.4930   -18.4350 
  165.3750     2.3140    87.8130    24.7430    30.6970    31.4690    34.9250   -18.6620 
  165.5000     2.3110    85.6140    24.7440    33.8840    32.6800    36.3050   -18.8140 
  165.6250     2.2980    82.0880    24.7520    37.4300    34.1580    37.6480   -18.8910 
  165.7500     2.2870    79.1910    24.7570    39.8450    34.9470    38.2070   -18.8980 
  165.8750     2.2890    78.0450    24.7580    38.4450    34.7590    37.9520   -18.8700 
  166.0000     2.3060    78.0510    24.7570    33.8120    34.0940    37.4950   -18.8340 
  166.1250     2.3260    78.5960    24.7530    29.8320    34.1710    38.1160   -18.8460 
  166.2500     2.3360    79.6850    24.7510    29.8960    35.9740    40.6790   -18.9120 
  166.3750     2.3360    82.7790    24.7570    35.8530    40.2610    46.0960   -18.9970 
  166.5000     2.3290    85.4010    24.7760    49.3860    47.3330    54.7530   -19.1160 
  166.6250     2.3160    81.6750    24.8030    65.8320    56.6400    65.3900   -19.2840 
  166.7500     2.2960    75.7160    24.8380    76.1750    65.5930    74.5410   -19.4820 
  166.8750     2.2760    73.3050    24.9370    79.3010    71.8720    79.9970   -19.6850 
  167.0000     2.2660    74.8680    25.1820    76.0270    74.3660    81.5450   -19.8740 
  167.1250     2.2760    75.6060    25.4290    68.4850    73.6630    80.5570   -20.0150 
  167.2500     2.2900    74.5770    25.6450    66.7720    72.4350    79.5160   -20.0890 
  167.3750     2.2920    75.4380    25.7450    71.2700    72.0530    79.5740   -20.1730 
  167.5000     2.2820    79.1280    25.7290    73.3240    72.7900    80.8640   -20.2700 
  167.6250     2.2690    82.3680    25.6640    70.9810    74.3330    82.9850   -20.3540 
  167.7500     2.2590    82.0760    25.6610    73.0520    76.1430    85.3690   -20.4510 
  167.8750     2.2530    79.7360    25.7380    76.7340    78.1970    88.1170   -20.5740 
  168.0000     2.2500    77.1360    25.8090    72.4000    81.0200    91.8660   -20.7600 
  168.1250     2.2500    74.5460    25.8090    71.2980    86.1340    98.0700   -20.9870 
  168.2500     2.2510    71.6450    25.7800    81.6220    94.3030   107.2820   -21.2800 
  168.3750     2.2500    70.0490    25.7780   103.4130   105.7150   119.6340   -21.6040 
  168.5000     2.2490    70.3460    25.7820   123.9240   119.5950   134.2980   -21.9480 
  168.6250     2.2490    69.6840    25.7650   128.1130   133.7900   148.9690   -22.3220 
  168.7500     2.2540    68.5790    25.7360   126.3070   145.3040   160.7440   -22.7090 
  168.8750     2.2610    68.6900    25.7240   126.9070   152.2940   167.8940   -23.0870 
  169.0000     2.2660    68.9960    25.7080   131.9970   154.6800   170.2210   -23.4170 
  169.1250     2.2520    67.0920    25.6570   133.8100   153.3120   168.3810   -23.7330 
  169.2500     2.2220    67.4800    25.5940   129.9950   150.1670   164.6090   -24.0310 
  169.3750     2.1940    71.8950    25.6150   123.9250   146.2630   160.1490   -24.3050 
  169.5000     2.1880    73.4720    25.7220   119.8680   142.5580   155.9270   -24.5310 
  169.6250     2.2070    67.5240    25.8400   118.9380   139.7450   152.4390   -24.6920 
  169.7500     2.2290    63.1930    25.8970   120.1060   137.3390   149.2060   -24.8230 
  169.8750     2.2400    65.5830    25.9070   122.1640   134.5840   145.5500   -24.9590 
  170.0000     2.2420    70.2700    25.9070   122.6010   130.8770   141.0020   -25.0950 
  170.1250     2.2350    70.2470    25.9120   116.0220   126.1120   135.6380   -25.2420 
  170.2500     2.2270    70.0220    25.9070   103.7580   121.3010   130.4760   -25.3400 
  170.3750     2.2220    72.2420    25.8890    94.7860   117.4910   126.4860   -25.3870 
  170.5000     2.2220    74.2550    25.8730    94.9490   115.4110   124.2970   -25.4030 
  170.6250     2.2210    72.5420    25.8730   101.8310   115.4160   124.2380   -25.4390 
  170.7500     2.2180    69.0040    25.8610   105.4410   116.7710   125.4890   -25.4400 
  170.8750     2.2190    67.1250    25.8350   107.2340   119.0000   127.4570   -25.4370 
  171.0000     2.2330    68.2390    25.7770   108.3430   121.6860   129.7180   -25.4370 
  171.1250     2.2470    70.9180    25.7000   107.1860   124.6200   132.2130   -25.4080 
  171.2500     2.2440    73.3400    25.6240   106.1750   127.8130   135.0350   -25.4130 
  171.3750     2.2260    73.9410    25.5630   107.5470   131.3210   138.0050   -25.4340 
  171.5000     2.2130    72.8350    25.5200   110.3170   134.6520   140.2190   -25.4710 
  171.6250     2.2200    69.8510    25.4710   109.4270   135.8650   139.3640   -25.4910 
  171.7500     2.2340    67.3240    25.4270   107.2230   133.2210   134.2380   -25.5210 
  171.8750     2.2380    67.1570    25.3830   105.7800   125.9270   124.8170   -25.5210 
  172.0000     2.2280    68.7120    25.3530   101.1500   114.9390   112.6780   -25.4970 
  172.1250     2.2170    69.6760    25.3620    86.2240   102.8770   100.6330   -25.4710 
  172.2500     2.2170    70.2150    25.4250    70.2390    92.6900    91.0130   -25.4440 
  172.3750     2.2310    70.2690    25.5430    63.5740    85.7430    84.8470   -25.4120 
  172.5000     2.2510    69.2880    25.6660    66.3350    82.4900    82.4120   -25.3900 
  172.6250     2.2610    67.7420    25.7110    71.2860    83.5830    84.1660   -25.3780 
  172.7500     2.2560    68.0810    25.7140    73.7670    88.2130    89.1090   -25.3530 
  172.8750     2.2370    70.1990    25.6860    75.9600    95.7820    96.5390   -25.3680 
  173.0000     2.2170    70.8630    25.6300    81.1180   105.0210   105.2260   -25.4570 
  173.1250     2.2060    68.3490    25.5750    92.6850   113.5570   112.9580   -25.5700 
  173.2500     2.2050    67.2360    25.5770   104.1170   118.9770   117.7370   -25.6720 
  173.3750     2.2090    68.8200    25.5500   105.9670   119.9730   118.6460   -25.7540 
  173.5000     2.2130    71.0180    25.4150    95.0250   117.0130   116.3180   -25.8330 
  173.6250     2.2200    72.0800    25.1680    80.0560   112.3920   112.9810   -25.9020 
  173.7500     2.2290    72.0230    24.9760    71.6280   109.3290   111.4900   -26.0240 
  173.8750     2.2360    71.7190    24.8770    70.7550   109.5900   113.3970   -26.1310 
  174.0000     2.2380    71.0940    24.8280    74.6540   113.7690   119.0790   -26.1950 
  174.1250     2.2330    70.1770    24.7710    80.0800   121.6540   128.0560   -26.2120 
  174.2500     2.2230    70.0430    24.7260    84.8270   130.9600   138.0560   -26.2560 
  174.3750     2.2130    70.2020    24.7520    88.9580   139.9840   147.4930   -26.3550 
