~V
VERS. 2.00: Ver 2.00
~W
STRT.M 90.0000:
STOP.M 264.0000:
STEP.M 0.1250:
NULL. -999.2500:
UWI. DF3021:
~C
DEPT.M :
AC.US/MT :
DEN.GM/CC :
GR.API :
CALI.CM :
RXO.OHMM :
RI. :
RML.OHMM :
SP.MV :
~A
# ...
  230.0000   260.5990     2.4570    66.8810    23.5210    17.4000    13.3540    13.8360   -13.2610 
  230.1250   255.8600     2.4770    68.0120    23.6200    16.4150    13.8080    14.2470   -13.1790 
  230.2500   255.2320     2.4900    70.4310    23.6890    16.0130    14.0410    14.4310   -13.1030 
  230.3750   256.3430     2.4980    69.4280    23.7090    15.9710    14.0490    14.3930   -13.0450 
  230.5000   257.6600     2.5010    63.6720    23.6410    15.7700    13.8740    14.1790   -12.9870 
  230.6250   258.7640     2.4970    61.0230    23.5420    15.2880    13.5770    13.8600   -12.9300 
  230.7500   259.8040     2.4890    64.2990    23.4640    15.0040    13.2640    13.5400   -12.9020 
  230.8750   260.6770     2.4770    67.9800    23.4260    15.2330    12.9890    13.2710   -12.8950 
  231.0000   261.1430     2.4660    69.6300    23.4600    15.6330    12.7890    13.0770   -12.9140 
  231.1250   261.5520     2.4630    72.5100    23.5400    15.1860    12.7100    12.9990   -12.9200 
  231.2500   263.2060     2.4650    76.2430    23.6170    14.2340    12.7580    13.0450   -12.9230 
  231.3750   266.7150     2.4680    77.3440    23.5790    14.1340    12.9380    13.2220   -12.9120 
  231.5000   270.5360     2.4730    74.1810    23.5390    15.7380    13.2390    13.5210   -12.9140 
  231.6250   271.0320     2.4780    70.6170    23.5680    17.4680    13.6360    13.9110   -12.9150 
  231.7500   268.2580     2.4840    68.9980    23.5920    17.8380    14.0470    14.3040   -12.9010 
  231.8750   265.1550     2.4880    68.4820    23.6170    16.8470    14.4020    14.6250   -12.8880 
  232.0000   264.1810     2.4900    66.9090    23.7040    15.5870    14.6440    14.8260   -12.8410 
  232.1250   264.1810     2.4860    68.3310    23.8000    14.9590    14.7170    14.8690   -12.7960 
  232.2500   262.0630     2.4790    74.9050    23.8140    14.4400    14.6270    14.7700   -12.7250 
  232.3750   257.6290     2.4780    80.3700    23.7870    14.0920    14.3740    14.5240   -12.6530 
  232.5000   253.1450     2.4840    81.0760    23.7180    14.0010    13.9660    14.1280   -12.5600 
  232.6250   251.7260     2.4840    82.7480    23.6010    13.7580    13.4230    13.5880   -12.4700 
  232.7500   253.4960     2.4760    87.7550    23.4540    12.9600    12.8380    12.9990   -12.3800 
  232.8750   257.2590     2.4660    89.2830    23.3220    11.8310    12.2920    12.4570   -12.2850 
  233.0000   261.8030     2.4610    82.3090    23.2110    10.8650    11.8590    12.0490   -12.2060 
  233.1250   267.3190     2.4630    72.5450    23.2370    10.8490    11.6110    11.8570   -12.1180 
  233.2500   274.0740     2.4710    66.0740    23.3230    11.7490    11.5330    11.8480   -12.0440 
  233.3750   280.5480     2.4850    63.7250    23.5140    13.0130    11.6080    11.9970   -11.9760 
  233.5000   283.7190     2.4980    63.3150    23.7250    14.1170    11.8040    12.2630   -11.9380 
  233.6250   281.0970     2.5060    63.4820    23.8300    15.1460    12.0810    12.5960   -11.9220 
  233.7500   275.2950     2.5150    63.9990    23.8360    15.9860    12.3740    12.9270   -11.9070 
  233.8750   268.7440     2.5260    64.9930    23.8210    16.5440    12.6390    13.2130   -11.8870 
  234.0000   262.4870     2.5320    66.2250    23.8920    17.1920    12.8350    13.4150   -11.8520 
  234.1250   256.4540     2.5300    66.6130    23.9140    17.2560    12.9080    13.4840   -11.8510 
  234.2500   251.1370     2.5300    66.5990    23.9170    16.6170    12.8720    13.4410   -11.8710 
  234.3750   248.2770     2.5290    65.9700    23.8920    15.2380    12.7570    13.3200   -11.8860 
  234.5000   249.7100     2.5200    65.2930    23.8120    13.7880    12.6040    13.1630   -11.8710 
  234.6250   255.3900     2.5020    65.5590    23.7600    13.5050    12.4530    13.0130   -11.8200 
  234.7500   260.4310     2.4890    66.5680    23.7860    14.0260    12.3130    12.8840   -11.7850 
  234.8750   260.9840     2.4840    66.6710    23.8270    14.8720    12.1490    12.7410   -11.7640 
  235.0000   256.7770     2.4800    65.7450    23.7670    15.7490    11.9020    12.5120   -11.7610 
  235.1250   252.1420     2.4760    66.3600    23.7040    16.3950    11.4970    12.1000   -11.7150 
  235.2500   252.4630     2.4750    69.5340    23.7100    15.9360    10.9620    11.5310   -11.6390 
  235.3750   260.0400     2.4720    71.7610    23.7760    14.2370    10.3560    10.8790   -11.5580 
  235.5000   273.6980     2.4630    70.9410    23.8290    12.4390     9.7610    10.2510   -11.4920 
  235.6250   288.2240     2.4560    68.0730    23.8770    11.4650     9.2650     9.7610   -11.4360 
  235.7500   297.6200     2.4590    64.9530    23.8900    11.5050     8.8820     9.4140   -11.3610 
  235.8750   300.3190     2.4740    62.4960    23.9110    12.6010     8.5960     9.1780   -11.2680 
  236.0000   298.7330     2.4990    60.8590    23.9550    14.1420     8.3820     9.0080   -11.1690 
  236.1250   296.5790     2.5210    60.5580    23.9820    14.7810     8.2210     8.8720   -11.0930 
  236.2500   295.2200     2.5270    61.5320    23.9180    13.6690     8.0930     8.7480   -11.0470 
  236.3750   293.9460     2.5150    62.3320    23.8470    11.3870     7.9950     8.6420   -11.0060 
  236.5000   292.1640     2.4940    61.4760    23.8590     9.2590     7.9300     8.5700   -10.9800 
  236.6250   289.7080     2.4730    60.2820    23.8500     8.5150     7.8990     8.5480   -10.9500 
  236.7500   286.4730     2.4520    61.9880    23.8770     8.6280     7.8860     8.5570   -10.9310 
  236.8750   282.2970     2.4330    65.4090    23.9650     9.2390     7.8770     8.5820   -10.9400 
  237.0000   277.8810     2.4220    66.4170    24.0220    10.4520     7.8600     8.6040   -10.9430 
  237.1250   275.6780     2.4230    67.4740    24.0460    12.0810     7.8220     8.6010   -10.9560 
  237.2500   277.5280     2.4250    72.0720    24.0620    12.5030     7.7600     8.5660   -10.9560 
  237.3750   283.4430     2.4150    74.6110    24.0480    11.2020     7.6720     8.4940   -10.9740 
  237.5000   290.4400     2.3970    69.5500    23.9870     9.2900     7.5580     8.3850   -10.9860 
  237.6250   291.8890     2.3920    61.4450    23.9320     8.2270     7.4240     8.2530   -10.9980 
  237.7500   285.4050     2.4060    58.6690    23.9250     7.7380     7.3040     8.1490   -11.0200 
  237.8750   275.1130     2.4230    60.5270    23.9580     7.4000     7.2320     8.1200   -11.0140 
  238.0000   268.9620     2.4310    61.1060    23.9790     6.9400     7.2230     8.1830   -11.0170 
  238.1250   271.3570     2.4350    59.5860    23.9650     6.3910     7.2660     8.3180   -11.0290 
  238.2500   276.4210     2.4440    57.9470    23.9220     6.0880     7.2970     8.4370   -11.0260 
  238.3750   282.9550     2.4610    57.6640    23.8780     6.1940     7.2590     8.4560   -10.9950 
  238.5000   296.8650     2.4820    58.2940    23.9160     6.4000     7.1080     8.3170   -10.9250 
  238.6250   321.1660     2.4960    58.1710    24.0770     6.3630     6.8410     8.0140   -10.8630 
  238.7500   341.1150     2.4880    57.4140    24.1950     6.0620     6.5530     7.6830   -10.7850 
  238.8750   345.4240     2.4520    57.4380    24.2130     5.8580     6.3370     7.4600   -10.6930 
  239.0000   338.2470     2.4000    59.2040    24.1650     5.8520     6.2700     7.4560   -10.5840 
  239.1250   336.1930     2.3680    61.2690    24.0990     6.7550     6.4250     7.7610   -10.4600 
  239.2500   342.3050     2.3600    60.4700    24.1570     9.9280     6.7490     8.2790   -10.3700 
  239.3750   345.8590     2.3680    61.0060    24.3380    16.5260     7.1690     8.8880   -10.2940 
  239.5000   338.7930     2.3580    64.9970    24.4420    24.1240     7.5810     9.4300   -10.2360 
  239.6250   326.4840     2.3290    68.2680    24.0320    25.0580     7.8540     9.7270   -10.2070 
  239.7500   320.7210     2.3200    66.8880    23.7170    20.1710     7.9500     9.7610   -10.1900 
  239.8750   321.4980     2.3480    62.8680    23.5320    14.1570     7.8810     9.5830   -10.2050 
