~V
VERS. 2.00: Ver 2.00
~W
STRT.M 60.0000:
STOP.M 275.0000:
STEP.M 0.1250:
NULL. -999.2500:
UWI. DF3003:
~C
DEPT.M :
DEN.GM/CC :
SP.MV :
AC.US/MT :
GR.API :
RML.OHMM :
RI. :
RXO.OHMM :
CALI.CM :
~A
# ...
  270.0000     2.4850    -7.6950   240.1150    63.0150    21.4380    21.5870    21.3630    24.1820 
  270.1250     2.4780    -7.7470   235.1940    63.0150    21.4380    21.5870    19.8640    24.1710 
  270.2500     2.4820    -7.7620   232.5480    63.0150    21.4380    21.5870    19.6480    24.1610 
  270.3750     2.4970    -7.8280   229.3510    63.0150    21.4380    21.5870    19.7530    24.1560 
  270.5000     2.5150    -7.9940   224.6660    63.0150    21.4380    21.5870    19.8050    24.1500 
  270.6250     2.5160    -8.1030   222.7520    63.0150    21.4380    21.5870    19.9880    24.1420 
  270.7500     2.4790    -8.1720   224.6220    63.0150    21.4380    21.5870    20.1640    24.0950 
  270.8750     2.3910    -8.1490   227.9710    63.0150    21.4380    21.5870    20.0300    23.9770 
  271.0000     2.2610    -8.0440   230.2130    63.0150    21.4380    21.5870    18.9520    23.7540 
  271.1250     2.1180    -7.9870   230.6730    63.0150    21.4380    21.5870    16.7880    23.3440 
  271.2500     1.9940    -7.9160   230.9890    63.0150    21.4380    21.5870    13.8450    22.5890 
  271.3750     1.9030    -7.8400   231.8690    63.0150    21.4380    21.5870    11.1090    21.5600 
  271.5000     1.8480    -7.7760   233.8050    63.0150    21.4380    21.5870     9.6780    20.8910 
  271.6250     1.8260    -7.7340   237.0450    63.0150    21.4380    21.5870     9.3390    20.7020 
  271.7500     1.8200    -7.7390   242.3980    63.0150    21.4380    21.5870     9.3370    20.6960 
  271.8750     1.8210    -7.7900   248.6320    63.0150    21.4380    21.5870     9.3370    20.6960 
  272.0000     1.8240    -7.9410   252.5250    63.0150    21.4380    21.5870     9.3370    20.6960 
  272.1250     1.8270    -8.1620   253.4370    63.0150    21.4380    21.5870     9.3360    20.6960 
  272.2500     1.8300    -8.4110   254.9070    63.0150    21.4380    21.5870     9.3360    20.6960 
  272.3750     1.8310    -8.6600   254.6900    63.0150    21.4380    21.5870     9.3350    20.6960 
  272.5000     1.8320    -8.8690   247.9040    63.0150    21.4380    21.5870     9.3340    20.6960 
  272.6250     1.8310    -9.0520   236.9510    63.0150    21.4380    21.5870     9.3320    20.6960 
  272.7500     1.8300    -9.2380   230.7270    63.0150    21.4380    21.5870     9.3310    20.6960 
  272.8750     1.8280    -9.3930   229.5900    63.0150    21.4380    21.5870     9.3310    20.6960 
  273.0000     1.8260    -9.4250   230.0170    63.0150    21.4380    21.5870     9.3320    20.6950 
  273.1250     1.8240    -9.4290   229.8820    63.0150    21.4380    21.5870     9.3330    20.6930 
  273.2500     1.8230    -9.4340   230.3450    63.0150    21.4380    21.5870     9.3330    20.6900 
  273.3750     1.8230    -9.4360   231.9090    63.0150    21.4380    21.5870     9.3330    20.6870 
  273.5000     1.8230  -999.2500   234.5230    63.0150    21.4380    21.5870     9.3330    20.6860 
  273.6250     1.8240  -999.2500   238.4100    63.0150    21.4380    21.5870     9.3320    20.6860 
  273.7500     1.8250  -999.2500   241.7720    63.0150    21.4380    21.5870     9.3300    20.6840 
  273.8750     1.8270  -999.2500   241.3750    63.0150    21.4380    21.5870     9.3280    20.6820 
  274.0000     1.8290  -999.2500   236.6870    63.0150    21.4380    21.5870     9.3250    20.6770 
  274.1250     1.8280  -999.2500   231.9100    63.0150    21.4380    21.5870     9.3230    20.6710 
  274.2500  -999.2500  -999.2500   230.3390    63.0150    21.4380    21.5870     9.3220    20.6690 
  274.3750  -999.2500  -999.2500   230.5880    63.0150    21.4380    21.5870     9.3230    20.6700 
  274.5000  -999.2500  -999.2500   230.4240    63.0150    21.3610    21.5100     9.3230    20.6730 
  274.6250  -999.2500  -999.2500   230.1280  -999.2500  -999.2500  -999.2500  -999.2500  -999.2500 
  274.7500  -999.2500  -999.2500   229.9490  -999.2500  -999.2500  -999.2500  -999.2500  -999.2500 
  274.8750  -999.2500  -999.2500   230.0120  -999.2500  -999.2500  -999.2500  -999.2500  -999.2500 
  275.0000  -999.2500  -999.2500   230.3970  -999.2500  -999.2500  -999.2500  -999.2500  -999.2500 
