~V
VERS. 2.00: Ver 2.00
~W
STRT.M 61.0000:
STOP.M 279.0000:
STEP.M 0.1250:
NULL. -999.2500:
UWI. DF3040:
~C
DEPT.M :
GR.API :
CALI.CM :
RXO.OHMM :
RI. :
RML.OHMM :
DEN.GM/CC :
SP.MV :
~A
# ...
  117.2500    66.5580    22.4020    10.0710     8.4050     8.7620     2.2420   -21.3770 
  117.3750    66.7260    22.2660    10.0480     8.3950     8.7120     2.2430   -21.1670 
  117.5000    64.6790    22.0720    10.0420     8.3430     8.6340     2.2230   -20.9170 
  117.6250    64.2900    21.8530     9.4750     8.2420     8.5310     2.1860   -20.6060 
  117.7500    65.8520    21.8270     9.3240     8.0820     8.3890     2.1550   -20.2580 
  117.8750    65.4610    22.0260     9.4220     7.8650     8.1760     2.1350   -19.8600 
  118.0000    65.7380    22.4150     9.3720     7.5820     7.8990     2.1310   -19.4160 
  118.1250    72.3940    22.9720     8.7940     7.2600     7.5820     2.1550   -18.9310 
  118.2500    81.8040    23.1460     8.0410     6.9500     7.2860     2.2040   -18.4400 
  118.3750    88.8080    23.0410     7.1090     6.6620     7.0240     2.2490   -17.9860 
  118.5000    90.9350    23.0560     6.4760     6.4020     6.8050     2.2700   -17.5860 
  118.6250    88.2400    23.0980     6.7350     6.2060     6.6460     2.2770   -17.3320 
  118.7500    84.8260    23.1100     6.8360     6.0470     6.5390     2.2940   -17.1870 
  118.8750    85.4600    23.1840     6.8440     5.9360     6.5030     2.3160   -17.1200 
  119.0000    91.5500    23.2070     6.7530     5.8880     6.5320     2.3290   -17.0800 
  119.1250    95.5210    23.4870     6.7690     5.9070     6.6130     2.3270   -17.0590 
  119.2500    93.7600    23.7620     6.9300     5.9580     6.7530     2.3210   -17.0370 
  119.3750    89.8290    23.8550     7.1480     6.0270     6.9300     2.3170   -17.0250 
  119.5000    87.2800    23.8230     7.7450     6.0780     7.1190     2.3130   -17.0680 
  119.6250    85.0930    23.5940     7.7530     6.0720     7.2520     2.3000   -17.1270 
  119.7500    84.1030    23.1970     7.7310     6.0260     7.3860     2.2800   -17.1750 
  119.8750    87.0280    22.9700     7.4870     5.9990     7.5600     2.2660   -17.2220 
  120.0000    92.2590    23.2850     7.4010     6.0150     7.8290     2.2680   -17.3060 
  120.1250    96.5060    23.7750     7.1440     6.1260     8.2090     2.2880   -17.3940 
  120.2500    97.1810    23.7500     7.2080     6.3290     8.6300     2.3170   -17.4610 
  120.3750    95.1190    23.7050     7.5800     6.5710     8.9990     2.3620   -17.4780 
  120.5000    90.8330    23.7940     9.4080     6.7840     9.2520     2.4130   -17.4280 
  120.6250    87.3570    23.7960    11.0960     6.8950     9.3280     2.4290   -17.3450 
  120.7500    88.3680    23.7250    10.9170     6.8790     9.1990     2.3910   -17.2840 
  120.8750    92.1220    23.4720     9.4350     6.7380     8.9240     2.3260   -17.2740 
  121.0000    95.8960    23.2200     9.3130     6.5850     8.6810     2.2710   -17.3180 
  121.1250    97.0360    23.1890     8.9250     6.5120     8.6200     2.2530   -17.4250 
  121.2500    95.9430    23.3460     8.6030     6.5330     8.7360     2.2530   -17.5770 
  121.3750    93.0640    23.4310     8.6800     6.6320     8.9740     2.2530   -17.7570 
  121.5000    88.9390    23.4430     8.9590     6.7830     9.2690     2.2470   -17.9100 
  121.6250    88.1220    23.4220     8.8080     6.8740     9.4150     2.2440   -18.0290 
  121.7500    91.1180    23.2560     8.3260     6.8360     9.3840     2.2540   -18.1200 
  121.8750    94.6090    23.0050     7.6900     6.6860     9.2060     2.2770   -18.1570 
  122.0000    96.4570    23.1060     7.2730     6.4660     8.9370     2.3000   -18.1410 
  122.1250    97.3610    23.4850     7.1260     6.2260     8.6480     2.3040   -18.0610 
  122.2500    98.2050    23.7150     7.4380     6.0330     8.4180     2.2910   -17.9220 
  122.3750    97.9620    23.7820     7.9080     5.9150     8.2950     2.2730   -17.7830 
  122.5000    97.0080    23.7060     8.0510     5.8690     8.2380     2.2660   -17.7020 
  122.6250    95.3410    23.4780     8.6400     5.8940     8.1760     2.2700   -17.7170 
  122.7500    92.9370    23.3380     9.0590     5.9740     8.0940     2.2730   -17.7660 
  122.8750    91.5090    23.2330     8.7710     6.0970     7.9920     2.2770   -17.8330 
  123.0000    93.2090    23.2340     7.6910     6.2630     7.9170     2.2900   -17.8970 
  123.1250    95.5010    23.3320     7.2030     6.4780     7.9120     2.3050   -17.9520 
  123.2500    93.4320    23.3220     7.7800     6.7240     7.9510     2.3010   -18.0010 
  123.3750    87.2550    23.1850     8.7140     6.9500     7.9720     2.2710   -18.0130 
  123.5000    81.1220    23.1080     9.2600     7.0700     7.9230     2.2330   -17.9770 
  123.6250    77.0990    22.9810     8.8830     7.0380     7.7830     2.2140   -17.8490 
  123.7500    77.3990    22.8760     8.7160     6.8530     7.5300     2.2250   -17.7020 
  123.8750    84.4140    22.6650     8.2590     6.5480     7.1860     2.2550   -17.5700 
  124.0000    95.2380    22.8220     7.1960     6.1920     6.8650     2.2900   -17.4580 
  124.1250   101.2220    23.2160     6.3610     5.8910     6.7120     2.3190   -17.3760 
  124.2500    99.6690    23.5570     6.4260     5.6730     6.7180     2.3410   -17.3030 
  124.3750    95.1900    23.7410     7.4420     5.5460     6.8680     2.3560   -17.2290 
  124.5000    92.3110    23.7850     8.2320     5.5170     7.1140     2.3660   -17.1530 
  124.6250    92.9070    23.7000     8.3280     5.5730     7.3460     2.3680   -17.1120 
  124.7500    92.9000    23.5670     7.9540     5.6690     7.5230     2.3620   -17.1040 
  124.8750    89.6850    23.4510     7.8040     5.7960     7.6360     2.3500   -17.1610 
  125.0000    84.9480    23.4380     7.8040     5.9370     7.6970     2.3360   -17.2810 
  125.1250    81.7790    23.5380     7.5580     6.0730     7.7500     2.3260   -17.4520 
  125.2500    79.4860    23.7170     7.6970     6.2110     7.8530     2.3190   -17.6780 
  125.3750    77.5820    23.6360     8.1080     6.3230     7.9980     2.3160   -17.9260 
  125.5000    79.3710    23.6020     8.5020     6.3830     8.1440     2.3160   -18.1600 
  125.6250    84.2580    23.5970     8.8510     6.3710     8.2760     2.3140   -18.3180 
  125.7500    85.3740    23.5570     9.1360     6.3070     8.3360     2.3090   -18.4220 
  125.8750    82.2600    23.4840     9.5320     6.2080     8.2970     2.3020   -18.4710 
  126.0000    81.0840    23.5050     9.8920     6.1020     8.2100     2.2960   -18.5070 
  126.1250    86.5340    23.7070     9.6040     6.0150     8.1070     2.2970   -18.5520 
  126.2500    92.0060    23.7620     8.8500     5.9530     8.0440     2.3100   -18.5930 
  126.3750    93.2680    23.8760     8.0970     5.9370     8.0390     2.3310   -18.6390 
  126.5000    91.6720    23.9240     7.8630     5.9660     8.0850     2.3460   -18.7030 
  126.6250    91.6960    23.8820     8.0310     6.0180     8.1460     2.3410   -18.8150 
  126.7500    94.2400    23.7950     8.1900     6.0770     8.2130     2.3300   -18.9130 
  126.8750    96.3470    23.7580     8.2080     6.1390     8.2810     2.3330   -18.9880 
  127.0000    94.1890    23.7380     8.4170     6.1840     8.3050     2.3540   -19.0260 
  127.1250    88.5660    23.7370     8.4900     6.1620     8.2390     2.3720   -19.0530 
  127.2500    84.6710    23.6960     8.6590     6.0890     8.0940     2.3710   -19.1080 
  127.3750    83.6830    23.6750     8.5850     5.9950     7.9300     2.3590   -19.2040 
  127.5000    84.1640    23.7590     8.5760     5.9220     7.8000     2.3480   -19.3610 
  127.6250    85.6730    23.8950     8.9100     5.9380     7.8100     2.3350   -19.5610 
  127.7500    86.7830    24.0230     8.8730     6.0580     7.9950     2.3170   -19.7980 
  127.8750    85.2680    24.0220     8.6020     6.2920     8.3430     2.3080   -20.0250 
  128.0000    79.2810    23.9680     8.2130     6.5990     8.7920     2.3260   -20.2580 
  128.1250    73.4300    23.5800     9.0020     6.9190     9.2110     2.3600   -20.4730 
  128.2500    72.5040    22.9180     9.4820     7.1290     9.4630     2.3760   -20.6610 
  128.3750    76.6110    22.5330     9.3650     7.1350     9.4190     2.3630   -20.8440 
