~V
VERS. 2.00: Ver 2.00
~W
STRT.M 125.0000:
STOP.M 255.0000:
STEP.M 0.1250:
NULL. -999.2500:
UWI. DF3006:
~C
DEPT.M :
GR.API :
RML.OHMM :
RI. :
RXO.OHMM :
CALI.CM :
DEN.GM/CC :
SP.MV :
~A
# ...
  237.5000    79.8310    26.7670    22.3560    23.0850    24.1510     2.3790   -18.1690 
  237.6250    83.8880    31.3040    26.0450    28.3760    24.1610     2.4540   -18.0030 
  237.7500    87.2240    34.3620    28.7690    34.2750    24.1840     2.5180   -17.8360 
  237.8750    86.2370    34.4430    29.1960    38.2800    24.2210     2.5570   -17.6200 
  238.0000    79.9440    30.8180    26.6740    40.4450    24.2430     2.5650   -17.3630 
  238.1250    71.6270    24.4850    21.7140    36.5250    24.2470     2.5430   -17.1470 
  238.2500    65.0060    17.9630    16.5460    30.3800    24.2490     2.4950   -16.8810 
  238.3750    60.3480    12.8370    12.4020    26.4270    24.2640     2.4420   -16.5610 
  238.5000    58.0640    10.0450     9.6520    20.1690    24.2840     2.3990   -16.3440 
  238.6250    58.5110     8.9620     8.2810    12.0210    24.2830     2.3770   -16.1550 
  238.7500    60.9380     8.7220     7.7340     7.8810    24.2750     2.3780   -15.9620 
  238.8750    64.3120     8.9520     7.7290     6.6920    24.2730     2.3880   -15.8750 
  239.0000    67.0050     9.3670     8.0320     6.6040    24.1570     2.3960   -15.8250 
  239.1250    68.1810     9.7630     8.4500     6.7060    24.1390     2.3940   -15.7870 
  239.2500    69.9440    10.0550     8.8240     6.8250    24.1350     2.3800   -15.8220 
  239.3750    72.8230    10.2300     9.0900     6.8940    24.1420     2.3640   -15.8850 
  239.5000    72.9400    10.2960     9.2200     6.9210    24.1890     2.3530   -15.9410 
  239.6250    68.5660    10.2460     9.1860     6.9710    24.2030     2.3520   -15.9990 
  239.7500    64.3980    10.1090     9.0330     7.0260    24.2350     2.3620   -16.1060 
  239.8750    62.9250     9.9250     8.8090     7.0570    24.2780     2.3760   -16.1070 
  240.0000    62.8320     9.7710     8.5900     7.1370    24.3610     2.3880   -16.1550 
  240.1250    61.7940     9.7800     8.4970     7.3660    24.5480     2.4010   -16.1410 
  240.2500    61.7360     9.9980     8.5810     7.8150    24.6480     2.4210   -16.1030 
  240.3750    62.1530    10.4100     8.8440     8.6930    24.6650     2.4520   -16.1650 
  240.5000    60.3200    10.9240     9.2210    10.3240    24.6700     2.4900   -16.1180 
  240.6250    57.9250    11.3870     9.5950    12.7850    24.6890     2.5220   -16.1470 
  240.7500    60.2840    11.6890     9.8550    14.4380    24.7260     2.5280   -16.1610 
  240.8750    66.2890    11.8060     9.9570    13.1920    24.7330     2.5130   -16.1100 
  241.0000    70.8060    11.7750     9.9130    10.3020    24.7330     2.4880   -16.0750 
  241.1250    70.1070    11.6470     9.7580     8.6510    24.7380     2.4670   -16.0510 
  241.2500    66.9430    11.4790     9.5570     8.0130    24.7670     2.4560   -15.9410 
  241.3750    64.2540    11.2840     9.3320     7.8380    24.7950     2.4490   -15.7810 
  241.5000    64.5210    11.0690     9.0940     7.6950    24.8000     2.4400   -15.6910 
  241.6250    66.4900    10.8630     8.8650     7.5960    24.7980     2.4300   -15.5060 
  241.7500    66.5830    10.7050     8.6740     7.5430    24.7810     2.4210   -15.3520 
  241.8750    66.8080    10.6160     8.5430     7.5500    24.6820     2.4150   -15.2440 
  242.0000    69.1100    10.5930     8.4810     7.6080    24.4890     2.4110   -15.1050 
  242.1250    71.5850    10.6260     8.4940     7.6940    24.2940     2.4060   -14.9840 
  242.2500    72.4840    10.6970     8.5590     7.7610    24.3050     2.4000   -14.8940 
  242.3750    72.6070    10.8090     8.6680     7.9490    24.3080     2.3940   -14.8500 
  242.5000    72.8980    10.9730     8.8200     8.3780    24.3090     2.3920   -14.7690 
  242.6250    73.5110    11.1960     9.0130     8.9860    24.3070     2.3950   -14.6960 
  242.7500    73.3360    11.4400     9.2230     9.7030    24.3010     2.4010   -14.6230 
  242.8750    71.4210    11.6650     9.4200    10.4020    24.2890     2.4090   -14.5590 
  243.0000    68.8670    11.8290     9.5720    10.7640    24.2630     2.4220   -14.5250 
  243.1250    68.3020    11.8820     9.6380    10.6600    24.2280     2.4410   -14.4530 
  243.2500    67.4820    11.8390     9.6190    10.4580    24.1770     2.4700   -14.4520 
  243.3750    64.1800    11.7310     9.5340    10.3950    24.1380     2.5020   -14.4180 
  243.5000    61.7060    11.6050     9.4160    10.3810    24.1240     2.5270   -14.3240 
  243.6250    63.6880    11.5180     9.3160    10.1810    24.1410     2.5380   -14.3110 
  243.7500    66.1580    11.4920     9.2610     9.7310    24.1860     2.5290   -14.2630 
  243.8750    66.4480    11.5160     9.2530     9.4210    24.2480     2.5100   -14.1860 
  244.0000    66.8940    11.5600     9.2760     9.4850    24.2920     2.4900   -14.1220 
  244.1250    70.1200    11.5930     9.3100     9.6690    24.3040     2.4730   -14.0960 
  244.2500    71.2850    11.6070     9.3420     9.6410    24.3060     2.4600   -13.9730 
  244.3750    70.8820    11.6140     9.3740     9.6380    24.3060     2.4530   -13.8220 
  244.5000    70.8820    11.6330     9.4120     9.5780    24.3060     2.4500   -13.8050 
  244.6250    70.8820    11.6790     9.4600     9.7980    24.3050     2.4530   -13.6600 
  244.7500    70.8820    11.7400     9.5120    10.1810    24.3050     2.4590   -13.5180 
  244.8750    70.8820    11.8030     9.5640    10.2270    24.3050     2.4640   -13.5090 
  245.0000    70.8820    11.8670     9.6180     9.9580    24.3050     2.4690   -13.4140 
  245.1250    70.8820    11.9420     9.6850     9.8810    24.2960     2.4740   -13.3070 
  245.2500    70.8820    12.0300     9.7620    10.0090    24.2710     2.4780   -13.2890 
  245.3750    70.8820    12.1170     9.8390    10.1680    24.2650     2.4800   -13.1750 
  245.5000    70.8820    12.1780     9.9000    10.2820    24.2460     2.4770   -12.9990 
  245.6250    70.8820    12.1900     9.9300    10.1810    24.1420     2.4690   -12.8970 
  245.7500    70.8820    12.1770     9.9410     9.7760    24.0160     2.4580   -12.7370 
  245.8750    70.8820    12.1890     9.9650     9.4530    23.9580     2.4500   -12.5580 
  246.0000    70.8820    12.2690    10.0290     9.4200    23.9370     2.4470   -12.3710 
  246.1250    70.8820    12.4400    10.1500     9.6000    23.9380     2.4500   -12.1800 
  246.2500    70.8820    12.6420    10.2940     9.9190    23.9670     2.4600   -11.9860 
  246.3750    70.8820    12.8140    10.4220    10.1870    23.9950     2.4710   -11.8470 
  246.5000    70.8820    12.9070    10.5020    10.2250    24.0030     2.4800   -11.7720 
  246.6250    70.8820    12.9040    10.5150     9.9790    24.0230     2.4870   -11.6600 
  246.7500    70.8820    12.8610    10.4930     9.8430    24.0670     2.4910   -11.6020 
  246.8750    70.8820    12.8170    10.4670     9.8040    24.1110     2.4930   -11.5800 
  247.0000    70.8820    12.8010    10.4650     9.7800    24.1330     2.4920   -11.5590 
  247.1250    70.8820    12.8480    10.5190     9.8400    24.1550     2.4880   -11.5210 
  247.2500    70.8820    12.9800    10.6450     9.9390    24.1950     2.4810   -11.5250 
  247.3750    70.8820    13.2240    10.8520    10.0730    24.2430     2.4750   -11.5020 
  247.5000    70.8820    13.5760    11.1330    10.4190    24.2640     2.4730   -11.4430 
  247.6250    70.8820    13.9750    11.4490    10.8020    24.2670     2.4770   -11.4950 
  247.7500    70.8820    14.3080    11.7260    10.9700    24.2670     2.4850   -11.4640 
  247.8750    70.8820    14.5040    11.9090    10.8890    24.2690     2.4930   -11.3650 
  248.0000    70.8820    14.5560    11.9740    10.7640    24.2770     2.5000   -11.2660 
  248.1250    70.8820    14.5060    11.9290    10.6270    24.3250     2.5050   -11.1360 
  248.2500    70.8820    14.4410    11.8440    10.5500    24.3390     2.5090   -11.0090 
  248.3750    70.8820    14.4010    11.7630    10.5440    24.3780     2.5130   -10.9290 
  248.5000    70.8820    14.3910    11.7100    10.6130    24.4000     2.5160   -10.8940 
  248.6250    70.8820    14.4000    11.6880    10.7630    24.4230     2.5170   -10.7460 
