~V
VERS. 2.00: Ver 2.00
~W
STRT.M 66.0000:
STOP.M 262.0000:
STEP.M 0.1250:
NULL. -999.2500:
UWI. DF3009:
~C
DEPT.M :
GR.API :
RML.OHMM :
RI. :
RXO.OHMM :
CALI.CM :
DEN.GM/CC :
SP.MV :
~A
# ...
  122.2500    73.5710     9.5560     8.5220     9.1940    23.8490     2.1990   -27.3190 
  122.3750    76.3500     9.1950     8.1720     8.8510    23.7730     2.1970   -27.0450 
  122.5000    78.3900     8.9210     7.8870     8.5880    23.6420     2.1980   -26.8250 
  122.6250    82.0470     8.8230     7.7380     8.5080    23.6170     2.2000   -26.5790 
  122.7500    83.8190     8.8800     7.7190     8.4850    23.6350     2.2040   -26.4680 
  122.8750    81.6150     9.0530     7.8100     8.6540    23.6390     2.2090   -26.4570 
  123.0000    77.4670     9.2900     7.9770     8.8700    23.6610     2.2160   -26.5070 
  123.1250    75.1170     9.5380     8.1780     9.0740    23.5510     2.2210   -26.7290 
  123.2500    75.2960     9.7580     8.3720     9.1970    23.5490     2.2220   -27.0230 
  123.3750    77.1340     9.9300     8.5320     9.3100    23.5900     2.2190   -27.2950 
  123.5000    77.2590    10.0350     8.6400     9.6040    23.6840     2.2100   -27.6670 
  123.6250    72.5810    10.0420     8.6690    10.0110    23.8280     2.1980   -27.9780 
  123.7500    68.7660     9.9630     8.6240    10.1920    23.8260     2.1880   -28.2680 
  123.8750    69.6580     9.8140     8.5170     9.9340    23.7980     2.1830   -28.6500 
  124.0000    74.2560     9.6330     8.3770     9.4700    23.6900     2.1860   -28.9860 
  124.1250    77.8180     9.4830     8.2520     9.1460    23.6960     2.1950   -29.3720 
  124.2500    77.2540     9.4070     8.1850     9.1100    23.8080     2.2040   -29.8770 
  124.3750    73.9260     9.4190     8.1980     9.2290    23.8930     2.2100   -30.3590 
  124.5000    70.0400     9.5110     8.2920     9.2960    24.0550     2.2110   -30.8900 
  124.6250    67.6310     9.6620     8.4540     9.4530    24.1730     2.2060   -31.5430 
  124.7500    66.0320     9.8320     8.6420     9.6370    24.4150     2.1970   -32.0770 
  124.8750    63.4410    10.0000     8.8260     9.7850    24.5070     2.1860   -32.5970 
  125.0000    60.2010    10.1490     8.9830     9.8760    24.5540     2.1770   -33.2030 
  125.1250    59.3340    10.2540     9.0900     9.8350    24.6360     2.1710   -33.5680 
  125.2500    62.6800    10.3110     9.1520     9.8710    24.6470     2.1700   -33.7490 
  125.3750    65.4010    10.3190     9.1770     9.9110    24.7150     2.1730   -33.9490 
  125.5000    63.7960    10.2840     9.1770     9.7130    24.6490     2.1800   -33.9480 
  125.6250    61.1980    10.2180     9.1650     9.5770    24.6460     2.1890   -33.7510 
  125.7500    63.5970    10.1380     9.1490     9.5320    24.4870     2.1980   -33.6000 
  125.8750    67.5340    10.0510     9.1310     9.6380    24.2190     2.2060   -33.2930 
  126.0000    67.2150     9.9600     9.1050     9.7890    23.9620     2.2110   -32.8610 
  126.1250    63.7620     9.8700     9.0680     9.9890    23.5910     2.2110   -32.5100 
  126.2500    63.2350     9.7890     9.0230     9.9620    23.4920     2.2070   -32.1320 
  126.3750    65.2710     9.7340     8.9800     9.7310    23.4530     2.2010   -31.7030 
  126.5000    65.9410     9.7240     8.9550     9.4200    23.4250     2.1940   -31.2740 
  126.6250    65.1200     9.7870     8.9670     9.2020    23.4380     2.1880   -30.8560 
  126.7500    65.5580     9.8970     9.0000     9.0360    23.3430     2.1810   -30.4530 
  126.8750    66.1870     9.9960     9.0220     8.8850    23.3930     2.1700   -30.0640 
  127.0000    66.7430     9.9940     8.9750     8.7930    23.5870     2.1570   -29.6260 
  127.1250    67.6750     9.7660     8.7810     8.8400    24.0670     2.1470   -29.2100 
  127.2500    69.8010     9.3330     8.4500     8.8450    24.5030     2.1470   -28.8330 
  127.3750    72.7860     8.7840     8.0350     8.7340    24.5090     2.1610   -28.3420 
  127.5000    74.3020     8.2720     7.6340     8.3900    24.2880     2.1870   -27.9420 
  127.6250    74.4260     7.9790     7.3710     7.7560    24.0820     2.2160   -27.6500 
  127.7500    75.6270     7.9380     7.2860     7.3060    23.9620     2.2370   -27.3350 
  127.8750    76.6800     8.1080     7.3710     7.6140    23.8570     2.2500   -27.2430 
  128.0000    73.6560     8.3940     7.5780     8.6430    23.7710     2.2550   -27.3740 
  128.1250    67.6160     8.6750     7.8340     9.1400    23.8200     2.2540   -27.4750 
  128.2500    65.6080     8.8770     8.0640     9.1880    23.7650     2.2480   -27.6890 
  128.3750    66.6310     8.9980     8.2410     9.2870    23.8110     2.2350   -28.1400 
  128.5000    66.6840     9.0800     8.3740     9.3690    23.8080     2.2170   -28.5280 
  128.6250    65.6830     9.1880     8.4960     9.4890    23.9150     2.1950   -28.9230 
  128.7500    66.4520     9.3480     8.6380     9.6150    23.9610     2.1730   -29.3430 
  128.8750    68.2490     9.5440     8.8030     9.8580    23.9440     2.1540   -29.5150 
  129.0000    69.6660     9.7420     8.9760    10.1840    23.9280     2.1410   -29.5170 
  129.1250    69.5680     9.9110     9.1340    10.3970    23.8010     2.1410   -29.5210 
  129.2500    68.0560    10.0570     9.2690    10.4830    23.7840     2.1530   -29.3700 
  129.3750    67.1400    10.2010     9.3830    10.4450    23.7370     2.1750   -29.0820 
  129.5000    69.7640    10.3610     9.4820    10.3260    23.6890     2.2000   -28.7960 
  129.6250    72.4790    10.5290     9.5650    10.0200    23.6310     2.2210   -28.3770 
  129.7500    71.2170    10.6630     9.6140     9.6510    23.5070     2.2360   -27.9660 
  129.8750    67.8520    10.7100     9.6010     9.5630    23.4690     2.2440   -27.6240 
  130.0000    66.3200    10.6320     9.5020     9.7240    23.3680     2.2470   -27.2460 
  130.1250    65.9900    10.4060     9.3020     9.5780    23.3830     2.2460   -26.9160 
  130.2500    65.0370    10.1030     9.0470     9.2080    23.4240     2.2420   -26.6510 
  130.3750    67.5320     9.7940     8.7880     8.8130    23.4490     2.2350   -26.4220 
  130.5000    73.2650     9.5530     8.5820     8.5690    23.4850     2.2290   -26.2690 
  130.6250    75.5520     9.4510     8.4900     8.5450    23.4020     2.2290   -26.1920 
  130.7500    73.8020     9.4740     8.5120     8.6820    23.4360     2.2360   -26.1780 
  130.8750    70.9080     9.5890     8.6270     8.8520    23.4690     2.2490   -26.2970 
  131.0000    68.6540     9.7400     8.7910     9.0570    23.5010     2.2610   -26.4460 
  131.1250    67.7610     9.8550     8.9420     9.3200    23.5790     2.2630   -26.5200 
  131.2500    70.4750     9.8930     9.0290     9.5710    23.5730     2.2530   -26.7210 
  131.3750    75.0910     9.8420     9.0320     9.6330    23.6650     2.2350   -26.9230 
  131.5000    76.3060     9.7180     8.9560     9.4650    23.7130     2.2170   -26.9840 
  131.6250    72.9830     9.5490     8.8170     9.1050    23.8970     2.2080   -27.1060 
  131.7500    70.4970     9.3770     8.6590     8.8770    23.9950     2.2100   -27.1450 
  131.8750    70.5410     9.2170     8.5050     8.7690    23.9900     2.2210   -26.9840 
  132.0000    69.9520     9.0770     8.3730     8.7240    24.1100     2.2350   -26.8430 
  132.1250    67.0580     8.9670     8.2730     8.6270    24.1990     2.2470   -26.7070 
  132.2500    64.8210     8.8930     8.2080     8.6680    24.3420     2.2540   -26.3980 
  132.3750    64.1240     8.8750     8.1830     8.6830    24.3160     2.2530   -26.1020 
  132.5000    66.1280     8.9340     8.2060     8.6060    24.2820     2.2470   -25.8300 
  132.6250    72.4340     9.0900     8.2870     8.6980    24.3160     2.2360   -25.4640 
  132.7500    79.4430     9.2960     8.3950     8.9030    24.3310     2.2280   -25.1160 
  132.8750    83.0800     9.4670     8.4800     9.2300    24.4300     2.2250   -24.7950 
  133.0000    81.4550     9.4860     8.4720     9.4460    24.3880     2.2310   -24.4510 
  133.1250    76.0900     9.1990     8.2810     9.4580    24.3300     2.2430   -24.1420 
  133.2500    70.9810     8.6750     7.9410     9.4190    24.2710     2.2530   -23.8010 
  133.3750    69.7440     8.1410     7.5800     9.3510    24.2120     2.2580   -23.3440 
