~V
VERS. 2.00: Ver 2.00
~W
STRT.M 120.0000:
STOP.M 233.0000:
STEP.M 0.1250:
NULL. -999.2500:
UWI. DF3066:
~C
DEPT.M :
GR.API :
RML.OHMM :
RI. :
RXO.OHMM :
CALI.CM :
DEN.GM/CC :
SP.MV :
~A
# ...
  131.2500    84.1880     8.3220     7.5130     8.2390    23.1910     2.2060   -19.0150 
  131.3750    91.1720     7.5380     6.8380     7.4570    23.2510     2.2330   -18.1120 
  131.5000    98.8730     6.9240     6.2600     6.3460    23.4530     2.2490   -17.2060 
  131.6250   100.1190     6.5880     5.8900     5.6410    23.7120     2.2520   -16.3880 
  131.7500    97.4980     6.4780     5.7170     5.4290    23.8890     2.2490   -15.7070 
  131.8750    98.6260     6.5400     5.7110     5.4350    23.7850     2.2450   -15.1820 
  132.0000   103.5090     6.6900     5.8160     5.4770    23.5640     2.2440   -14.7830 
  132.1250   102.9500     6.8130     5.9380     5.5490    23.4800     2.2490   -14.5740 
  132.2500    98.2770     6.8100     5.9790     5.7660    23.4180     2.2570   -14.4710 
  132.3750    97.0980     6.6310     5.8780     6.1530    23.2680     2.2680   -14.3600 
  132.5000   100.3630     6.2850     5.6280     6.4520    23.1810     2.2780   -14.3070 
  132.6250   103.9010     5.8380     5.2650     6.2700    23.2910     2.2880   -14.2300 
  132.7500   107.9580     5.4190     4.9000     5.7630    23.5660     2.2960   -14.0750 
  132.8750   112.4640     5.1220     4.6190     5.0560    23.6930     2.3040   -14.0610 
  133.0000   115.9970     5.0070     4.4840     4.5870    23.5250     2.3120   -14.1480 
  133.1250   115.1210     5.1230     4.5550     4.5200    23.3090     2.3200   -14.1780 
  133.2500   111.3200     5.4080     4.7920     4.6680    23.1190     2.3260   -14.3920 
  133.3750   107.0990     5.8070     5.1580     5.0140    23.0870     2.3230   -14.6470 
  133.5000   103.1870     6.2520     5.5950     5.5720    23.2650     2.3110   -14.8860 
  133.6250    97.9240     6.6620     6.0300     6.1430    23.6410     2.2900   -15.3240 
  133.7500    91.9060     6.9770     6.3930     6.6020    23.5520     2.2670   -15.7010 
  133.8750    88.7790     7.1580     6.6350     6.9850    23.4000     2.2490   -15.8900 
  134.0000    90.0770     7.1850     6.7240     7.1670    23.3670     2.2390   -16.0710 
  134.1250    91.0980     7.0380     6.6310     7.1270    23.4330     2.2420   -16.1530 
  134.2500    89.2400     6.7910     6.4190     6.8400    23.5300     2.2540   -16.0640 
  134.3750    88.1060     6.5240     6.1610     6.4400    23.6260     2.2690   -15.9350 
  134.5000    92.1860     6.3360     5.9490     6.1460    23.7270     2.2840   -15.7040 
  134.6250   100.8550     6.3310     5.8900     5.8830    23.7320     2.2900   -15.4140 
  134.7500   106.0360     6.4990     5.9930     6.0010    23.6030     2.2850   -15.1310 
  134.8750   104.2410     6.8140     6.2510     6.4260    23.4580     2.2710   -14.8830 
  135.0000    97.8910     7.2410     6.6400     7.4740    23.4880     2.2550   -14.6420 
  135.1250    93.1470     7.7490     7.1450     8.9060    23.6660     2.2520   -14.3870 
  135.2500    90.9600     8.2760     7.6970     9.7970    23.6710     2.2720   -14.1910 
  135.3750    88.6790     8.7710     8.2430     9.7900    23.6940     2.3170   -14.0120 
  135.5000    85.7500     9.1800     8.7260    11.0110    23.6290     2.3770   -13.8610 
  135.6250    83.2970     9.4590     9.0940    13.9170    23.4050     2.4300   -13.7390 
  135.7500    80.0520     9.6190     9.3650    16.5900    23.3000     2.4590   -13.6440 
  135.8750    75.9370     9.7170     9.5870    14.9020    23.3700     2.4640   -13.4860 
  136.0000    71.8170     9.9230     9.8570    11.6060    23.5770     2.4590   -13.3000 
  136.1250    70.1330    10.4850    10.3610    12.6080    23.6730     2.4610   -13.2720 
  136.2500    70.0150    11.6510    11.2080    14.7840    23.4940     2.4750   -13.1770 
  136.3750    68.6670    13.4600    12.4430    15.5660    23.3540     2.4970   -13.0780 
  136.5000    64.5800    15.7400    13.9960    16.6790    23.3730     2.5220   -13.0860 
  136.6250    58.3330    18.0960    15.6470    18.4690    23.4890     2.5460   -12.9610 
  136.7500    55.2520    19.5220    17.0900    21.1790    23.4930     2.5640   -12.8880 
  136.8750    57.4110    20.4010    18.1350    22.2630    23.4120     2.5730   -12.9200 
  137.0000    61.1480    20.7510    18.7330    22.4790    23.3370     2.5680   -12.8840 
  137.1250    62.0240    20.7720    18.9610    21.5410    23.3800     2.5500   -12.8460 
  137.2500    59.0910    20.8230    19.1030    20.0740    23.4270     2.5300   -12.8140 
  137.3750    55.4230    21.0640    19.3200    19.8990    23.4820     2.5180   -12.8100 
  137.5000    54.0700    21.4810    19.6550    20.5040    23.7010     2.5190   -12.7620 
  137.6250    56.2690    21.9320    20.0430    21.8870    23.8130     2.5350   -12.7060 
  137.7500    59.2790    22.2660    20.3730    22.6280    23.8790     2.5520   -12.6890 
  137.8750    60.7480    22.4380    20.5960    22.8870    23.8850     2.5590   -12.6360 
  138.0000    61.9910    22.4830    20.7160    22.3040    23.7940     2.5510   -12.5980 
  138.1250    63.9340    22.4640    20.7600    21.5510    23.7810     2.5280   -12.5640 
  138.2500    64.9640    22.4160    20.7550    21.2670    23.7960     2.5000   -12.5210 
  138.3750    64.9600    22.3090    20.6850    21.1170    23.8060     2.4750   -12.4830 
  138.5000    66.5790    22.1010    20.5240    20.8680    23.9360     2.4600   -12.4330 
  138.6250    70.1200    21.7520    20.2400    21.0600    23.9840     2.4570   -12.3750 
  138.7500    72.0940    21.3060    19.8660    21.3280    23.8600     2.4640   -12.3200 
  138.8750    70.9630    20.8020    19.4290    20.4640    23.7300     2.4780   -12.2560 
  139.0000    69.6540    20.2720    18.9600    18.8020    23.7640     2.4910   -12.2250 
  139.1250    70.5060    19.7280    18.4790    18.0270    23.9730     2.4980   -12.1930 
  139.2500    70.9770    19.1760    18.0020    17.5150    24.0560     2.4960   -12.1490 
  139.3750    70.0440    18.6290    17.5360    16.5440    24.0760     2.4900   -12.0960 
  139.5000    68.6320    18.1190    17.1030    15.2660    23.9990     2.4800   -12.1400 
  139.6250    68.3060    17.7370    16.7660    15.1050    24.0290     2.4720   -12.1990 
  139.7500    68.3950    17.5540    16.5870    15.5970    23.9570     2.4680   -12.1340 
  139.8750    69.1890    17.6290    16.6300    16.0290    23.8000     2.4680   -12.1550 
  140.0000    70.5290    17.9530    16.9010    16.2780    23.8370     2.4720   -12.1640 
  140.1250    70.6240    18.3910    17.3100    16.9120    23.9780     2.4780   -12.0910 
  140.2500    68.8170    18.6660    17.6200    17.7760    24.1690     2.4840   -12.1250 
  140.3750    66.0730    18.5620    17.6310    18.4110    24.2450     2.4860   -12.0900 
  140.5000    63.9090    18.0040    17.2450    18.8440    24.1250     2.4840   -11.9990 
  140.6250    63.4020    17.1220    16.5250    18.4420    23.9800     2.4750   -11.9380 
  140.7500    63.1600    16.3270    15.8020    16.3050    24.0990     2.4610   -11.9230 
  140.8750    62.6430    15.9050    15.3330    13.9950    24.2500     2.4500   -11.8760 
  141.0000    62.0640    15.9630    15.2490    13.4010    24.3310     2.4510   -11.7920 
  141.1250    61.3230    16.4220    15.5400    14.6110    24.3060     2.4710   -11.7980 
  141.2500    59.8750    16.9200    15.9310    16.4860    24.2200     2.5020   -11.7370 
  141.3750    57.5610    17.1850    16.1890    17.9480    24.1920     2.5310   -11.7580 
  141.5000    57.9100    17.0650    16.1500    18.2140    24.2390     2.5460   -11.7920 
  141.6250    62.8820    16.5930    15.7850    17.3700    24.2780     2.5390   -11.7970 
  141.7500    67.3660    16.0990    15.3480    15.8690    24.2600     2.5180   -11.8840 
  141.8750    67.4900    15.8460    15.0700    15.0730    24.2680     2.4930   -11.9480 
  142.0000    63.8240    15.9870    15.1130    14.7970    24.2610     2.4700   -12.0120 
  142.1250    60.7040    16.5890    15.5770    15.2560    24.2320     2.4600   -12.0970 
  142.2500    60.3010    17.4460    16.3080    16.3560    24.2330     2.4610   -12.1830 
  142.3750    60.9030    18.3710    17.1490    18.1070    24.2040     2.4740   -12.2450 
