~V
VERS. 2.00: Ver 2.00
~W
STRT.M 120.0000:
STOP.M 278.0000:
STEP.M 0.1250:
NULL. -999.2500:
UWI. DF3047:
~C
DEPT.M :
DEN.GM/CC :
SP.MV :
AC.US/MT :
GR.API :
CALI.CM :
RXO.OHMM :
RI. :
RML.OHMM :
~A
# ...
  200.0000     2.2350   -20.9060   375.9870    72.9840    26.8400    81.1140    71.8500    80.8470 
  200.1250     2.2340   -20.8720   378.1240    73.8140    26.8400    76.2970    69.8820    79.1280 
  200.2500     2.2420   -20.8770   381.8570    71.3520    26.8400    71.9990    68.6760    78.4650 
  200.3750     2.2550   -20.9030   385.8270    68.2610    26.8230    71.7740    68.7020    79.3520 
  200.5000     2.2590   -20.9430   387.9820    67.2860    26.7920    75.8150    70.0850    81.8980 
  200.6250     2.2490   -20.9790   386.4300    68.0960    26.7570    81.5040    72.7170    85.9790 
  200.7500     2.2370   -21.0080   382.4580    69.4400    26.7010    85.9760    75.9970    90.8500 
  200.8750     2.2360   -21.0130   378.1280    69.2990    26.6030    87.6320    79.7490    96.2590 
  201.0000     2.2470   -20.9940   375.3510    67.8780    26.4820    86.9160    84.1200   102.3730 
  201.1250     2.2590   -20.9380   374.8060    67.3510    26.3780    90.7410    89.7020   110.0060 
  201.2500     2.2580   -20.8550   374.4930    66.6420    26.3000   105.9980    96.3170   119.0990 
  201.3750     2.2430   -20.7520   372.3180    64.8380    26.2930   129.9120   102.8260   128.2380 
  201.5000     2.2240   -20.6240   366.9890    61.2810    26.4130   148.8290   107.0310   134.2360 
  201.6250     2.2240   -20.4730   358.0590    58.6360    26.5780   144.5430   105.8420   132.3630 
  201.7500     2.2540   -20.2970   346.8810    60.0110    26.5930   121.2800    99.6640   123.5080 
  201.8750     2.3110   -20.0980   334.0210    62.7630    26.4080    93.4040    90.1840   110.7510 
  202.0000     2.3790   -19.8660   319.8190    64.7590    26.1500    76.7350    79.8410    97.7450 
  202.1250     2.4290   -19.5890   305.0360    66.2560    26.0180    78.4060    70.8950    87.2520 
  202.2500     2.4510   -19.2660   291.5420    67.2360    26.0100    80.9310    63.9130    79.4880 
  202.3750     2.4560   -18.8970   281.1050    67.0120    25.9660    73.1230    58.7960    74.1240 
  202.5000     2.4690   -18.4790   274.4010    66.3510    25.6950    58.8990    55.1130    70.4340 
  202.6250     2.5040   -18.0000   270.4470    66.5120    25.3180    49.8620    51.9160    66.8430 
  202.7500     2.5450   -17.4710   266.5860    65.8370    25.2000    46.3070    47.6660    61.2050 
  202.8750     2.5790   -16.8980   262.1350    63.0270    25.4230    45.1140    41.4410    52.4650 
  203.0000     2.6010   -16.3090   258.5340    59.8750    25.7540    42.4120    33.5250    41.5190 
  203.1250     2.6080   -15.7240   259.1660    56.9200    25.8880    34.3820    25.6240    31.0950 
  203.2500     2.6010   -15.1430   264.4030    54.0920    25.8770    24.0480    19.3270    23.1030 
  203.3750     2.5900   -14.5650   272.1160    52.5960    25.8630    16.3770    15.0520    17.9020 
  203.5000     2.5850   -14.0100   278.4990    51.2380    25.9110    13.0940    12.5700    15.1350 
  203.6250     2.5910   -13.5050   279.3450    49.5700    25.9800    12.3180    11.6190    14.4570 
  203.7500     2.5970   -13.0460   275.2820    47.6150    26.0100    11.6660    11.5240    14.8630 
  203.8750     2.5990   -12.6360   269.2940    46.7370    25.9800    11.2210    11.8290    15.5720 
  204.0000     2.5980   -12.2650   265.9160    47.0440    25.9010    11.6850    11.9470    15.6690 
  204.1250     2.5970   -11.9260   271.0950    49.1300    25.8340    12.8050    11.2130    14.2920 
  204.2500     2.6020   -11.6220   285.7420    52.9680    25.8260    12.8740     9.7830    11.9490 
  204.3750     2.6200   -11.3760   308.4480    56.3340    25.7820    11.0320     8.1160     9.4360 
  204.5000     2.6360   -11.1920   335.2080    57.7180    25.5750     8.0480     6.6430     7.3810 
  204.6250     2.6150   -11.0710   359.8260    57.1780    25.2990     5.7650     5.6450     6.1420 
  204.7500     2.5540   -10.9870   377.8520    57.6270    25.2220     4.7770     5.0530     5.5250 
  204.8750     2.4760   -10.9400   387.5640    59.8570    25.3680     4.6700     4.7880     5.3690 
  205.0000     2.4140   -10.9140   389.5840    60.9920    25.5360     4.9820     4.7530     5.4990 
  205.1250     2.3860   -10.8900   385.8050    59.9360    25.5470     5.4500     4.8470     5.7430 
  205.2500     2.3880   -10.8570   380.3880    59.2100    25.5080     5.7220     4.9380     5.9250 
  205.3750     2.4110   -10.8000   375.7580    58.3540    25.5200     5.6420     4.9550     5.9580 
  205.5000     2.4370   -10.7020   373.2910    56.0810    25.5560     5.4790     4.8720     5.8290 
  205.6250     2.4440   -10.5610   373.1420    55.3260    25.5180     5.4980     4.6960     5.5640 
  205.7500     2.4300   -10.3940   373.3830    57.3490    25.3900     5.4160     4.4830     5.2510 
  205.8750     2.4130   -10.2000   372.4510    57.9720    25.2070     5.0910     4.2680     4.9480 
  206.0000     2.4070   -10.0100   369.7590    55.4220    25.0380     4.8010     4.0740     4.6890 
  206.1250     2.4160    -9.8560   366.3110    53.5720    24.9890     4.8400     3.8950     4.4590 
  206.2500     2.4210    -9.7410   364.4000    53.1780    25.0200     4.8960     3.7080     4.2160 
  206.3750     2.4180    -9.6700   365.6110    51.9290    25.0110     4.7360     3.5090     3.9550 
  206.5000     2.4100    -9.6620   370.3160    50.6910    24.8830     4.4660     3.3150     3.7110 
  206.6250     2.4030    -9.7370   377.6740    53.0770    24.7260     4.3130     3.1810     3.5850 
  206.7500     2.4030    -9.8710   385.0480    57.9210    24.6700     4.2810     3.1480     3.6560 
  206.8750     2.4070   -10.0580   390.2180    62.4270    24.7010     4.4420     3.2540     3.9820 
  207.0000     2.4070   -10.2770   391.4770    66.4130    24.8190     5.0000     3.5090     4.5650 
  207.1250     2.3810   -10.5270   388.1330    73.8760    25.1710     6.0320     3.9040     5.3470 
  207.2500     2.3370   -10.7930   383.2140    82.9650    25.7200     6.9950     4.3530     6.1480 
  207.3750     2.2980   -11.0680   379.6380    89.4860    26.2680     7.4100     4.7770     6.8150 
  207.5000     2.2810   -11.3240   379.0300    93.0380    26.6470     7.2080     5.1070     7.2480 
  207.6250     2.2890   -11.5500   380.8300    95.4220    26.8520     6.8130     5.3060     7.4340 
  207.7500     2.3110   -11.7630   382.6070    96.4930    26.9590     6.7250     5.4340     7.5270 
  207.8750     2.3400   -11.9790   383.5740    96.5240    26.9480     6.9480     5.5370     7.6320 
  208.0000     2.3620   -12.2170   384.2660    98.9570    26.8050     7.1970     5.6520     7.8100 
  208.1250     2.3670   -12.4820   385.2020   104.7160    26.6550     7.2600     5.8140     8.1240 
  208.2500     2.3670   -12.7750   385.2460   107.6710    26.6140     7.4030     6.0340     8.5800 
  208.3750     2.3770   -13.0980   382.8920   105.8910    26.5900     7.9710     6.3160     9.1730 
  208.5000     2.3960   -13.4800   378.0750   102.0920    26.4450     9.0230     6.6370     9.8350 
  208.6250     2.4130   -13.9430   373.3600   100.0730    26.1930    10.1180     6.9340    10.4030 
  208.7500     2.4190   -14.4700   372.0190    99.9420    25.9580    10.7220     7.1400    10.7360 
  208.8750     2.4120   -15.0760   375.3090   101.1560    25.6950    10.7220     7.2290    10.8090 
  209.0000     2.3930   -15.7710   382.3100   102.9620    25.3800    10.3280     7.2370    10.7440 
  209.1250     2.3780   -16.5660   390.4180   102.0900    25.1630    10.0520     7.2630    10.7910 
  209.2500     2.3800   -17.4330   396.6300    98.1810    25.0910    10.4870     7.3930    11.1060 
  209.3750     2.3920   -18.3510   399.4330    94.9210    25.0870    11.9290     7.6580    11.7050 
  209.5000     2.3980   -19.2850   398.5640    94.7790    25.0890    14.0080     8.0420    12.4920 
  209.6250     2.3940   -20.1850   394.7590    94.6570    25.1010    15.6410     8.4880    13.2890 
  209.7500     2.3850   -21.0120   390.2970    92.7480    25.0970    16.3940     8.9110    13.9470 
  209.8750     2.3740   -21.7180   386.4330    90.9980    25.0450    16.8290     9.2680    14.4370 
