~V
VERS. 2.00: Ver 2.00
~W
STRT.M 120.0000:
STOP.M 268.0000:
STEP.M 0.1250:
NULL. -999.2500:
UWI. DF3028:
~C
DEPT.M :
DEN.GM/CC :
GR.API :
CALI.CM :
RXO.OHMM :
RI. :
RML.OHMM :
SP.MV :
~A
# ...
  176.2500     2.2040    71.0410    28.2150   130.4540   164.0980   204.1300   -35.9150 
  176.3750     2.2190    70.4930    28.2340   125.9410   156.7270   194.3110   -36.0190 
  176.5000     2.2440    68.1820    28.2660   118.4750   149.9690   185.3120   -36.1160 
  176.6250     2.2530    67.0920    28.2780   112.0340   145.2190   179.0430   -36.2060 
  176.7500     2.2410    67.7720    28.2680   109.8400   142.8940   175.9090   -36.2950 
  176.8750     2.2180    68.2200    28.2500   111.6250   142.9520   175.7390   -36.3710 
  177.0000     2.2010    66.4610    28.2470   115.1800   144.7870   177.6720   -36.4400 
  177.1250     2.2020    63.1040    28.2900   118.0890   147.2820   180.1760   -36.5010 
  177.2500     2.2140    61.7110    28.3730   119.1120   149.0270   181.5270   -36.5550 
  177.3750     2.2310    61.7520    28.4320   117.6720   149.2760   180.8940   -36.6130 
  177.5000     2.2450    61.3890    28.3750   113.8840   147.7520   178.0340   -36.6790 
  177.6250     2.2490    60.6890    28.1510   110.1410   144.0490   172.5150   -36.7710 
  177.7500     2.2420    62.1170    27.8920   109.7540   138.4270   164.7650   -36.8330 
  177.8750     2.2310    64.5630    27.7150   112.0370   131.2540   155.4180   -36.8600 
  178.0000     2.2310    65.0980    27.6580   110.4580   123.4700   145.7880   -36.8540 
  178.1250     2.2420    63.6790    27.6910    98.8520   116.6920   137.9380   -36.8320 
  178.2500     2.2520    63.9950    27.7540    85.6800   112.1310   133.0930   -36.7780 
  178.3750     2.2550    66.5640    27.8490    80.6380   110.4870   131.8720   -36.6560 
  178.5000     2.2550    68.8560    27.9900    86.3990   111.7550   134.0640   -36.4960 
  178.6250     2.2560    69.3140    28.1610    97.4410   115.3260   138.7250   -36.2860 
  178.7500     2.2570    69.0460    28.2920   104.8220   119.3130   143.4720   -36.0690 
  178.8750     2.2570    68.2390    28.3530   106.8200   122.2520   146.4390   -35.8410 
  179.0000     2.2520    66.9170    28.3630   106.1110   123.0620   146.4230   -35.6290 
  179.1250     2.2400    67.2450    28.3610   104.5330   121.3740   143.4330   -35.4350 
  179.2500     2.2270    68.5460    28.3610   102.5420   118.8220   139.8530   -35.2740 
  179.3750     2.2210    68.7150    28.3610   100.0550   116.8310   137.4430   -35.1820 
  179.5000     2.2250    67.8050    28.3610    97.2110   116.3430   137.1790   -35.1590 
  179.6250     2.2360    68.0700    28.3610    97.2710   117.8730   139.4100   -35.2440 
  179.7500     2.2410    69.1140    28.3620   103.2380   120.3290   142.4520   -35.4070 
  179.8750     2.2380    68.7160    28.3580   111.6250   122.1180   144.1240   -35.6310 
  180.0000     2.2280    66.9800    28.3480   114.1680   121.7250   142.6150   -35.9060 
  180.1250     2.2190    67.8450    28.3370   106.9940   118.7140   137.8650   -36.1970 
  180.2500     2.2130    69.7640    28.3350    96.2540   115.2230   132.9620   -36.4570 
  180.3750     2.2150    69.5150    28.3430    86.3900   113.2620   130.3370   -36.6600 
  180.5000     2.2280    67.1850    28.3540    82.3280   114.1440   131.2250   -36.7730 
  180.6250     2.2460    66.8390    28.3460    92.2900   118.0690   135.2540   -36.7440 
  180.7500     2.2490    69.0930    28.3240   109.7870   122.2220   138.7220   -36.6150 
  180.8750     2.2310    70.0860    28.3170   119.2110   123.2920   137.6760   -36.4060 
  181.0000     2.2070    69.4590    28.3360   112.4570   118.7280   129.6560   -36.1240 
  181.1250     2.2040    68.7100    28.3260    97.3850   107.9760   115.3890   -35.8050 
  181.2500     2.2240    68.3270    28.2490    83.3950    95.2450   100.3500   -35.4940 
  181.3750     2.2540    70.1410    28.1430    69.5370    83.7760    87.9100   -35.1970 
  181.5000     2.2770    74.4890    28.0700    57.8790    75.4110    79.4490   -34.9240 
  181.6250     2.2850    77.8730    28.0630    54.2140    70.8220    75.1840   -34.6990 
  181.7500     2.2880    76.2640    28.0810    57.0330    68.6220    73.4800   -34.4970 
  181.8750     2.2940    73.0410    28.0970    60.9130    68.2180    73.7710   -34.3210 
  182.0000     2.2980    72.5370    28.1050    61.2640    69.5710    76.1070   -34.1810 
  182.1250     2.2940    73.7130    28.0830    59.2260    73.6980    81.7380   -34.0780 
  182.2500     2.2860    73.9070    27.9770    61.8710    81.3510    91.5140   -34.0000 
  182.3750     2.2810    73.1420    27.8130    75.2790    93.6560   106.6690   -33.9700 
  182.5000     2.2760    72.9560    27.6780   100.3510   111.0130   127.7090   -33.9850 
  182.6250     2.2640    74.4520    27.5960   122.0910   132.0440   153.2210   -34.0600 
  182.7500     2.2490    75.1120    27.4860   125.4630   151.5510   176.8100   -34.1980 
  182.8750     2.2410    72.4860    27.3310   114.6920   164.7880   192.2290   -34.3920 
  183.0000     2.2420    66.7890    27.1900   102.5360   169.6740   197.0000   -34.6250 
  183.1250     2.2480    62.8970    27.1100    95.0680   167.9730   194.1700   -34.8760 
  183.2500     2.2490    62.2450    27.0750    90.7170   165.2810   190.6720   -35.1400 
  183.3750     2.2430    63.4600    27.0720    87.9210   164.0370   188.8120   -35.4200 
  183.5000     2.2310    65.3190    27.0610    85.9460   164.3170   187.9650   -35.7010 
  183.6250     2.2200    65.3060    27.0850    86.8680   163.6130   184.4490   -35.9540 
  183.7500     2.2160    63.8810    27.2610    91.4280   158.4470   174.5020   -36.1370 
  183.8750     2.2170    64.7960    27.5710    95.9100   146.7560   156.7840   -36.2620 
  184.0000     2.2190    69.3840    27.8420    92.8650   129.5800   134.0660   -36.3080 
  184.1250     2.2240    71.6420    27.9260    78.3770   110.9870   112.1440   -36.2760 
  184.2500     2.2410    70.0430    27.9210    62.0380    95.3270    94.9600   -36.1900 
  184.3750     2.2660    68.7100    27.9080    51.1870    84.3200    83.4720   -36.0790 
  184.5000     2.2870    69.1520    27.8860    47.6220    77.8780    76.9490   -35.9580 
  184.6250     2.2920    70.3740    27.8610    49.6330    75.0460    74.1310   -35.8660 
  184.7500     2.2890    72.4390    27.8570    52.2150    73.6170    72.7370   -35.8360 
  184.8750     2.2850    74.6260    27.8580    51.8780    72.6380    71.8670   -35.8930 
  185.0000     2.2850    72.6670    27.7940    47.1860    71.9210    71.4330   -36.0600 
  185.1250     2.2900    67.8680    27.5980    40.3160    72.2610    72.4280   -36.3610 
  185.2500     2.2920    67.0710    27.3690    36.4460    74.6690    75.9010   -36.7480 
  185.3750     2.2810    68.8480    27.2300    38.8570    80.1790    82.8980   -37.1760 
  185.5000     2.2530    69.1300    27.2090    47.5590    89.5050    94.1630   -37.6440 
  185.6250     2.2200    66.4780    27.2460    57.4470   103.5840   110.8980   -38.1200 
  185.7500     2.2030    63.9010    27.3110    63.6880   117.7000   127.6760   -38.5880 
  185.8750     2.2100    62.1000    27.3810    67.3400   127.8270   139.7080   -39.0200 
  186.0000     2.2270    59.0350    27.5880    78.5850   149.2020   164.9260   -39.4210 
  186.1250     2.2320    58.4300    27.9000   104.7840   178.9170   199.6840   -39.7830 
  186.2500     2.2170    60.3110    28.1840   138.7880   214.0200   241.2870   -40.1340 
  186.3750     2.1920    60.2510    28.3780   169.8890   251.8420   287.6740   -40.4720 
  186.5000     2.1690    57.1580    28.4930   193.6100   286.0120   330.8270   -40.8170 
  186.6250     2.1580    56.2180    28.5590   209.5220   304.2640   352.1940   -41.1530 
  186.7500     2.1590    57.6510    28.6240   216.4510   301.6310   343.9030   -41.4570 
  186.8750     2.1680    58.6580    28.6910   213.1830   278.0780   308.4050   -41.7010 
  187.0000     2.1820    57.9470    28.7480   200.4300   239.4610   257.4720   -41.8370 
  187.1250     2.2070    58.3120    28.7710   172.6400   196.1860   207.5900   -41.8280 
  187.2500     2.2390    61.0100    28.7650   134.5080   159.1700   169.1400   -41.6690 
  187.3750     2.2600    64.7050    28.7410    99.8670   133.1750   144.4700   -41.3690 
