~V
VERS. 2.00: Ver 2.00
~W
STRT.M 56.0000:
STOP.M 263.0000:
STEP.M 0.1250:
NULL. -999.2500:
UWI. DF3034:
~C
DEPT.M :
DEN.GM/CC :
GR.API :
RML.OHMM :
RI. :
RXO.OHMM :
CALI.CM :
SP.MV :
~A
# ...
  247.2500     2.2700    75.0910    83.0010    74.6770    78.4890    24.3310   -22.5680 
  247.3750     2.2810    73.7630    80.3700    72.1600    73.3180    24.3340   -22.4840 
  247.5000     2.2790    70.5410    77.6690    69.5500    75.1990    24.3610   -22.5220 
  247.6250     2.2620    68.5690    75.4320    67.2820    83.4420    24.4220   -22.5880 
  247.7500     2.2390    69.1440    74.1600    65.7760    85.3530    24.5140   -22.5520 
  247.8750     2.2190    69.5160    74.3260    65.4390    75.1790    24.5790   -22.6000 
  248.0000     2.2080    67.6670    76.2150    66.5290    69.9410    24.6140   -22.6500 
  248.1250     2.2080    66.2960    80.0390    69.2610    72.5720    24.6090   -22.5460 
  248.2500     2.2180    69.0610    85.1320    73.1080    80.6260    24.5460   -22.5430 
  248.3750     2.2360    73.7670    91.1230    77.7860    89.7680    24.5440   -22.6130 
  248.5000     2.2580    74.5200    97.9710    83.2630    96.5710    24.6200   -22.5340 
  248.6250     2.2790    70.2850   106.5010    90.1410   104.7230    24.5550   -22.3690 
  248.7500     2.2920    66.8150   117.2280    98.6940   108.0040    24.4050   -22.2290 
  248.8750     2.2960    67.2190   130.0600   108.7640   111.5210    24.4460   -21.9880 
  249.0000     2.2940    69.1310   143.5370   119.1910   128.1190    24.5390   -21.6190 
  249.1250     2.2880    69.2240   154.0030   127.2160   156.0970    24.5400   -21.1900 
  249.2500     2.2770    68.5950   158.6240   130.8150   181.0170    24.4770   -20.7240 
  249.3750     2.2580    68.6110   156.4350   129.2500   186.4910    24.5730   -20.1400 
  249.5000     2.2370    69.5030   149.0290   123.5040   171.8610    24.6300   -19.4820 
  249.6250     2.2250    71.5250   139.4390   115.5890   143.6290    24.4910   -18.9030 
  249.7500     2.2340    73.0870   130.0690   107.5910   120.8100    24.4310   -18.3530 
  249.8750     2.2740    72.4210   120.9140    99.8360   111.5470    24.4330   -17.7260 
  250.0000     2.3340    68.7800   111.2950    91.9660   110.8900    24.3560   -17.2360 
  250.1250     2.3980    64.6570   100.8960    83.6840   118.5250    24.3480   -16.9200 
  250.2500     2.4510    63.6170    90.6140    75.4720   114.9360    24.2940   -16.4950 
  250.3750     2.4740    64.6530    81.5710    68.1080    87.8260    24.2030   -16.0960 
  250.5000     2.4730    66.7980    74.7420    62.3870    68.2100    24.1150   -15.9060 
  250.6250     2.4570    69.2680    71.4850    59.4620    62.7020    24.0950   -15.6920 
  250.7500     2.4380    69.8300    71.9640    59.5160    62.1800    24.0690   -15.3780 
  250.8750     2.4220    68.1020    76.2030    62.6310    60.0350    23.9680   -15.1730 
  251.0000     2.4090    67.6530    83.0020    67.9600    59.8990    23.9240   -14.9050 
  251.1250     2.3970    67.6530    88.7940    72.7860    66.1200    23.9990   -14.4090 
  251.2500     2.3840    67.6530    89.0480    73.4390    74.7510    24.0520   -13.9920 
  251.3750     2.3740    67.6530    80.4950    67.3690    76.8910    24.0810   -13.6260 
  251.5000     2.3720    67.6530    63.7340    54.6390    84.0900    24.1170   -13.1290 
  251.6250     2.3780    67.6530    44.0760    38.9090    91.9550    24.1360   -12.5870 
  251.7500     2.3860    67.6530    28.3260    25.6150    60.2550    24.1370   -12.1580 
  251.8750     2.3840    67.6530    17.5920    16.6070    23.0930    24.1220   -11.7200 
  252.0000     2.3680    67.6530    10.9310    11.3990     9.0790    24.0910   -11.2850 
  252.1250     2.3440    67.6530     9.0110     8.9930     6.2620    24.0760   -10.9920 
  252.2500     2.3230    67.6530     8.2700     7.9110     5.6590    24.0700   -10.7940 
  252.3750     2.3110    67.6530     8.2060     7.6080     5.7170    24.0700   -10.5770 
  252.5000     2.3010    67.6530     8.4580     7.7330     5.8400    24.0680   -10.3330 
  252.6250     2.2900    67.6530     8.7520     8.0350     6.0510    24.0630   -10.1970 
  252.7500     2.2780    67.6530     8.9350     8.3100     6.2060    24.0650   -10.0920 
  252.8750     2.2690    67.6530     8.9830     8.4910     6.2550    24.0800    -9.9590 
  253.0000     2.2670    67.6530     8.9360     8.5760     6.1480    24.1150    -9.8690 
  253.1250     2.2750    67.6530     8.8640     8.5830     5.9520    24.1450    -9.8890 
  253.2500     2.2910    67.6530     8.8250     8.5580     5.7630    24.1740    -9.8330 
  253.3750     2.3120    67.6530     8.8410     8.5120     5.6290    24.1860    -9.7350 
  253.5000     2.3320    67.6530     8.9040     8.4440     5.4850    24.1660    -9.7530 
  253.6250     2.3490    67.6530     8.9920     8.3420     5.4540    24.1600    -9.8240 
  253.7500     2.3610    67.6530     9.0730     8.2130     5.4530    24.1720    -9.8050 
  253.8750     2.3650    67.6530     9.1340     8.0700     5.4890    24.1900    -9.8740 
  254.0000     2.3640    67.6530     9.1750     7.9350     5.5580    24.2270   -10.0280 
  254.1250     2.3580    67.6530     9.1920     7.8280     5.6700    24.2490   -10.0480 
  254.2500     2.3520    67.6530     9.2000     7.7490     5.7710    24.1730   -10.1380 
  254.3750     2.3470    67.6530     9.2120     7.6890     5.8850    24.0060   -10.3650 
  254.5000     2.3470    67.6530     9.2500     7.6410     6.0370    23.8740   -10.6320 
  254.6250     2.3520    67.6530     9.3090     7.6090     6.1730    23.8600   -10.9100 
  254.7500     2.3610    67.6530     9.4060     7.5760     6.2830    23.8700   -11.1330 
  254.8750     2.3700    67.6530     9.4890     7.5530     6.5070    23.8940   -11.3140 
  255.0000     2.3770    67.6530     9.5300     7.5410     6.6830    23.8940   -11.5720 
  255.1250     2.3820    67.6530     9.5220     7.5360     6.6960    23.8930   -11.8940 
  255.2500     2.3840    67.6530     9.4840     7.5390     7.0850    23.8890   -12.1430 
  255.3750     2.3870    67.6530     9.4530     7.5430     8.2160    23.8720   -12.3180 
  255.5000     2.3910    67.6530     9.4430     7.5470    10.2230    23.8460   -12.4270 
  255.6250     2.3970    67.6530     9.4460     7.5470    12.6840    23.8300   -12.5090 
  255.7500     2.4050    67.6530     9.4470     7.5430    15.8090    23.8260   -12.6680 
  255.8750     2.4160    67.6530     9.4380     7.5380    17.2260    23.8260   -12.8590 
  256.0000     2.4290    67.6530     9.4250     7.5350    15.9070    23.8270   -12.9150 
  256.1250     2.4420    67.6530     9.4160     7.5330    14.8700    23.8280   -12.9090 
  256.2500     2.4510    67.6530     9.4150     7.5320    15.2190    23.8300   -12.8720 
  256.3750     2.4470    67.6530     9.4210     7.5330    16.5540    23.8280   -12.8860 
  256.5000     2.4310    67.6530     9.4280     7.5350    17.9350    23.8270   -12.8910 
  256.6250     2.4080    67.6530     9.4340     7.5390    19.7840    23.8240   -12.8880 
  256.7500     2.3890    67.6530     9.4370     7.5430    21.6570    23.8140   -12.9180 
  256.8750     2.3840    67.6530     9.4390     7.5470    21.2820    23.7980   -12.8480 
  257.0000     2.3930    67.6530     9.4390     7.5480    18.1430    23.7900   -12.8230 
  257.1250     2.4120    67.6530     9.4390     7.5480    15.7240    23.7950   -12.9320 
  257.2500     2.4280    67.6530     9.4390     7.5480    15.7960    23.7970   -12.9940 
  257.3750     2.4350    67.6530     9.4390     7.5480    16.6290    23.7920   -12.9520 
  257.5000     2.4320    67.6530     9.4390     7.5480    17.0880    23.7860   -13.0070 
  257.6250     2.4240    67.6530     9.4390     7.5480    17.0760    23.7830   -13.0980 
  257.7500     2.4160    67.6530     9.4390     7.5480    18.2450    23.7860   -13.1320 
  257.8750     2.4130    67.6530     9.4390     7.5480    20.4360    23.7910   -13.2020 
  258.0000     2.4120    67.6530     9.4390     7.5480    23.6130    23.7910   -13.2450 
  258.1250     2.4130    67.6530     9.4390     7.5480    27.8220    23.7860   -13.1870 
  258.2500     2.4110    67.6530     9.4390     7.5480    28.7620    23.7910   -13.2020 
  258.3750     2.4090    67.6530     9.4390     7.5480    25.6040    23.7950   -13.2350 
