~V
VERS. 2.00: Ver 2.00
~W
STRT.M 100.0000:
STOP.M 264.0000:
STEP.M 0.1250:
NULL. -999.2500:
UWI. DF3023:
~C
DEPT.M :
GR.API :
CALI.CM :
RXO.OHMM :
RI. :
RML.OHMM :
SP.MV :
DEN.GM/CC :
AC.US/MT :
~A
# ...
  190.0000    68.0610    24.1070     5.5550     6.7560     7.4160   -14.8490     2.3520   388.2050 
  190.1250    70.0000    24.2200     5.5250     6.8680     7.5000   -15.0530     2.3240   386.8010 
  190.2500    73.6270    24.3560     5.8850     6.9710     7.6160   -15.2780     2.3360   384.0420 
  190.3750    79.5280    24.4410     6.3340     7.0470     7.7230   -15.5470     2.3720   382.0850 
  190.5000    85.4880    24.4540     6.5020     7.0720     7.7580   -15.8780     2.4010   383.2310 
  190.6250    87.4130    24.3770     6.2600     7.0160     7.6540   -16.2380     2.4190   387.2490 
  190.7500    86.6600    24.2460     5.9190     6.8930     7.4430   -16.5840     2.4290   390.7990 
  190.8750    85.5470    24.1370     5.6600     6.7320     7.1820   -16.9010     2.4230   392.5040 
  191.0000    85.9760    24.1190     5.5670     6.5710     6.9400   -17.1760     2.4160   393.4220 
  191.1250    87.8090    24.2230     5.6020     6.4510     6.7920   -17.4450     2.4120   393.5660 
  191.2500    90.1650    24.4410     5.8660     6.4160     6.7910   -17.7710     2.4040   392.0740 
  191.3750    92.4830    24.7120     6.1170     6.5250     7.0170   -18.1570     2.4060   388.2010 
  191.5000    92.8980    24.8050     6.1580     6.8340     7.5220   -18.5690     2.4280   380.1740 
  191.6250    90.4050    24.4960     6.4000     7.3850     8.3100   -18.9740     2.4710   365.2200 
  191.7500    85.8680    24.0430     7.3050     8.0780     9.1990   -19.3550     2.5280   349.3170 
  191.8750    79.7070    23.7230     9.9870     8.7880     9.9870   -19.7120     2.5830   343.5410 
  192.0000    75.5640    23.5930    12.1040     9.3430    10.4560   -20.0670     2.5890   355.0140 
  192.1250    77.5880    23.5600    11.1370     9.5460    10.4280   -20.4100     2.5350   377.1070 
  192.2500    82.9090    23.5540     9.3610     9.4480    10.0740   -20.7050     2.4690   393.2710 
  192.3750    86.3960    23.5860     9.5150     9.1630     9.5880   -20.9450     2.4140   399.1730 
  192.5000    88.0490    23.6360     9.4310     8.8450     9.1670   -21.1420     2.3720   400.1630 
  192.6250    91.1290    23.6480     8.8600     8.6720     9.0210   -21.2970     2.3550   400.6680 
  192.7500    94.8150    23.6510     8.7940     8.7140     9.1950   -21.4420     2.3730   398.8300 
  192.8750    95.9970    23.7420     9.3550     8.9980     9.6970   -21.5890     2.3870   393.6020 
  193.0000    94.9330    23.9700    11.2360     9.5260    10.5050   -21.7330     2.3820   388.7530 
  193.1250    91.9120    24.2000    12.7020    10.3170    11.5980   -21.8950     2.3640   389.1030 
  193.2500    88.3060    24.2700    13.3590    11.3010    12.8640   -22.1000     2.3400   392.7090 
  193.3750    86.9670    24.1720    13.9440    12.4620    14.2900   -22.3350     2.3200   396.0300 
  193.5000    89.7420    23.9930    15.1930    13.8220    15.9380   -22.5890     2.3140   397.1440 
  193.6250    91.1590    23.8580    16.2470    15.5070    17.9940   -22.8920     2.3250   396.5790 
  193.7500    87.4880    23.8160    17.5290    17.5820    20.5320   -23.2350     2.3390   395.3720 
  193.8750    83.4790    23.8630    21.9690    20.1120    23.6060   -23.6030     2.3480   393.6550 
  194.0000    84.1060    23.9760    29.5260    23.0970    27.1940   -24.0010     2.3450   392.8630 
  194.1250    85.0410    24.1170    34.0390    26.5910    31.3410   -24.4060     2.3340   396.3370 
  194.2500    81.6620    24.2230    35.1140    30.5320    35.9870   -24.7850     2.3250   400.7790 
  194.3750    76.9750    24.2920    37.1130    34.8740    41.0780   -25.1540     2.3080   398.2020 
  194.5000    74.3470    24.3730    43.7300    39.3540    46.2780   -25.5300     2.2920   385.5460 
  194.6250    73.2530    24.5100    55.5000    43.1710    50.5100   -25.8840     2.2950   372.5950 
  194.7500    72.3830    24.6270    58.6680    45.5750    52.7810   -26.2190     2.3160   372.7330 
  194.8750    71.9440    24.6290    53.2710    46.3040    52.9120   -26.5540     2.3180   385.5100 
  195.0000    72.4250    24.5560    46.8130    45.9930    52.0420   -26.8750     2.2930   400.4850 
  195.1250    73.1670    24.5950    42.2270    46.2180    52.3390   -27.1720     2.2700   407.3360 
  195.2500    73.7230    24.7680    42.3180    48.3830    55.2120   -27.4820     2.2660   406.4190 
  195.3750    73.3950    24.9310    53.4800    53.3280    61.4250   -27.8140     2.2700   401.9750 
  195.5000    71.2680    24.9840    79.5560    61.2630    71.1370   -28.1440     2.2640   397.8660 
  195.6250    66.8800    24.9920   106.6410    71.5870    83.6220   -28.4840     2.2540   399.0150 
  195.7500    64.1690    25.0290   116.9650    81.7280    95.5840   -28.8400     2.2490   404.5220 
  195.8750    65.4990    25.0840   104.0010    89.4410   103.9790   -29.1790     2.2420   409.8930 
  196.0000    69.3050    25.1170    96.5710    93.7330   107.7330   -29.4960     2.2260   411.8970 
  196.1250    70.4760    25.0790    94.9250    95.3270   108.4400   -29.8030     2.2140   410.6490 
  196.2500    68.9590    25.0140    93.4650    96.7150   109.3970   -30.0770     2.2270   409.3320 
  196.3750    67.5650    24.9760    88.5550    99.2690   112.0780   -30.2930     2.2370   408.7910 
  196.5000    65.9510    24.9760    91.4180   103.4170   116.7890   -30.4690     2.2250   409.1860 
  196.6250    65.1360    24.9690   101.2360   107.8460   123.5490   -30.6140     2.2080   410.1610 
  196.7500    65.8980    24.9390   109.1070   113.3660   129.8640   -30.7340     2.2070   409.9200 
  196.8750    67.3200    24.8990   113.5110   117.9610   134.8700   -30.8620     2.2070   407.7920 
  197.0000    68.2710    24.8000   111.7750   120.6130   137.1390   -31.0090     2.2000   405.0810 
  197.1250    68.6460    24.5440   110.1510   120.2180   135.3240   -31.1240     2.2010   404.6510 
  197.2500    68.4930    24.2980   106.9480   117.6900   131.0700   -31.1970     2.2130   406.4030 
  197.3750    66.3750    24.3070   102.4190   114.3460   126.3810   -31.2440     2.2110   408.4600 
  197.5000    62.7690    24.5790    97.4170   111.6490   123.0600   -31.2630     2.1950   409.1600 
  197.6250    62.1670    24.8170    95.2980   111.1320   122.6560   -31.2570     2.1940   404.5580 
  197.7500    64.6380    24.8760    94.5540   112.9860   124.9630   -31.2390     2.2080   391.7650 
  197.8750    67.3200    24.8640    97.2850   116.9990   129.5140   -31.1880     2.2190   373.9100 
  198.0000    66.8910    24.8770   109.9630   122.5140   135.4370   -31.0980     2.2260   360.6640 
  198.1250    63.8520    24.8850   136.8460   128.4880   141.4710   -31.0080     2.2380   362.8970 
  198.2500    62.6100    24.8730   140.6000   133.6660   146.3190   -30.9310     2.2440   374.7070 
  198.3750    65.0330    24.8510   122.9040   137.2720   149.2380   -30.8610     2.2310   387.1870 
  198.5000    68.8190    24.8340   117.6600   138.9740   150.0140   -30.7990     2.2150   395.9810 
  198.6250    69.2590    24.8250   115.3280   138.6680   148.6740   -30.7360     2.2110   402.0200 
  198.7500    67.4160    24.8090   110.5290   137.1740   146.1550   -30.6620     2.2150   407.1990 
  198.8750    67.7580    24.7870   105.3520   135.0910   143.1390   -30.5880     2.2110   410.1260 
  199.0000    70.2440    24.7550   102.8780   133.0020   140.2600   -30.5120     2.2040   410.4880 
  199.1250    70.9370    24.6900    95.9670   131.4700   138.1330   -30.4230     2.2070   410.0270 
  199.2500    69.6250    24.5790    86.6390   130.6770   136.8690   -30.3540     2.2160   410.4200 
  199.3750    69.1110    24.4120    78.1790   130.5980   136.3610   -30.3230     2.2180   411.0640 
  199.5000    69.1010    24.2010    71.7590   131.0150   136.2900   -30.3210     2.2150   410.7820 
  199.6250    67.5290    24.0020    66.9050   131.5690   136.1810   -30.3390     2.2160   409.3820 
  199.7500    65.4220    23.9230    69.2310   131.8750   135.6480   -30.3460     2.2180   407.6250 
  199.8750    64.5130    24.0090    75.8750   131.9630   134.8360   -30.3160     2.2300   407.9110 
