~V
VERS. 2.00: Ver 2.00
~W
STRT.M 60.0000:
STOP.M 277.0000:
STEP.M 0.1250:
NULL. -999.2500:
UWI. DF3044:
~C
DEPT.M :
GR.API :
CALI.CM :
RXO.OHMM :
RI. :
RML.OHMM :
DEN.GM/CC :
SP.MV :
~A
   60.0000    44.2070    25.3800     2.2880     0.1410    -0.1940  -999.2500   -31.2260 
   60.1250    46.1030    25.3800     2.4340     0.1340    -0.1310  -999.2500   -31.7550 
   60.2500    46.7230    25.3800     2.6540     0.1280    -0.0130  -999.2500   -32.2350 
   60.3750    43.9400    25.3800     2.7420     0.1230     0.1500  -999.2500   -32.6150 
   60.5000    40.5470    25.3800     2.4430     0.1210     0.3120  -999.2500   -32.8910 
   60.6250    41.7360    25.3800     2.4050     0.1220     0.3920  -999.2500   -33.0600 
   60.7500    45.3180    25.3800     2.6670     0.1200     0.3660  -999.2500   -33.1410 
   60.8750    46.8830    25.3800     3.0240     0.1150     0.2750  -999.2500   -33.0940 
   61.0000    45.0100    25.3800     3.1530     0.1040     0.2010  -999.2500   -32.8850 
   61.1250    42.9150    25.3800     3.1770     0.0920     0.1940  -999.2500   -32.5210 
   61.2500    42.7490    25.3800     3.3900     0.0840     0.2040  -999.2500   -32.0490 
   61.3750    43.4890    25.3800     3.7330     0.0800     0.1850  -999.2500   -31.5280 
   61.5000    44.0340    25.3800     4.0830     0.0760     0.1400  -999.2500   -30.9390 
   61.6250    44.1900    25.3800     4.2220     0.0720     0.1160  -999.2500   -30.1930 
   61.7500    43.7210    25.3800     4.0910     0.0700     0.1380  -999.2500   -29.2680 
   61.8750    42.8450    25.3800     4.0690     0.0690     0.1940  -999.2500   -28.1500 
   62.0000    42.1550    25.3800     4.4930     0.0660     0.2420  -999.2500   -26.8280 
   62.1250    42.1800    25.3800     6.0440     0.0630     0.2430  -999.2500   -25.2310 
   62.2500    42.8200    25.3800     7.9250     0.0580     0.2370  -999.2500   -23.3660 
   62.3750    43.8270    25.3800     7.3700     0.0530     0.2670  -999.2500   -21.1530 
   62.5000    43.9390    25.3800     4.2230     0.0560     0.3910  -999.2500   -18.5680 
   62.6250    42.8120    25.3800     1.7030     0.0710     0.7090  -999.2500   -15.6340 
   62.7500    41.7340    25.3800     0.9990     0.0920     1.1680  -999.2500   -12.4010 
   62.8750    41.2430    25.3800     0.8570     0.1200     1.5920  -999.2500    -8.9080 
   63.0000    40.8250    25.3800     0.9430     0.1510     1.7570  -999.2500    -5.2340 
   63.1250    40.7420    25.3800     1.2160     0.1770     1.5250  -999.2500    -1.5250 
   63.2500    42.1490    25.5550     1.4860     0.1880     1.0900  -999.2500     2.1260 
   63.3750    44.1110    25.2840     1.5640     0.1800     0.6420  -999.2500     5.6710 
   63.5000    44.3880    24.4530     1.5070     0.1540     0.3230  -999.2500     9.1190 
   63.6250    44.0070    24.1200     1.6230     0.1280     0.1800  -999.2500    12.5190 
   63.7500    44.2860    24.0040     1.9950     0.1180     0.1280  -999.2500    15.8810 
   63.8750    44.4820    23.7440     2.4940     0.1240     0.1120  -999.2500    19.0980 
   64.0000    43.8700    23.2260     2.7770     0.1340     0.1030  -999.2500    22.0760 
   64.1250    43.7310    23.0000     2.8670     0.1350     0.0880  -999.2500    24.6840 
   64.2500    44.5980    23.0860     2.4360     0.1240     0.0660  -999.2500    26.8640 
   64.3750    45.2170    23.3670     1.8700     0.1080     0.0340  -999.2500    28.5330 
   64.5000    45.6860    23.3130     1.6010     0.0980    -0.0170  -999.2500    29.6400 
   64.6250    44.6970    23.0850     1.6110     0.0990    -0.0850  -999.2500    29.9970 
   64.7500    42.0750    22.9000     1.7410     0.1000    -0.1580  -999.2500    29.6220 
   64.8750    42.2470    22.8520     1.9250     0.0990    -0.2240  -999.2500    28.5190 
   65.0000    47.2420    22.8500     2.1610     0.0880    -0.2630  -999.2500    26.7000 
   65.1250    51.7970    22.9510     2.4720     0.0640    -0.2760  -999.2500    24.0690 
   65.2500    52.3830    23.3500     2.6110     0.0430    -0.2780  -999.2500    20.7920 
   65.3750    51.3400    24.0350     2.3050     0.0310    -0.2740  -999.2500    16.9930 
   65.5000    53.7910    24.3740     1.8730     0.0410    -0.2590  -999.2500    12.7920 
   65.6250    63.5960    24.2570     2.2980     0.1130    -0.2060  -999.2500     8.3250 
   65.7500    72.5610    23.8970     3.7980     0.3000    -0.0680  -999.2500     3.7700 
   65.8750    73.4200    23.5610     5.8010     0.6900     0.2670  -999.2500    -0.7260 
   66.0000    66.8470    23.5000     7.2030     1.3860     1.0200  -999.2500    -5.0200 
   66.1250    62.0800    23.5240     7.5480     2.4320     2.3900  -999.2500    -8.8400 
   66.2500    62.4990    23.5460     7.4760     3.5310     3.5750  -999.2500   -12.1020 
   66.3750    63.4780    23.5210     7.4790     4.4500     4.0830  -999.2500   -14.8020 
   66.5000    63.9410    23.4490     7.5750     5.1420     4.2820  -999.2500   -17.0490 
   66.6250    65.0580    23.3960     7.6630     5.6470     4.5100  -999.2500   -18.9160 
   66.7500    66.3790    23.3620     7.6470     6.0270     4.7670  -999.2500   -20.5300 
   66.8750    66.5490    23.3150     7.5390     6.2860     4.9780  -999.2500   -21.9420 
   67.0000    65.6150    23.2440     7.3950     6.4290     5.1040  -999.2500   -23.1560 
   67.1250    66.5240    23.1860     7.2640     6.4610     5.1600  -999.2500   -24.1770 
   67.2500    68.0530    23.1510     7.2010     6.4400     5.2100  -999.2500   -25.0280 
   67.3750    65.8640    23.0570     7.2500     6.4080     5.2780  -999.2500   -25.7470 
   67.5000    60.4430    22.8170     7.3570     6.3930     5.3550  -999.2500   -26.3150 
   67.6250    56.8870    22.4060     7.3910     6.4160     5.4280  -999.2500   -26.7420 
   67.7500    56.7840    22.2210     7.3530     6.4760     5.5120  -999.2500   -27.0570 
   67.8750    57.1820    22.1540     7.3070     6.5540     5.6350  -999.2500   -27.2380 
   68.0000    57.2980    22.1370     7.3430     6.6240     5.8100  -999.2500   -27.3220 
   68.1250    59.6230    22.2290     7.4850     6.6620     6.0150  -999.2500   -27.3080 
   68.2500    63.3760    22.4360     7.5940     6.6700     6.1810  -999.2500   -27.2610 
   68.3750    65.4890    22.5300     7.5450     6.6480     6.2580  -999.2500   -27.1860 
   68.5000    65.1030    22.1690     7.3870     6.6030     6.2520  -999.2500   -27.1080 
   68.6250    66.0110    21.6590     7.2950     6.5510     6.2180  -999.2500   -27.0200 
   68.7500    67.9170    21.4270     7.2200     6.5050     6.2120  -999.2500   -26.9130 
   68.8750    67.5480    21.4790     7.1100     6.4640     6.2390  -999.2500   -26.8020 
   69.0000    64.4020    21.5920     6.9850     6.4240     6.2620  -999.2500   -26.6870 
   69.1250    62.6850    21.7150     6.9180     6.3840     6.2420  -999.2500   -26.5200 
   69.2500    64.1360    21.9430     6.8890     6.3430     6.1980  -999.2500   -26.2670 
   69.3750    65.8260    22.4210     6.8710     6.3090     6.1700  -999.2500   -25.9270 
   69.5000    65.7590    22.9600     6.8540     6.2850     6.1860  -999.2500   -25.4740 
   69.6250    63.9930    23.3660     6.8210     6.2600     6.2150  -999.2500   -24.9200 
   69.7500    63.2950    23.8650     6.7400     6.2050     6.1920  -999.2500   -24.3050 
   69.8750    67.1590    24.0740     6.5900     6.1060     6.0840  -999.2500   -23.6730 
   70.0000    74.7340    23.6280     6.3420     5.9710     5.9130  -999.2500   -23.0340 
   70.1250    82.3510    23.2240     5.9180     5.8310     5.7450  -999.2500   -22.4620 
   70.2500    86.4150    23.0260     5.5790     5.7220     5.6330  -999.2500   -21.9570 
   70.3750    86.2220    23.0100     5.6360     5.6670     5.6000  -999.2500   -21.4750 
   70.5000    84.2370    23.1660     6.1010     5.6640     5.6330  -999.2500   -21.0390 
   70.6250    84.2310    23.4160     6.4770     5.6900     5.7040  -999.2500   -20.6620 
   70.7500    86.4010    23.6460     6.4700     5.7130     5.7710  -999.2500   -20.3500 
   70.8750    91.0080    23.7650     6.2750     5.7120     5.8240  -999.2500   -20.0830 
   71.0000    96.4960    23.9860     6.0570     5.6750     5.8630  -999.2500   -19.8680 
   71.1250    98.5990    24.2310     6.0340     5.5930     5.8790  -999.2500   -19.6760 
