~V
VERS. 2.00: Ver 2.00
~W
STRT.M 60.0000:
STOP.M 258.0000:
STEP.M 0.1250:
NULL. -999.2500:
UWI. DF3032:
~C
DEPT.M :
GR.API :
RML.OHMM :
RI. :
RXO.OHMM :
CALI.CM :
DEN.GM/CC :
SP.MV :
~A
# ...
  195.0000    78.7750    46.3730    41.6870    50.6270    25.2310     2.3080   -21.5390 
  195.1250    78.5290    44.7420    40.3230    52.7370    25.2330     2.3100   -21.5320 
  195.2500    79.6660    42.1290    37.9880    48.8570    25.2590     2.3110   -21.5300 
  195.3750    83.9280    39.3380    35.3620    43.5180    25.2740     2.3130   -21.5380 
  195.5000    87.7700    37.0540    33.0420    39.3080    25.2110     2.3130   -21.5150 
  195.6250    87.6340    35.9230    31.6120    39.3800    24.9280     2.3080   -21.4950 
  195.7500    86.4180    35.8990    31.1120    42.3980    24.9090     2.3000   -21.4660 
  195.8750    86.8470    36.7240    31.3960    45.9240    25.0130     2.2910   -21.4000 
  196.0000    88.1600    37.8500    32.0780    45.8770    24.8790     2.2820   -21.4540 
  196.1250    86.0950    38.4670    32.5510    44.0110    24.6400     2.2770   -21.5160 
  196.2500    82.7130    38.2240    32.4460    45.3860    24.5840     2.2730   -21.4390 
  196.3750    81.9320    37.3460    31.8250    45.3280    24.7350     2.2730   -21.4750 
  196.5000    84.9730    36.6110    31.1820    39.8300    24.6570     2.2780   -21.5210 
  196.6250    86.6730    37.5120    31.6040    32.0720    24.6480     2.2910   -21.4770 
  196.7500    84.7070    40.9700    33.9210    31.4260    24.4780     2.3050   -21.6430 
  196.8750    81.1580    47.5530    38.7590    40.2950    24.5160     2.3160   -21.8180 
  197.0000    76.9120    57.2310    46.3080    53.9020    24.3850     2.3170   -21.9050 
  197.1250    73.6250    69.4220    56.3120    70.2170    24.4090     2.3090   -22.1190 
  197.2500    73.6780    82.0280    66.9770    84.8280    24.6520     2.2960   -22.3940 
  197.3750    75.7700    93.2950    76.6760    94.0010    24.9630     2.2820   -22.6820 
  197.5000    77.5100   101.9180    84.1010    98.2370    25.1130     2.2710   -22.9860 
  197.6250    77.8200   106.9880    88.2680   102.4360    25.0160     2.2610   -23.2470 
  197.7500    78.4680   109.4050    89.9290   104.0980    24.8390     2.2520   -23.4220 
  197.8750    79.7350   109.5170    89.4960   102.4470    24.7640     2.2440   -23.5200 
  198.0000    81.1110   107.2750    87.1580    98.0690    24.8600     2.2380   -23.5840 
  198.1250    81.1340   101.9180    82.5620    93.8880    24.8730     2.2360   -23.6020 
  198.2500    79.5950    94.1430    76.2770    90.9910    24.8200     2.2400   -23.5350 
  198.3750    77.0060    85.2060    69.1820    88.1700    24.8060     2.2520   -23.3860 
  198.5000    74.5200    77.0200    62.6540    81.9720    24.8310     2.2720   -23.2240 
  198.6250    75.0570    72.0740    58.6150    70.2080    24.8130     2.2970   -23.0220 
  198.7500    75.8430    71.0560    57.7180    63.0100    24.7860     2.3170   -22.7750 
  198.8750    73.5570    73.9890    60.1060    65.7970    24.7730     2.3250   -22.5140 
  199.0000    68.7650    79.9310    65.1200    78.6010    24.7700     2.3170   -22.1620 
  199.1250    64.9190    86.5560    70.9830    92.8000    24.7590     2.2960   -21.7640 
  199.2500    62.3950    90.3810    74.7450   102.8150    24.7340     2.2770   -21.3900 
  199.3750    59.9680    88.5030    73.9070   103.9770    24.6980     2.2740   -20.8420 
  199.5000    60.9540    79.4630    67.1300    91.5230    24.6550     2.2990   -20.2270 
  199.6250    65.9650    64.1220    54.7920    78.6470    24.5890     2.3570   -19.7190 
  199.7500    70.1910    47.4730    41.1240    63.5680    24.5130     2.4310   -19.0490 
  199.8750    74.8630    32.9640    29.1610    45.7110    24.3900     2.4990   -18.4020 
  200.0000    83.3710    22.2410    20.3940    29.3260    24.1840     2.5390   -17.9440 
  200.1250    93.5290    15.8030    15.1710    17.6030    24.0020     2.5410   -17.3950 
  200.2500   101.4720    12.9170    12.1060    11.9520    23.8780     2.5240   -16.9010 
  200.3750   108.0610    11.5620    10.4900     9.8710    23.8030     2.5020   -16.5940 
  200.5000   112.7610    11.1900     9.8320     9.2070    23.7550     2.4860   -16.2540 
  200.6250   111.0290    11.4490     9.8650     8.7940    23.7410     2.4780   -15.9740 
  200.7500   104.8130    11.9220    10.2060     8.7080    23.7430     2.4720   -15.8660 
  200.8750   101.3380    12.4080    10.6560     9.1600    23.7620     2.4670   -15.8400 
  201.0000   104.0350    12.8000    11.0740    10.1480    23.8000     2.4630   -15.8940 
  201.1250   109.3230    13.0770    11.3790    11.0330    23.7820     2.4600   -16.0980 
  201.2500   110.3320    13.3170    11.5980    11.4090    23.7030     2.4590   -16.4670 
  201.3750   105.2300    13.5560    11.7610    11.5790    23.6010     2.4560   -16.9650 
  201.5000    99.1090    13.7840    11.8760    11.7950    23.5140     2.4500   -17.5840 
  201.6250    95.7060    13.9220    11.9030    12.8970    23.4180     2.4370   -18.3070 
  201.7500    93.1490    13.9360    11.8360    14.1120    23.3980     2.4190   -19.0400 
  201.8750    91.3820    13.8660    11.7090    14.7280    23.4520     2.4000   -19.7080 
  202.0000    91.8350    13.8390    11.6210    14.5380    23.5070     2.3840   -20.2940 
  202.1250    94.4990    14.1220    11.7650    14.0790    23.4650     2.3760   -20.7440 
  202.2500    94.8220    14.8900    12.2730    14.1820    23.3090     2.3720   -20.9780 
  202.3750    90.8200    16.2360    13.2230    15.0790    23.1040     2.3690   -21.0970 
  202.5000    84.2850    18.0430    14.5610    17.0220    22.9410     2.3610   -21.0510 
  202.6250    79.7580    19.8350    15.9760    18.4530    22.9200     2.3510   -20.5490 
  202.7500    79.4260    20.8980    16.9200    19.5060    23.0210     2.3470   -19.8940 
  202.8750    82.3540    20.7000    16.9290    20.5400    23.2400     2.3590   -19.0750 
  203.0000    87.1820    19.1120    15.8210    22.2990    23.4990     2.3920   -17.9200 
  203.1250    92.9380    16.5030    13.8040    22.6450    23.6580     2.4440   -16.7480 
  203.2500    96.1730    13.9090    11.6870    16.8460    23.7820     2.4960   -15.5670 
  203.3750    96.2880    11.9690     9.9770    10.2260    23.9850     2.5350   -14.3260 
  203.5000    93.5810    10.9480     8.9070     7.8250    24.2770     2.5520   -13.3540 
  203.6250    89.0400    10.8710     8.5720     7.9530    24.5300     2.5450   -12.7530 
  203.7500    85.4740    11.2880     8.7150     8.6500    24.7060     2.5290   -12.3930 
  203.8750    85.5450    11.8950     9.1530     9.4880    24.7760     2.5120   -12.4310 
  204.0000    89.1450    12.4510     9.7030    10.3680    24.7740     2.4960   -12.8230 
  204.1250    91.1990    12.8440    10.2380    10.9840    24.6810     2.4780   -13.4660 
  204.2500    90.1030    13.2400    10.7920    11.2310    24.5360     2.4560   -14.3130 
  204.3750    87.2680    13.9250    11.5390    11.7270    24.3220     2.4260   -15.2240 
  204.5000    84.5870    15.2320    12.7320    13.4240    24.0170     2.3880   -16.0950 
  204.6250    83.6620    17.5420    14.7040    16.5860    23.7610     2.3470   -16.8240 
  204.7500    82.5590    20.5530    17.2750    19.5700    23.6240     2.3120   -17.3340 
  204.8750    77.5390    23.6320    19.9770    22.7360    23.5980     2.2910   -17.5460 
  205.0000    68.8700    25.7840    21.9970    26.5050    23.6310     2.2930   -17.4190 
  205.1250    62.3890    25.5980    22.0910    27.8870    23.7130     2.3300   -16.9230 
  205.2500    62.9210    23.1020    20.1770    25.4610    23.8390     2.3960   -16.1130 
  205.3750    69.9200    19.0320    16.8520    20.9460    24.0950     2.4790   -15.0100 
  205.5000    80.5720    14.6760    13.2220    14.6770    24.4070     2.5590   -13.6960 
  205.6250    89.0830    11.3670    10.3750    10.9410    24.5970     2.5960   -12.3920 
  205.7500    92.6600     9.3340     8.5040     6.9160    24.7010     2.5830   -11.0630 
  205.8750    93.5500     8.3740     7.4930     5.8080    24.7530     2.5330    -9.8110 
  206.0000    95.0850     8.1370     7.1290     5.8470    24.7730     2.4730    -8.8930 
  206.1250    93.1930     8.3310     7.2540     6.1730    24.7760     2.4270    -8.1590 
