~V
VERS. 2.00: Ver 2.00
~W
STRT.M 65.0000:
STOP.M 252.0000:
STEP.M 0.1250:
NULL. -999.2500:
UWI. DF3012:
~C
DEPT.M :
GR.API :
RML.OHMM :
RI. :
RXO.OHMM :
CALI.CM :
DEN.GM/CC :
SP.MV :
~A
# ...
  132.5000    89.7880     9.8930     8.4730     9.0750    23.7240     2.2320   -25.1950 
  132.6250    87.0290    10.7120     9.1540     9.8510    23.7240     2.2150   -25.2990 
  132.7500    84.5080    11.1770     9.6040    10.2730    23.7260     2.2020   -25.5520 
  132.8750    83.2590    11.1710     9.6840    10.4470    23.7330     2.1970   -25.8060 
  133.0000    83.3410    10.7210     9.3710    10.3330    23.7530     2.2010   -25.8610 
  133.1250    82.8140     9.9790     8.7570     9.8750    23.7950     2.2180   -25.8090 
  133.2500    83.0940     9.2550     8.1050     9.1770    23.8240     2.2430   -25.7900 
  133.3750    86.2170     8.7560     7.5950     8.4940    23.8510     2.2680   -25.7350 
  133.5000    92.6680     8.6090     7.3500     8.1490    23.8560     2.2820   -25.7020 
  133.6250    96.5410     8.8980     7.4740     8.2390    23.8260     2.2760   -25.8470 
  133.7500    92.5720     9.4780     7.8860     8.5180    23.7620     2.2570   -26.0740 
  133.8750    84.4940    10.2200     8.5080     8.8660    23.5920     2.2360   -26.2330 
  134.0000    80.7490    10.9750     9.2240     9.2590    23.3310     2.2190   -26.3730 
  134.1250    85.5470    11.5650     9.8740     9.5900    23.0870     2.2100   -26.6080 
  134.2500    88.1310    11.8970    10.3240     9.7490    23.0320     2.2050   -26.6660 
  134.3750    82.8590    11.9070    10.4810    10.0000    23.1070     2.2020   -26.4820 
  134.5000    76.3610    11.5780    10.3040    10.6920    23.2460     2.2020   -26.2330 
  134.6250    77.5200    10.9120     9.7690    11.4140    23.4400     2.2100   -25.7320 
  134.7500    83.9580    10.0860     9.0350    11.1660    23.7380     2.2300   -24.9240 
  134.8750    90.5620     9.2550     8.2380     9.6250    24.0390     2.2590   -24.1380 
  135.0000    97.1080     8.5640     7.5160     7.7770    24.2460     2.2900   -23.4740 
  135.1250   103.6050     8.1370     6.9930     6.6800    24.3360     2.3170   -22.8030 
  135.2500   108.4440     7.9230     6.6590     6.2490    24.3530     2.3370   -22.3780 
  135.3750   110.9870     7.8490     6.4830     6.2530    24.3230     2.3490   -22.2240 
  135.5000   110.3040     7.8460     6.4190     6.4250    24.2510     2.3550   -22.1980 
  135.6250   105.9180     7.8960     6.4530     6.5550    24.1850     2.3540   -22.5920 
  135.7500    99.1200     8.0330     6.5860     6.6330    24.1320     2.3460   -23.3760 
  135.8750    91.5940     8.3190     6.8500     6.7740    24.0530     2.3310   -24.2710 
  136.0000    85.2850     8.7810     7.2660     7.2020    23.9200     2.3090   -25.2870 
  136.1250    82.7870     9.3930     7.8270     8.2730    23.6790     2.2810   -26.5700 
  136.2500    82.2430    10.0190     8.4350    10.0140    23.3810     2.2450   -27.7950 
  136.3750    78.8350    10.5550     9.0000    11.9080    23.1260     2.2040   -28.8880 
  136.5000    73.2480    10.9430     9.4560    12.8200    22.9940     2.1620   -29.9250 
  136.6250    70.9000    11.1740     9.7640    12.2550    22.9940     2.1310   -30.7940 
  136.7500    72.8120    11.3250     9.9740    11.5630    23.0670     2.1200   -31.4670 
  136.8750    76.6030    11.4390    10.1230    11.4410    23.1870     2.1300   -31.9430 
  137.0000    80.1290    11.5280    10.2330    11.7470    23.2980     2.1550   -32.2570 
  137.1250    80.5390    11.5770    10.2970    12.0420    23.4800     2.1800   -32.2780 
  137.2500    77.7130    11.5780    10.3160    12.0760    23.7700     2.1920   -31.9760 
  137.3750    74.5390    11.5150    10.2750    11.6940    24.0660     2.1880   -31.5370 
  137.5000    73.0990    11.3570    10.1490    11.0970    24.2090     2.1720   -30.9200 
  137.6250    71.8310    11.0160     9.8670    10.6520    24.2060     2.1590   -29.8710 
  137.7500    71.1430    10.4670     9.4090    10.3800    24.2050     2.1610   -28.5950 
  137.8750    75.4930     9.7270     8.7830    10.0660    24.2450     2.1830   -27.2410 
  138.0000    85.4600     8.8830     8.0540     9.1700    24.3040     2.2230   -25.6960 
  138.1250    95.7970     8.1110     7.3620     7.5990    24.3980     2.2710   -24.0340 
  138.2500   102.4230     7.5690     6.8430     6.3120    24.4860     2.3100   -22.6130 
  138.3750   104.7810     7.3410     6.5810     5.7580    24.5180     2.3320   -21.3260 
  138.5000   104.1380     7.4330     6.6000     5.7760    24.5100     2.3380   -20.1900 
  138.6250   103.5520     7.7930     6.8920     5.9900    24.4480     2.3310   -19.5130 
  138.7500   104.0080     8.2230     7.3010     6.2750    24.3550     2.3240   -19.0490 
  138.8750   101.9340     8.5620     7.6840     6.6490    24.1830     2.3220   -18.7180 
  139.0000    94.9990     8.6770     7.9060     7.0160    23.9470     2.3300   -18.6710 
  139.1250    89.6140     8.4580     7.8290     7.1080    23.7590     2.3430   -18.7930 
  139.2500    91.6800     7.9950     7.5000     6.7890    23.6160     2.3520   -18.7900 
  139.3750   100.7440     7.4000     7.0050     6.2040    23.5450     2.3500   -18.8230 
  139.5000   110.7930     6.8140     6.4680     5.6180    23.6190     2.3360   -18.9880 
  139.6250   114.8600     6.4160     6.0510     5.2130    23.8980     2.3170   -19.0930 
  139.7500   115.7820     6.2660     5.8320     5.0460    24.1650     2.3060   -19.1890 
  139.8750   117.2340     6.3710     5.8400     5.1510    24.4340     2.3060   -19.3770 
  140.0000   116.6090     6.6780     6.0500     5.6610    24.5650     2.3130   -19.6530 
  140.1250   109.0040     7.1050     6.4150     6.7620    24.4560     2.3180   -20.0150 
  140.2500   100.3440     7.5410     6.8290     7.8500    24.2620     2.3110   -20.4530 
  140.3750    95.0410     7.9400     7.2380     8.2770    24.0880     2.2950   -20.9590 
  140.5000    91.4520     8.3000     7.6210     8.1030    23.9430     2.2750   -21.4290 
  140.6250    89.5010     8.6540     7.9930     8.1540    23.8020     2.2630   -21.7700 
  140.7500    89.9640     9.0400     8.3860     8.6830    23.6790     2.2630   -22.0760 
  140.8750    89.7290     9.4680     8.8090     9.4220    23.6020     2.2800   -22.3050 
  141.0000    85.5100     9.9340     9.2600    10.3560    23.6130     2.3090   -22.2110 
  141.1250    80.1290    10.4510     9.7440    11.4790    23.7480     2.3450   -21.8610 
  141.2500    77.4450    11.0380    10.2780    12.7160    24.0010     2.3810   -21.4690 
  141.3750    75.3380    11.7190    10.8940    13.6800    24.3080     2.4150   -20.8710 
  141.5000    72.1250    12.5000    11.6150    14.3170    24.5440     2.4470   -20.1900 
  141.6250    70.3960    13.3820    12.4610    16.3230    24.6210     2.4790   -19.6330 
  141.7500    70.0010    14.3180    13.3910    19.5710    24.6300     2.5090   -19.0460 
  141.8750    69.2550    15.2770    14.3720    21.1560    24.6060     2.5360   -18.4810 
  142.0000    67.9620    16.2480    15.3790    19.7120    24.5540     2.5590   -18.1460 
  142.1250    67.9820    17.2590    16.4210    19.2120    24.5200     2.5770   -17.9090 
  142.2500    67.3600    18.3260    17.5080    21.1250    24.4910     2.5900   -17.7030 
  142.3750    63.9770    19.4320    18.6340    23.1790    24.4620     2.5970   -17.6990 
  142.5000    58.7860    20.5030    19.7530    23.5770    24.4480     2.5990   -17.7180 
  142.6250    55.7730    21.3710    20.7280    23.7280    24.4500     2.5990   -17.6420 
  142.7500    55.6280    21.9470    21.4590    24.7480    24.4520     2.6020   -17.6790 
  142.8750    56.8950    22.2310    21.9170    25.6370    24.4450     2.6090   -17.8120 
  143.0000    56.8750    22.3190    22.1690    25.3070    24.4400     2.6160   -17.9200 
  143.1250    54.1550    22.3580    22.3310    24.2070    24.4400     2.6180   -17.9990 
  143.2500    51.5070    22.4680    22.5340    24.0240    24.4400     2.6110   -18.1400 
  143.3750    50.7070    22.6760    22.8280    25.2540    24.4320     2.5980   -18.2750 
  143.5000    52.7030    22.9490    23.2040    26.9380    24.3980     2.5870   -18.3410 
  143.6250    54.7110    23.1700    23.5870    27.0880    24.3130     2.5870   -18.4630 
