~V
VERS. 2.00: Ver 2.00
~W
STRT.M 60.0000:
STOP.M 273.0000:
STEP.M 0.1250:
NULL. -999.2500:
UWI. DF3001:
~C
DEPT.M :
DEN.GM/CC :
SP.MV :
AC.US/MT :
GR.API :
RML.OHMM :
RI. :
RXO.OHMM :
CALI.CM :
~A
# ...
   70.0000  -999.2500   -34.3600  -999.2500    62.4440    10.2100     8.8170    10.2950    23.7780 
   70.1250  -999.2500   -34.5760  -999.2500    63.2000    10.1470     8.7890    10.6950    23.8200 
   70.2500  -999.2500   -34.7620  -999.2500    67.0600    10.0650     8.7490    10.7890    23.8310 
   70.3750  -999.2500   -34.9210  -999.2500    70.0490     9.9700     8.6930    10.7530    23.8310 
   70.5000  -999.2500   -35.0430  -999.2500    69.8330     9.8910     8.6350    10.6560    23.8310 
   70.6250  -999.2500   -35.1550  -999.2500    68.1460     9.8740     8.6120    10.5480    23.8310 
   70.7500  -999.2500   -35.1980  -999.2500    67.7940     9.9150     8.6360    10.4820    23.8310 
   70.8750  -999.2500   -35.2410  -999.2500    68.4310     9.9760     8.6930    10.4270    23.8310 
   71.0000  -999.2500   -35.3230  -999.2500    69.0430     9.9920     8.7360    10.5290    23.8310 
   71.1250  -999.2500   -35.3680  -999.2500    72.6020     9.8750     8.6890    10.8430    23.8310 
   71.2500  -999.2500   -35.4200  -999.2500    78.5150     9.6360     8.5270    10.9200    23.8310 
   71.3750  -999.2500   -35.5220  -999.2500    82.1830     9.3370     8.2770    10.6920    23.8310 
   71.5000  -999.2500   -35.6210  -999.2500    80.7040     9.0700     8.0080    10.2070    23.8310 
   71.6250  -999.2500   -35.7080  -999.2500    78.2670     8.9450     7.8240     9.6510    23.8310 
   71.7500  -999.2500   -35.7950  -999.2500    79.5730     8.9740     7.7730     9.4440    23.8310 
   71.8750  -999.2500   -35.8910  -999.2500    80.2910     9.1310     7.8500    10.0610    23.8310 
   72.0000  -999.2500   -36.0300  -999.2500    75.0700     9.3470     8.0100    11.2210    23.8310 
   72.1250  -999.2500   -36.2780  -999.2500    68.9410     9.5280     8.1720    11.8560    23.8310 
   72.2500  -999.2500   -36.6000  -999.2500    68.6920     9.6190     8.2760    11.9940    23.8310 
   72.3750  -999.2500   -36.9030  -999.2500    71.8090     9.6260     8.3060    11.9020    23.8310 
   72.5000  -999.2500   -37.1700  -999.2500    70.6420     9.6010     8.2850    11.7970    23.8310 
   72.6250  -999.2500   -37.3730  -999.2500    65.1290     9.6100     8.2600    11.7700    23.8310 
   72.7500  -999.2500   -37.4930  -999.2500    61.8340     9.6720     8.2590    11.8470    23.8310 
   72.8750  -999.2500   -37.4990  -999.2500    62.3010     9.7600     8.2750    11.9230    23.8310 
   73.0000  -999.2500   -37.3530  -999.2500    62.7980     9.8210     8.2740    11.8760    23.8310 
   73.1250  -999.2500   -37.0810  -999.2500    60.7000     9.7770     8.1980    11.5900    23.8310 
   73.2500  -999.2500   -36.7180  -999.2500    60.9640     9.6080     8.0250    11.0460    23.8310 
   73.3750  -999.2500   -36.2950  -999.2500    67.2450     9.3260     7.7590    10.3010    23.8310 
   73.5000  -999.2500   -35.8750  -999.2500    74.9310     8.9870     7.4390     9.5590    23.8310 
   73.6250  -999.2500   -35.4990  -999.2500    77.7020     8.6920     7.1390     8.8510    23.8310 
   73.7500  -999.2500   -35.1880  -999.2500    79.1660     8.5220     6.9340     8.2480    23.8310 
   73.8750  -999.2500   -34.9450  -999.2500    80.9460     8.5190     6.8680     8.0090    23.8310 
   74.0000  -999.2500   -34.7940  -999.2500    80.6660     8.6960     6.9600     8.1350    23.8310 
   74.1250  -999.2500   -34.6670  -999.2500    78.8660     9.0520     7.2290     8.8450    23.8430 
   74.2500  -999.2500   -34.4980  -999.2500    78.0840     9.5010     7.6140     9.8590    23.8910 
   74.3750  -999.2500   -34.2920  -999.2500    76.0680     9.9650     8.0560    10.7440    24.0090 
   74.5000  -999.2500   -34.0180  -999.2500    71.7050    10.3390     8.4680    11.1710    24.2270 
   74.6250  -999.2500   -33.5860  -999.2500    70.3160    10.4540     8.6910    11.2020    24.4900 
   74.7500  -999.2500   -33.0020  -999.2500    73.2100    10.2440     8.6320    11.0970    24.6820 
   74.8750  -999.2500   -32.2200  -999.2500    77.5380     9.7000     8.2490    10.7870    24.7630 
   75.0000  -999.2500   -31.2770  -999.2500    81.0510     8.9100     7.5920    10.1430    24.7930 
   75.1250  -999.2500   -30.2730  -999.2500    86.7670     8.0460     6.7900     8.9000    24.8010 
   75.2500  -999.2500   -29.3330  -999.2500    97.7260     7.2940     6.0320     7.2420    24.8060 
   75.3750  -999.2500   -28.4750  -999.2500   109.6420     6.7280     5.4100     5.8830    24.8090 
   75.5000  -999.2500   -27.7060  -999.2500   114.6600     6.3450     4.9510     5.4070    24.8050 
   75.6250  -999.2500   -27.1530  -999.2500   110.5030     6.1060     4.6570     5.4210    24.7560 
   75.7500  -999.2500   -26.7960  -999.2500   105.7610     5.9630     4.4870     5.5830    24.6620 
   75.8750  -999.2500   -26.6540  -999.2500   105.7040     5.9780     4.4750     5.7290    24.5790 
   76.0000  -999.2500   -26.7170  -999.2500   108.8880     6.3060     4.7230     5.8450    24.5470 
   76.1250  -999.2500   -26.9420  -999.2500   109.0710     7.2070     5.4400     6.5530    24.5470 
   76.2500  -999.2500   -27.2260  -999.2500   103.3480     8.6110     6.6050     8.3020    24.5460 
   76.3750  -999.2500   -27.5690  -999.2500    93.7170    10.2670     8.0730    10.7860    24.5190 
   76.5000  -999.2500   -27.9180  -999.2500    83.7550    11.6930     9.4930    13.5930    24.4300 
   76.6250  -999.2500   -28.2070  -999.2500    74.6520    12.1020    10.2280    15.3500    24.2500 
   76.7500  -999.2500   -28.3570  -999.2500    69.3280    11.3410    10.0000    13.7750    24.1590 
   76.8750  -999.2500   -28.3210  -999.2500    74.7190     9.7650     8.9110    10.2730    24.1930 
   77.0000  -999.2500   -28.1130  -999.2500    90.2480     8.0440     7.4180     7.7450    24.3540 
   77.1250  -999.2500   -27.8920  -999.2500   105.6630     6.7220     6.0550     6.1380    24.5900 
   77.2500  -999.2500   -27.6700  -999.2500   113.4810     5.8420     5.0440     5.0580    24.7640 
   77.3750  -999.2500   -27.4440  -999.2500   117.9210     5.3750     4.4200     4.6400    24.7540 
   77.5000  -999.2500   -27.3250  -999.2500   123.2820     5.3310     4.1910     4.7290    24.5490 
   77.6250  -999.2500   -27.4480  -999.2500   124.6950     5.8550     4.4620     5.3840    24.1750 
   77.7500  -999.2500   -27.8800  -999.2500   119.0200     6.8770     5.1780     7.0580    23.9910 
   77.8750  -999.2500   -28.6050  -999.2500   107.4470     8.2880     6.2610     9.8950    24.0210 
   78.0000  -999.2500   -29.6010  -999.2500    93.6480     9.7960     7.5200    13.1610    24.1990 
   78.1250  -999.2500   -30.7940  -999.2500    83.6820    10.8650     8.5880    15.9980    24.1750 
   78.2500  -999.2500   -32.0510  -999.2500    80.4230    11.1630     9.1710    15.9200    23.9690 
   78.3750  -999.2500   -33.2850  -999.2500    81.8550    10.6880     9.1780    12.4250    23.7710 
   78.5000  -999.2500   -34.4710  -999.2500    83.0850     9.7390     8.7590     9.9260    23.7050 
   78.6250  -999.2500   -35.4840  -999.2500    81.7660     8.8580     8.2150     9.8230    23.7310 
   78.7500  -999.2500   -36.2680  -999.2500    80.2180     8.3380     7.8010    10.0430    23.7430 
   78.8750  -999.2500   -36.9150  -999.2500    80.8930     8.2690     7.5810     9.9490    23.7450 
   79.0000  -999.2500   -37.4300  -999.2500    82.7200     8.3880     7.5420     9.7630    23.7450 
   79.1250  -999.2500   -37.7280  -999.2500    82.7680     8.6470     7.6650     9.8670    23.7450 
   79.2500  -999.2500   -37.8450  -999.2500    81.3860     9.0070     7.9060    10.2410    23.7470 
   79.3750  -999.2500   -37.8530  -999.2500    80.4510     9.4660     8.2580    10.6530    23.7570 
   79.5000  -999.2500   -37.7350  -999.2500    79.2770     9.9850     8.6860    10.9830    23.7820 
   79.6250  -999.2500   -37.4360  -999.2500    78.0440    10.4250     9.0860    11.2000    23.8100 
   79.7500  -999.2500   -37.0080  -999.2500    79.6320    10.6430     9.3310    11.2180    23.8060 
   79.8750  -999.2500   -36.4120  -999.2500    83.7150    10.5500     9.3320    10.9830    23.7640 
