~V
VERS. 2.00: Ver 2.00
~W
STRT.M 57.0000:
STOP.M 272.0000:
STEP.M 0.1250:
NULL. -999.2500:
UWI. DF3050:
~C
DEPT.M :
SP.MV :
GR.API :
CALI.CM :
RXO.OHMM :
RI. :
RML.OHMM :
DEN.GM/CC :
~A
# ...
   79.5000   -32.6170    73.2830    22.6190     7.6470     8.2750    12.1010  -999.2500 
   79.6250   -32.4460    71.9150    22.9610     7.9620     8.4840    12.4610  -999.2500 
   79.7500   -32.2640    73.9910    23.3400     8.8980     8.5730    12.5720  -999.2500 
   79.8750   -32.0890    75.3330    23.5760     9.6720     8.5360    12.4550  -999.2500 
   80.0000   -31.9230    73.4090    23.5960     9.1710     8.3740    12.1600  -999.2500 
   80.1250   -31.7510    70.1740    23.6300     7.7830     8.1420    11.7850  -999.2500 
   80.2500   -31.5290    69.9910    23.8030     7.5170     7.9120    11.4450  -999.2500 
   80.3750   -31.2750    71.7350    23.9140     7.6260     7.7190    11.1630  -999.2500 
   80.5000   -31.0340    74.6950    23.9050     7.8340     7.5720    10.9790  -999.2500 
   80.6250   -30.8360    78.3890    23.6720     7.9020     7.4880    10.9010  -999.2500 
   80.7500   -30.6480    79.7210    23.6460     7.7570     7.4630    10.8830  -999.2500 
   80.8750   -30.4360    78.9410    23.6770     7.4900     7.4500    10.8030  -999.2500 
   81.0000   -30.1970    78.6590    23.6980     7.2010     7.4370    10.6550  -999.2500 
   81.1250   -29.9390    80.7760    23.6250     7.0490     7.4250    10.5470  -999.2500 
   81.2500   -29.7440    82.7080    23.5820     7.0590     7.4280    10.5080  -999.2500 
   81.3750   -29.6000    80.8430    23.3650     7.1190     7.4370    10.5410  -999.2500 
   81.5000   -29.4750    77.6680    23.1130     7.1860     7.4430    10.7260  -999.2500 
   81.6250   -29.3410    78.9200    23.0050     7.2510     7.4380    10.8370  -999.2500 
   81.7500   -29.1920    86.9740    22.9780     7.4040     7.4150    10.8430  -999.2500 
   81.8750   -29.0660    91.8820    22.8740     7.5320     7.3790    10.8180  -999.2500 
   82.0000   -28.9780    87.9770    22.9450     7.5700     7.3530    10.8010  -999.2500 
   82.1250   -28.9380    81.5330    23.0170     7.4870     7.3550    10.7780  -999.2500 
   82.2500   -28.9030    78.9570    23.0590     7.4840     7.4060    10.8240  -999.2500 
   82.3750   -28.8500    78.4010    22.9890     7.4770     7.4970    10.9160  -999.2500 
   82.5000   -28.8010    78.0920    22.8680     7.7570     7.5890    10.9910  -999.2500 
   82.6250   -28.7800    79.6610    23.1630     8.2980     7.6450    11.0220  -999.2500 
   82.7500   -28.7780    81.7090    23.7350     8.5110     7.6390    11.1070  -999.2500 
   82.8750   -28.7580    81.1430    24.5940     8.2960     7.5840    10.9290  -999.2500 
   83.0000   -28.7020    79.5870    25.3730     7.9520     7.4800    10.6360  -999.2500 
   83.1250   -28.6150    80.3950    25.0460     7.4550     7.3650    10.3450  -999.2500 
   83.2500   -28.5080    81.7630    24.0720     6.7520     7.2950    10.1780  -999.2500 
   83.3750   -28.3990    80.1480    23.6730     6.3390     7.2620    10.1290  -999.2500 
   83.5000   -28.2520    76.2540    23.4000     6.5240     7.2730    10.1570  -999.2500 
   83.6250   -28.0170    74.6290    23.2330     6.8640     7.3240    10.2650  -999.2500 
   83.7500   -27.7230    75.7750    22.7300     6.7360     7.3900    10.3990  -999.2500 
   83.8750   -27.4500    77.3280    22.1090     6.5720     7.4030    10.4270  -999.2500 
   84.0000   -27.1950    79.2400    21.8370     6.4430     7.3250    10.2960  -999.2500 
   84.1250   -26.9380    82.3270    21.7930     6.2660     7.1320     9.9700  -999.2500 
   84.2500   -26.6520    88.1200    22.0430     6.1600     6.7900     9.3740  -999.2500 
   84.3750   -26.3460    95.9320    22.6490     6.9860     6.3490     8.6230  -999.2500 
   84.5000   -26.0490   104.0510    22.9980     7.6440     5.8780     7.8660  -999.2500 
   84.6250   -25.8400   109.6860    23.0080     6.8890     5.4560     7.2440  -999.2500 
   84.7500   -25.7450   111.1670    23.1200     4.7800     5.1710     6.8840  -999.2500 
   84.8750   -25.7180   111.4060    23.4560     4.1820     5.0730     6.8510  -999.2500 
   85.0000   -25.7450   110.3140    23.6950     4.0900     5.1630     7.0960  -999.2500 
   85.1250   -25.8030   107.3430    23.8010     4.3000     5.3960     7.4950  -999.2500 
   85.2500   -25.8750   101.8990    23.6570     4.9810     5.6880     7.9200  -999.2500 
   85.3750   -25.9770    97.0970    23.6220     6.0170     5.9450     8.2310  -999.2500 
   85.5000   -26.1340    97.9570    23.6360     6.3770     6.1100     8.3380  -999.2500 
   85.6250   -26.3210   104.6310    23.7580     5.8210     6.1410     8.2200  -999.2500 
   85.7500   -26.5080   110.5140    23.9390     5.4330     6.0500     7.9760  -999.2500 
   85.8750   -26.6660   111.3110    23.9150     5.5740     5.9360     7.8210  -999.2500 
   86.0000   -26.8160   107.8290    23.9340     5.5770     5.8840     7.8530  -999.2500 
   86.1250   -27.0050   101.9250    24.0090     5.5270     5.9220     8.0870  -999.2500 
   86.2500   -27.2730    95.1420    23.8530     5.7600     6.0660     8.4990  -999.2500 
   86.3750   -27.5780    89.5890    23.5090     6.1200     6.2440     8.9280  -999.2500 
   86.5000   -27.8690    85.8620    23.3710     6.0620     6.3690     9.2200  -999.2500 
   86.6250   -28.1270    82.2300    23.5410     5.8810     6.4150     9.3450  -999.2500 
   86.7500   -28.3420    79.1960    23.4710     6.1940     6.4490     9.4580  -999.2500 
   86.8750   -28.5330    80.5460    23.1880     6.4370     6.5540     9.7080  -999.2500 
   87.0000   -28.7050    85.3410    23.0360     6.3890     6.7510    10.1440  -999.2500 
   87.1250   -28.8290    88.3280    22.9880     6.1740     7.0860    10.8460  -999.2500 
   87.2500   -28.9340    85.6130    23.0370     6.2880     7.5890    11.7700  -999.2500 
   87.3750   -29.0360    83.3830    23.1450     7.2530     8.1060    12.6060  -999.2500 
   87.5000   -29.1430    83.8260    23.2300    10.1590     8.4900    13.1280  -999.2500 
   87.6250   -29.2680    84.5410    23.5070    13.0350     8.6270    13.1870  -999.2500 
   87.7500   -29.4110    84.6190    23.3550    11.8820     8.3750    12.5860  -999.2500 
   87.8750   -29.5360    85.7900    22.8550     8.7190     7.8670    11.6030  -999.2500 
   88.0000   -29.6430    87.7220    22.6030     6.8980     7.2820    10.5780  -999.2500 
   88.1250   -29.7620    89.6420    22.4120     6.2940     6.7600     9.7760  -999.2500 
   88.2500   -29.8670    91.3470    22.4000     6.0700     6.4080     9.3230  -999.2500 
   88.3750   -29.9720    92.7670    22.4970     6.0010     6.2460     9.2240  -999.2500 
   88.5000   -30.1000    93.4090    22.5550     5.9850     6.2610     9.3920  -999.2500 
   88.6250   -30.2190    92.5350    22.5700     5.8430     6.4000     9.6910  -999.2500 
   88.7500   -30.2970    89.4270    22.6470     5.8940     6.6140    10.0240  -999.2500 
   88.8750   -30.3900    84.8330    22.5560     6.2960     6.8450    10.3530  -999.2500 
   89.0000   -30.4970    79.5690    22.6150     6.6300     7.0750    10.6750  -999.2500 
   89.1250   -30.5910    75.2560    22.6740     6.6110     7.2870    10.9750  -999.2500 
   89.2500   -30.6370    74.6480    22.6950     6.6250     7.4600    11.2260  -999.2500 
   89.3750   -30.6340    79.1370    22.7020     6.8210     7.5640    11.4070  -999.2500 
   89.5000   -30.5760    85.0820    22.6910     7.0740     7.6100    11.4990  -999.2500 
   89.6250   -30.5000    88.3390    22.6940     7.2400     7.6230    11.5540  -999.2500 
   89.7500   -30.4390    85.3030    22.7510     7.3350     7.6220    11.6050  -999.2500 
   89.8750   -30.3780    81.0550    22.7360     7.4540     7.6250    11.6610  -999.2500 
   90.0000   -30.3080    81.0150    22.7120     7.5930     7.6320    11.7190  -999.2500 
   90.1250   -30.2250    85.8750    22.7320     7.6850     7.6520    11.7810  -999.2500 
   90.2500   -30.1870    86.9060    22.9130     8.5110     7.6660    11.8150  -999.2500 
   90.3750   -30.1890    82.2040    22.8210    12.4850     7.6580    11.7940  -999.2500 
   90.5000   -30.2180    77.6100    22.9040    15.8730     7.6150    11.7030  -999.2500 
   90.6250   -30.2500    78.5070    22.9960    14.6210     7.5350    11.5670  -999.2500 
