~V
VERS. 2.00: Ver 2.00
~W
STRT.M 60.0000:
STOP.M 277.0000:
STEP.M 0.1250:
NULL. -999.2500:
UWI. DF3048:
~C
DEPT.M :
SP.MV :
GR.API :
RML.OHMM :
RI. :
RXO.OHMM :
CALI.CM :
DEN.GM/CC :
~A
# ...
  183.7500   -24.6860    68.5690   188.3770   161.4320   115.6790    24.6950     2.1860 
  183.8750   -24.4660    67.9870   209.3330   179.4900   182.5570    24.8000     2.1830 
  184.0000   -24.2490    68.7800   230.8560   198.3350   215.7000    24.8510     2.1850 
  184.1250   -24.0690    68.7250   253.6290   219.0730   193.2360    24.5260     2.1890 
  184.2500   -23.9200    68.8160   277.2510   242.1970   188.7540    24.3520     2.1920 
  184.3750   -23.7790    68.4830   299.1590   265.5350   222.3230    24.3040     2.1910 
  184.5000   -23.6450    66.3740   311.9040   283.1110   268.3960    24.1870     2.1890 
  184.6250   -23.4360    63.1370   305.9100   283.3710   289.2880    24.0900     2.1870 
  184.7500   -23.2570    60.9880   278.9670   263.5460   282.1090    24.0930     2.1890 
  184.8750   -23.0650    61.0220   239.2600   227.3910   271.2600    24.1270     2.1990 
  185.0000   -22.8520    63.4600   199.1400   185.2830   254.5480    24.0490     2.2150 
  185.1250   -22.5710    67.8180   159.3500   149.2260   222.5810    24.0480     2.2320 
  185.2500   -22.2500    71.2230   130.9970   122.0380   161.2440    24.1040     2.2420 
  185.3750   -21.9480    73.1710   109.6070   101.4180   101.3700    24.1630     2.2430 
  185.5000   -21.6550    74.9710    90.7220    83.8320    80.6970    24.3050     2.2410 
  185.6250   -21.4130    75.8100    72.3570    67.2620    77.9170    24.3670     2.2450 
  185.7500   -21.1270    77.5340    55.6970    52.2230    78.0970    24.4590     2.2640 
  185.8750   -20.8600    82.4280    43.0620    40.5220    66.6170    24.5110     2.2910 
  186.0000   -20.6480    89.0230    36.1690    33.5810    40.9750    24.4870     2.3160 
  186.1250   -20.5030    91.4110    37.0530    33.2580    28.3130    24.1470     2.3220 
  186.2500   -20.4740    87.0740    45.0700    39.3410    32.1750    23.6420     2.3090 
  186.3750   -20.4910    79.3780    60.1880    52.1850    49.9670    23.6810     2.2840 
  186.5000   -20.5570    74.0480    81.3780    71.1310    79.4910    23.7710     2.2600 
  186.6250   -20.6890    74.6290   105.9460    93.7780   103.8480    23.7770     2.2450 
  186.7500   -20.8530    76.7060   128.5440   114.7830   115.4340    23.7470     2.2400 
  186.8750   -21.0480    75.4330   145.0660   130.0600   127.7050    23.7470     2.2430 
  187.0000   -21.2460    72.2140   153.6230   137.7650   136.3100    23.7470     2.2490 
  187.1250   -21.4980    71.1130   154.3200   137.9350   141.2540    23.7470     2.2540 
  187.2500   -21.7590    71.0170   150.6590   133.8030   141.9320    23.7490     2.2570 
  187.3750   -22.0430    71.1230   144.1610   126.7940   140.1100    23.7520     2.2580 
  187.5000   -22.3690    72.4590   136.0110   118.0360   135.2540    23.7530     2.2600 
  187.6250   -22.6760    75.0340   127.5690   108.7770   122.5990    23.7490     2.2650 
  187.7500   -22.9950    76.1860   120.3150   100.4670   106.7380    23.7480     2.2700 
  187.8750   -23.2820    75.1780   115.4580    94.2630    95.2000    23.7490     2.2730 
  188.0000   -23.5230    73.4180   114.1400    91.2130    90.4050    23.7540     2.2740 
  188.1250   -23.6650    71.4710   118.3940    93.0330    89.7120    23.7620     2.2730 
  188.2500   -23.7370    71.0510   128.5520    99.8270    92.8000    23.7990     2.2700 
  188.3750   -23.7530    73.0920   145.2170   111.9120   101.4520    23.8760     2.2660 
  188.5000   -23.7240    75.0480   168.1100   128.9300   116.7010    23.9090     2.2620 
  188.6250   -23.6830    72.8890   195.6810   149.7000   141.1740    23.9330     2.2560 
  188.7500   -23.5930    69.1390   222.9170   170.5970   163.4220    23.9790     2.2470 
  188.8750   -23.5210    66.5640   244.9320   188.2600   178.3400    24.0470     2.2340 
  189.0000   -23.4500    65.3260   257.5380   199.7810   185.9400    24.1250     2.2160 
  189.1250   -23.4180    65.2250   257.5600   202.6980   191.3540    24.2530     2.1970 
  189.2500   -23.3890    66.5980   249.8890   199.8400   188.7090    24.4000     2.1810 
  189.3750   -23.3640    67.9650   239.8730   194.5680   181.1350    24.4110     2.1730 
  189.5000   -23.3030    67.6120   232.7100   190.5860   165.4230    24.3950     2.1720 
  189.6250   -23.2090    66.7310   232.0380   190.9880   150.3260    24.2330     2.1790 
  189.7500   -23.1290    66.6240   234.9770   194.3200   141.2560    24.2030     2.1910 
  189.8750   -23.0500    65.4880   236.1840   196.8990   144.6360    24.1610     2.2050 
  190.0000   -22.9980    62.8910   228.8760   193.5740   157.6410    24.1980     2.2230 
  190.1250   -22.8800    63.2980   204.8990   177.5510   161.8900    24.3090     2.2420 
  190.2500   -22.7390    67.1110   167.5060   150.0560   151.4850    24.3260     2.2590 
  190.3750   -22.5920    70.3880   125.1500   116.3090   129.9160    24.3330     2.2760 
  190.5000   -22.4360    72.2960    88.5970    84.4960   107.5410    24.4090     2.2920 
  190.6250   -22.2850    75.3220    66.3790    62.8860    86.8800    24.4340     2.3050 
  190.7500   -22.1590    78.9270    56.8070    52.1800    57.6110    24.3380     2.3090 
  190.8750   -22.1050    79.8400    59.1710    52.5750    46.6640    24.1800     2.3020 
  191.0000   -22.1250    77.4050    73.8080    64.5030    62.9590    24.0000     2.2820 
  191.1250   -22.2750    72.7510   103.3090    89.9370   107.5050    23.9350     2.2570 
  191.2500   -22.4760    69.0840   143.4730   124.4560   167.6200    23.8980     2.2350 
  191.3750   -22.6910    69.5270   188.4340   162.3880   199.2740    23.8880     2.2200 
  191.5000   -22.9310    72.7590   229.0520   195.7170   198.6130    23.8830     2.2120 
  191.6250   -23.1830    71.9920   253.2090   214.8470   195.2140    23.8830     2.2080 
  191.7500   -23.4220    67.8660   261.3510   220.8900   193.5920    23.8840     2.2090 
  191.8750   -23.5980    64.7350   259.5610   218.5390   199.6340    23.8890     2.2140 
  192.0000   -23.7120    63.6400   254.6320   212.9270   202.7970    23.9000     2.2210 
  192.1250   -23.7640    61.9750   250.4310   207.2520   195.3630    24.0080     2.2270 
  192.2500   -23.8220    60.6010   247.4970   202.5150   186.2190    24.2250     2.2270 
  192.3750   -23.8940    61.1080   244.5920   198.2390   180.7280    24.4110     2.2180 
  192.5000   -23.9680    62.0440   239.3270   192.9880   177.3060    24.5210     2.2030 
  192.6250   -24.0570    62.5970   228.3370   184.4350   174.4350    24.5350     2.1920 
  192.7500   -24.1550    64.0240   212.2860   172.5450   177.1080    24.5490     2.1880 
  192.8750   -24.2480    66.9190   193.7820   158.7200   176.2840    24.5530     2.1930 
  193.0000   -24.3290    69.8930   176.4790   145.3520   169.2050    24.5580     2.2020 
  193.1250   -24.4550    70.7400   164.0850   135.2970   149.9700    24.5740     2.2080 
  193.2500   -24.5510    69.6900   156.7250   129.1070   137.2160    24.5860     2.2070 
  193.3750   -24.6520    67.2690   153.6200   126.4610   142.1280    24.5940     2.2020 
  193.5000   -24.7560    65.6440   153.4240   126.4150   150.1670    24.6150     2.1970 
  193.6250   -24.8690    66.6080   154.9350   128.0460   136.4030    24.6080     2.1970 
  193.7500   -25.0030    67.9590   156.9130   130.2600   120.7270    24.5520     2.2030 
  193.8750   -25.1370    68.2600   158.8380   132.5990   118.5900    24.4650     2.2100 
  194.0000   -25.3480    68.7090   160.3890   134.7930   121.8190    24.4100     2.2140 
  194.1250   -25.4760    69.9540   161.1520   136.5570   125.7290    24.3680     2.2130 
  194.2500   -25.6470    70.5890   160.8970   137.6640   127.9430    24.2900     2.2090 
  194.3750   -25.8040    70.0910   159.4140   137.8630   127.0290    24.2220     2.2060 
  194.5000   -25.9760    70.2520   156.7430   137.0600   122.3670    24.2210     2.2060 
  194.6250   -26.1860    70.7140   152.8740   135.0950   118.0110    24.2430     2.2090 
  194.7500   -26.3700    70.5290   147.8910   131.9880   115.7210    24.2420     2.2140 
  194.8750   -26.5550    71.1260   141.4980   127.4490   113.8650    24.2430     2.2200 
