~V
VERS. 2.00: Ver 2.00
~W
STRT.M 64.0000:
STOP.M 259.0000:
STEP.M 0.1250:
NULL. -999.2500:
UWI. DF3067:
~C
DEPT.M :
DEN.GM/CC :
GR.API :
CALI.CM :
RXO.OHMM :
RI. :
RML.OHMM :
SP.MV :
~A
# ...
   86.5000  -999.2500    90.7490    23.8010     5.5290     4.6660     6.3090  -999.2500 
   86.6250  -999.2500    88.1510    23.8130     5.5770     4.6280     6.2640  -999.2500 
   86.7500  -999.2500    86.8570    23.7570     5.5350     4.6640     6.3650  -999.2500 
   86.8750  -999.2500    87.1010    23.5670     5.4540     4.8060     6.6450  -999.2500 
   87.0000  -999.2500    88.4750    23.2360     5.5470     5.0650     7.0890  -999.2500 
   87.1250  -999.2500    89.0390    22.8470     6.0510     5.3970     7.5900  -999.2500 
   87.2500  -999.2500    87.3640    22.5300     6.8070     5.6660     7.9520  -999.2500 
   87.3750  -999.2500    84.6540    22.3420     7.3910     5.7680     8.0390  -999.2500 
   87.5000  -999.2500    82.1280    22.2820     7.4780     5.6820     7.8540  -999.2500 
   87.6250  -999.2500    83.8820    22.3550     6.8510     5.4840     7.5560  -999.2500 
   87.7500  -999.2500    88.0030    22.5120     6.0580     5.3250     7.3820  -999.2500 
   87.8750  -999.2500    87.4470    22.6380     6.0660     5.2980     7.4640  -999.2500 
   88.0000  -999.2500    80.2000    22.6200     6.9050     5.4560     7.8490  -999.2500 
   88.1250  -999.2500    73.7010    22.4450     7.5310     5.8330     8.5200  -999.2500 
   88.2500  -999.2500    73.0170    22.2030     7.6600     6.3440     9.2990  -999.2500 
   88.3750  -999.2500    73.7170    21.9390     7.7800     6.8870    10.0200  -999.2500 
   88.5000  -999.2500    72.0900    21.7280     8.0780     7.3450    10.5400  -999.2500 
   88.6250  -999.2500    71.4650    21.6790     8.4270     7.6140    10.7620  -999.2500 
   88.7500  -999.2500    74.1950    21.7120     8.6360     7.7260    10.7930  -999.2500 
   88.8750  -999.2500    76.6170    21.7390     8.7080     7.7210    10.7120  -999.2500 
   89.0000  -999.2500    75.9050    21.7400     8.7230     7.6390    10.5770  -999.2500 
   89.1250  -999.2500    73.5890    21.7430     8.7130     7.5130    10.4270  -999.2500 
   89.2500  -999.2500    72.2810    21.7380     8.6870     7.3870    10.2910  -999.2500 
   89.3750  -999.2500    72.1480    21.6670     8.6640     7.2830    10.1790  -999.2500 
   89.5000  -999.2500    72.5530    21.4900     8.7260     7.2060    10.1000  -999.2500 
   89.6250  -999.2500    73.0880    21.2280     8.7630     7.1720    10.0850  -999.2500 
   89.7500  -999.2500    75.1150    20.9710     8.8670     7.1940    10.1510  -999.2500 
   89.8750  -999.2500    78.8860    20.7740     9.0530     7.2890    10.3050  -999.2500 
   90.0000  -999.2500    82.1910    20.7100     9.2990     7.4530    10.5180  -999.2500 
   90.1250  -999.2500    80.4600    20.9500     9.3950     7.6450    10.7100  -999.2500 
   90.2500  -999.2500    75.9950    21.4760     9.3640     7.7860    10.7960  -999.2500 
   90.3750  -999.2500    72.9250    22.1260     9.2340     7.8280    10.7480  -999.2500 
   90.5000  -999.2500    71.9250    22.6790     9.1210     7.7690    10.5980  -999.2500 
   90.6250  -999.2500    71.0760    22.9930     9.0900     7.6280    10.3860  -999.2500 
   90.7500  -999.2500    69.5480    23.1530     9.0450     7.4260    10.1110  -999.2500 
   90.8750  -999.2500    68.6070    23.1900     8.9800     7.1480     9.7280  -999.2500 
   91.0000  -999.2500    68.8750    23.0670     8.9380     6.7930     9.2170  -999.2500 
   91.1250  -999.2500    68.4460    22.7800     8.7750     6.3940     8.6230  -999.2500 
   91.2500  -999.2500    68.3540    22.4930     8.0760     6.0260     8.0840  -999.2500 
   91.3750  -999.2500    71.7920    22.2980     7.1120     5.7580     7.7140  -999.2500 
   91.5000  -999.2500    79.2200    22.1930     6.8070     5.6360     7.5800  -999.2500 
   91.6250  -999.2500    84.4000    22.1340     7.4090     5.6990     7.7140  -999.2500 
   91.7500  -999.2500    82.7460    22.1090     7.5720     5.8840     7.9890  -999.2500 
   91.8750  -999.2500    78.1570    22.1030     7.2170     6.1060     8.2480  -999.2500 
   92.0000  -999.2500    75.4860    22.0750     6.9660     6.2310     8.3090  -999.2500 
   92.1250  -999.2500    74.7380    22.0720     7.3020     6.1040     8.0100  -999.2500 
   92.2500  -999.2500    73.5100    22.1980     7.4280     5.7570     7.4670  -999.2500 
   92.3750  -999.2500    73.9150    22.4860     6.4550     5.2820     6.8380  -999.2500 
   92.5000  -999.2500    79.5930    22.8460     5.1030     4.7910     6.2650  -999.2500 
   92.6250  -999.2500    87.1590    23.0850     4.5590     4.3810     5.8350  -999.2500 
   92.7500  -999.2500    90.7050    23.1330     4.8410     4.0610     5.5160  -999.2500 
   92.8750  -999.2500    91.1630    23.0560     4.8860     3.8240     5.2830  -999.2500 
   93.0000  -999.2500    91.4990    22.9740     4.7150     3.6730     5.1510  -999.2500 
   93.1250  -999.2500    91.4600    22.9630     4.4890     3.6550     5.2000  -999.2500 
   93.2500  -999.2500    90.1570    22.9340     4.2810     3.7980     5.4800  -999.2500 
   93.3750  -999.2500    87.6520    22.8000     4.5720     4.1390     6.0400  -999.2500 
   93.5000  -999.2500    83.8670    22.3900     6.0890     4.6930     6.8750  -999.2500 
   93.6250  -999.2500    80.0290    21.5350     7.5750     5.4390     7.8930  -999.2500 
   93.7500  -999.2500    77.1410    20.6560     8.1930     6.2090     8.8330  -999.2500 
   93.8750  -999.2500    74.0450    20.3190     8.2730     6.8230     9.4570  -999.2500 
   94.0000  -999.2500    69.8800    20.6660     8.3460     7.1330     9.6140  -999.2500 
   94.1250  -999.2500    67.4050    21.2000     8.0700     7.0780     9.3130  -999.2500 
   94.2500  -999.2500    67.4620    21.4340     7.6010     6.8410     8.8720  -999.2500 
   94.3750  -999.2500    67.4750    21.4050     7.2500     6.5690     8.5110  -999.2500 
   94.5000  -999.2500    69.1000    21.2580     7.3260     6.3740     8.3520  -999.2500 
   94.6250  -999.2500    74.4520    21.0760     7.4790     6.3450     8.4560  -999.2500 
   94.7500  -999.2500    78.0640    20.9180     7.6450     6.4570     8.7180  -999.2500 
   94.8750  -999.2500    77.7410    20.8210     7.9550     6.6520     9.0240  -999.2500 
   95.0000  -999.2500    75.8730    20.7790     8.3830     6.8400     9.2520  -999.2500 
   95.1250  -999.2500    75.1230    20.7620     8.8640     6.9190     9.2900  -999.2500 
   95.2500  -999.2500    76.3940    20.7660     9.1400     6.8790     9.1730  -999.2500 
   95.3750  -999.2500    81.2740    20.8230     8.8160     6.7560     8.9850  -999.2500 
   95.5000  -999.2500    87.4270    20.9330     8.5920     6.6120     8.8330  -999.2500 
   95.6250  -999.2500    86.4910    21.0310     8.3790     6.5140     8.8030  -999.2500 
   95.7500  -999.2500    81.2880    21.0700     8.4170     6.4780     8.8610  -999.2500 
   95.8750  -999.2500    78.5590    21.0670     8.2340     6.4830     8.9350  -999.2500 
   96.0000  -999.2500    79.4600    21.0530     8.3190     6.4910     8.9480  -999.2500 
   96.1250  -999.2500    79.1140    21.1330     8.2980     6.4620     8.8540  -999.2500 
   96.2500  -999.2500    77.6150    21.4430     8.2620     6.4030     8.7320  -999.2500 
   96.3750  -999.2500    76.7710    21.9450     8.3980     6.3560     8.6830  -999.2500 
   96.5000  -999.2500    77.0700    22.4010     8.2680     6.3700     8.7820  -999.2500 
   96.6250  -999.2500    77.5610    22.5780     8.4690     6.4830     9.0570  -999.2500 
   96.7500  -999.2500    77.8010    22.5950     9.1530     6.6680     9.4120  -999.2500 
   96.8750  -999.2500    76.1260    22.5870     9.8560     6.8810     9.7320  -999.2500 
   97.0000  -999.2500    71.8060    22.5910     9.9790     7.0680     9.9250  -999.2500 
   97.1250  -999.2500    68.8710    22.5760     9.7790     7.2010     9.9840  -999.2500 
   97.2500  -999.2500    69.3390    22.5390     9.5870     7.3320    10.0540  -999.2500 
   97.3750  -999.2500    70.3020    22.5090     9.6160     7.5090    10.2370  -999.2500 
   97.5000  -999.2500    69.1230    22.5200    10.0800     7.7410    10.5510  -999.2500 
   97.6250  -999.2500    67.3400    22.6110    12.5680     7.9660    10.8750  -999.2500 
