~V
VERS. 2.00: Ver 2.00
~W
STRT.M 60.0000:
STOP.M 273.0000:
STEP.M 0.1250:
NULL. -999.2500:
UWI. DF3001:
~C
DEPT.M :
DEN.GM/CC :
SP.MV :
AC.US/MT :
GR.API :
RML.OHMM :
RI. :
RXO.OHMM :
CALI.CM :
~A
# ...
  230.0000     2.2790   -18.9320   354.4120    65.9800    58.5400    56.9010    45.5420    24.1070 
  230.1250     2.2730   -18.8320   356.4190    64.1640    57.6260    55.6490    50.1270    24.4120 
  230.2500     2.2690   -18.7330   357.0670    65.6460    57.1280    55.0040    54.6870    24.5810 
  230.3750     2.2690   -18.6890   353.6960    70.9930    56.4110    54.3990    55.3720    24.6580 
  230.5000     2.2730   -18.7050   348.4140    77.0210    55.5000    53.7170    50.9500    24.7140 
  230.6250     2.2810   -18.8070   344.6600    79.1200    55.2380    53.4930    45.3100    24.7460 
  230.7500     2.2920   -18.9370   342.4020    76.3480    56.6330    54.4270    43.3600    24.7520 
  230.8750     2.3010   -19.0570   335.3160    74.7520    60.3720    57.0580    44.9220    24.7490 
  231.0000     2.3030   -19.1320   321.1390    77.4590    66.9310    61.5360    49.9320    24.7490 
  231.1250     2.2970   -19.1500   305.0780    77.3290    75.5650    67.6620    57.0000    24.7420 
  231.2500     2.2840   -19.1680   295.6980    71.1180    84.3080    74.3560    63.2440    24.7200 
  231.3750     2.2710   -19.1910   300.3070    63.5810    91.3750    80.8340    68.7810    24.6980 
  231.5000     2.2620   -19.2350   314.7010    60.3000    97.4460    86.5150    74.8250    24.6900 
  231.6250     2.2570   -19.2760   331.9230    62.2240   101.8740    90.8120    77.5770    24.6900 
  231.7500     2.2560   -19.2680   345.2910    66.2310   104.4280    93.5640    77.8250    24.6900 
  231.8750     2.2580   -19.1960   350.5830    69.5000   104.4060    94.2470    78.7790    24.6890 
  232.0000     2.2640   -19.0940   351.0620    69.8620   101.0320    92.1980    81.0720    24.6880 
  232.1250     2.2730   -19.1100   350.5970    67.8980    93.6540    86.6110    80.9750    24.6860 
  232.2500     2.2840   -19.1790   351.6590    66.9300    84.3190    78.8540    74.8010    24.6880 
  232.3750     2.2890   -19.2610   352.8640    67.9420    75.3550    70.7200    63.6500    24.6920 
  232.5000     2.2870   -19.3500   352.2830    69.9340    68.9700    64.2710    51.5010    24.7110 
  232.6250     2.2760   -19.3770   350.8270    69.7030    67.2340    61.8040    47.2470    24.7620 
  232.7500     2.2600   -19.4220   350.8460    67.3950    69.6150    63.3520    53.8240    24.8220 
  232.8750     2.2470   -19.4770   354.1010    65.3330    75.2000    68.4060    67.6640    24.8480 
  233.0000     2.2380   -19.5200   358.5220    64.2930    82.4410    75.6770    82.8550    24.8470 
  233.1250     2.2350   -19.5380   361.5600    62.1640    89.0070    83.0980    90.7110    24.8220 
  233.2500     2.2380   -19.5010   361.7570    59.2650    93.0670    88.5760    85.7970    24.7520 
  233.3750     2.2470   -19.4140   358.8550    59.0250    93.7760    90.9130    74.6070    24.6260 
  233.5000     2.2620   -19.3730   354.4880    62.2880    91.3230    89.7070    66.6290    24.4450 
  233.6250     2.2800   -19.3540   350.6270    64.4890    85.5470    84.7000    61.7160    24.2150 
  233.7500     2.2960   -19.3480   348.5090    63.5380    77.3500    77.1030    56.6160    24.0050 
  233.8750     2.3030   -19.4560   345.6450    61.0360    67.2810    67.7950    50.1730    23.9310 
  234.0000     2.3000   -19.5920   340.2290    59.7590    57.3040    57.9860    41.6210    24.0290 
  234.1250     2.2880   -19.7050   335.7860    64.5490    49.0810    49.3580    33.8070    24.1670 
  234.2500     2.2750   -19.8720   338.2040    74.2560    43.2890    42.8870    28.9970    24.3010 
  234.3750     2.2650   -20.0220   348.7990    81.1810    40.2830    39.0930    28.5130    24.4980 
  234.5000     2.2590   -20.1340   359.2190    80.7300    40.3420    38.2780    30.7710    24.6780 
  234.6250     2.2520   -20.2580   364.1180    76.8970    44.3270    41.4190    35.9730    24.7740 
  234.7500     2.2460   -20.3690   363.3810    75.1160    52.1420    48.4480    45.6430    24.8070 
  234.8750     2.2410   -20.4620   360.1890    73.0760    63.8300    59.5570    61.0650    24.8210 
  235.0000     2.2390   -20.5240   357.9480    68.9700    79.1000    74.2760    81.7320    24.8250 
  235.1250     2.2380   -20.5640   357.3880    64.1570    96.2230    91.1810   105.6540    24.8260 
  235.2500     2.2380   -20.6550   358.3950    59.5730   112.5630   107.3300   121.6680    24.8210 
  235.3750     2.2380   -20.7830   359.8990    56.3080   126.4380   120.5310   127.6640    24.8110 
  235.5000     2.2360   -20.8650   360.5220    55.9780   136.6210   129.6660   130.4050    24.7940 
  235.6250     2.2350   -20.9360   359.9210    58.2270   142.6690   134.6270   133.9740    24.7850 
  235.7500     2.2340   -20.9350   358.1510    60.3510   146.8580   137.4670   138.7710    24.7800 
  235.8750     2.2320   -20.9120   356.2280    60.9560   150.3310   139.3110   140.9210    24.7750 
  236.0000     2.2300   -20.9560   356.4410    60.5810   153.5600   140.8080   139.9000    24.7680 
  236.1250     2.2260   -20.9560   359.4100    61.2160   156.7450   142.3980   137.3090    24.7650 
  236.2500     2.2220   -20.8920   363.1330    60.3580   160.1870   144.4730   134.0900    24.7740 
  236.3750     2.2200   -20.7730   363.3980    58.1620   164.1070   147.3060   133.2350    24.7910 
  236.5000     2.2200   -20.6510   360.2280    57.3180   168.2790   150.8090   140.0730    24.8100 
  236.6250     2.2210   -20.5790   355.8650    58.7610   171.1970   153.9640   153.8460    24.8190 
  236.7500     2.2210   -20.4980   350.8110    58.3210   170.7040   154.9360   165.9450    24.8090 
  236.8750     2.2220   -20.3710   349.0280    56.3550   164.6630   151.7630   171.9590    24.7820 
  237.0000     2.2280   -20.1860   353.9340    57.0280   152.0800   143.1180   170.1670    24.7610 
  237.1250     2.2410   -19.9390   362.6230    59.9680   133.8420   128.7180   156.8850    24.7510 
  237.2500     2.2630   -19.6520   366.7500    62.3910   114.7550   112.1410   135.6960    24.7460 
  237.3750     2.2900   -19.3100   360.0320    65.4530    98.1240    96.4490   109.4250    24.7430 
  237.5000     2.3200   -18.8850   346.9370    70.6460    85.4820    83.7560    83.3900    24.7330 
  237.6250     2.3520   -18.4050   328.8550    75.4310    77.0880    75.1300    70.4160    24.6760 
  237.7500     2.3860   -17.9360   305.1720    76.6690    70.9460    69.0480    65.4460    24.5800 
  237.8750     2.4180   -17.4260   277.6570    76.2200    65.7460    64.2540    63.3600    24.4980 
  238.0000     2.4440   -16.8950   252.5650    75.9390    60.5840    59.7270    59.0160    24.4660 
  238.1250     2.4610   -16.3650   235.0500    76.5740    55.2280    54.9860    50.4800    24.4610 
  238.2500     2.4660   -15.8360   227.3330    76.7810    50.1970    50.3130    41.7720    24.4660 
  238.3750     2.4640   -15.3880   228.6600    74.9350    46.1070    46.2390    37.5000    24.4700 
  238.5000     2.4600   -14.9660   232.8290    72.5570    43.3290    43.2090    36.7810    24.4700 
  238.6250     2.4570   -14.5660   235.9760    72.3310    41.9310    41.4440    38.6570    24.4700 
  238.7500     2.4580   -14.2240   235.0810    73.7970    41.1000    40.2860    41.1020    24.4770 
  238.8750     2.4610   -13.9550   229.3360    74.5970    40.1100    39.0730    42.6190    24.5040 
  239.0000     2.4570   -13.7930   225.6030    75.5190    38.3640    37.2270    43.0940    24.5670 
  239.1250     2.4390   -13.7410   227.7330    78.5650    35.5150    34.3820    41.3370    24.6000 
  239.2500     2.4000   -13.6650   234.3970    79.9100    32.1510    31.0140    35.0610    24.6020 
  239.3750     2.3490   -13.5930   243.4780    75.9590    28.9860    27.7510    27.2220    24.5690 
  239.5000     2.3060   -13.5790   254.9640    71.1500    26.7170    25.2680    23.8070    24.5080 
  239.6250     2.2920   -13.5470   266.9540    74.4500    26.2420    24.4810    26.0920    24.4720 
  239.7500     2.3240   -13.5360   272.4580    83.0980    27.9080    25.8420    32.1750    24.4450 
  239.8750     2.3910   -13.4790   265.1310    87.8700    32.3640    30.0090    46.3250    24.4040 
