~V
VERS. 2.00: Ver 2.00
~W
STRT.M 56.0000:
STOP.M 296.0000:
STEP.M 0.1250:
NULL. -999.2500:
UWI. DF301:
~C
DEPT.M :
DEN.GM/CC :
SP.MV :
AC.US/MT :
GR.API :
CALI.CM :
RXO.OHMM :
RI. :
RML.OHMM :
~A
# ...
  226.0000     2.2510    -9.7580   385.8990    61.6460    24.8020    30.6210    30.1780    29.6900 
  226.1250     2.2440    -9.6780   382.2610    62.3180    24.7240    28.0820    28.5200    27.8880 
  226.2500     2.2490    -9.5970   380.1680    62.9520    24.7160    25.4330    26.0430    25.4240 
  226.3750     2.2730    -9.4740   378.7520    66.2720    24.7120    22.4300    23.1240    22.6440 
  226.5000     2.3010    -9.3460   377.7270    70.6690    24.6430    18.7800    20.2310    19.9600 
  226.6250     2.3140    -9.2380   376.6880    74.7770    24.4990    15.1120    17.8200    17.7970 
  226.7500     2.3050    -9.1850   372.4700    76.2240    24.4150    13.1240    16.3820    16.6590 
  226.8750     2.2910    -9.1600   361.2160    74.4970    24.4460    13.4260    15.9680    16.6210 
  227.0000     2.2870    -9.0970   341.8480    71.3310    24.4450    16.7780    16.6940    17.7920 
  227.1250     2.2970    -9.1220   319.3190    68.8790    24.3970    24.3350    18.6730    20.2280 
  227.2500     2.3160    -9.2360   306.2470    66.1650    24.4250    32.9200    22.1670    24.0500 
  227.3750     2.3240    -9.3150   309.8480    60.2590    24.4430    37.3510    26.6900    28.6920 
  227.5000     2.3060    -9.4040   328.9360    55.4390    24.4880    38.5950    31.5540    33.4880 
  227.6250     2.2680    -9.5550   354.8470    55.6970    24.6140    40.0360    35.7710    37.5770 
  227.7500     2.2380    -9.6400   375.3340    57.6060    24.6980    40.6670    38.1550    39.9170 
  227.8750     2.2370    -9.6520   385.9050    57.8830    24.7090    40.0840    38.7430    40.5690 
  228.0000     2.2590    -9.6480   388.4620    58.3230    24.6520    38.5660    37.9620    39.9550 
  228.1250     2.2890    -9.5350   387.1470    60.1400    24.5830    36.8120    36.5390    38.7990 
  228.2500     2.3000    -9.4110   384.2840    60.8790    24.5110    35.5310    35.3240    37.9620 
  228.3750     2.2950    -9.3250   378.4480    60.4060    24.4830    35.1820    34.8330    37.9410 
  228.5000     2.2950    -9.1910   366.2820    60.1350    24.4520    35.9210    35.2450    38.8930 
  228.6250     2.3250    -9.0370   346.2120    59.5770    24.3800    38.8250    36.5070    40.6970 
  228.7500     2.3950    -8.9100   322.1220    58.6480    24.2760    45.5250    38.3580    42.9540 
  228.8750     2.4690    -8.8400   304.1960    57.9440    24.2360    51.3850    40.1070    44.9630 
  229.0000     2.5090    -8.8050   299.1110    57.8270    24.2190    50.6120    41.2450    46.2730 
  229.1250     2.5020    -8.7720   306.4840    58.2930    24.2020    45.3900    41.5740    46.6980 
  229.2500     2.4650    -8.7300   317.7070    58.2940    24.2090    42.1410    41.0870    46.1000 
  229.3750     2.4360    -8.6820   322.0630    57.4480    24.1950    40.9430    39.9280    44.5660 
  229.5000     2.4290    -8.6190   317.2530    56.2280    24.1420    39.6610    37.9200    41.9540 
  229.6250     2.4400    -8.5010   308.2950    54.8370    24.0660    39.7390    34.9440    38.2800 
  229.7500     2.4570    -8.3750   305.0060    53.0940    23.9660    39.1700    31.2010    33.9430 
  229.8750     2.4600    -8.2360   311.5290    52.8880    23.9900    34.2120    27.5400    29.8850 
  230.0000     2.4430    -8.0580   326.0450    56.2190    24.0730    27.6240    24.6320    26.7970 
  230.1250     2.4120    -7.9320   343.1650    60.9980    24.0640    23.8340    22.8710    25.0510 
  230.2500     2.3900    -7.7690   354.1840    62.4290    23.8100    24.4520    22.4400    24.7270 
  230.3750     2.3840    -7.5960   360.4570    60.7770    23.5710    24.6460    22.7010    24.9620 
  230.5000     2.3880    -7.5240   360.9790    60.2810    23.4960    24.5660    22.8920    24.8770 
  230.6250     2.3900    -7.5240   356.8540    62.8250    23.6070    24.5520    22.1500    23.7310 
  230.7500     2.3800    -7.4740   352.8480    66.3130    23.8200    22.4320    19.9670    21.2430 
  230.8750     2.3610    -7.4110   353.1560    68.3020    24.0450    18.1800    17.2560    18.3100 
  231.0000     2.3510    -7.4110   359.2040    69.9480    24.2450    13.7010    14.8490    15.7470 
  231.1250     2.3640    -7.4080   366.6310    72.2720    24.3830    11.1910    13.2060    14.0720 
  231.2500     2.3890    -7.4160   371.3590    74.6980    24.4270    11.4730    12.5420    13.5420 
  231.3750     2.4010    -7.4600   371.4670    75.7740    24.4240    13.4910    12.5790    13.7450 
  231.5000     2.3940    -7.4650   368.4570    75.7020    24.3870    15.3070    13.0700    14.2930 
  231.6250     2.3750    -7.3890   366.5890    75.6890    24.3620    15.4630    13.6360    14.7480 
  231.7500     2.3480    -7.3970   367.7620    75.4860    24.3510    14.2610    13.7570    14.6460 
  231.8750     2.3290    -7.4470   371.1840    73.9340    24.3130    13.4340    13.2840    13.9700 
  232.0000     2.3380    -7.4390   375.0940    72.2240    24.2010    12.5340    12.3440    12.8880 
  232.1250     2.3800    -7.4530   378.6610    72.8470    24.0640    11.2990    11.1960    11.6620 
  232.2500     2.4270    -7.5260   381.9990    75.8200    24.1010    10.0050    10.1030    10.5600 
  232.3750     2.4500    -7.5370   385.0910    78.5110    24.2960     9.0650     9.1980     9.7000 
  232.5000     2.4540    -7.5390   387.2300    80.1470    24.4220     8.4710     8.5270     9.1140 
  232.6250     2.4520    -7.6410   387.9800    82.9300    24.4430     8.1880     8.0990     8.7940 
  232.7500     2.4480    -7.7280   387.5130    87.1520    24.4280     8.2640     7.9280     8.7350 
  232.8750     2.4360    -7.7350   386.4350    88.7690    24.4140     8.4700     7.9420     8.8380 
  233.0000     2.4210    -7.7600   385.3110    86.8620    24.4010     8.6860     8.1080     9.0570 
  233.1250     2.4110    -7.8220   384.2510    83.2240    24.4090     8.9260     8.3920     9.3560 
  233.2500     2.4100    -7.8200   383.1470    80.2790    24.4140     9.3980     8.7720     9.7210 
  233.3750     2.4080    -7.8540   382.1000    76.8430    24.4070    10.1070     9.1970    10.1160 
  233.5000     2.3920    -7.9660   381.6840    73.6630    24.3790    10.7750     9.6240    10.5070 
  233.6250     2.3590    -8.0090   382.1420    73.8990    24.3590    11.1000    10.0010    10.8420 
  233.7500     2.3240    -7.9740   383.2590    77.2940    24.3560    11.1450    10.2400    11.0340 
  233.8750     2.3170    -8.0220   384.5300    81.4260    24.3560    11.4030    10.3050    11.0530 
  234.0000     2.3410    -8.0760   385.7320    84.1510    24.3510    11.4980    10.1730    10.8900 
  234.1250     2.3740    -8.0350   387.3790    84.9880    24.3490    10.9760     9.8640    10.5790 
  234.2500     2.3860    -7.9850   390.0260    83.9120    24.3490    10.0960     9.4490    10.1970 
  234.3750     2.3830    -7.9030   393.5490    84.1410    24.3430     9.2640     9.0500     9.8560 
  234.5000     2.3870    -7.7670   396.6720    85.6840    24.3110     8.7130     8.7320     9.6160 
  234.6250     2.4060    -7.6670   398.1110    84.5320    24.1990     8.5960     8.5150     9.4810 
  234.7500     2.4260    -7.6050   397.7750    80.3390    24.0540     8.8460     8.3720     9.4020 
  234.8750     2.4290    -7.4790   396.7370    79.3710    24.0590     9.1730     8.2410     9.3130 
  235.0000     2.4160    -7.3970   396.6090    82.6220    24.2450     9.2070     8.1220     9.2260 
  235.1250     2.4010    -7.4140   397.6050    84.7520    24.4150     8.8610     8.0810     9.2350 
  235.2500     2.3970    -7.4580   398.7630    82.6520    24.4500     8.7580     8.2890     9.5710 
  235.3750     2.3920    -7.5150   398.7040    80.5720    24.4340     9.5840     8.8590    10.3710 
  235.5000     2.3730    -7.5860   396.1460    78.8500    24.4320    11.4910     9.9000    11.7300 
  235.6250     2.3420    -7.6990   391.7610    76.5250    24.4600    14.0350    11.4700    13.6370 
  235.7500     2.3160    -7.8010   386.6900    74.6530    24.5140    16.6030    13.5730    15.9650 
  235.8750     2.3070    -7.8960   382.2710    72.9690    24.5480    19.1740    15.8400    18.2960 
