~V
VERS. 2.00: Ver 2.00
~W
STRT.M 110.0000:
STOP.M 277.0000:
STEP.M 0.1250:
NULL. -999.2500:
UWI. DF3015:
~C
DEPT.M :
DEN.GM/CC :
SP.MV :
AC.US/MT :
GR.API :
CALI.CM :
RXO.OHMM :
RI. :
RML.OHMM :
~A
# ...
  260.0000     2.5100    -2.8970   276.5780    81.0810    25.4030    13.6110    12.4480    14.1080 
  260.1250     2.5270    -2.8530   278.5010    84.1040    25.4030    12.8830    12.4450    14.1910 
  260.2500     2.5430    -2.7990   276.4690    85.5700    25.4030    12.8890    12.4570    14.2970 
  260.3750     2.5420    -2.7460   272.4480    83.0980    25.4030    13.3220    12.4750    14.4120 
  260.5000     2.5210    -2.7150   268.5620    79.9080    25.4030    13.6510    12.5110    14.5450 
  260.6250     2.4950    -2.7360   265.6460    78.4510    25.4030    13.5240    12.6010    14.6420 
  260.7500     2.4780    -2.7260   262.6280    79.2370    25.4030    13.5930    12.7530    14.5920 
  260.8750     2.4790    -2.7200   258.7340    79.6610    25.4030    13.9740    12.9560    14.8190 
  261.0000     2.4900    -2.7690   254.0870    79.2630    25.4030    14.5120    13.1900    15.0790 
  261.1250     2.4980    -2.8230   249.7330    78.1020    25.4030    14.6770    13.4150    15.3290 
  261.2500     2.5080    -2.8600   246.6220    76.8070    25.4030    14.6620    13.5840    15.5170 
  261.3750     2.5260    -2.9120   245.0850    77.4530    25.4030    15.4220    13.6550    15.5960 
  261.5000     2.5420    -2.9700   244.8910    80.2600    25.4030    16.7260    13.6060    15.5410 
  261.6250     2.5440    -3.0170   245.5380    84.1930    25.4050    17.3750    13.4190    15.3340 
  261.7500     2.5380    -3.0340   246.4250    86.3500    25.4180    16.8610    13.1530    15.0370 
  261.8750     2.5400    -3.0110   247.5470    83.9750    25.4470    15.7940    12.8560    14.7070 
  262.0000     2.5610    -2.9370   249.2180    79.8670    25.4680    14.9990    12.5770    14.3970 
  262.1250     2.5940    -2.7740   251.8880    76.9760    25.4760    14.6290    12.3590    14.1540 
  262.2500     2.6250    -2.6180   255.2950    76.0470    25.4760    14.3940    12.2030    13.9810 
  262.3750     2.6340    -2.5280   259.1060    76.1440    25.4850    14.3770    12.1040    13.8700 
  262.5000     2.6060    -2.4600   263.1010    76.2230    25.5160    14.4490    12.0390    13.7980 
  262.6250     2.5620    -2.3400   267.2920    76.3820    25.5820    14.3010    11.9710    13.7220 
  262.7500     2.5230    -2.2360   271.3840    77.1120    25.6320    14.1460    11.8700    13.6100 
  262.8750     2.4980    -2.2320   274.6440    78.0530    25.6760    14.0480    11.7300    13.4550 
  263.0000     2.4780    -2.3060   276.3290    77.8650    25.7470    13.5940    11.5620    13.2670 
  263.1250     2.4570    -2.3930   276.3090    76.8470    25.7810    12.7450    11.3870    13.0730 
  263.2500     2.4420    -2.4470   276.1830    76.2120    25.7930    12.0730    11.2240    12.8920 
  263.3750     2.4400    -2.4200   277.4960    74.6190    25.7930    11.8280    11.0790    12.7300 
  263.5000     2.4560    -2.3200   281.0280    72.7330    25.7930    11.9290    10.9440    12.5810 
  263.6250     2.4800    -2.3040   286.4710    72.8280    25.7930    12.0800    10.8120    12.4330 
  263.7500     2.5000    -2.2730   292.1300    74.6360    25.7930    11.9900    10.6790    12.2850 
  263.8750     2.4940    -2.1700   296.9840    74.9220    25.7930    11.7350    10.5500    12.1410 
  264.0000     2.4530    -2.0380   300.6750    74.6170    25.7920    11.4020    10.4320    12.0100 
  264.1250     2.4160    -1.9760   303.2140    75.3170    25.7910    10.9390    10.3370    11.9050 
  264.2500     2.4180    -1.9300   305.0130    74.8290    25.7900    10.4460    10.2680    11.8280 
  264.3750     2.4510    -1.9150   306.1290    73.1470    25.7920    10.1490    10.2220    11.7770 
  264.5000     2.4780    -1.9300   306.5630    72.5790    25.7930     9.8820    10.1830    11.7340 
  264.6250     2.4800    -1.8990   306.2880    73.7070    25.7930     9.4320    10.1260    11.6700 
  264.7500     2.4700    -1.9610   305.5240    76.7840    25.7920     8.7420    10.0400    11.5750 
  264.8750     2.4650    -2.0230   304.1090    80.5680    25.7890     8.0080     9.9320    11.4550 
  265.0000     2.4710    -2.0510   301.1420    80.5680    25.7890     7.4190     9.8170    11.3260 
  265.1250     2.4780    -2.0440   296.1030    80.5680    25.7890     7.2610     9.7170    11.2150 
  265.2500     2.4760    -2.0610   290.8270    80.5680    25.7900     7.5730     9.6370    11.1260 
  265.3750     2.4650    -2.0880   287.4470    80.5680    25.7870     8.1530     9.5690    11.0500 
  265.5000     2.4590    -2.0580   287.4320    80.5680    25.7880     8.6310     9.5020    10.9760 
  265.6250     2.4670    -1.9770   290.7900    80.5680    25.8070     8.6500     9.4330    10.8990 
  265.7500     2.4710    -1.7960   295.0180    80.5680    25.8600     8.3540     9.3620    10.8200 
  265.8750     2.4400    -1.6600   298.5780    80.5680    25.9750     7.9590     9.2900    10.7400 
  266.0000     2.3640    -1.5750   301.3230    80.5680    26.1750     7.6380     9.2240    10.6670 
  266.1250     2.2970    -1.4670   304.5170    80.5680    26.4880     7.3940     9.1710    10.6080 
  266.2500     2.2770    -1.4000   308.1140    80.5680    26.7690     7.1400     9.1310    10.5630 
  266.3750     2.3090    -1.3280   310.8160    80.5680    26.8570     6.9510     9.1040    10.5330 
  266.5000     2.3620    -1.3400   311.4410    80.5680    26.5880     6.9530     9.0860    10.5140 
  266.6250     2.4060    -1.4810   309.7220    80.5680    26.2210     7.3440     9.0660    10.4910 
  266.7500     2.4300    -1.6850   307.8100    80.5680    26.0120     7.6780     9.0300    10.4510 
  266.8750     2.4340    -1.8600   307.5700    80.5680    25.9580     7.6990     8.9720    10.3860 
  267.0000     2.4210    -2.0110   309.4870    80.5680    25.9770     7.4730     8.8970    10.3020 
  267.1250     2.4130    -2.2090   311.7150    80.5680    26.0380     7.2350     8.8190    10.2170 
  267.2500     2.4240    -2.3700   311.7860    80.5680    26.1220     7.0360     8.7620    10.1530 
  267.3750     2.4410    -2.5110   309.6700    80.5680    26.2160     7.0220     8.7380    10.1260 
  267.5000     2.4390    -2.6680   307.6480    80.5680    26.2680     7.2490     8.7510    10.1400 
  267.6250     2.4240    -2.7910   309.2850    80.5680    26.2110     7.3980     8.7970    10.1910 
  267.7500     2.4190    -2.9030   314.9330    80.5680    26.2750     7.1420     8.8510    10.2510 
  267.8750     2.4340    -3.0410   323.1820    80.5680    26.4810     6.6400     8.8910    10.2970 
  268.0000     2.4500    -3.2050   332.2340    80.5680    26.5330     6.2700     8.9020    10.3090 
  268.1250     2.4420    -3.3190   341.0500    80.5680    26.2650     6.0640     8.8740    10.2780 
  268.2500     2.4020    -3.4430   349.3540    80.5680    25.9020     5.8450     8.8240    10.2220 
  268.3750     2.3340    -3.5980   356.0560    80.5680    25.7390     5.6410     8.7690    10.1610 
  268.5000     2.2560    -3.7220   358.9480    80.5680    25.7110     5.5110     8.7280    10.1150 
  268.6250     2.1950    -3.8040   355.0210    80.5680    25.6860     5.4550     8.7170    10.1030 
  268.7500     2.1610    -3.8260   345.7230    80.5680    25.6200     5.4520     8.7360    10.1240 
  268.8750     2.1390    -3.7970   333.8300    80.5680    25.5410     5.4450     8.7800    10.1730 
  269.0000     2.0930    -3.7820   322.7140    80.5680    25.4880     5.4700     8.8350    10.2340 
  269.1250     2.0160    -3.7870   315.3430    80.5680    25.3860     5.8290     8.8810    10.2850 
  269.2500     1.9360    -3.7390   311.1570    80.5680    25.1830     6.3300     8.9160    10.3240 
  269.3750     1.8960    -3.7000   308.5130    80.5680    25.0010     6.6920     8.9470    10.3580 
  269.5000     1.9530    -3.6820   305.7030    80.5680    24.9210     6.8680     8.9860    10.4020 
  269.6250     2.0790    -3.6510   301.9490    80.5680    24.9140     7.0290     9.0410    10.4630 
  269.7500     2.2050    -3.6410   298.1740    80.5680    24.9140     7.2680     9.0990    10.5280 
  269.8750     2.2630    -3.6310   295.3540    80.5680    24.9140     7.7660     9.1460    10.5800 
