~V
VERS. 2.00: Ver 2.00
~W
STRT.M 56.0000:
STOP.M 263.0000:
STEP.M 0.1250:
NULL. -999.2500:
UWI. DF3034:
~C
DEPT.M :
DEN.GM/CC :
GR.API :
RML.OHMM :
RI. :
RXO.OHMM :
CALI.CM :
SP.MV :
~A
# ...
  213.5000     2.2120    67.2210    96.9480    76.8140    78.7590    24.3630   -22.8640 
  213.6250     2.1960    67.8830   100.8070    80.3470    84.1130    24.3820   -23.2710 
  213.7500     2.1840    68.0880   104.6840    83.6870    86.5930    24.3830   -23.6170 
  213.8750     2.1770    67.4040   108.0790    86.5710    87.1990    24.3820   -23.9680 
  214.0000     2.1770    67.0180   110.2330    88.4920    87.4360    24.3800   -24.2740 
  214.1250     2.1800    66.9210   110.4960    88.9790    87.7620    24.3770   -24.5820 
  214.2500     2.1830    66.0690   109.6380    88.6180    87.2470    24.3790   -24.8470 
  214.3750     2.1850    64.5710   108.8230    88.2970    87.9400    24.3820   -25.1080 
  214.5000     2.1860    63.6290   109.5290    89.1610    86.6280    24.3830   -25.3910 
  214.6250     2.1880    66.6550   113.7090    92.7350    85.2720    24.3830   -25.6350 
  214.7500     2.1920    70.7540   121.4910    99.1290    89.6670    24.3840   -25.8700 
  214.8750     2.1980    71.7260   132.3010   107.9120   100.1740    24.3940   -26.0630 
  215.0000     2.2020    68.9740   144.4470   117.8130   115.3840    24.4560   -26.2450 
  215.1250     2.2000    65.9850   154.7340   126.4900   131.7650    24.6240   -26.4050 
  215.2500     2.1920    65.8210   160.6760   132.0680   142.5730    24.8170   -26.5440 
  215.3750     2.1780    66.7260   161.2690   133.6730   147.8600    24.8450   -26.6740 
  215.5000     2.1650    65.7480   157.3100   131.6370   139.9150    24.5020   -26.7940 
  215.6250     2.1560    62.9980   150.9670   127.2630   125.7220    24.4540   -26.9100 
  215.7500     2.1510    63.0750   145.3630   123.0360   117.4010    24.5040   -26.9870 
  215.8750     2.1520    67.4570   142.4420   120.7020   110.9720    24.5750   -27.0260 
  216.0000     2.1560    70.5640   143.6110   121.6200   106.8850    24.6040   -27.0450 
  216.1250     2.1640    67.9070   150.5570   127.3410   104.9540    24.7150   -27.0370 
  216.2500     2.1720    66.5360   162.0550   136.9490   108.6790    24.7210   -27.0320 
  216.3750     2.1780    68.4790   176.0380   148.8500   114.7720    24.5660   -26.9960 
  216.5000     2.1800    69.0700   188.8230   160.1470   124.1050    24.2800   -26.9530 
  216.6250     2.1790    65.7860   194.4550   166.1590   128.3700    24.1480   -26.9230 
  216.7500     2.1760    64.0610   190.9580   165.0540   133.6060    24.1120   -26.9190 
  216.8750     2.1750    65.5210   179.4390   157.2070   140.2460    24.1250   -26.9260 
  217.0000     2.1770    67.2380   163.9030   145.2710   139.4010    24.1290   -26.9100 
  217.1250     2.1780    67.3160   149.2890   133.0720   124.7850    24.1150   -26.8830 
  217.2500     2.1790    67.0320   138.0030   123.2730   110.1300    24.0980   -26.8400 
  217.3750     2.1780    66.9260   130.3230   116.5810   102.5960    24.0910   -26.8020 
  217.5000     2.1780    66.6970   125.7420   112.8080   104.7710    24.0900   -26.7460 
  217.6250     2.1810    67.6900   124.0460   111.8690   108.1480    24.1030   -26.7030 
  217.7500     2.1840    69.1860   124.4710   112.9700   108.2850    24.1340   -26.6230 
  217.8750     2.1870    70.3270   126.6940   115.7560   107.4870    24.1650   -26.5670 
  218.0000     2.1880    70.6160   129.7180   119.5650   107.9540    24.1780   -26.5010 
  218.1250     2.1880    70.5850   131.8990   122.8510   111.7650    24.1950   -26.4770 
  218.2500     2.1880    70.5550   131.1070   123.6280   114.7250    24.2410   -26.4280 
  218.3750     2.1890    68.2230   126.4480   120.3040   120.9700    24.2990   -26.3840 
  218.5000     2.1910    64.8400   117.3850   112.4110   124.1460    24.3290   -26.3310 
  218.6250     2.1970    64.9500   106.9840   100.8440   116.8100    24.3340   -26.2970 
  218.7500     2.2090    67.8350    97.1820    88.8180   101.5130    24.3340   -26.2450 
  218.8750     2.2290    71.0550    87.8910    78.6610    83.4340    24.3360   -26.2160 
  219.0000     2.2520    72.4340    81.0950    71.9630    67.6390    24.3400   -26.2080 
  219.1250     2.2670    72.3380    79.9420    70.1480    64.1990    24.3500   -26.2040 
  219.2500     2.2690    71.5810    83.2600    72.3770    65.1310    24.3610   -26.2390 
  219.3750     2.2520    70.9190    90.1900    77.9470    69.7980    24.3850   -26.2790 
  219.5000     2.2250    70.0640    99.3650    85.6840    77.2820    24.4190   -26.3490 
  219.6250     2.1960    68.3370   108.7680    93.8740    89.8790    24.4340   -26.3430 
  219.7500     2.1740    67.7740   116.3890   100.7050   101.7470    24.4400   -26.3950 
  219.8750     2.1650    67.4850   121.2600   105.2430   105.6140    24.4410   -26.3960 
  220.0000     2.1650    66.2740   123.5030   107.4330   101.5860    24.4420   -26.4400 
  220.1250     2.1690    66.7100   124.1020   107.9220    99.1910    24.4420   -26.4570 
  220.2500     2.1730    69.4200   124.6490   108.0980   100.2450    24.4420   -26.5010 
  220.3750     2.1730    70.8740   125.6870   108.5380   101.2210    24.4420   -26.5500 
  220.5000     2.1720    68.2310   126.9960   109.1900   102.5240    24.4420   -26.5930 
  220.6250     2.1720    65.9860   127.6050   109.3730   105.5890    24.4430   -26.6680 
  220.7500     2.1760    66.8010   126.7160   108.4620   110.4110    24.4450   -26.7180 
  220.8750     2.1830    68.8350   123.9500   106.1580   110.9670    24.4460   -26.8050 
  221.0000     2.1900    69.9670   119.4690   102.5650   105.4590    24.4450   -26.8550 
  221.1250     2.1940    69.1890   113.8450    98.0850    99.1990    24.4280   -26.9530 
  221.2500     2.1950    68.0610   108.2140    93.5630    94.5900    24.4020   -27.0570 
  221.3750     2.1930    68.1220   103.4060    89.6300    89.7600    24.3920   -27.1970 
  221.5000     2.1900    69.4610   100.1180    86.8390    86.0800    24.3990   -27.3070 
  221.6250     2.1890    71.0730    99.1460    85.8680    86.0150    24.3870   -27.5070 
  221.7500     2.1960    71.3940   100.1570    86.5310    85.7760    24.3360   -27.7470 
  221.8750     2.2130    69.3720   102.7210    88.5500    86.7410    24.2840   -28.0040 
  222.0000     2.2330    66.0370   106.1430    91.4030    90.1590    24.2350   -28.2710 
  222.1250     2.2450    65.0200   109.5880    94.4110   103.6660    24.1570   -28.5050 
  222.2500     2.2400    68.2910   112.4960    96.9990   119.1670    24.0940   -28.7570 
  222.3750     2.2200    72.2760   114.8060    98.9970   113.0560    24.1200   -28.9950 
  222.5000     2.2030    73.1150   116.8040   100.5440    98.7470    24.1630   -29.2420 
  222.6250     2.2020    71.5800   118.9880   102.0060    91.4860    24.1620   -29.4160 
  222.7500     2.2240    70.2370   121.5850   103.6940    92.0700    24.0980   -29.5440 
  222.8750     2.2560    68.7000   124.4050   105.5690    90.2880    24.0220   -29.6360 
  223.0000     2.2790    67.1720   126.9280   107.2960    84.9790    23.9190   -29.7000 
  223.1250     2.2810    68.1640   128.4170   108.3170    82.8860    23.6960   -29.7190 
  223.2500     2.2670    70.6820   128.9140   108.6070    83.1290    23.5880   -29.6570 
  223.3750     2.2470    72.9530   128.9240   108.5000    81.1270    23.5840   -29.5350 
  223.5000     2.2340    74.7180   129.3170   108.6330    73.9030    23.4390   -29.4010 
  223.6250     2.2290    74.8000   131.3110   109.9530    65.0290    23.3760   -29.1750 
  223.7500     2.2290    73.0040   135.2220   112.7580    60.4950    23.4110   -28.9730 
  223.8750     2.2290    69.2800   140.8900   116.9630    62.1990    23.5390   -28.7220 
  224.0000     2.2260    65.0020   147.5710   122.0060    68.3750    23.7100   -28.4970 
  224.1250     2.2210    62.4950   153.8930   126.8360    76.6920    23.7790   -28.2520 
  224.2500     2.2140    63.1640   158.6550   130.5260    81.7590    23.8690   -28.0520 
  224.3750     2.2080    66.2470   161.3060   132.6830    84.9810    24.1210   -27.8560 
  224.5000     2.2050    67.7770   161.9450   133.4260    91.1660    24.4860   -27.6920 
  224.6250     2.2050    65.7040   160.9390   133.0930    95.6300    24.6020   -27.5150 
