~V
VERS. 2.00: Ver 2.00
~W
STRT.M 130.0000:
STOP.M 268.0000:
STEP.M 0.1250:
NULL. -999.2500:
UWI. DF3061:
~C
DEPT.M :
GR.API :
CALI.CM :
RXO.OHMM :
RI. :
RML.OHMM :
DEN.GM/CC :
SP.MV :
~A
# ...
  208.7500    82.3240    24.2000    13.5900    14.8130    16.6420     2.4180   -22.8930 
  208.8750    79.2320    23.8860    14.4100    14.4520    16.2370     2.4070   -23.1980 
  209.0000    77.1460    23.8290    14.6420    13.8780    15.5920     2.3950   -23.3930 
  209.1250    78.3130    23.6990    14.4470    13.1200    14.7400     2.4010   -23.4150 
  209.2500    81.7470    23.4150    13.9960    12.2850    13.8020     2.4220   -23.2900 
  209.3750    87.6920    23.3170    12.6700    11.5160    12.9380     2.4430   -23.0320 
  209.5000    96.3200    23.1630    10.6100    11.0580    12.4240     2.4480   -22.6920 
  209.6250   102.1980    23.2740     9.1430    11.2070    12.5910     2.4260   -22.3520 
  209.7500   100.1700    23.2470     9.1350    12.0070    13.4900     2.3910   -22.1000 
  209.8750    91.0730    23.2670    12.5050    13.4490    15.1100     2.3630   -21.9950 
  210.0000    81.7170    23.3850    18.5200    15.5020    17.4170     2.3480   -22.0150 
  210.1250    76.5180    23.4980    24.3630    18.0400    19.9780     2.3370   -22.1200 
  210.2500    71.4430    23.4570    28.1190    20.5870    22.1010     2.3300   -22.2530 
  210.3750    66.6180    23.4410    30.5360    22.8190    24.9450     2.3390   -22.3670 
  210.5000    64.3850    23.5210    31.4010    24.5750    27.1630     2.3750   -22.3750 
  210.6250    65.4770    23.7610    30.9920    26.0380    28.9490     2.4310   -22.1840 
  210.7500    66.3630    23.9070    31.4700    27.5200    30.6450     2.4940   -21.8010 
  210.8750    66.1900    24.1100    33.3430    28.6860    31.8740     2.5590   -21.2260 
  211.0000    67.3680    24.1490    36.8050    28.7920    31.7360     2.6260   -20.5390 
  211.1250    68.8350    24.2070    41.3420    26.8970    29.1970     2.6910   -19.8200 
  211.2500    69.8170    24.1690    43.3190    23.3240    24.9080     2.7360   -19.1510 
  211.3750    70.5560    24.2640    43.3840    18.8610    19.7110     2.7340   -18.5550 
  211.5000    70.5000    24.2140    37.2940    14.5970    14.9950     2.6740   -18.0500 
  211.6250    72.4220    23.8080    22.3040    11.3510    11.6300     2.6000   -17.6610 
  211.7500    76.4020    23.3480    10.0130     9.0770     9.4220     2.5310   -17.3670 
  211.8750    80.2510    23.1500     6.3920     7.7170     8.2000     2.4770   -17.1550 
  212.0000    82.0530    22.8750     6.0330     7.1430     7.7980     2.4520   -16.9820 
  212.1250    83.5950    22.6690     5.9750     7.2300     8.0840     2.4430   -16.8280 
  212.2500    88.1090    22.5780     5.9800     7.6530     8.7220     2.4390   -16.6650 
  212.3750    90.9140    22.6950     6.1580     8.2110     9.5320     2.4350   -16.5020 
  212.5000    88.4830    22.8940     6.5040     8.6960    10.2570     2.4310   -16.3720 
  212.6250    83.1660    23.1540     6.8610     8.9350    10.5570     2.4270   -16.3070 
  212.7500    79.0990    23.3740     6.9190     9.0020    10.6960     2.4220   -16.3140 
  212.8750    78.5910    23.8390     6.6950     8.9600    10.7070     2.4130   -16.4230 
  213.0000    82.2250    24.1110     6.4430     8.8530    10.6130     2.4010   -16.6350 
  213.1250    87.7330    23.9760     6.2980     8.7390    10.4110     2.3860   -16.9240 
  213.2500    89.0170    23.6730     6.2340     8.6740    10.2170     2.3730   -17.2480 
  213.3750    85.4830    23.4840     6.2560     8.7090    10.1190     2.3670   -17.5710 
  213.5000    82.7670    23.2490     6.2870     8.8820    10.1180     2.3680   -17.8610 
  213.6250    84.0900    23.1850     6.6830     9.2200    10.2550     2.3720   -18.1080 
  213.7500    83.3800    23.1950     7.5850     9.6610    10.5140     2.3740   -18.3150 
  213.8750    78.6810    23.2290     8.5660    10.2010    10.8880     2.3770   -18.4630 
  214.0000    73.8920    23.3680     9.2820    10.8540    11.4220     2.3840   -18.5740 
  214.1250    75.3390    23.5950     9.9240    11.5490    11.9900     2.3900   -18.6950 
  214.2500    81.1760    23.7970    11.0040    12.2350    12.5220     2.3850   -18.8580 
  214.3750    86.2570    23.8450    10.8190    12.9060    13.0740     2.3700   -19.0810 
  214.5000    88.3000    24.0060     9.4920    13.5240    13.6380     2.3640   -19.3740 
  214.6250    89.8070    24.1840    10.7700    13.9950    14.1060     2.3750   -19.6980 
  214.7500    91.6180    24.3420    13.6590    14.3480    14.4390     2.3870   -20.0050 
  214.8750    92.1580    24.4790    14.6630    14.6730    14.7640     2.3800   -20.2840 
  215.0000    88.0520    24.8110    13.3240    15.0450    15.1850     2.3620   -20.5140 
  215.1250    80.6870    24.8130    13.2930    15.6100    15.8610     2.3510   -20.6810 
  215.2500    77.0030    24.7000    17.5320    16.4230    16.8640     2.3560   -20.8010 
  215.3750    79.6650    24.7010    20.2140    17.4600    18.1580     2.3690   -20.9030 
  215.5000    84.8980    24.7830    19.7540    18.7780    19.8680     2.3720   -21.0080 
  215.6250    86.7240    24.8140    18.6400    20.5160    22.2430     2.3610   -21.1530 
  215.7500    86.3590    24.7040    20.2960    22.5080    25.0150     2.3360   -21.3470 
  215.8750    85.9540    24.6990    20.8640    24.5860    27.8660     2.3000   -21.5960 
  216.0000    83.6580    24.8130    20.3420    26.7550    30.7510     2.2700   -21.8810 
  216.1250    77.9670    24.9170    23.9280    29.2080    33.7820     2.2570   -22.1860 
  216.2500    72.0890    24.9450    32.7090    31.8860    36.8320     2.2570   -22.4820 
  216.3750    68.9690    24.9850    40.5580    34.7050    39.7340     2.2520   -22.7320 
  216.5000    70.3560    25.0050    44.8460    37.8400    42.6190     2.2300   -22.9050 
  216.6250    74.2670    25.0100    42.0800    41.3780    45.5770     2.2030   -23.0140 
  216.7500    76.9510    25.0130    44.9350    44.8840    48.4920     2.1910   -23.0920 
  216.8750    77.1420    25.0380    55.2740    47.8440    50.9930     2.2010   -23.1650 
  217.0000    75.2380    24.9410    65.7960    50.0500    53.0020     2.2170   -23.2840 
  217.1250    72.4310    24.8980    61.3690    51.4050    54.4750     2.2280   -23.4800 
  217.2500    68.8930    25.0040    55.3940    52.1670    55.3300     2.2360   -23.7110 
  217.3750    64.4640    25.0080    52.0990    52.2870    55.5820     2.2500   -23.9820 
  217.5000    61.4110    24.9780    52.1870    51.7650    55.2540     2.2750   -24.2960 
  217.6250    62.8130    25.0220    53.6050    50.6810    54.5410     2.3000   -24.6230 
  217.7500    66.4340    24.9400    54.6070    49.6120    53.7510     2.3110   -24.9250 
  217.8750    69.0700    24.8620    52.6310    48.5570    52.9830     2.2980   -25.1620 
  218.0000    70.6970    24.7260    47.5330    47.2220    52.0050     2.2750   -25.3270 
  218.1250    72.0770    24.7130    44.0370    45.4200    50.7670     2.2590   -25.4420 
  218.2500    71.8840    24.7840    42.9180    43.4990    49.5600     2.2540   -25.5650 
  218.3750    71.3450    24.8120    42.0870    41.7580    48.4410     2.2550   -25.7110 
  218.5000    72.1570    24.6820    41.1590    40.4380    47.6440     2.2580   -25.8940 
  218.6250    73.2210    24.6530    39.8680    40.3010    47.8500     2.2620   -26.1480 
  218.7500    72.3320    24.4640    35.8750    41.9000    49.5860     2.2630   -26.4590 
  218.8750    69.6110    24.1390    33.5950    45.6150    53.2180     2.2520   -26.8200 
  219.0000    66.9620    24.1160    38.5190    51.7680    59.0960     2.2340   -27.2000 
  219.1250    64.5970    24.2700    50.9880    60.8310    68.0770     2.2210   -27.5320 
  219.2500    62.9240    24.3170    67.4400    71.7400    79.6500     2.2170   -27.7980 
  219.3750    62.6270    24.4450    83.2650    83.2470    92.5540     2.2200   -28.0040 
  219.5000    63.2200    24.4580    95.5610    93.5700   104.2450     2.2170   -28.1700 
  219.6250    61.9470    24.7150   106.3490    99.3920   110.2770     2.2040   -28.2810 
  219.7500    59.8850    24.8490   116.9800   100.2690   110.1810     2.1830   -28.3860 
  219.8750    61.3170    24.8430   118.8920    97.7760   106.3090     2.1660   -28.5330 
