~V
VERS. 2.00: Ver 2.00
~W
STRT.M 64.0000:
STOP.M 262.0000:
STEP.M 0.1250:
NULL. -999.2500:
UWI. DF3019:
~C
DEPT.M :
GR.API :
RML.OHMM :
RI. :
RXO.OHMM :
CALI.CM :
DEN.GM/CC :
SP.MV :
~A
# ...
  199.0000    84.7950    18.6900    14.5910    16.3150    24.6710     2.3030   -25.9190 
  199.1250    81.3430    20.8880    16.3940    18.4290    24.6670     2.2930   -26.2280 
  199.2500    81.3220    23.6980    18.7500    21.4190    24.6710     2.2830   -26.4690 
  199.3750    83.7980    27.3270    21.8360    24.2330    24.6920     2.2750   -26.7190 
  199.5000    86.6230    31.9970    25.8400    27.7660    24.7340     2.2690   -26.8590 
  199.6250    83.9760    37.9250    30.9820    32.1250    24.7510     2.2660   -27.1060 
  199.7500    78.3140    44.4920    36.7770    39.1990    24.7530     2.2650   -27.2560 
  199.8750    74.3710    50.8260    42.5250    49.0280    24.7510     2.2640   -27.4420 
  200.0000    72.6590    55.8190    47.2920    61.4720    24.7460     2.2630   -27.5800 
  200.1250    71.9170    58.1630    49.9050    72.5170    24.7200     2.2630   -27.7790 
  200.2500    72.9090    58.3380    50.5910    70.6440    24.6870     2.2680   -28.0160 
  200.3750    75.8370    57.5290    50.2070    60.3410    24.6730     2.2780   -28.1970 
  200.5000    78.0920    57.4380    50.1440    50.5470    24.6670     2.2930   -28.4950 
  200.6250    77.3610    60.1120    52.2360    45.0300    24.6540     2.3060   -28.6460 
  200.7500    74.7080    65.9070    57.0510    46.4880    24.6250     2.3090   -28.8430 
  200.8750    70.9180    74.5310    64.5300    52.6390    24.6040     2.2980   -29.0760 
  201.0000    68.0790    84.8710    73.8150    66.0640    24.6250     2.2750   -29.2700 
  201.1250    68.5220    94.9070    83.1800    89.0610    24.7270     2.2490   -29.5100 
  201.2500    71.3590   102.7950    90.8290   100.7560    24.8490     2.2290   -29.6880 
  201.3750    72.9920   107.8030    95.9430   100.4600    24.9250     2.2170   -29.8620 
  201.5000    71.8760   110.4450    98.7940    97.9710    24.9370     2.2120   -29.9840 
  201.6250    69.9960   112.3450   100.6460    97.1640    24.9070     2.2110   -30.1190 
  201.7500    69.6190   115.4560   103.3020    94.8660    24.8640     2.2100   -30.2770 
  201.8750    69.2350   120.8000   107.7770    93.5580    24.8300     2.2080   -30.3260 
  202.0000    66.9520   128.7380   114.5050    95.3680    24.7960     2.2070   -30.4480 
  202.1250    66.4140   139.4680   123.7820   101.1390    24.7700     2.2070   -30.4560 
  202.2500    68.6970   151.9970   134.8310   109.7310    24.7610     2.2070   -30.5240 
  202.3750    69.5630   165.6100   147.1100   119.7660    24.7610     2.2040   -30.6110 
  202.5000    67.3090   179.5570   160.0180   127.8880    24.7620     2.1960   -30.6800 
  202.6250    66.2990   192.8730   172.8100   134.1040    24.7750     2.1820   -30.8360 
  202.7500    70.1430   204.5130   184.5590   140.4900    24.8200     2.1690   -30.9580 
  202.8750    74.6170   213.0440   194.0400   151.1630    24.8910     2.1600   -31.1530 
  203.0000    74.0550   216.8050   199.7380   165.9430    24.9360     2.1570   -31.2840 
  203.1250    69.2760   213.5550   199.4230   173.5860    24.9490     2.1580   -31.5210 
  203.2500    65.9880   204.7710   193.9010   172.6130    24.9640     2.1600   -31.6470 
  203.3750    65.1980   192.7180   184.7040   165.9740    25.0100     2.1640   -31.7790 
  203.5000    66.7010   180.3970   174.3620   153.7150    25.0630     2.1700   -31.8950 
  203.6250    68.9980   170.4910   166.1000   131.1310    24.9740     2.1820   -31.9270 
  203.7500    69.6400   165.0720   161.6200   108.9720    24.6780     2.1950   -32.0170 
  203.8750    67.1400   164.7220   161.6970    93.6370    24.2170     2.2060   -32.0060 
  204.0000    62.9780   172.2080   166.4550    80.9380    23.7850     2.2110   -32.0230 
  204.1250    61.8940   186.7870   176.1290    75.9710    23.5400     2.2080   -31.9730 
  204.2500    63.9820   209.1590   188.9700    78.3100    23.4740     2.2020   -31.9040 
  204.3750    67.7400   235.4350   203.5370    85.7330    23.5130     2.1960   -31.8580 
  204.5000    69.9180   254.2120   218.0440    98.0020    23.6730     2.1910   -31.7240 
  204.6250    69.3450   267.7670   230.1170   109.1910    23.9340     2.1880   -31.6470 
  204.7500    68.6020   277.0690   238.7740   118.5690    24.1550     2.1860   -31.4580 
  204.8750    67.6970   282.2080   244.0090   125.7330    24.2610     2.1840   -31.3100 
  205.0000    67.0090   284.7020   246.9390   130.8370    24.2930     2.1810   -31.0830 
  205.1250    65.6450   286.8680   249.4370   135.0610    24.3030     2.1800   -30.8460 
  205.2500    63.0640   289.7280   252.6760   139.3210    24.3110     2.1810   -30.6470 
  205.3750    59.8800   291.5590   255.7050   144.7230    24.3020     2.1840   -30.3730 
  205.5000    57.9280   288.3330   255.5740   150.7340    24.2890     2.1890   -30.1920 
  205.6250    59.1840   272.9020   246.3750   156.7240    24.2460     2.1970   -29.9260 
  205.7500    60.9980   244.4330   226.2810   158.5120    24.2110     2.2070   -29.7250 
  205.8750    62.0580   205.9350   196.3520   153.3740    24.1820     2.2180   -29.4780 
  206.0000    62.1330   164.8000   161.5880   142.8650    24.1680     2.2300   -29.3500 
  206.1250    62.8200   130.9370   130.1770   125.5130    24.1670     2.2370   -29.1790 
  206.2500    65.0540   107.8980   107.1810   100.5160    24.1640     2.2360   -29.1210 
  206.3750    69.2840    95.6860    93.9730    76.5030    24.1510     2.2250   -29.0900 
  206.5000    73.7870    92.4140    89.5470    61.1660    24.1090     2.2060   -29.0690 
  206.6250    75.3210    95.8630    92.1320    58.6770    24.0190     2.1880   -29.0690 
  206.7500    73.7780   101.4360    97.2380    62.9010    23.8750     2.1770   -29.0720 
  206.8750    71.0920   106.1100   101.8710    70.7130    23.7130     2.1760   -29.1440 
  207.0000    70.6910   107.8950   103.9270    75.4710    23.5960     2.1850   -29.0810 
  207.1250    71.9150   106.3840   102.6530    70.7740    23.5330     2.1960   -29.1190 
  207.2500    72.3330   104.2000   100.2800    62.4820    23.4790     2.2050   -29.0600 
  207.3750    73.0050   103.5310    98.8600    55.7720    23.4380     2.2080   -29.0410 
  207.5000    74.2840   105.3870    99.5460    54.0880    23.4280     2.2050   -29.0200 
  207.6250    75.2520   109.2940   102.1750    60.1640    23.4380     2.2000   -28.9620 
  207.7500    72.0740   113.0140   104.8210    69.0110    23.4400     2.1950   -28.9310 
  207.8750    65.5580   114.8120   105.9050    74.6940    23.4330     2.1910   -28.8780 
  208.0000    60.7140   113.7200   104.4920    72.9600    23.3960     2.1890   -28.9590 
  208.1250    62.0350   109.6690   100.4380    68.2530    23.3130     2.1900   -28.9150 
  208.2500    66.2750   104.6290    95.4620    66.3940    23.2840     2.1900   -28.9280 
  208.3750    70.6430   100.3100    91.0990    67.2020    23.2890     2.1880   -28.8730 
  208.5000    73.4120    98.1620    88.6670    66.5640    23.2500     2.1810   -28.8060 
  208.6250    72.5610    99.6170    89.4720    63.0900    23.2120     2.1700   -28.7420 
  208.7500    69.7080   104.0980    93.0350    61.4620    23.2460     2.1580   -28.6230 
  208.8750    69.3470   110.5210    98.4670    62.3960    23.3040     2.1510   -28.4860 
  209.0000    70.7960   116.9100   104.1220    66.2590    23.3330     2.1540   -28.3120 
  209.1250    68.4600   119.9390   107.2130    69.9180    23.3010     2.1680   -28.1820 
  209.2500    66.2580   117.7740   106.0400    67.8150    23.1850     2.1870   -28.0190 
  209.3750    68.6460   109.9590   100.0170    64.0970    23.0590     2.2060   -27.9010 
  209.5000    72.5980    97.8550    90.0580    63.4970    23.0260     2.2190   -27.6890 
  209.6250    71.3370    84.1600    78.2370    58.5950    23.0780     2.2250   -27.5920 
  209.7500    69.8570    71.7620    67.1830    52.5810    23.2030     2.2260   -27.4510 
  209.8750    72.0480    61.9160    58.1750    47.5320    23.3910     2.2270   -27.3800 
  210.0000    74.4540    55.0000    51.7110    43.1900    23.6730     2.2310   -27.2800 
  210.1250    73.5320    51.3360    48.1790    40.5070    24.0380     2.2420   -27.2240 
