~V
VERS. 2.00: Ver 2.00
~W
STRT.M 120.0000:
STOP.M 271.0000:
STEP.M 0.1250:
NULL. -999.2500:
UWI. DF3037:
~C
DEPT.M :
GR.API :
RML.OHMM :
RI. :
RXO.OHMM :
CALI.CM :
SP.MV :
DEN.GM/CC :
AC.US/MT :
~A
# ...
  170.0000    72.0270    13.7370    11.8980     6.7910    22.4820   -18.3400     2.0810   364.5210 
  170.1250    71.8480    16.3740    13.8980     7.8520    22.8430   -17.8990     2.0670   364.9740 
  170.2500    73.3340    20.1690    17.0380     9.5770    23.2670   -17.3720     2.0810   366.6100 
  170.3750    75.2300    24.8870    21.2280    11.6700    23.2430   -16.9280     2.1180   371.1600 
  170.5000    73.7250    30.0720    26.1280    13.5510    22.8040   -16.4480     2.1660   378.5190 
  170.6250    71.2580    34.9240    31.2230    13.8860    22.5920   -15.9660     2.2110   386.9240 
  170.7500    72.5410    39.5080    36.1840    14.3230    22.7610   -15.5290     2.2410   394.2010 
  170.8750    75.6800    44.3970    41.2990    14.7960    23.0400   -15.0930     2.2580   399.6760 
  171.0000    75.4600    51.4270    47.3910    14.7600    23.1550   -14.6470     2.2670   403.5970 
  171.1250    70.5630    62.3940    55.9800    14.6860    22.9770   -14.1340     2.2730   406.4240 
  171.2500    64.8700    78.2990    67.4010    15.0200    22.6840   -13.6830     2.2750   408.6950 
  171.3750    61.9630    98.3130    81.3650    16.4940    22.5510   -13.1900     2.2620   410.5100 
  171.5000    63.0460   118.0890    96.6780    20.0380    22.8040   -12.7180     2.2310   411.8760 
  171.6250    65.6120   135.0690   111.1250    28.1270    23.6300   -12.2470     2.1890   412.5540 
  171.7500    66.2410   148.7360   122.9480    41.3370    24.5930   -11.7850     2.1530   412.4540 
  171.8750    65.3100   158.4680   131.6130    58.7660    25.1990   -11.3730     2.1320   411.5770 
  172.0000    63.1360   165.3720   137.9380    77.9160    25.2340   -11.0280     2.1260   410.2900 
  172.1250    60.8650   171.9750   143.8610    96.6460    25.0890   -10.7650     2.1310   409.6380 
  172.2500    60.9240   180.4540   151.2220    94.3610    24.9930   -10.6010     2.1380   410.6330 
  172.3750    63.4500   191.1360   160.4720    82.8870    24.8340   -10.4590     2.1490   413.6250 
  172.5000    65.6210   202.6970   170.7690    75.8970    24.5630   -10.3630     2.1660   417.8690 
  172.6250    65.1260   211.9080   179.7760    80.3770    24.3410   -10.2570     2.1880   421.1780 
  172.7500    63.5940   216.3920   185.4640    83.4460    24.2660   -10.1820     2.2090   421.6440 
  172.8750    62.0210   215.4320   186.9750    80.0950    24.2860   -10.0940     2.2250   418.6650 
  173.0000    61.4030   210.3530   184.9450    68.6730    24.3010    -9.9720     2.2350   413.1980 
  173.1250    62.5350   203.9760   181.2420    58.7390    24.2240    -9.7770     2.2380   407.5880 
  173.2500    63.9080   199.1040   178.3200    59.8060    24.2060    -9.5510     2.2320   404.0300 
  173.3750    64.7010   196.7350   177.3030    67.6270    24.4160    -9.2240     2.2140   403.1700 
  173.5000    62.9860   196.8020   178.4130    70.5680    24.9040    -8.8550     2.1860   404.2530 
  173.6250    60.0260   198.9630   181.5340    64.3910    25.6430    -8.4860     2.1560   405.4360 
  173.7500    59.9440   202.5070   185.9810    56.5580    26.1600    -8.0800     2.1390   405.2020 
  173.8750    62.4160   207.4780   191.6640    57.7890    26.2000    -7.6790     2.1420   403.4290 
  174.0000    64.2880   213.8230   198.4260    67.5140    25.8980    -7.3350     2.1640   401.1030 
  174.1250    63.4020   220.3800   205.2020    87.3720    25.4280    -7.0090     2.1950   399.9760 
  174.2500    61.8870   224.3570   209.6380    96.4070    25.0430    -6.7610     2.2210   400.7540 
  174.3750    61.7070   222.7500   209.1550    99.4130    24.7380    -6.6740     2.2360   403.1610 
  174.5000    64.5530   213.7860   202.1400   105.8740    24.4240    -6.6880     2.2380   406.2060 
  174.6250    68.3980   198.0490   188.7590   110.8310    24.1960    -6.8620     2.2310   408.4740 
  174.7500    68.4270   181.1490   173.7410   111.0340    24.1130    -7.0910     2.2200   409.1580 
  174.8750    66.6130   167.2980   160.9190    99.8900    24.0780    -7.4160     2.2120   408.1520 
  175.0000    66.8750   158.7470   152.7090    84.4800    24.0330    -7.7380     2.2130   406.0330 
  175.1250    67.9760   155.9540   149.9990    82.5490    24.0080    -8.1450     2.2270   403.8910 
  175.2500    65.6170   155.8290   150.0470    95.7270    24.0100    -8.5350     2.2500   402.4450 
  175.3750    62.2400   156.0200   150.5430   111.1290    24.0390    -8.9460     2.2730   401.6450 
  175.5000    61.5630   154.9960   149.8160   118.0410    24.1100    -9.3620     2.2830   401.1620 
  175.6250    63.6850   152.7650   147.5170   121.1070    24.1560    -9.8890     2.2680   400.9820 
  175.7500    66.5660   151.3620   145.4530   113.3300    24.1760   -10.4200     2.2340   401.3800 
  175.8750    68.1400   152.6780   145.4670   101.8530    24.1770   -10.9610     2.1950   402.4540 
  176.0000    65.8470   157.6770   148.6640    95.8470    24.2650   -11.4490     2.1670   403.7280 
  176.1250    62.5460   166.5360   155.3650    99.9530    24.6730   -11.9830     2.1630   404.1710 
  176.2500    61.7580   177.6780   164.0840   110.5610    25.1880   -12.4440     2.1760   403.4290 
  176.3750    61.5370   190.4740   174.0700   122.1170    25.4680   -12.8540     2.2000   401.9100 
  176.5000    60.3650   204.6830   184.9270   125.8440    25.4530   -13.1950     2.2250   400.4970 
  176.6250    60.4980   219.6370   196.0370   119.0660    25.2160   -13.2710     2.2410   400.2310 
  176.7500    62.0840   232.5960   205.4610   111.5470    25.0220   -13.3560     2.2480   401.2170 
  176.8750    61.6400   239.3190   210.0940   110.7370    25.1210   -13.4140     2.2440   403.0330 
  177.0000    59.0610   235.2810   206.5180   116.3750    25.3930   -13.5610     2.2340   404.7770 
  177.1250    58.4410   216.6130   191.5410   114.4040    25.5250   -13.6920     2.2290   404.9800 
  177.2500    60.3480   189.5450   169.4800   104.2190    25.3430   -13.8630     2.2340   403.1000 
  177.3750    64.6820   161.1730   145.5410    88.9440    24.9050   -14.0380     2.2500   399.4120 
  177.5000    69.5990   137.5380   124.7840    80.4540    24.4640   -14.1530     2.2700   394.9990 
  177.6250    72.5340   122.5430   111.1990    79.5220    24.1950   -14.3440     2.2890   391.5020 
  177.7500    74.2620   114.2860   103.7710    79.5880    24.0180   -14.4460     2.3030   389.7060 
  177.8750    76.0550   110.9270   101.0160    78.1060    23.7690   -14.4980     2.3120   389.6090 
  178.0000    78.2120   110.3770   101.0070    76.8440    23.6880   -14.4760     2.3160   390.7240 
  178.1250    78.5150   110.4010   101.6060    76.4380    24.0120   -14.4320     2.3130   392.4300 
  178.2500    76.5870   108.9410   100.8060    77.1410    24.4190   -14.3480     2.3050   394.1020 
  178.3750    75.3800   104.8690    97.4990    80.0840    24.5680   -14.2500     2.2950   395.4500 
  178.5000    76.9520    97.8350    91.3300    84.0710    24.4510   -14.2690     2.2910   396.3300 
  178.6250    79.0600    88.3130    82.6480    85.3830    24.2910   -14.3600     2.2980   396.7080 
  178.7500    79.9980    78.6250    73.5380    81.7150    24.3950   -14.5680     2.3150   396.8400 
  178.8750    79.7630    70.9400    65.9440    71.3260    24.6720   -14.8900     2.3370   396.8150 
  179.0000    79.2910    67.1470    61.6150    58.1120    24.9080   -15.3430     2.3540   396.4860 
  179.1250    77.1950    69.3560    62.5650    47.9580    24.8250   -15.8480     2.3570   395.4450 
  179.2500    75.1580    76.7570    68.2780    48.0350    24.4560   -16.4600     2.3470   393.6820 
  179.3750    75.0550    88.0850    77.8050    59.6990    24.1240   -17.1770     2.3280   391.4390 
  179.5000    75.3460   100.8680    89.0550    83.5610    23.9720   -17.9370     2.3080   389.1530 
  179.6250    75.5840   110.9920    98.4270   102.8610    24.0810   -18.7330     2.2920   387.3300 
  179.7500    76.1610   115.6380   103.1820   108.3020    24.3010   -19.4050     2.2820   386.1480 
  179.8750    75.2920   114.0310   102.3730   104.2890    24.3750   -19.9620     2.2770   385.7190 
