~V
VERS. 2.00: Ver 2.00
~W
STRT.M 60.0000:
STOP.M 232.0000:
STEP.M 0.1250:
NULL. -999.2500:
UWI. DF3065:
~C
DEPT.M :
GR.API :
CALI.CM :
RXO.OHMM :
RI. :
RML.OHMM :
DEN.GM/CC :
SP.MV :
~A
# ...
  161.2500    67.0700    25.0640   132.1800   129.1840   154.6680     2.2250   -28.3820 
  161.3750    62.9200    25.0520   135.9270   125.7590   149.4570     2.2200   -28.2740 
  161.5000    61.2560    25.0410   140.2320   122.0450   144.4040     2.2170   -28.1330 
  161.6250    65.2360    24.8860   137.0790   118.3370   139.8390     2.2180   -27.9440 
  161.7500    68.6000    24.9740   123.4450   114.7300   135.7030     2.2210   -27.7500 
  161.8750    69.2690    24.9620   112.4310   111.5930   132.3180     2.2230   -27.5750 
  162.0000    68.2910    24.8110   116.3970   109.0540   129.9750     2.2270   -27.3860 
  162.1250    67.1590    24.8470   123.2080   107.5220   128.9680     2.2330   -27.1760 
  162.2500    66.9920    24.9590   122.0270   107.1350   129.3480     2.2400   -26.9420 
  162.3750    68.3060    24.9110   114.5500   108.0410   131.3420     2.2420   -26.7240 
  162.5000    69.8430    24.6860    98.6850   110.5410   135.2750     2.2400   -26.5150 
  162.6250    68.4720    24.3730    94.2540   115.1880   141.5340     2.2380   -26.3400 
  162.7500    66.1330    24.1770   106.2850   121.8970   149.8450     2.2390   -26.2070 
  162.8750    64.6090    24.1190   132.3990   130.3690   159.7260     2.2430   -26.1050 
  163.0000    64.6310    24.1460   159.2990   139.5900   170.1140     2.2480   -26.0440 
  163.1250    66.7020    24.4100   175.3040   148.2760   179.6940     2.2510   -26.0470 
  163.2500    68.1830    24.4790   181.7740   155.4330   187.5440     2.2470   -26.1260 
  163.3750    67.7150    24.6390   196.6590   160.7950   193.1880     2.2330   -26.2600 
  163.5000    67.1250    24.7460   229.6870   164.2580   196.6200     2.2160   -26.4220 
  163.6250    66.9050    24.9360   264.6650   166.4630   199.0070     2.2040   -26.6080 
  163.7500    63.7800    24.8530   265.2140   168.5970   201.4040     2.2030   -26.7870 
  163.8750    59.1300    24.7620   269.6360   170.7790   203.7540     2.2110   -26.9350 
  164.0000    57.5590    24.8950   289.2740   172.9940   205.6870     2.2170   -27.0460 
  164.1250    58.3030    24.8830   300.4410   174.3320   206.0780     2.2120   -27.0960 
  164.2500    57.9150    24.7400   255.3990   174.5430   204.7890     2.1990   -27.0900 
  164.3750    57.6360    24.7400   191.7680   173.8240   202.2670     2.1880   -27.0110 
  164.5000    59.5180    24.8920   139.0470   172.7710   199.3110     2.1800   -26.9040 
  164.6250    62.6610    24.8730   133.1820   171.4750   195.9870     2.1710   -26.7670 
  164.7500    64.6150    24.7760   167.5690   169.2180   191.6670     2.1680   -26.5760 
  164.8750    65.4640    24.9890   217.5550   165.5610   186.1020     2.1730   -26.3490 
  165.0000    65.9760    25.0910   235.2390   160.2770   178.8930     2.1770   -26.0990 
  165.1250    65.2290    25.0300   200.4080   152.7370   169.4180     2.1730   -25.8270 
  165.2500    63.2210    25.0210   149.4320   142.7540   157.5330     2.1720   -25.5330 
  165.3750    61.6540    25.0440   118.8260   130.8620   143.9390     2.1830   -25.2540 
  165.5000    61.1220    25.0610   101.4810   118.3850   130.0030     2.1980   -24.9800 
  165.6250    62.4390    25.1050   102.9950   106.3040   116.7310     2.2000   -24.7420 
  165.7500    64.4310    25.0630   110.9700    95.4100   104.7560     2.1920   -24.5890 
  165.8750    67.2160    25.0700    95.9590    86.1480    94.4060     2.1930   -24.5070 
  166.0000    69.8610    25.0630    71.6620    78.5810    85.9490     2.2140   -24.4430 
  166.1250    70.4970    25.1400    62.2910    73.0230    79.9330     2.2430   -24.4120 
  166.2500    71.0980    25.2570    63.8210    69.6700    76.3720     2.2620   -24.4780 
  166.3750    72.2710    25.2550    64.2310    68.4180    75.1740     2.2690   -24.5590 
  166.5000    74.4400    25.1150    70.0320    68.8450    75.8840     2.2700   -24.6350 
  166.6250    75.6240    25.1000    77.1290    70.6490    78.1260     2.2660   -24.6750 
  166.7500    74.8120    25.1180    80.2700    73.1350    81.0220     2.2570   -24.6590 
  166.8750    72.9780    25.0880    87.0060    75.5920    83.8490     2.2490   -24.6170 
  167.0000    70.1650    25.0630    92.3450    77.6210    86.3090     2.2460   -24.5880 
  167.1250    67.1740    25.0010    89.5380    79.2450    88.3360     2.2510   -24.5100 
  167.2500    64.9570    24.9710    79.6320    80.5910    90.3670     2.2550   -24.3440 
  167.3750    64.0470    24.8260    75.9630    82.0110    92.7160     2.2570   -24.1680 
  167.5000    64.9230    24.8710    78.8950    84.0260    95.8300     2.2600   -23.9430 
  167.6250    68.5030    24.9540    95.9100    86.9560   100.0290     2.2680   -23.6860 
  167.7500    70.9080    24.8810   110.4970    90.5570   104.9720     2.2750   -23.4000 
  167.8750    70.2600    24.8110   112.2650    94.8450   110.5390     2.2770   -23.1220 
  168.0000    68.3480    24.9620   110.4520    99.6560   116.4950     2.2750   -22.8310 
  168.1250    70.0070    25.0120   129.5750   104.5380   122.1100     2.2710   -22.5700 
  168.2500    73.8240    25.0660   161.5990   109.2090   126.9940     2.2590   -22.3140 
  168.3750    73.4650    25.0610   166.3400   113.4490   130.8070     2.2410   -22.0610 
  168.5000    68.7300    25.0550   146.2400   116.5790   132.9890     2.2230   -21.8530 
  168.6250    64.6290    25.0590   136.0190   117.5630   132.5190     2.2140   -21.6670 
  168.7500    62.3570    25.0660   135.3020   116.0720   129.1140     2.2180   -21.5180 
  168.8750    59.1780    25.0110   144.3840   111.2960   122.2000     2.2280   -21.3650 
  169.0000    54.8850    24.9510   150.2780   103.3430   112.2120     2.2380   -21.2540 
  169.1250    55.4050    24.7920   129.2430    93.2400   100.5650     2.2420   -21.1300 
  169.2500    58.8050    24.7510    97.5180    83.1860    89.5650     2.2350   -20.9980 
  169.3750    62.4700    24.5800    76.5430    74.7210    80.6740     2.2200   -20.8500 
  169.5000    65.3930    24.3770    63.9610    68.9640    74.9800     2.2090   -20.7160 
  169.6250    65.2280    24.1750    59.5990    66.8620    73.0200     2.2130   -20.6180 
  169.7500    62.0180    24.0580    67.6900    66.7390    72.8980     2.2320   -20.5190 
  169.8750    58.4830    23.9260   100.0320    67.1310    73.0510     2.2510   -20.3950 
  170.0000    56.6300    23.8740   159.8820    66.8470    72.2860     2.2600   -20.2170 
  170.1250    56.7930    24.0230   178.7380    64.7240    69.5280     2.2580   -20.0260 
  170.2500    58.5500    24.4110   141.3680    61.2250    65.3760     2.2510   -19.7790 
  170.3750    59.6120    24.6730    84.2510    57.6470    61.4910     2.2520   -19.5080 
  170.5000    57.2950    24.7370    43.3110    55.8560    59.9170     2.2620   -19.1910 
  170.6250    54.1410    24.8240    39.1820    57.5670    62.3210     2.2750   -18.8310 
  170.7500    55.0520    24.9480    75.1990    62.4800    67.7400     2.2770   -18.4510 
  170.8750    58.1320    24.8730   128.4550    69.7450    74.7620     2.2700   -18.0830 
  171.0000    58.7720    24.7910   158.8970    76.7760    80.5760     2.2600   -17.7250 
  171.1250    56.9530    24.9450   145.6220    78.3360    80.7020     2.2510   -17.3970 
  171.2500    56.6840    24.8720   113.7020    72.6450    74.2460     2.2410   -17.1230 
  171.3750    59.5680    24.7850    87.6780    61.2820    62.5810     2.2310   -16.8630 
  171.5000    63.9520    24.7750    71.8810    48.1200    48.9240     2.2290   -16.6450 
  171.6250    68.4460    24.8210    52.7210    37.4320    37.7260     2.2460   -16.4460 
  171.7500    71.2250    24.7720    31.8930    30.3430    30.4530     2.2880   -16.2810 
  171.8750    72.2480    24.7490    19.9530    26.6410    26.9960     2.3490   -16.1280 
  172.0000    73.4450    24.6410    21.4550    25.7850    26.6540     2.4250   -15.9900 
  172.1250    75.1170    24.5770    34.9040    27.3370    28.6620     2.5090   -15.8840 
  172.2500    73.2110    24.4670    52.3160    29.9600    31.3050     2.5900   -15.8200 
  172.3750    66.1030    24.4660    62.6670    32.4130    33.3170     2.6620   -15.7720 
