~V
VERS. 2.00: Ver 2.00
~W
STRT.M 110.0000:
STOP.M 277.0000:
STEP.M 0.1250:
NULL. -999.2500:
UWI. DF3015:
~C
DEPT.M :
DEN.GM/CC :
SP.MV :
AC.US/MT :
GR.API :
CALI.CM :
RXO.OHMM :
RI. :
RML.OHMM :
~A
  110.0000     2.3930    -9.4590   375.4840    93.7510    25.0570     7.6550     6.7780     8.0940 
  110.1250     2.4200   -10.1890   362.4660    88.2780    25.0160    12.7550     8.0720     9.9110 
  110.2500     2.4130   -11.1600   363.3090    84.2140    24.8730    21.6220     9.6010    11.9390 
  110.3750     2.3620   -12.3170   377.2890    76.3820    24.5820    27.5120    10.8990    13.4650 
  110.5000     2.2810   -13.6190   398.0700    67.8240    24.3260    24.1040    11.4830    13.8550 
  110.6250     2.2110   -15.1160   416.9390    65.1480    24.2940    15.6850    11.0910    12.9570 
  110.7500     2.1680   -16.7230   429.8710    69.0100    24.4210    11.2000    10.2050    11.6140 
  110.8750     2.1460   -18.1990   437.5560    72.7570    24.5470    10.2670     9.2180    10.3750 
  111.0000     2.1380   -19.3360   442.3320    73.2440    24.6080    10.4960     8.3840     9.4930 
  111.1250     2.1470   -20.0310   445.7660    73.3140    24.6360    10.2730     7.8280     9.0330 
  111.2500     2.1620   -20.4630   448.1060    75.0120    24.6650     9.5850     7.4980     8.8660 
  111.3750     2.1650   -20.7910   448.8740    75.5110    24.6770     9.5610     7.3760     8.9570 
  111.5000     2.1520   -21.0400   448.8810    72.2060    24.6800    10.5120     7.4420     9.2760 
  111.6250     2.1390   -21.2170   450.7210    70.7520    24.6950    11.2820     7.6800     9.7680 
  111.7500     2.1360   -21.4060   454.5210    74.8990    24.7240    11.4020     8.0020    10.2960 
  111.8750     2.1410   -21.6910   456.5540    79.3260    24.7480    11.4690     8.3470    10.7610 
  112.0000     2.1490   -22.1270   451.5870    78.9400    24.7240    11.8850     8.6550    11.0980 
  112.1250     2.1590   -22.6160   435.7170    76.1270    24.6260    12.3840     8.8770    11.2970 
  112.2500     2.1780   -22.9700   415.2040    75.8640    24.5030    12.5550     9.0240    11.4280 
  112.3750     2.2030   -23.0770   398.4590    78.0560    24.4400    12.4530     9.0910    11.5000 
  112.5000     2.2220   -22.9800   392.1930    78.7100    24.4000    12.2850     9.0660    11.4800 
  112.6250     2.2180   -22.8250   398.2300    75.7420    24.3320    12.2140     8.9450    11.3550 
  112.7500     2.2050   -22.7150   408.7640    70.8490    24.2950    12.0840     8.7880    11.1970 
  112.8750     2.1960   -22.6640   418.3150    70.7880    24.2830    11.8620     8.6420    11.0720 
  113.0000     2.1960   -22.6710   424.8570    74.4140    24.2860    11.7540     8.5430    11.0190 
  113.1250     2.1980   -22.7680   429.8550    76.4470    24.2880    11.9730     8.5190    11.0540 
  113.2500     2.1980   -22.9390   435.2910    73.9980    24.2880    12.2660     8.5560    11.1330 
  113.3750     2.1940   -23.1660   440.7180    68.2610    24.2860    12.4620     8.6390    11.2210 
  113.5000     2.1870   -23.4560   444.4150    65.2390    24.2820    12.5380     8.7440    11.2880 
  113.6250     2.1770   -23.7730   444.7160    64.7780    24.2800    12.5120     8.8520    11.3210 
  113.7500     2.1660   -24.0200   442.8730    64.2400    24.2790    12.4940     8.9540    11.3510 
  113.8750     2.1570   -24.1760   440.4780    62.8940    24.2790    12.5540     9.0670    11.4230 
  114.0000     2.1520   -24.2210   438.5750    65.0720    24.2790    12.6250     9.2110    11.5800 
  114.1250     2.1560   -24.0430   436.3560    71.0860    24.2810    12.5570     9.3770    11.8130 
  114.2500     2.1690   -23.5800   432.1110    76.0790    24.2960    12.3470     9.4680    11.9570 
  114.3750     2.1900   -22.7450   426.0340    79.2510    24.3280    12.0420     9.3410    11.7850 
  114.5000     2.2200   -21.4970   419.9430    83.9100    24.3550    11.4640     8.8760    11.1160 
  114.6250     2.2630   -19.7670   417.0150    89.6490    24.4220     9.9840     8.0400     9.9240 
  114.7500     2.3080   -17.7290   418.3210    94.8180    24.6310     7.7720     7.0670     8.5860 
  114.8750     2.3310   -15.5500   422.3540    98.3470    24.9910     5.9860     6.1660     7.4210 
  115.0000     2.3160   -13.3640   424.8350    99.6740    25.2780     5.2240     5.4910     6.6450 
  115.1250     2.2780   -11.3340   419.8140    98.5050    25.3730     5.1200     5.1620     6.3880 
  115.2500     2.2620    -9.5870   407.8640    97.1400    25.3850     5.2230     5.1070     6.4850 
  115.3750     2.2830    -8.2010   393.9910    97.6060    25.3850     5.4580     5.2460     6.7720 
  115.5000     2.3280    -7.1980   385.5480    97.6870    25.3850     5.8770     5.4680     7.0610 
  115.6250     2.3530    -6.6070   389.3290    96.3060    25.3850     6.0150     5.6370     7.1620 
  115.7500     2.3430    -6.3220   401.8180    93.7060    25.3850     5.7400     5.6940     7.0700 
  115.8750     2.3090    -6.2380   416.9390    92.7760    25.3850     5.3440     5.6570     6.8730 
  116.0000     2.2760    -6.2520   428.7770    94.8720    25.3850     5.2330     5.5810     6.6790 
  116.1250     2.2690    -6.3040   433.8490    98.3280    25.3850     5.4040     5.5230     6.5730 
  116.2500     2.2760    -6.3660   434.6740    99.5270    25.3850     5.3750     5.5030     6.5490 
  116.3750     2.2840    -6.4630   434.0610    96.9440    25.3850     5.2240     5.5050     6.5620 
  116.5000     2.2900    -6.5940   434.0240    97.3270    25.3850     5.1800     5.4860     6.5380 
  116.6250     2.2970    -6.7830   435.6350   104.5830    25.3850     5.1710     5.3840     6.3930 
  116.7500     2.3060    -6.9660   438.6670   113.5030    25.3850     4.9770     5.2000     6.1510 
  116.8750     2.3210    -7.0740   442.4070   116.1760    25.3850     4.6490     4.9680     5.8760 
  117.0000     2.3470    -7.1240   445.6890   114.0350    25.3850     4.3680     4.7380     5.6450 
  117.1250     2.3800    -7.1240   447.1600   110.6570    25.3830     4.2530     4.5630     5.5320 
  117.2500     2.4020    -7.0770   446.8970   104.8390    25.3690     4.2730     4.4450     5.5110 
  117.3750     2.4110    -7.0200   445.5510    97.1610    25.3360     4.4020     4.3660     5.5200 
  117.5000     2.4150    -7.0230   444.0220    93.1780    25.2960     4.6870     4.2800     5.4600 
  117.6250     2.4170    -7.0900   442.5140    93.2050    25.2230     4.8790     4.1390     5.2210 
  117.7500     2.4060    -7.2280   438.9500    92.5390    25.0900     4.7970     3.9690     4.8820 
  117.8750     2.3850    -7.4860   429.0790    91.0770    24.9400     4.5690     3.8730     4.6490 
  118.0000     2.3770    -7.8350   407.9620    90.9140    24.8550     4.5340     4.0040     4.7970 
  118.1250     2.4160    -8.2610   371.9230    89.0530    24.8320     5.2160     4.6230     5.7280 
  118.2500     2.4970    -8.7850   330.3190    82.1590    24.8320     7.3850     5.8460     7.5500 
  118.3750     2.5870    -9.4040   296.3710    73.3550    24.8320    12.7030     7.7450    10.2730 
  118.5000     2.6370   -10.0960   283.2420    69.7840    24.8100    20.5620    10.0550    13.3490 
  118.6250     2.6020   -10.9120   300.1180    71.8740    24.7180    23.5540    11.6360    14.8790 
  118.7500     2.5110   -11.8110   334.0930    75.5360    24.5580    19.0640    11.6130    13.9420 
  118.8750     2.4080   -12.6850   371.2390    76.8940    24.4270    12.4280    10.3120    11.5640 
  119.0000     2.3250   -13.4920   400.0400    77.0750    24.3690     8.5600     8.6860     9.2770 
  119.1250     2.2840   -14.2110   414.3570    77.3070    24.3740     7.2700     7.4720     7.9530 
  119.2500     2.2770   -14.8140   419.8210    78.7250    24.4360     6.5280     6.7720     7.4400 
  119.3750     2.2870   -15.2450   421.4310    79.8180    24.5830     6.3190     6.4900     7.4870 
  119.5000     2.2940   -15.4240   422.8560    80.3840    24.8060     6.7370     6.4320     7.7360 
  119.6250     2.2850   -15.1540   426.4160    82.1460    25.0680     7.3320     6.3230     7.7150 
  119.7500     2.2700   -14.4610   432.3270    85.3660    25.2940     7.2920     5.9930     7.2340 
  119.8750     2.2660   -13.5370   439.7600    89.2670    25.4560     6.3720     5.4770     6.4390 
