~V
VERS. 2.00: Ver 2.00
~W
STRT.M 110.0000:
STOP.M 266.0000:
STEP.M 0.1250:
NULL. -999.2500:
UWI. DF309:
~C
DEPT.M :
DEN.GM/CC :
SP.MV :
AC.US/MT :
GR.API :
CALI.CM :
RXO.OHMM :
RI. :
RML.OHMM :
~A
# ...
  130.0000     2.5140   -20.5440   287.4460    64.0510    24.5260    19.3330    18.0510    19.7420 
  130.1250     2.5190   -20.7370   291.7580    60.7030    24.5410    18.6860    17.7210    19.2780 
  130.2500     2.5240   -20.9360   293.9140    55.7250    24.5940    17.9510    17.2300    18.7130 
  130.3750     2.5150   -21.1150   297.1320    53.3920    24.5980    17.3830    16.6470    18.0960 
  130.5000     2.4930   -21.2410   303.5040    54.6430    24.5320    16.8040    16.0400    17.4600 
  130.6250     2.4760   -21.3070   310.9640    57.7460    24.4040    16.1470    15.5730    16.9770 
  130.7500     2.4720   -21.3210   315.1620    58.9620    24.3480    15.3820    15.3830    16.8260 
  130.8750     2.4760   -21.2930   314.7470    57.8710    24.3280    14.8270    15.5540    17.1220 
  131.0000     2.4860   -21.2250   310.8280    57.0020    24.3090    14.8620    16.0870    17.8680 
  131.1250     2.5110   -21.0960   304.0180    56.8860    24.2700    15.2280    16.9020    18.9610 
  131.2500     2.5470   -20.9340   295.0550    54.5020    24.2520    16.3380    17.7180    20.0420 
  131.3750     2.5770   -20.7470   286.1750    50.7420    24.2480    17.7320    18.2790    20.7760 
  131.5000     2.5790   -20.5600   280.9940    48.5800    24.2340    18.4500    18.4380    20.9630 
  131.6250     2.5580   -20.3630   281.8600    47.2400    24.1870    17.5240    18.2240    20.6470 
  131.7500     2.5430   -20.1760   284.8680    46.1960    24.1190    16.1310    17.9420    20.2510 
  131.8750     2.5470   -20.0020   286.2570    46.9690    24.0890    15.6100    17.8100    20.0740 
  132.0000     2.5640   -19.8520   284.2010    50.4890    24.1210    16.6290    17.9520    20.2720 
  132.1250     2.5810   -19.7400   279.3040    55.0210    24.2590    18.6800    18.3990    20.8600 
  132.2500     2.5890   -19.6540   274.6160    57.1920    24.4520    20.4620    18.9630    21.5610 
  132.3750     2.5900   -19.5980   272.0580    57.0610    24.6070    21.2660    19.4680    22.1240 
  132.5000     2.5910   -19.5830   271.7220    56.4600    24.6970    20.8810    19.7790    22.3620 
  132.6250     2.5970   -19.6390   272.1580    55.6380    24.7190    20.2120    19.8280    22.2010 
  132.7500     2.6010   -19.7450   272.4270    54.5400    24.7260    20.1870    19.7460    21.8700 
  132.8750     2.5960   -19.9000   273.5110    53.7810    24.7260    20.6270    19.6670    21.5740 
  133.0000     2.5780   -20.0940   276.3520    55.2130    24.7260    20.3610    19.7060    21.4740 
  133.1250     2.5570   -20.3210   279.6520    58.1650    24.7260    19.2890    19.8710    21.5910 
  133.2500     2.5510   -20.5930   280.2750    58.9600    24.7260    19.5080    19.9000    21.5770 
  133.3750     2.5590   -20.9020   277.4070    56.8470    24.7260    20.6730    19.4690    21.0030 
  133.5000     2.5650   -21.2410   274.9960    54.4930    24.7260    21.5260    18.4030    19.6150 
  133.6250     2.5450   -21.5660   283.1260    56.2740    24.7260    20.7120    16.7650    17.4910 
  133.7500     2.5070   -21.8610   303.4850    61.4210    24.7190    18.0290    14.9840    15.2160 
  133.8750     2.4690   -22.1190   327.8960    66.1730    24.6990    14.7570    13.3730    13.2250 
  134.0000     2.4460   -22.3560   343.9910    69.1400    24.6620    12.9550    12.1410    11.7920 
  134.1250     2.4430   -22.5860   345.7230    75.7820    24.6580    13.2740    11.3870    11.0270 
  134.2500     2.4490   -22.8030   343.1280    87.3020    24.6730    12.6590    10.9250    10.6410 
  134.3750     2.4500   -22.9990   342.9450    95.3910    24.6900    11.0730    10.5960    10.4100 
  134.5000     2.4380   -23.1520   346.3720    92.8670    24.7030    10.0670    10.2370    10.1250 
  134.6250     2.4010   -23.2550   354.9560    86.1690    24.6730    10.2690     9.7050     9.6170 
  134.7500     2.3480   -23.3110   370.5860    83.4080    24.5660     9.7540     9.0410     8.9440 
  134.8750     2.2960   -23.3010   390.8550    81.9990    24.3920     8.6000     8.3320     8.2140 
  135.0000     2.2630   -23.2060   407.8730    80.4350    24.3000     7.7170     7.6620     7.5220 
  135.1250     2.2530   -22.9910   413.9110    84.9730    24.3600     7.2800     7.1710     7.0200 
  135.2500     2.2530   -22.6770   412.4910    91.2130    24.5020     7.1410     6.9850     6.8620 
  135.3750     2.2570   -22.2840   407.1930    90.7600    24.5990     7.2930     7.2240     7.2040 
  135.5000     2.2780   -21.8340   397.6080    82.5010    24.6330     7.8290     7.9700     8.1460 
  135.6250     2.3310   -21.3510   380.0680    75.0500    24.6300     9.4430     9.3490     9.8360 
  135.7500     2.4070   -20.8600   357.2210    70.8040    24.6290    12.5800    11.1840    12.0690 
  135.8750     2.4850   -20.3930   334.6910    66.4110    24.6280    16.1580    13.1890    14.5130 
  136.0000     2.5420   -19.9730   317.3380    61.0230    24.6280    17.9220    14.9140    16.6080 
  136.1250     2.5620   -19.6340   305.7030    58.1240    24.6280    17.0400    15.8930    17.7190 
  136.2500     2.5630   -19.3630   295.2120    56.7110    24.6280    15.9150    16.3340    18.1060 
  136.3750     2.5620   -19.1550   284.1660    53.2930    24.6290    16.0810    16.5830    18.2720 
  136.5000     2.5690   -18.9960   273.8190    47.9080    24.6310    17.6720    16.9330    18.6560 
  136.6250     2.5810   -18.8940   267.3710    43.8660    24.6350    19.7330    17.4930    19.4340 
  136.7500     2.5900   -18.8310   265.4890    42.8860    24.6330    20.6630    18.0680    20.2990 
  136.8750     2.5900   -18.7840   267.6130    43.8520    24.6300    19.9660    18.4510    20.9090 
  137.0000     2.5850   -18.7540   272.3490    46.4430    24.6280    18.6590    18.5480    21.0840 
  137.1250     2.5760   -18.7270   278.1980    48.7930    24.6280    17.8390    18.4260    20.8990 
  137.2500     2.5670   -18.6960   283.1200    49.1670    24.6280    17.5540    18.3020    20.6920 
  137.3750     2.5590   -18.6660   285.3750    47.4040    24.6280    17.7890    18.2850    20.6440 
  137.5000     2.5530   -18.6390   284.2810    45.4840    24.6280    18.6490    18.3890    20.7880 
  137.6250     2.5440   -18.6180   281.2840    46.0420    24.6280    19.5760    18.5090    20.9960 
  137.7500     2.5310   -18.6110   279.6280    46.5800    24.6280    19.6570    18.4810    21.0410 
  137.8750     2.5200   -18.6420   280.6000    44.5380    24.6280    18.6900    18.2030    20.7800 
  138.0000     2.5110   -18.6880   283.4840    41.7700    24.6280    17.5270    17.6640    20.1980 
  138.1250     2.5030   -18.7510   286.5160    45.4280    24.6280    16.9200    16.9330    19.3850 
  138.2500     2.4960   -18.8280   288.8440    54.4640    24.6280    16.4800    16.1690    18.5460 
  138.3750     2.4920   -18.9130   290.7690    61.9580    24.6270    15.9490    15.4730    17.8000 
  138.5000     2.4960   -19.0070   292.6740    63.5630    24.6060    15.4610    14.9080    17.2150 
  138.6250     2.5050   -19.1190   294.3420    61.2620    24.5470    15.4090    14.5300    16.8450 
  138.7500     2.5140   -19.2430   295.2900    58.7130    24.4610    15.3430    14.3200    16.6580 
  138.8750     2.5180   -19.3540   295.4180    55.7570    24.3970    15.3920    14.2770    16.6550 
  139.0000     2.5190   -19.4460   295.1090    54.5010    24.3840    15.9970    14.3890    16.8310 
  139.1250     2.5200   -19.5050   294.9090    62.3380    24.4430    16.8100    14.6040    17.1120 
  139.2500     2.5230   -19.5420   294.5170    72.8440    24.5280    17.1380    14.7680    17.2910 
  139.3750     2.5280   -19.5500   293.4050    75.3160    24.6020    17.0200    14.7270    17.1660 
  139.5000     2.5300   -19.5280   291.4700    66.8840    24.6550    17.0600    14.3650    16.6000 
  139.6250     2.5210   -19.4620   290.2990    57.6780    24.7230    16.6590    13.6440    15.5810 
  139.7500     2.5010   -19.3800   292.3730    55.7750    24.7980    14.6780    12.7640    14.4160 
  139.8750     2.4790   -19.2930   298.3970    57.1010    24.8300    12.1530    11.8530    13.2910 
