~V
VERS. 2.00: Ver 2.00
~W
STRT.M 115.0000:
STOP.M 241.0000:
STEP.M 0.1250:
NULL. -999.2500:
UWI. DF3064:
~C
DEPT.M :
GR.API :
CALI.CM :
RXO.OHMM :
RI. :
RML.OHMM :
DEN.GM/CC :
SP.MV :
~A
# ...
  193.7500    56.7840    24.9370   160.4530   118.1470   120.1520     2.1720   -37.9630 
  193.8750    58.6870    24.9220   131.2310   104.9430   107.2140     2.1870   -37.7730 
  194.0000    59.8280    24.9320   101.8300    95.2180    97.9760     2.1890   -37.7410 
  194.1250    60.4740    25.0100    87.3360    89.3970    92.5630     2.1750   -38.0090 
  194.2500    61.2990    25.0160    84.9730    86.2890    89.6330     2.1630   -38.4120 
  194.3750    61.6650    24.9610    88.9150    85.0530    88.3100     2.1570   -38.5540 
  194.5000    61.3960    24.9160    95.7500    84.9900    87.9700     2.1520   -38.3690 
  194.6250    61.8800    24.9300    96.9940    85.5290    88.1770     2.1470   -38.3480 
  194.7500    62.2320    25.0210    88.6890    85.9810    88.2820     2.1450   -38.4390 
  194.8750    61.2570    25.1030    80.3820    85.8410    87.7770     2.1480   -38.4570 
  195.0000    61.1580    25.0930    81.6560    84.8860    86.3050     2.1530   -38.3200 
  195.1250    63.4830    24.9400    92.2760    82.5200    83.3630     2.1570   -38.1260 
  195.2500    66.1760    24.9180   102.4490    78.6990    79.1200     2.1640   -37.7860 
  195.3750    67.7000    24.9490    99.4750    73.8400    74.0770     2.1710   -37.3210 
  195.5000    67.8320    24.9120    81.9110    68.6850    68.9810     2.1740   -37.3810 
  195.6250    65.7940    24.8130    65.6430    64.2940    64.7950     2.1780   -37.8410 
  195.7500    62.5780    24.6300    58.3250    61.1960    62.1330     2.1920   -37.9970 
  195.8750    60.5290    24.6130    55.5820    59.8190    61.4060     2.2150   -37.9830 
  196.0000    60.7720    24.6330    55.1510    60.2250    62.6190     2.2360   -37.9300 
  196.1250    63.4000    24.7680    59.8800    62.4140    65.5580     2.2450   -37.8150 
  196.2500    65.0450    24.8410    67.4700    65.7280    69.3810     2.2430   -37.6920 
  196.3750    65.8330    25.0050    73.3900    69.5560    73.6070     2.2260   -37.5550 
  196.5000    65.4390    25.0640    75.4400    73.4680    77.8680     2.1950   -37.4240 
  196.6250    62.7410    25.0350    79.4470    76.9100    81.6590     2.1610   -37.2970 
  196.7500    59.0170    24.9320    92.1940    79.7010    84.8040     2.1460   -37.2040 
  196.8750    55.8710    24.8470   100.8970    81.7500    87.2800     2.1510   -37.1610 
  197.0000    54.3480    24.8940    99.6420    82.9710    88.9880     2.1620   -37.1490 
  197.1250    56.4890    25.0530    90.8260    83.2600    89.8520     2.1760   -37.1950 
  197.2500    62.7630    25.0650    99.9970    83.1210    90.2660     2.2010   -37.2590 
  197.3750    68.1990    24.8170    96.3370    82.8620    90.4760     2.2260   -37.3820 
  197.5000    67.0590    24.7680    83.4030    82.9330    91.0120     2.2350   -37.5390 
  197.6250    63.2250    24.8290    75.8330    84.3870    92.8490     2.2240   -37.7500 
  197.7500    61.7090    25.0520    73.5600    87.3260    96.1990     2.2070   -37.9720 
  197.8750    61.0360    25.0720    79.8410    91.4930   100.7390     2.1980   -38.1770 
  198.0000    60.1560    25.0100    97.9960    96.3220   105.8880     2.1980   -38.3630 
  198.1250    62.6790    24.7660   114.2380   100.4100   110.1350     2.1940   -38.4820 
  198.2500    66.9030    24.7120   120.1240   101.8940   111.4690     2.1810   -38.5700 
  198.3750    68.1910    24.9680   120.1080    99.9990   109.1590     2.1690   -38.5760 
  198.5000    65.8090    25.0110   115.9650    95.0720   103.5250     2.1680   -38.5090 
  198.6250    63.3230    24.6620   104.2460    87.9330    95.6500     2.1740   -38.3450 
  198.7500    63.2040    24.1450    83.1390    80.6120    87.9880     2.1720   -38.1130 
  198.8750    63.1370    23.8340    60.9620    74.7440    82.3000     2.1700   -37.8350 
  199.0000    61.0280    24.0190    49.1410    71.0230    79.2220     2.1850   -37.5150 
  199.1250    57.6520    24.7640    51.6750    69.7840    78.6630     2.2130   -37.1510 
  199.2500    56.5360    25.0690    61.2190    70.2220    79.7430     2.2270   -36.7460 
  199.3750    58.6580    25.1110    73.1570    71.7470    81.7360     2.2360   -36.3190 
  199.5000    60.6070    25.0310    83.7590    73.6610    83.8820     2.2790   -35.8920 
  199.6250    59.1140    25.0030   110.5470    75.3420    85.4780     2.3780   -35.4820 
  199.7500    56.6230    24.9440   144.2480    76.5720    86.4100     2.4950   -35.0930 
  199.8750    57.3370    24.8330   139.1580    77.4330    86.9080     2.5460   -34.7590 
  200.0000    60.9640    24.7070    98.1980    78.2480    87.5960     2.4930   -34.4710 
  200.1250    63.3310    24.8180    89.8550    79.7390    89.3210     2.3690   -34.2520 
  200.2500    65.6950    25.0300    88.6030    81.7790    91.7420     2.2600   -34.0780 
  200.3750    68.0510    25.0910    91.5250    83.9120    94.1910     2.2090   -33.9450 
  200.5000    67.1040    25.0890    94.6720    85.7650    96.1900     2.2020   -33.8670 
  200.6250    62.7400    25.0780    96.4740    86.5790    96.9600     2.2090   -33.8180 
  200.7500    60.3630    25.0650    98.3970    85.9400    96.2260     2.2140   -33.7880 
  200.8750    61.6590    25.0990   100.2890    83.7510    94.0790     2.2240   -33.7390 
  201.0000    64.0200    25.0890    98.2000    80.4220    91.0860     2.2360   -33.6840 
  201.1250    63.9140    25.0740    91.5430    76.8480    88.0560     2.2400   -33.6130 
  201.2500    63.7160    25.0640    82.2070    73.8220    85.8900     2.2340   -33.4920 
  201.3750    64.3680    25.0520    70.9740    71.8790    84.9560     2.2290   -33.3400 
  201.5000    65.6050    25.0540    61.5350    71.0880    85.2770     2.2260   -33.1170 
  201.6250    65.1130    25.0720    65.7210    71.5840    86.7240     2.2220   -32.8470 
  201.7500    62.6160    25.0900    77.6160    72.7990    88.6520     2.2210   -32.5590 
  201.8750    60.2080    25.0650    85.5420    74.1990    90.3690     2.2230   -32.2570 
  202.0000    58.6550    25.0350    86.5870    75.4230    91.5700     2.2220   -31.9520 
  202.1250    59.2650    24.9950    84.0270    76.3710    92.3340     2.2150   -31.6510 
  202.2500    60.8500    25.0250    82.4340    77.4370    93.1950     2.2130   -31.3810 
  202.3750    60.9370    25.0750    84.1700    79.3040    94.9990     2.2260   -31.1340 
  202.5000    59.6830    25.0780    83.3970    82.8550    98.5590     2.2540   -30.9270 
  202.6250    59.3020    25.0250    82.5040    88.6110   103.7100     2.2930   -30.7730 
  202.7500    59.9140    24.9230    87.1660    93.2400   106.5200     2.3530   -30.6190 
  202.8750    61.0470    24.8710   106.9790    92.6930   103.1270     2.4380   -30.4740 
  203.0000    63.2600    24.7300   161.0340    84.5910    92.0570     2.5370   -30.3170 
  203.1250    66.7110    24.5360   183.6240    68.8720    74.2570     2.6320   -30.1830 
  203.2500    68.6470    24.6160   188.3020    51.3370    55.2610     2.6910   -30.0670 
  203.3750    68.3010    24.7170   156.4030    35.8680    38.5800     2.7020   -29.9780 
  203.5000    65.1520    24.6900    89.3650    24.2720    26.0810     2.6590   -29.9080 
  203.6250    62.2350    24.6190    33.5500    17.0410    18.3950     2.5720   -29.8370 
  203.7500    62.1920    24.6860    11.5600    12.7970    13.9460     2.4720   -29.7860 
  203.8750    62.7350    24.8350     7.6610    10.5910    11.6360     2.3960   -29.7450 
  204.0000    59.3130    24.8490     7.2980     9.4530    10.5120     2.3600   -29.7310 
  204.1250    51.3680    24.7890     7.0650     9.0350    10.1260     2.3600   -29.7330 
  204.2500    46.1450    24.4070     6.5230     8.9790    10.0470     2.3760   -29.7440 
  204.3750    45.8850    23.7640     6.0510     9.0720    10.0180     2.3850   -29.7630 
  204.5000    48.2900    23.2590     5.9590     9.1670     9.9360     2.3870   -29.7990 
  204.6250    50.3760    22.9600     6.0260     9.2420     9.8300     2.3930   -29.8690 
  204.7500    52.1740    23.0910     5.9480     9.3680     9.8410     2.4100   -29.9970 
  204.8750    54.6480    23.6590     6.0620     9.5760    10.0230     2.4240   -30.1980 
