~V
VERS. 2.00: Ver 2.00
~W
STRT.M 65.0000:
STOP.M 267.0000:
STEP.M 0.1250:
NULL. -999.2500:
UWI. DF3007:
~C
DEPT.M :
GR.API :
RML.OHMM :
RI. :
RXO.OHMM :
CALI.CM :
DEN.GM/CC :
SP.MV :
~A
# ...
  177.5000    74.9510   197.5380   169.8080   148.3000    24.7750     2.2400   -23.5960 
  177.6250    70.3000   195.5490   169.4470   157.6900    24.7710     2.2380   -23.4730 
  177.7500    67.8060   191.5250   167.3330   164.2860    24.7540     2.2420   -23.5380 
  177.8750    66.1060   187.5580   164.9950   163.3040    24.7160     2.2510   -23.6080 
  178.0000    64.8670   186.0920   164.4210   159.1120    24.6700     2.2610   -23.6570 
  178.1250    68.2610   189.2750   167.6000   147.9780    24.6350     2.2660   -23.7810 
  178.2500    72.7930   195.6200   173.6330   150.4200    24.6290     2.2640   -23.9260 
  178.3750    72.9740   202.6340   180.6000   178.6320    24.6390     2.2560   -24.0620 
  178.5000    69.1320   207.4660   186.0660   232.4340    24.6410     2.2450   -24.2000 
  178.6250    66.4530   207.8050   187.7860   285.4760    24.6230     2.2390   -24.4660 
  178.7500    67.9110   205.2420   186.6660   263.7420    24.6160     2.2400   -24.6370 
  178.8750    70.2130   201.6530   184.3820   205.6300    24.6270     2.2450   -24.8210 
  179.0000    69.5040   198.7850   182.4380   173.2880    24.6590     2.2510   -25.0490 
  179.1250    66.2660   196.4000   180.7130   169.8200    24.6920     2.2530   -25.2200 
  179.2500    64.4840   192.1880   176.9510   186.4170    24.7060     2.2510   -25.3540 
  179.3750    65.9780   183.7820   168.7690   196.2090    24.7190     2.2460   -25.4880 
  179.5000    67.0760   171.6850   155.2800   178.2520    24.7520     2.2420   -25.6290 
  179.6250    66.7860   156.7810   138.2440   161.1830    24.8050     2.2420   -25.5340 
  179.7500    68.5780   142.8080   122.8430   141.6580    24.8590     2.2470   -25.4580 
  179.8750    71.7660   131.8080   113.0760   116.6830    24.8860     2.2520   -25.4180 
  180.0000    73.0350   130.4250   111.1860    93.9360    24.8920     2.2520   -25.1590 
  180.1250    70.7670   138.9950   118.0810    94.0860    24.8710     2.2430   -24.9790 
  180.2500    67.2160   152.1220   129.4580   115.8400    24.8210     2.2270   -24.8780 
  180.3750    64.3840   164.5770   140.9570   153.7140    24.7680     2.2100   -24.5800 
  180.5000    63.2530   171.0370   147.9730   193.8470    24.7620     2.2020   -24.3160 
  180.6250    64.7990   166.7380   146.1550   201.3270    24.7620     2.2060   -24.2370 
  180.7500    68.0590   154.9740   137.6810   172.5690    24.7470     2.2210   -24.0200 
  180.8750    70.9620   140.5470   126.2100   131.1450    24.7220     2.2410   -23.8400 
  181.0000    72.7340   127.8390   115.4820   103.6460    24.7130     2.2590   -23.7430 
  181.1250    74.2460   119.3090   107.9760    97.5480    24.7270     2.2720   -23.5980 
  181.2500    76.1010   113.7780   103.0970    99.0460    24.7530     2.2780   -23.4500 
  181.3750    76.8590   110.1140    99.9660   103.6010    24.7680     2.2810   -23.3570 
  181.5000    75.8660   107.4650    97.8130   104.2700    24.7630     2.2820   -23.2970 
  181.6250    74.5650   105.5150    96.2780    97.2580    24.7360     2.2810   -23.0990 
  181.7500    73.5670   104.0670    95.1310    88.7500    24.6970     2.2780   -22.9670 
  181.8750    73.2750   103.0060    94.2770    83.5780    24.6420     2.2730   -22.8730 
  182.0000    74.7980   102.0450    93.4880    84.9820    24.5840     2.2660   -22.7420 
  182.1250    75.8260   100.8640    92.4420    89.5930    24.5300     2.2610   -22.6240 
  182.2500    73.7440    99.7470    91.2760    90.7880    24.4980     2.2620   -22.6130 
  182.3750    70.6460    99.7120    90.7550    88.5820    24.4700     2.2660   -22.6620 
  182.5000    70.7750   102.4480    92.2960    86.6930    24.4760     2.2700   -22.6440 
  182.6250    73.4400   111.1220    98.7130    88.6720    24.5140     2.2670   -22.8640 
  182.7500    73.1190   126.9640   111.3220    99.0600    24.5430     2.2570   -23.1170 
  182.8750    69.2800   150.9140   131.0830   124.2390    24.5860     2.2430   -23.3570 
  183.0000    65.8200   182.4400   157.5390   166.3020    24.6760     2.2290   -23.8400 
  183.1250    65.3890   219.2320   188.5190   230.8400    24.8310     2.2220   -24.2840 
  183.2500    64.6000   255.5510   218.8970   271.3740    24.9130     2.2180   -24.6090 
  183.3750    61.5350   287.1880   244.9830   285.0780    24.9380     2.2170   -25.0900 
  183.5000    59.7690   312.2900   265.1530   285.2170    24.9220     2.2140   -25.5680 
  183.6250    60.7770   331.7890   280.1320   291.5660    24.9070     2.2100   -25.8320 
  183.7500    61.3560   349.2820   293.2760   301.4730    24.8990     2.2040   -26.1320 
  183.8750    59.7800   364.1410   304.7090   309.5200    24.8920     2.1940   -26.2400 
  184.0000    58.2470   371.2010   310.9650   309.7420    24.8870     2.1810   -26.1290 
  184.1250    58.0100   359.5230   303.7360   314.9700    24.8980     2.1640   -26.1120 
  184.2500    57.3500   329.0320   281.9290   332.3150    24.9300     2.1500   -25.9760 
  184.3750    57.4130   287.3990   250.0560   377.5330    24.9510     2.1460   -25.6850 
  184.5000    59.6740   248.0850   217.7410   438.6750    24.9230     2.1550   -25.3970 
  184.6250    63.3530   224.9780   196.7550   266.3630    24.8410     2.1730   -25.2060 
  184.7500    66.1890   218.3040   189.4470   159.7440    24.7980     2.1880   -24.9970 
  184.8750    65.5410   223.6770   193.2580   153.1500    24.8300     2.1950   -24.8570 
  185.0000    60.9210   232.9370   201.6210   205.5670    24.8650     2.1910   -24.8720 
  185.1250    57.3070   233.8600   204.1730   252.9330    24.8950     2.1810   -24.7790 
  185.2500    58.5320   219.3780   194.2610   229.4880    24.9270     2.1730   -24.7800 
  185.3750    61.7100   189.0650   170.6910   177.9740    24.9350     2.1710   -24.9010 
  185.5000    62.9130   150.0650   138.4030   128.4290    24.8590     2.1790   -25.0180 
  185.6250    63.2550   114.6200   107.0790    80.4560    24.7020     2.2010   -25.0300 
  185.7500    64.3340    88.8820    83.2020    56.8550    24.6100     2.2290   -25.1310 
  185.8750    66.1650    72.7200    67.6090    47.8020    24.6580     2.2550   -25.2640 
  186.0000    69.1950    63.4960    58.4140    46.5080    24.7760     2.2710   -25.2010 
  186.1250    73.5060    58.2180    53.1170    47.7390    24.8730     2.2740   -25.2360 
  186.2500    76.5730    53.4350    48.5470    53.7920    24.9020     2.2760   -25.2720 
  186.3750    78.3100    47.8380    43.4420    57.0730    24.8740     2.2880   -25.0690 
  186.5000    79.2770    41.4870    37.7280    53.1550    24.8310     2.3140   -24.9020 
  186.6250    80.7090    35.9350    32.5060    40.1930    24.8050     2.3430   -24.8280 
  186.7500    82.7770    32.4700    28.9220    29.7240    24.7790     2.3620   -24.6090 
  186.8750    83.1100    31.8660    27.6300    24.9770    24.7560     2.3610   -24.5330 
  187.0000    80.7850    33.8330    28.8690    27.3060    24.7370     2.3450   -24.5910 
  187.1250    79.2860    38.5340    32.8820    37.3610    24.7020     2.3240   -24.5510 
  187.2500    80.8360    44.1450    38.6510    48.9760    24.6690     2.3070   -24.6060 
  187.3750    80.9940    49.8920    45.2070    55.8380    24.6530     2.2970   -24.7800 
  187.5000    77.9220    56.2280    51.4010    57.8280    24.6360     2.2920   -24.9210 
  187.6250    75.5820    61.2590    55.9740    61.3310    24.5710     2.2880   -25.0640 
  187.7500    75.6830    64.6200    58.7940    63.2530    24.3890     2.2880   -25.1460 
  187.8750    75.5710    66.4690    60.0300    63.3720    24.0810     2.2920   -25.1330 
  188.0000    74.7020    66.8930    59.8810    62.4750    23.8850     2.2990   -24.9630 
  188.1250    74.4210    65.3260    58.0190    61.2330    24.0180     2.3000   -24.7500 
  188.2500    71.1800    61.7910    54.5420    59.8740    24.3120     2.2910   -24.4540 
  188.3750    66.6000    56.6740    49.7530    57.4000    24.6020     2.2800   -24.0620 
  188.5000    65.9210    50.9230    44.3820    56.4450    24.7410     2.2860   -23.6450 
  188.6250    69.9470    45.6330    39.2840    50.7230    24.7420     2.3340   -23.1810 
