~V
VERS. 2.00: Ver 2.00
~W
STRT.M 120.0000:
STOP.M 272.0000:
STEP.M 0.1250:
NULL. -999.2500:
UWI. DF3038:
~C
DEPT.M :
GR.API :
RML.OHMM :
RI. :
RXO.OHMM :
CALI.CM :
DEN.GM/CC :
SP.MV :
~A
# ...
  232.5000    66.7180   142.1440   118.9870   132.7240    24.2010     2.2660   -22.6400 
  232.6250    66.7090   138.8510   117.0520   127.2000    24.2010     2.2680   -22.6120 
  232.7500    67.2910   135.5200   115.0440   124.3280    24.2010     2.2700   -22.6120 
  232.8750    68.8080   132.1870   112.9950   118.5140    24.2010     2.2710   -22.5940 
  233.0000    70.8640   128.4900   110.6220   110.4260    24.2010     2.2720   -22.6400 
  233.1250    70.6840   123.8420   107.4040   109.1380    24.2140     2.2730   -22.6210 
  233.2500    69.5090   118.3620   103.3710   116.8010    24.2540     2.2760   -22.6550 
  233.3750    70.3410   112.5860    98.9050   116.2200    24.3090     2.2780   -22.6610 
  233.5000    73.6540   107.4430    94.7550   100.7280    24.3300     2.2800   -22.6760 
  233.6250    74.6430   104.3790    92.1590    89.8670    24.2950     2.2810   -22.6090 
  233.7500    72.8090   103.8930    91.6770    89.9350    24.2830     2.2840   -22.5180 
  233.8750    71.9260   106.1400    93.5470    91.9240    24.3290     2.2890   -22.3980 
  234.0000    71.5330   110.6980    97.4920    90.3760    24.3920     2.2920   -22.2430 
  234.1250    69.2270   116.5220   102.7140    93.5810    24.3740     2.2920   -22.0610 
  234.2500    67.3370   121.7290   107.6070   105.8770    24.2960     2.2830   -21.8860 
  234.3750    68.5710   124.9060   110.9560   119.7650    24.4450     2.2690   -21.6370 
  234.5000    71.3340   125.2720   112.0260   126.1380    24.6250     2.2560   -21.3880 
  234.6250    71.2820   122.7470   110.5970   127.0190    24.7500     2.2490   -21.2170 
  234.7500    69.6710   119.0440   108.0020   122.9010    24.7800     2.2540   -20.9790 
  234.8750    67.8300   115.4140   105.2830   110.9290    24.6790     2.2650   -20.7780 
  235.0000    67.7650   112.4140   103.0330    98.9070    24.4510     2.2800   -20.4910 
  235.1250    70.7710   109.3620   101.0630    92.6390    24.0980     2.2930   -20.2900 
  235.2500    73.3190   105.5560    98.4930    95.2210    23.7750     2.3000   -19.9880 
  235.3750    71.7560   100.3920    94.6740   101.7260    23.5280     2.3020   -19.7450 
  235.5000    68.1000    94.9790    89.4800   101.4350    23.4350     2.3020   -19.4350 
  235.6250    68.8230    89.5430    83.3660    89.2920    23.4670     2.2990   -19.1610 
  235.7500    71.0160    86.0920    77.3890    77.6770    23.5920     2.2930   -18.8980 
  235.8750    71.4290    84.2070    72.2260    66.8480    23.8000     2.2860   -18.6220 
  236.0000    71.4870    80.5400    68.2220    62.4710    24.0630     2.2820   -18.4280 
  236.1250    72.8470    77.7330    65.6640    62.6310    24.3600     2.2830   -18.2790 
  236.2500    73.6700    76.5110    64.4090    63.4890    24.6240     2.2870   -18.2110 
  236.3750    72.5410    77.1850    64.6880    63.2640    24.7980     2.2900   -18.2040 
  236.5000    71.1400    80.2320    66.8910    63.2140    24.8680     2.2870   -18.2570 
  236.6250    69.1520    86.6230    71.8590    66.5000    24.8830     2.2780   -18.3120 
  236.7500    67.6560    95.9640    79.3160    75.1240    24.8920     2.2700   -18.3550 
  236.8750    68.0910   107.6630    88.7940    92.0630    24.9040     2.2680   -18.4160 
  237.0000    69.8710   120.4180    99.2100   111.1870    24.9140     2.2760   -18.4400 
  237.1250    70.5830   131.8720   108.6250   124.5410    24.8890     2.2950   -18.4590 
  237.2500    69.1070   139.9320   115.3600   130.5110    24.8360     2.3200   -18.3850 
  237.3750    67.9150   143.1480   118.3120   128.2370    24.7710     2.3420   -18.2660 
  237.5000    70.9520   140.9090   117.0490   119.5040    24.6510     2.3580   -18.0680 
  237.6250    77.2410   132.6140   111.1220   108.1540    24.4700     2.3650   -17.8220 
  237.7500    80.4170   120.2710   101.9970   100.3390    24.3810     2.3630   -17.6130 
  237.8750    80.2260   105.8670    91.0180   101.1570    24.4360     2.3580   -17.3360 
  238.0000    81.6290    92.0740    80.0890    95.4310    24.5880     2.3510   -17.0610 
  238.1250    85.8870    82.1780    71.7960    80.7370    24.6790     2.3410   -16.6350 
  238.2500    86.7950    76.9130    67.1210    65.7860    24.7160     2.3230   -16.2920 
  238.3750    82.8370    75.8570    66.0550    59.8820    24.7430     2.2980   -15.9030 
  238.5000    77.9800    77.3560    67.4770    64.1390    24.7700     2.2720   -15.5900 
  238.6250    75.1710    78.4400    69.0550    81.3130    24.7870     2.2510   -15.2070 
  238.7500    71.9070    76.3190    68.2120    90.6050    24.7840     2.2450   -14.8760 
  238.8750    67.7120    69.7840    63.6020    86.6080    24.7780     2.2540   -14.5590 
  239.0000    65.8180    59.5620    55.4720    73.0000    24.7760     2.2730   -14.2720 
  239.1250    71.5800    48.2240    45.7480    56.6500    24.7640     2.2950   -14.0180 
  239.2500    82.5580    38.6490    37.1660    40.1120    24.7300     2.3130   -13.7890 
  239.3750    91.6160    31.9190    30.9290    28.3120    24.6870     2.3240   -13.6290 
  239.5000    94.1090    28.0040    27.1730    22.4880    24.6620     2.3310   -13.5330 
  239.6250    92.5570    26.5830    25.7010    20.5720    24.6810     2.3350   -13.4810 
  239.7500    92.1030    26.5040    25.5180    20.3910    24.6760     2.3390   -13.4510 
  239.8750    93.1330    27.1350    26.0750    21.0230    24.6150     2.3400   -13.4710 
  240.0000    93.0240    27.9550    26.8850    21.8450    24.4880     2.3370   -13.5330 
  240.1250    91.2680    28.5670    27.5210    22.4940    24.3080     2.3290   -13.6630 
  240.2500    88.4770    28.9270    27.8590    22.6370    24.2080     2.3190   -13.8170 
  240.3750    86.8480    29.2360    28.0300    22.6360    24.2320     2.3090   -13.9390 
  240.5000    87.4120    29.8590    28.3350    23.0960    24.3130     2.3010   -14.0580 
  240.6250    87.2790    31.3700    29.2610    23.9950    24.3290     2.2960   -14.1860 
  240.7500    86.5600    33.9500    31.0170    25.2600    24.3030     2.2940   -14.2840 
  240.8750    86.9680    37.6900    33.7090    28.0360    24.2860     2.2940   -14.4180 
  241.0000    87.8680    42.5530    37.3270    32.9130    24.3100     2.2950   -14.4670 
  241.1250    86.9000    48.6170    41.9440    40.1900    24.3820     2.2940   -14.5720 
  241.2500    85.1460    55.6330    47.3470    46.9690    24.4540     2.2900   -14.5800 
  241.3750    83.0810    63.5090    53.4640    51.4290    24.5270     2.2840   -14.6010 
  241.5000    79.3060    72.0000    60.1250    56.2280    24.5620     2.2800   -14.5100 
  241.6250    73.7180    80.4060    66.8410    66.3250    24.4340     2.2780   -14.4730 
  241.7500    70.5330    87.6100    72.7400    80.7940    24.2910     2.2760   -14.3540 
  241.8750    72.1100    92.5190    76.9480    90.8830    24.2640     2.2740   -14.1440 
  242.0000    76.5530    94.4020    78.8370    94.6080    24.1890     2.2750   -13.9050 
  242.1250    78.4160    92.8820    78.0080    98.0190    23.9120     2.2870   -13.6080 
  242.2500    76.7240    89.4720    75.5600    97.8010    23.6840     2.3170   -13.3290 
  242.3750    75.5680    85.3640    72.4000    90.3370    23.7190     2.3600   -13.0860 
  242.5000    78.1590    81.4630    69.2770    88.6330    23.8490     2.4010   -12.9040 
  242.6250    82.1180    78.3070    66.6760    83.6220    23.6500     2.4210   -12.7990 
  242.7500    82.6010    75.7620    64.5640    78.7750    23.5590     2.4080   -12.7640 
  242.8750    79.5830    73.5820    62.7940    71.3550    23.5700     2.3790   -12.8250 
  243.0000    76.2720    71.4460    61.1300    64.1340    23.4150     2.3540   -12.9290 
  243.1250    76.5500    69.0690    59.3370    58.5790    23.5030     2.3510   -13.0590 
  243.2500    78.7380    66.5910    57.4670    59.0460    23.8180     2.3800   -13.1610 
  243.3750    80.3480    64.5190    55.8780    60.8650    24.1840     2.4230   -13.1940 
  243.5000    79.7470    63.6390    55.1610    59.3350    24.4040     2.4610   -13.1430 
  243.6250    79.1490    65.1110    56.2430    49.7710    24.2970     2.4790   -13.0220 
