~V
VERS. 2.00: Ver 2.00
~W
STRT.M 64.0000:
STOP.M 278.0000:
STEP.M 0.1250:
NULL. -999.2500:
UWI. DF3056:
~C
DEPT.M :
SP.MV :
GR.API :
CALI.CM :
RXO.OHMM :
RI. :
RML.OHMM :
DEN.GM/CC :
~A
# ...
  210.2500   -18.8830    87.0470    24.0740    10.1220     7.5660    10.4300     2.4780 
  210.3750   -19.0230    90.7380    24.2340    10.0280     7.6150    10.4300     2.4720 
  210.5000   -19.1600    91.2100    24.3390     9.3780     7.5520    10.3040     2.4490 
  210.6250   -19.3160    88.0080    24.3740     9.8250     7.3720    10.0650     2.4280 
  210.7500   -19.4860    85.4910    24.2370     9.6250     7.1330     9.7800     2.4140 
  210.8750   -19.6660    82.2380    24.1140     8.9790     6.8500     9.4730     2.4030 
  211.0000   -19.8740    78.0040    24.1270     8.7550     6.5910     9.2490     2.3960 
  211.1250   -20.1270    77.9670    24.3570     9.4320     6.5050     9.2850     2.3980 
  211.2500   -20.3920    80.8940    24.4150     9.8370     6.5970     9.5700     2.4000 
  211.3750   -20.6710    80.7680    24.4150    10.0640     6.8740    10.1170     2.3930 
  211.5000   -20.9530    77.0970    24.4020    10.2080     7.3480    10.9180     2.3780 
  211.6250   -21.2050    75.3340    24.4060    10.0480     7.9560    11.8000     2.3640 
  211.7500   -21.4200    76.6630    24.4220    10.5900     8.5170    12.5240     2.3540 
  211.8750   -21.6210    78.7760    24.4250    13.0110     8.9890    13.0740     2.3460 
  212.0000   -21.8200    78.9130    24.4090    15.0010     9.3940    13.5160     2.3400 
  212.1250   -22.0100    74.3560    24.3210    14.6970     9.7220    13.8810     2.3430 
  212.2500   -22.2040    70.0880    24.1540    12.8640    10.0710    14.3700     2.3510 
  212.3750   -22.4110    69.9200    24.1790    12.1670    10.6040    15.2060     2.3510 
  212.5000   -22.6370    73.0340    24.1080    12.6790    11.4140    16.4600     2.3350 
  212.6250   -22.9040    74.9650    23.9330    18.0140    12.5960    18.1990     2.3150 
  212.7500   -23.2100    74.1430    23.8510    25.7290    14.1720    20.4470     2.3050 
  212.8750   -23.5440    70.9570    23.4390    27.9270    16.0630    22.9840     2.3000 
  213.0000   -23.8880    66.4600    23.2410    23.4870    17.9770    25.3650     2.2970 
  213.1250   -24.2280    64.5070    23.3930    22.2060    19.7240    27.3050     2.3010 
  213.2500   -24.5490    66.0860    23.9400    27.5900    21.2860    28.8730     2.3080 
  213.3750   -24.8800    68.4450    24.4780    33.5810    22.6330    30.1440     2.2930 
  213.5000   -25.2420    68.3910    24.7010    35.4520    23.9130    31.5330     2.2430 
  213.6250   -25.6280    66.6810    24.7620    34.2260    25.8930    34.2920     2.1840 
  213.7500   -26.0290    66.2300    24.8830    30.7470    29.0670    38.6750     2.1570 
  213.8750   -26.4160    64.9480    25.0160    33.1920    33.5660    44.7060     2.1640 
  214.0000   -26.7970    60.6500    25.0910    52.0250    39.7210    52.6840     2.1830 
  214.1250   -27.1710    56.7500    25.0250    78.7330    48.0020    62.9020     2.1940 
  214.2500   -27.5350    57.0330    24.9740    80.5900    57.4760    74.0870     2.1990 
  214.3750   -27.8500    62.0510    24.9450    70.5520    67.0740    84.8540     2.2090 
  214.5000   -28.0900    67.5270    24.9130    71.6410    75.4350    93.5420     2.2290 
  214.6250   -28.2380    65.9430    24.7980    87.9200    80.8560    98.1030     2.2560 
  214.7500   -28.3190    59.0900    24.8500    91.9500    83.5790    99.4090     2.2810 
  214.8750   -28.3540    55.1960    24.8300    89.7910    85.2160    99.8750     2.3040 
  215.0000   -28.3650    58.8220    24.7690    93.4750    86.6390   100.1540     2.3340 
  215.1250   -28.3560    61.7580    24.7260    99.6420    87.3710    99.5510     2.3710 
  215.2500   -28.3440    59.5610    24.7170   105.4300    87.0100    97.8270     2.3900 
  215.3750   -28.3410    57.6170    24.7190   105.8760    85.4960    94.8630     2.3660 
  215.5000   -28.3650    60.9790    24.8120   104.8690    82.6350    90.4140     2.3020 
  215.6250   -28.4640    65.5020    24.9080   101.1210    78.1520    84.4130     2.2380 
  215.7500   -28.6090    66.0830    24.9430    93.0090    72.8700    77.8580     2.2090 
  215.8750   -28.7860    63.9260    24.9100    79.2030    67.7150    71.7150     2.2090 
  216.0000   -28.9570    61.4660    25.0090    62.2900    63.2020    66.5280     2.2180 
  216.1250   -29.1490    59.7920    25.1020    52.4350    60.0470    63.1040     2.2190 
  216.2500   -29.3500    59.1630    25.2520    49.5860    58.5480    61.4470     2.2140 
  216.3750   -29.5650    59.3530    25.1720    54.6650    58.5760    61.4520     2.2120 
  216.5000   -29.7740    59.0520    25.0220    63.4330    59.8810    62.8680     2.2260 
  216.6250   -29.9460    56.7830    24.8360    68.7280    62.4030    65.6500     2.2710 
  216.7500   -30.1000    55.8580    24.9090    66.3700    65.7290    69.2840     2.3230 
  216.8750   -30.2410    58.0560    24.6040    65.2760    69.5900    73.4320     2.3500 
  217.0000   -30.3960    60.9590    24.4630    71.6590    73.5990    77.6130     2.3330 
  217.1250   -30.5470    60.3340    24.4770    81.7000    77.2680    81.3300     2.2860 
  217.2500   -30.6860    58.1420    24.4580    85.2900    80.2660    84.3280     2.2400 
  217.3750   -30.7930    58.4280    24.4460    84.8030    82.5670    86.7350     2.2060 
  217.5000   -30.8780    60.4270    24.6720    85.5530    84.3190    88.6480     2.1830 
  217.6250   -30.9160    60.8820    24.7110    86.7920    85.6060    90.1950     2.1710 
  217.7500   -30.9210    60.6230    24.7440    86.6450    86.5950    91.5550     2.1640 
  217.8750   -30.9160    61.3770    24.8050    87.7650    87.5790    93.1000     2.1620 
  218.0000   -30.9090    61.9980    24.8210    91.3000    88.8590    95.1170     2.1660 
  218.1250   -30.8930    62.4330    24.7910    95.8690    90.7100    97.8210     2.1810 
  218.2500   -30.8810    64.4340    24.7400   100.9650    93.2360   101.1960     2.2000 
  218.3750   -30.8920    67.1290    24.8760    99.5160    96.6530   105.5160     2.2120 
  218.5000   -30.9450    67.6010    24.8180    96.1250   101.3680   111.3600     2.2120 
  218.6250   -31.0600    64.3070    24.8100    96.3890   108.0240   119.5810     2.1990 
  218.7500   -31.2110    61.1240    24.8050   104.6600   116.5630   129.9680     2.1780 
  218.8750   -31.3840    59.8480    24.7510   122.7980   126.6580   142.2740     2.1570 
  219.0000   -31.5740    59.0750    24.7280   149.2320   137.5080   155.5710     2.1460 
  219.1250   -31.7670    57.3890    24.7570   166.0660   147.5160   167.8930     2.1470 
  219.2500   -31.9730    56.1940    24.8060   171.0310   154.8740   176.8800     2.1580 
  219.3750   -32.1700    55.5970    24.7610   180.4710   158.3880   180.8480     2.1890 
  219.5000   -32.3300    54.1810    24.6430   193.9750   157.7200   179.2320     2.2410 
  219.6250   -32.4440    53.2670    24.4590   184.0220   152.8960   172.2820     2.2860 
  219.7500   -32.5160    53.5430    24.3400   156.8340   145.7270   162.7900     2.2960 
  219.8750   -32.5510    54.1360    24.4990   144.0070   137.4350   152.3900     2.2700 
  220.0000   -32.5430    54.1510    24.4500   137.8350   128.9920   142.1390     2.2290 
  220.1250   -32.5040    54.1690    24.4960   122.7160   120.7770   132.3960     2.1990 
  220.2500   -32.4150    54.1310    24.6030   119.2980   113.0610   123.3990     2.1910 
  220.3750   -32.2950    55.6230    24.6010   116.4150   106.0990   115.3850     2.2010 
  220.5000   -32.1410    60.4900    24.5190   101.7970    99.7450   108.3120     2.2180 
  220.6250   -31.9620    64.2920    24.4270    90.6530    93.9790   102.0360     2.2220 
  220.7500   -31.7630    63.0550    24.4430    85.8800    88.9740    96.6130     2.2150 
  220.8750   -31.5350    59.3120    24.4720    79.6960    84.8010    92.0690     2.2090 
  221.0000   -31.3050    57.2840    24.4850    74.0490    81.4040    88.3640     2.2110 
  221.1250   -31.0860    59.4190    24.4330    72.8550    78.9250    85.8780     2.2100 
  221.2500   -30.8810    62.4140    24.4240    71.9280    77.4060    84.4290     2.1980 
  221.3750   -30.7140    63.7120    24.4310    69.7970    76.6930    83.9230     2.1860 
