~V
VERS. 2.00: Ver 2.00
~W
STRT.M 85.0000:
STOP.M 235.0000:
STEP.M 0.1250:
NULL. -999.2500:
UWI. DF305:
~C
DEPT.M :
DEN.GM/CC :
SP.MV :
AC.US/MT :
GR.API :
CALI.CM :
RXO.OHMM :
RI. :
RML.OHMM :
~A
# ...
  105.0000     2.6640   -29.8590   239.7350    56.6660    25.2300    43.7220    23.6480    29.6260 
  105.1250     2.5980   -30.3640   258.9130    64.4680    25.1930    37.5930    19.2780    23.1270 
  105.2500     2.4980   -30.8720   292.5940    76.1900    24.9950    27.7090    14.9940    17.3690 
  105.3750     2.4010   -31.3520   329.8200    86.6650    24.6430    17.0600    11.6460    13.2460 
  105.5000     2.3420   -31.7690   352.3670    90.4770    24.3070    10.4620     9.4170    10.7880 
  105.6250     2.3290   -32.0800   351.9130    85.8190    24.1910     8.9920     8.2910     9.8620 
  105.7500     2.3260   -32.2840   349.7910    79.5880    24.1950     9.0100     7.8360     9.8150 
  105.8750     2.3160   -32.3650   361.5710    76.1100    24.1920     9.0600     7.7940    10.2190 
  106.0000     2.3000   -32.2990   385.4590    73.6180    24.1220     8.8310     7.8770    10.5670 
  106.1250     2.2860   -32.0650   407.0110    70.7050    24.0440     8.4940     7.7520    10.2670 
  106.2500     2.2820   -31.7140   420.0820    71.1950    24.0080     8.1640     7.3300     9.3540 
  106.3750     2.2920   -31.2900   427.6270    80.3820    24.0010     7.6970     6.7190     8.1890 
  106.5000     2.3110   -30.8290   432.7570    92.9700    24.0000     7.0130     6.1060     7.1630 
  106.6250     2.3120   -30.3860   434.9800    97.2040    23.9760     6.3070     5.6940     6.5770 
  106.7500     2.2820   -29.9750   434.0000    94.0760    23.9020     6.0940     5.5340     6.4270 
  106.8750     2.2380   -29.5790   431.1240    88.4060    23.8020     6.5120     5.6020     6.6430 
  107.0000     2.2120   -29.1950   428.7230    82.3270    23.7440     7.1510     5.8000     7.0480 
  107.1250     2.2290   -28.8120   429.1750    75.0140    23.7360     7.3500     5.9400     7.3280 
  107.2500     2.2710   -28.4200   432.1800    70.5750    23.7730     7.0640     5.8850     7.2550 
  107.3750     2.3140   -28.0280   436.3690    71.1710    23.9040     6.3570     5.6220     6.8270 
  107.5000     2.3350   -27.6700   439.6420    75.6120    24.2190     5.5030     5.2470     6.2390 
  107.6250     2.3330   -27.3650   439.2440    82.8350    24.7100     5.0080     4.9010     5.7530 
  107.7500     2.3270   -27.1110   435.3650    90.7070    25.0930     5.0450     4.6550     5.4590 
  107.8750     2.3240   -26.9410   429.9400    95.3110    25.2040     5.2910     4.5330     5.3570 
  108.0000     2.3160   -26.8890   425.2460    91.6730    25.2260     5.4900     4.5520     5.4470 
  108.1250     2.3030   -27.0120   421.1460    82.2530    25.2870     5.5800     4.7850     5.8160 
  108.2500     2.2950   -27.2760   412.9110    77.5190    25.3180     5.7160     5.2680     6.5300 
  108.3750     2.3000   -27.6450   394.7470    79.0960    25.3250     6.1040     6.0600     7.6920 
  108.5000     2.3120   -28.0780   364.3370    81.9520    25.2770     6.9350     7.1740     9.3310 
  108.6250     2.3120   -28.5600   328.4550    78.4220    25.1300     8.2220     8.4750    11.2300 
  108.7500     2.2870   -29.0510   303.9380    71.3070    24.9460     9.3530     9.5290    12.6790 
  108.8750     2.2470   -29.5470   302.9170    66.1640    24.8540     9.7490     9.9360    13.0090 
  109.0000     2.2110   -30.0300   326.9950    66.5570    24.7590     9.2820     9.5820    12.1120 
  109.1250     2.1980   -30.4730   365.5970    70.1140    24.5520     8.4230     8.7350    10.6030 
  109.2500     2.2020   -30.8660   399.7960    72.1640    24.3100     7.9200     7.8990     9.3210 
  109.3750     2.2130   -31.2090   421.7560    72.8090    24.1900     7.9380     7.2760     8.5210 
  109.5000     2.2260   -31.4940   432.1590    74.0560    24.1590     8.2840     6.9070     8.1750 
  109.6250     2.2400   -31.6930   435.2320    74.2860    24.1380     8.4990     6.7550     8.1390 
  109.7500     2.2510   -31.8420   435.7670    74.8280    24.1160     8.2830     6.6890     8.1680 
  109.8750     2.2590   -31.9320   435.0290    76.4890    24.1150     7.8560     6.6350     8.1420 
  110.0000     2.2640   -31.9700   433.8500    77.4900    24.1200     7.5060     6.5560     8.0270 
  110.1250     2.2660   -31.9850   432.9190    77.4280    24.0550     7.2620     6.4530     7.8590 
  110.2500     2.2660   -32.0010   432.2630    76.5310    23.9000     7.0800     6.3530     7.6990 
  110.3750     2.2650   -32.0200   431.7250    74.8160    23.7580     6.9450     6.2740     7.5730 
  110.5000     2.2630   -32.0560   431.3510    75.7890    23.7090     6.8580     6.2270     7.4980 
  110.6250     2.2630   -32.1200   431.3470    81.8250    23.7820     6.8300     6.2250     7.4930 
  110.7500     2.2670   -32.2020   431.4810    85.5910    23.9190     6.8620     6.2590     7.5500 
  110.8750     2.2710   -32.3070   431.4630    82.4900    24.0380     6.9280     6.3260     7.6620 
  111.0000     2.2650   -32.4280   431.1080    79.1520    24.0600     7.0110     6.4180     7.8100 
  111.1250     2.2380   -32.5570   430.1690    80.3640    24.0240     7.1220     6.5260     7.9750 
  111.2500     2.2010   -32.6900   428.7220    79.0580    23.9600     7.2730     6.6400     8.1360 
  111.3750     2.1690   -32.8270   427.2150    74.8060    23.8370     7.4380     6.7580     8.2930 
  111.5000     2.1520   -32.9580   426.3150    71.0970    23.6210     7.5560     6.8880     8.4590 
  111.6250     2.1560   -33.0860   426.1470    69.9520    23.3100     7.6190     7.0540     8.6820 
  111.7500     2.1740   -33.2050   425.3020    68.8530    23.1130     7.7660     7.2770     8.9970 
  111.8750     2.2000   -33.3150   423.6320    68.8340    23.0450     8.0540     7.5640     9.4190 
  112.0000     2.2300   -33.4220   421.9200    70.5360    23.0570     8.4360     7.8930     9.9120 
  112.1250     2.2570   -33.5210   417.7780    70.8710    23.1340     8.7890     8.2010    10.3730 
  112.2500     2.2720   -33.6230   415.0820    69.7950    23.2850     9.0430     8.4130    10.6740 
  112.3750     2.2710   -33.7390   414.2360    69.6470    23.4690     9.1520     8.4810    10.7290 
  112.5000     2.2570   -33.8730   413.9250    71.7730    23.6060     9.1280     8.4060    10.5380 
  112.6250     2.2410   -34.0040   413.5060    72.4160    23.7270     9.0790     8.2530    10.2190 
  112.7500     2.2310   -34.1480   413.7830    69.6810    23.9220     9.0760     8.1580     9.9970 
  112.8750     2.2350   -34.3090   414.7780    68.5080    24.1390     9.2410     8.2270    10.0400 
  113.0000     2.2730   -34.4830   414.2530    71.9870    24.2480     9.9200     8.5240    10.4380 
  113.1250     2.3600   -34.6570   404.7750    75.0040    24.2720    12.8520     9.0600    11.2070 
  113.2500     2.4580   -34.8190   382.0650    72.8130    24.2990    20.5270     9.6600    12.0780 
  113.3750     2.5110   -34.9620   351.6980    67.8790    24.3200    31.4920    10.1150    12.7290 
  113.5000     2.4870   -35.0870   330.7720    64.6720    24.2970    36.6060    10.2140    12.8300 
  113.6250     2.4020   -35.1920   339.0750    65.0150    24.1890    28.5340     9.8020    12.1510 
  113.7500     2.3250   -35.2950   367.1170    68.5400    24.0480    17.7260     9.1050    11.0690 
  113.8750     2.2840   -35.4060   397.6480    72.6230    23.9490    11.3030     8.3640     9.9850 
  114.0000     2.2750   -35.5390   418.2940    74.6240    23.9090     8.7470     7.7840     9.2080 
  114.1250     2.2700   -35.7080   426.3070    74.7400    23.9030     7.9410     7.5330     8.9560 
  114.2500     2.2490   -35.9290   428.6430    74.6970    23.8920     7.8080     7.5060     8.9870 
  114.3750     2.2210   -36.1820   428.5580    73.9290    23.8660     8.0280     7.5960     9.2300 
  114.5000     2.2010   -36.4600   427.0870    71.5270    23.7910     8.8130     7.8990     9.7900 
  114.6250     2.2020   -36.7460   424.6300    69.7160    23.7530     9.5950     8.3290    10.4700 
  114.7500     2.2160   -37.0060   422.2320    71.1590    23.7400     9.9370     8.7430    11.0460 
  114.8750     2.2320   -37.2240   420.5360    71.3830    23.7400    10.0390     9.0530    11.3940 
