~V
VERS. 2.00: Ver 2.00
~W
STRT.M 105.0000:
STOP.M 269.0000:
STEP.M 0.1250:
NULL. -999.2500:
UWI. DF304:
~C
DEPT.M :
GR.API :
CALI.CM :
RXO.OHMM :
RI. :
RML.OHMM :
SP.MV :
DEN.GM/CC :
AC.US/MT :
~A
# ...
  255.0000    86.8610    24.4790    26.2200    18.4750    22.1390   -17.3730     2.4350   260.6700 
  255.1250    88.7980    24.4780    22.6030    16.0100    18.9790   -17.3360     2.3980   275.7970 
  255.2500    89.5350    24.4770    16.0500    13.5920    15.8340   -17.3000     2.3740   296.6600 
  255.3750    88.9530    24.4740    10.9350    11.7030    13.4120   -17.2490     2.3630   315.7110 
  255.5000    87.5950    24.4730     9.1870    10.5140    11.9880   -17.1840     2.3670   326.4140 
  255.6250    86.1860    24.4700     9.5610    10.0760    11.6170   -17.0780     2.3870   330.7730 
  255.7500    85.4530    24.4680    10.1710    10.0750    11.7910   -16.9240     2.4070   331.2490 
  255.8750    85.3470    24.4650    10.2530    10.2200    12.0640   -16.6930     2.4070   328.9280 
  256.0000    86.2880    24.4610     9.8150    10.2000    12.0190   -16.3910     2.3890   326.0110 
  256.1250    87.9570    24.4600     9.1500     9.7690    11.3720   -15.9670     2.3720   328.7880 
  256.2500    89.7620    24.4600     8.3140     9.0660    10.3750   -15.4880     2.3660   341.9110 
  256.3750    91.4190    24.4580     7.3590     8.3020     9.3410   -14.9770     2.3620   363.1520 
  256.5000    92.1670    24.4570     6.5950     7.6680     8.5320   -14.4570     2.3520   381.2440 
  256.6250    93.8330    24.4570     6.5320     7.3020     8.1220   -13.9630     2.3430   387.0530 
  256.7500    96.9440    24.4570     6.7650     7.1500     8.0010   -13.4900     2.3480   380.7330 
  256.8750    97.5880    24.4570     7.0110     7.1360     8.0460   -13.0590     2.3610   369.3930 
  257.0000    94.1290    24.4570     7.0770     7.1670     8.1220   -12.6760     2.3740   361.7610 
  257.1250    89.5860    24.4570     6.9190     7.1510     8.1160   -12.3830     2.3810   359.0080 
  257.2500    88.2680    24.4570     6.7200     7.0590     8.0190   -12.1510     2.3810   358.3130 
  257.3750    89.6940    24.4570     6.6250     6.9050     7.8640   -11.9610     2.3790   358.2290 
  257.5000    90.8950    24.4570     6.4610     6.7120     7.6860   -11.8100     2.3770   361.0490 
  257.6250    92.1530    24.4570     6.1530     6.5030     7.5090   -11.7010     2.3750   367.2300 
  257.7500    91.4960    24.4570     5.8570     6.3120     7.3550   -11.6780     2.3710   373.7780 
  257.8750    90.7270    24.4570     5.7920     6.1710     7.2580   -11.7520     2.3700   376.6460 
  258.0000    90.7270    24.4570     5.9130     6.1070     7.2530   -11.9320     2.3750   373.4360 
  258.1250    90.7270    24.4570     6.1850     6.1500     7.3820   -12.2150     2.3770   366.9620 
  258.2500    90.7270    24.4570     6.6160     6.2980     7.6420   -12.5570     2.3680   359.5860 
  258.3750    90.7270    24.4570     7.2460     6.5590     8.0400   -12.9530     2.3550   352.0990 
  258.5000    90.7270    24.4570     7.8510     6.9360     8.5720   -13.3960     2.3480   342.6430 
  258.6250    90.7270    24.4570     8.8390     7.4380     9.2370   -13.8710     2.3530   329.9050 
  258.7500    90.7270    24.4570    10.4360     8.0220     9.9860   -14.3140     2.3720   315.0380 
  258.8750    90.7270    24.4570    11.8980     8.6530    10.7720   -14.7060     2.3940   301.3660 
  259.0000    90.7270    24.4570    12.2270     9.2870    11.5320   -15.0180     2.4090   293.0180 
  259.1250    90.7270    24.4570    11.8930     9.8600    12.1830   -15.2420     2.4110   289.7130 
  259.2500    90.7270    24.4570    12.2800    10.3380    12.7000   -15.3870     2.4040   289.8490 
  259.3750    90.7270    24.4570    13.2590    10.6980    13.0720   -15.4630     2.3960   291.4590 
  259.5000    90.7270    24.4470    14.0590    10.9180    13.2910   -15.4700     2.3930   292.5530 
  259.6250    90.7270    24.4180    14.2170    10.9350    13.2900   -15.3980     2.3940   292.1450 
  259.7500    90.7270    24.3790    13.9280    10.7450    13.0540   -15.3080     2.3940   291.3160 
  259.8750    90.7270    24.3440    13.7030    10.3420    12.5690   -15.1950     2.3850   293.6120 
  260.0000    90.7270    24.2790    13.1810     9.7730    11.8800   -15.0610     2.3650   303.5640 
  260.1250    90.7270    24.1090    11.3020     9.1440    11.1160   -14.8980     2.3430   317.6040 
  260.2500    90.7270    23.9370     9.2670     8.5930    10.4560   -14.7100     2.3320   328.9020 
  260.3750    90.7270    23.8110     8.0770     8.2000    10.0070   -14.4810     2.3320   332.2490 
  260.5000    90.7270    23.7340     7.9840     8.0040     9.8190   -14.2370     2.3370   328.0170 
  260.6250    90.7270    23.7140     8.5290     8.0280     9.8980   -14.0100     2.3420   323.1160 
  260.7500    90.7270    23.7070     9.0930     8.1820    10.1010   -13.7890     2.3470   321.1210 
  260.8750    90.7270    23.7070     9.7230     8.3890    10.3100   -13.5910     2.3540   322.4570 
  261.0000    90.7270    23.7070    10.1770     8.5780    10.4400   -13.4440     2.3570   325.9010 
  261.1250    90.7270    23.7070    10.1680     8.6930    10.4680   -13.3730     2.3510   329.5600 
  261.2500    90.7270    23.7070     9.7460     8.7420    10.4500   -13.3710     2.3410   332.5430 
  261.3750    90.7270    23.7060     9.5360     8.7460    10.4290   -13.4290     2.3380   334.7600 
  261.5000    90.7270    23.6950     9.5780     8.7280    10.4260   -13.5360     2.3410   336.8990 
  261.6250    90.7270    23.6640     9.5620     8.7120    10.4440   -13.6530     2.3460   339.2410 
  261.7500    90.7270    23.6270     9.2990     8.7060    10.4610   -13.7490     2.3550   341.5330 
  261.8750    90.7270    23.6120     9.0330     8.7100    10.4650   -13.8320     2.3740   344.5060 
  262.0000    90.7270    23.6090     8.9770     8.7140    10.4570   -13.8840     2.4000   351.1350 
  262.1250    90.7270    23.6090     8.3010     8.7120    10.4440   -13.8940     2.4210   361.7440 
  262.2500    90.7270    23.6090     7.2480     8.7040    10.4340   -13.8900     2.4210   373.0420 
  262.3750    90.7270    23.6090     6.3900     8.6920    10.4280   -13.8810     2.4060   379.3990 
  262.5000    90.7270    23.6090     6.2290     8.6800    10.4230   -13.8470     2.3880   375.1150 
  262.6250    90.7270    23.6050     6.7970     8.6660    10.4170   -13.8260     2.3770   363.3660 
  262.7500    90.7270    23.5700     7.5870     8.6520    10.4170   -13.8200     2.3760   349.8470 
  262.8750    90.7270    23.4920     8.3510     8.6400    10.4260   -13.8270     2.3770   340.1830 
  263.0000    90.7270    23.4330     8.8010     8.6360    10.4400   -13.8410     2.3740   336.6320 
  263.1250    90.7270    23.4140     8.6360     8.6430    10.4450   -13.9400     2.3680   334.6500 
  263.2500    90.7270    23.4140     8.5020     8.6580    10.4430   -14.0670     2.3650   331.4620 
  263.3750    90.7270    23.4140     8.8490     8.6740    10.4430   -14.1930     2.3670   328.5390 
  263.5000    90.7270    23.4140     9.6890     8.6870    10.4540   -14.3170     2.3690   331.5080 
  263.6250    90.7270    23.4140     9.5860     8.6910    10.4800   -14.4260     2.3650   341.2970 
  263.7500    90.7270    23.4090     8.5460     8.6870    10.5070   -14.5520     2.3490   354.4490 
  263.8750    90.7270    23.3830     7.5180     8.6850    10.5160   -14.6860     2.3300   365.6380 
  264.0000    90.7270    23.3090     7.2230     8.6850    10.5160   -14.8290     2.3140   370.4940 
  264.1250    90.7270    23.2150     7.4830     8.6850    10.5160   -14.8290     2.3080   370.6470 
  264.2500    90.7270    23.1470     7.8600     8.6850    10.5160   -14.8290     2.3140   368.7760 
  264.3750    90.7270    23.1230     8.2240     8.6850    10.5160  -999.2500     2.3250   367.1780 
  264.5000    90.7270    23.1210     8.4920     8.6850    10.5160  -999.2500     2.3350   366.4910 
  264.6250    90.7270    23.1210     8.6460     8.6850    10.5160  -999.2500     2.3410   365.3760 
  264.7500    90.7270    23.1210     8.8030     8.6850    10.5160  -999.2500     2.3430   363.3030 
  264.8750    90.7270    23.1210     9.1060     8.6850    10.5160  -999.2500     2.3440   361.2180 
