~V
VERS. 2.00: Ver 2.00
~W
STRT.M 57.0000:
STOP.M 272.0000:
STEP.M 0.1250:
NULL. -999.2500:
UWI. DF3050:
~C
DEPT.M :
SP.MV :
GR.API :
CALI.CM :
RXO.OHMM :
RI. :
RML.OHMM :
DEN.GM/CC :
~A
# ...
  237.0000   -15.3670    79.3190    24.2830    65.2450    38.7770    53.1100     2.2230 
  237.1250   -15.3960    76.1680    24.2360    64.9800    38.8250    52.6740     2.2230 
  237.2500   -15.3890    76.5080    24.2890    52.6300    38.1370    51.5640     2.2370 
  237.3750   -15.3900    78.0260    24.4060    48.6160    37.2540    50.4120     2.2560 
  237.5000   -15.3830    80.0530    24.3020    49.9540    36.4650    49.5450     2.2690 
  237.6250   -15.3720    80.8920    24.2660    45.5310    35.9590    49.0990     2.2780 
  237.7500   -15.3870    78.1620    24.4080    38.1410    35.9030    49.2470     2.2810 
  237.8750   -15.4060    75.2480    24.3280    37.5160    36.3120    50.0000     2.2750 
  238.0000   -15.4190    75.2290    24.2610    43.5330    37.1860    51.2920     2.2610 
  238.1250   -15.4150    78.4650    24.3980    47.1210    38.4270    52.9860     2.2500 
  238.2500   -15.4470    82.1320    24.3650    44.2830    40.1200    55.2710     2.2430 
  238.3750   -15.4760    84.7230    24.2630    42.1450    42.2810    58.1880     2.2340 
  238.5000   -15.4910    84.0630    24.3730    40.3020    44.8390    61.6020     2.2240 
  238.6250   -15.4760    79.6920    24.4230    41.7580    47.5380    65.0760     2.2200 
  238.7500   -15.4130    75.9600    24.3860    51.6780    49.8750    67.8680     2.2240 
  238.8750   -15.3450    75.8710    24.3510    63.3400    51.3900    69.3440     2.2300 
  239.0000   -15.2940    78.4280    24.4220    70.4140    51.8490    69.3210     2.2320 
  239.1250   -15.2990    79.5060    24.4220    66.7450    51.3370    67.9630     2.2290 
  239.2500   -15.3370    78.3750    24.3290    58.8580    50.1780    65.8990     2.2290 
  239.3750   -15.4150    77.3730    24.4640    53.5050    49.1420    64.2180     2.2320 
  239.5000   -15.4970    76.6120    24.5440    51.0220    48.7760    63.6180     2.2370 
  239.6250   -15.5550    75.1770    24.5260    49.9720    49.3570    64.3070     2.2370 
  239.7500   -15.5700    73.5740    24.5330    59.8420    50.8790    66.1480     2.2330 
  239.8750   -15.5610    75.0100    24.5180    71.6300    52.8080    68.2840     2.2280 
  240.0000   -15.5790    79.4970    24.4580    73.8720    54.6160    69.9290     2.2250 
  240.1250   -15.6160    82.4960    24.4220    65.0560    55.7020    70.4330     2.2260 
  240.2500   -15.6750    80.5740    24.4490    59.9000    55.8540    69.7800     2.2280 
  240.3750   -15.7170    77.3440    24.4600    60.4990    55.5260    68.7740     2.2270 
  240.5000   -15.7400    76.2480    24.4470    61.4690    55.0670    67.9280     2.2280 
  240.6250   -15.7810    78.4910    24.4740    60.0020    54.8870    67.8440     2.2410 
  240.7500   -15.8290    80.7160    24.4570    59.8590    55.9570    69.6090     2.2670 
  240.8750   -15.8870    79.6000    24.4400    56.5860    58.3810    72.9470     2.2960 
  241.0000   -15.9360    75.6960    24.4360    56.1610    61.6830    77.1580     2.3120 
  241.1250   -15.9700    73.1090    24.5010    62.8780    65.3240    81.4680     2.3010 
  241.2500   -15.9790    74.5830    24.5950    76.3410    68.3540    84.4210     2.2720 
  241.3750   -16.0030    76.5920    24.6930    88.6360    69.7640    84.8160     2.2370 
  241.5000   -16.0320    76.9700    24.5880   102.0730    69.0770    82.3370     2.2150 
  241.6250   -16.0430    77.7300    24.5170   103.2710    66.3650    77.3920     2.2120 
  241.7500   -16.0520    80.8940    24.4500    86.1100    62.0680    70.9720     2.2170 
  241.8750   -16.0370    82.5420    24.3690    65.2530    57.3720    64.6450     2.2200 
  242.0000   -16.0080    81.8020    24.3950    52.2950    52.9750    58.9910     2.2170 
  242.1250   -15.9760    83.3650    24.4070    50.0640    49.0920    54.0790     2.2170 
  242.2500   -15.9930    89.0830    24.4240    50.9210    45.8630    50.0460     2.2230 
  242.3750   -16.0220    92.3750    24.4340    50.6340    43.2330    46.7160     2.2310 
  242.5000   -16.0830    91.0080    24.4320    47.2780    41.0020    43.8380     2.2400 
  242.6250   -16.1410    88.6430    24.4160    43.9980    39.1150    41.4310     2.2450 
  242.7500   -16.1650    87.3630    24.3900    37.5260    37.6980    39.6290     2.2470 
  242.8750   -16.1770    84.9100    24.3950    31.5920    36.6200    38.2650     2.2440 
  243.0000   -16.1710    82.4420    24.4050    31.6350    35.8960    37.3600     2.2410 
  243.1250   -16.1830    82.1690    24.4170    35.2630    35.4400    36.7640     2.2420 
  243.2500   -16.1970    84.1310    24.3880    35.1080    34.9440    36.1000     2.2420 
  243.3750   -16.2350    85.6860    24.3380    34.2960    34.1930    35.2150     2.2410 
  243.5000   -16.2460    85.4330    24.3700    32.6200    33.3490    34.3560     2.2390 
  243.6250   -16.2500    85.8600    24.3060    31.2600    32.7440    33.8750     2.2410 
  243.7500   -16.2670    88.8080    24.3040    30.6880    32.7600    34.2690     2.2450 
  243.8750   -16.2690    93.5850    24.3660    29.2540    33.7220    35.9090     2.2530 
  244.0000   -16.2840    97.7040    24.3950    26.8080    35.8620    38.9440     2.2640 
  244.1250   -16.2750   100.3070    24.2900    24.7450    39.2090    43.2890     2.2750 
  244.2500   -16.2470   100.1530    24.0880    33.2020    43.6420    48.7680     2.2850 
  244.3750   -16.2380    96.1800    23.7000    47.4620    48.5460    54.7360     2.2950 
  244.5000   -16.2430    92.4090    23.4830    58.8870    53.3530    60.4880     2.3030 
  244.6250   -16.2380    91.1380    23.5680    57.9360    57.7380    65.6050     2.2980 
  244.7500   -16.2310    89.3930    23.9390    48.2930    61.8700    70.3100     2.2780 
  244.8750   -16.2050    85.6630    24.3340    48.1220    66.1830    75.2210     2.2540 
  245.0000   -16.1280    82.0100    24.4180    59.0220    70.9500    80.7040     2.2450 
  245.1250   -16.0250    81.0870    24.3930    66.8170    76.3370    87.1230     2.2560 
  245.2500   -15.8920    82.9810    24.4060    71.6740    82.2600    94.3490     2.2770 
  245.3750   -15.7560    86.2700    24.4060    80.1850    87.5650   100.7260     2.2980 
  245.5000   -15.6430    87.7800    24.4210    89.5540    90.5040   103.7030     2.3140 
  245.6250   -15.5610    85.1830    24.4460   101.0410    89.1210   100.8400     2.3130 
  245.7500   -15.4590    81.3020    24.4330   101.1420    82.8850    92.0470     2.2950 
  245.8750   -15.3080    79.7170    24.4350    96.4350    74.7310    81.6160     2.2740 
  246.0000   -15.1340    81.0040    24.4250    91.8310    66.5770    72.0330     2.2700 
  246.1250   -14.9390    84.1530    24.4080    82.7620    59.7900    64.7970     2.2960 
  246.2500   -14.7530    87.2180    24.3440    68.9290    56.2120    61.6890     2.3320 
  246.3750   -14.5610    88.8390    24.1900    54.4070    56.2870    62.5340     2.3620 
  246.5000   -14.4230    90.2260    24.3210    51.2990    59.9050    67.2120     2.3820 
  246.6250   -14.3050    90.7280    24.3850    66.4880    66.7940    75.5550     2.3950 
  246.7500   -14.1780    89.8180    24.2510    92.6630    76.3220    86.9940     2.3990 
  246.8750   -14.0540    90.9860    24.0600   121.8620    86.0840    98.7840     2.3900 
  247.0000   -13.9170    91.9140    24.2630   134.8690    94.3570   108.7750     2.3740 
  247.1250   -13.7860    89.9070    24.2250   121.9870    99.6380   114.8150     2.3680 
  247.2500   -13.6240    86.8980    24.0910    99.9780   100.6800   115.4270     2.3810 
  247.3750   -13.4570    84.7170    24.0850   101.8740    99.2040   113.4430     2.4110 
  247.5000   -13.2610    81.9330    24.0070   131.2760    98.1270   112.5420     2.4340 
  247.6250   -13.0600    78.4630    24.0300   139.5170    99.4970   114.7180     2.4240 
  247.7500   -12.8590    80.3730    24.2440   109.3360   104.6010   121.3060     2.3950 
  247.8750   -12.6420    83.2780    24.0580    82.0550   112.9600   131.5670     2.3740 
  248.0000   -12.4030    82.5060    23.9880    84.6560   122.2080   142.0920     2.3790 
  248.1250   -12.1390    79.6800    24.1100    99.4350   126.1980   143.5000     2.4230 
