~V
VERS. 2.00: Ver 2.00
~W
STRT.M 125.0000:
STOP.M 273.0000:
STEP.M 0.1250:
NULL. -999.2500:
UWI. DF3072:
~C
DEPT.M :
DEN.GM/CC :
GR.API :
CALI.CM :
RXO.OHMM :
RI. :
RML.OHMM :
SP.MV :
~A
# ...
  203.7500     2.4330    57.0630    27.0530     6.5130     6.1610     7.8040   -11.7970 
  203.8750     2.4360    53.2150    26.5420     6.0180     5.7810     7.2010   -11.4980 
  204.0000     2.4460    51.0290    25.9780     5.7700     5.5500     6.9360   -11.1990 
  204.1250     2.4540    51.3590    25.7950     5.5080     5.4660     6.9400   -10.9180 
  204.2500     2.4600    50.8950    25.7040     5.2790     5.4540     7.0240   -10.6870 
  204.3750     2.4640    49.6660    25.5240     5.2010     5.4650     7.0820   -10.5160 
  204.5000     2.4640    50.5370    25.3170     5.2740     5.4750     7.0720   -10.4140 
  204.6250     2.4560    53.1130    25.2020     5.3950     5.4860     7.0080   -10.3710 
  204.7500     2.4500    57.0770    25.1990     5.4850     5.5090     6.9400   -10.3600 
  204.8750     2.4490    64.7220    25.2770     5.5490     5.5460     6.8920   -10.3780 
  205.0000     2.4580    74.2950    25.3950     5.6150     5.5960     6.8730   -10.4180 
  205.1250     2.4740    80.9010    25.4710     5.7050     5.6510     6.8970   -10.4780 
  205.2500     2.4870    84.4230    25.4890     5.8070     5.7060     6.9670   -10.5420 
  205.3750     2.4920    87.6020    25.5040     5.8930     5.7560     7.0750   -10.6060 
  205.5000     2.4900    90.6900    25.5510     5.9620     5.7950     7.1810   -10.6650 
  205.6250     2.4870    90.4890    25.5980     6.0820     5.8040     7.2060   -10.7180 
  205.7500     2.4850    86.3210    25.6210     6.2560     5.7710     7.1160   -10.7680 
  205.8750     2.4770    80.9860    25.6510     6.3630     5.6870     6.9140   -10.8340 
  206.0000     2.4630    78.9640    25.6930     6.2950     5.5560     6.6450   -10.9220 
  206.1250     2.4460    82.5670    25.7190     6.1040     5.4100     6.3980   -11.0490 
  206.2500     2.4320    89.0330    25.7320     5.9700     5.3050     6.2620   -11.2330 
  206.3750     2.4240    94.4320    25.7360     6.0020     5.2900     6.3030   -11.4660 
  206.5000     2.4200    97.8030    25.7280     6.3050     5.4050     6.5630   -11.7500 
  206.6250     2.4130    98.5290    25.7280     7.0430     5.6980     7.0930   -12.1080 
  206.7500     2.4060    96.2470    25.7400     8.0330     6.1460     7.8340   -12.4840 
  206.8750     2.4010    93.5300    25.7430     8.9220     6.7100     8.6990   -12.8550 
  207.0000     2.4000    91.1170    25.7280     9.4920     7.3050     9.5300   -13.2100 
  207.1250     2.4010    88.9840    25.7040    10.0580     7.7900    10.1000   -13.5200 
  207.2500     2.4000    85.8330    25.6750    10.8050     8.1100    10.3780   -13.8000 
  207.3750     2.4040    82.6990    25.6420    11.1610     8.2870    10.4510   -14.0470 
  207.5000     2.4190    80.8320    25.6140    10.9140     8.4160    10.5210   -14.2570 
  207.6250     2.4440    79.5790    25.6060    11.3850     8.7020    10.9580   -14.4440 
  207.7500     2.4680    80.3810    25.6060    13.7990     9.3310    12.0050   -14.6490 
  207.8750     2.4840    81.0770    25.6100    17.9190    10.4970    13.8870   -14.9060 
  208.0000     2.4890    78.8100    25.6160    23.1820    12.4170    16.8420   -15.2390 
  208.1250     2.4820    72.8640    25.6260    30.3320    15.4780    21.2780   -15.6670 
  208.2500     2.4730    66.8950    25.6310    38.9130    19.4930    26.7950   -16.1630 
  208.3750     2.4610    65.2400    25.6260    45.7980    24.0120    32.6420   -16.7170 
  208.5000     2.4380    67.8430    25.6130    48.9490    28.3570    37.8490   -17.3050 
  208.6250     2.3940    72.6530    25.6060    49.3070    32.0620    41.9180   -17.9070 
  208.7500     2.3490    76.1270    25.6110    49.4060    35.6930    45.9410   -18.4900 
  208.8750     2.3190    75.4000    25.6120    51.6440    40.3020    51.4200   -19.0150 
  209.0000     2.2990    70.2210    25.5770    61.8660    47.0060    59.7820   -19.4530 
  209.1250     2.2740    64.8010    25.5230    89.2730    56.4070    71.9030   -19.7680 
  209.2500     2.2430    63.7730    25.5700   120.2820    66.2980    84.8290   -19.9930 
  209.3750     2.2180    64.7780    25.7400   133.8080    73.6460    93.9710   -20.1480 
  209.5000     2.2100    65.6410    25.8950   122.1890    76.1630    95.9400   -20.2520 
  209.6250     2.2140    67.5420    25.8650    99.1040    73.8980    91.8400   -20.3250 
  209.7500     2.2220    70.5710    25.7380    82.6030    70.6410    87.4390   -20.3990 
  209.8750     2.2300    72.1430    25.6810    80.9400    68.8050    85.5150   -20.4890 
  210.0000     2.2390    70.6260    25.7650    93.5780    69.2520    86.5890   -20.6100 
  210.1250     2.2470    67.0070    25.9110   107.6050    71.4590    89.5720   -20.7730 
  210.2500     2.2480    66.3050    25.9820   110.0010    73.6850    92.1060   -20.9450 
  210.3750     2.2380    70.6880    25.9520   101.9450    74.9650    93.0040   -21.1220 
  210.5000     2.2200    75.5800    25.8850    91.5600    75.2920    92.6090   -21.2850 
  210.6250     2.2040    73.8640    25.8500    85.8020    75.9200    92.9450   -21.4270 
  210.7500     2.1960    68.1860    25.8450    88.0110    78.4240    95.9120   -21.5560 
  210.8750     2.1950    64.3510    25.8500    99.1900    83.6680   102.3200   -21.6600 
  211.0000     2.1950    64.7230    25.8480   115.9000    91.4410   111.6670   -21.7380 
  211.1250     2.1940    67.4210    25.8640   131.2080   100.0060   121.3670   -21.8160 
  211.2500     2.1930    68.2210    25.8970   140.0880   106.2810   127.2130   -21.8780 
  211.3750     2.1960    66.8080    25.9250   138.9520   108.1970   126.7660   -21.9380 
  211.5000     2.2000    66.0070    25.9300   126.7130   105.7590   121.1330   -22.0110 
  211.6250     2.2040    67.3820    25.8950   108.8060   101.2190   114.4180   -22.0750 
  211.7500     2.2070    67.4700    25.8110    96.3140    97.9070   110.2740   -22.1430 
  211.8750     2.2100    64.8310    25.6960    94.6210    97.2120   109.6210   -22.2210 
  212.0000     2.2150    62.2090    25.6160   102.8400    98.8600   111.5840   -22.2880 
  212.1250     2.2220    63.1870    25.6430   112.6390   100.6090   112.9060   -22.3620 
  212.2500     2.2290    66.0160    25.7180   112.4290    98.9190   108.9880   -22.4550 
  212.3750     2.2330    68.3730    25.7610    98.7840    91.4850    97.5820   -22.5510 
  212.5000     2.2360    71.1570    25.7390    77.8740    78.9350    81.2680   -22.6680 
  212.6250     2.2410    77.0590    25.6940    58.7270    65.2510    66.2260   -22.8330 
  212.7500     2.2510    82.6680    25.6730    43.4730    54.7670    56.0750   -23.0310 
  212.8750     2.2680    83.5680    25.6460    33.3130    49.4000    51.7350   -23.3000 
  213.0000     2.2870    79.6620    25.5750    31.0490    50.2350    53.5450   -23.6510 
  213.1250     2.3070    76.8930    25.4690    45.5420    60.4410    63.8920   -24.0650 
  213.2500     2.3190    75.4920    25.3580    87.0720    81.6780    84.4140   -24.5300 
  213.3750     2.3040    73.1900    25.2580   150.3460   116.4810   119.1900   -25.0240 
  213.5000     2.2540    70.8880    25.2560   197.8460   163.8350   170.9670   -25.5040 
  213.6250     2.1970    69.2490    25.4810   201.6280   211.1360   228.7820   -25.9420 
  213.7500     2.1780    66.4210    25.8120   189.9480   237.4970   261.0570   -26.3110 
  213.8750     2.1970    63.4570    26.0170   177.4890   235.4500   256.8370   -26.5860 
  214.0000     2.2250    63.5390    25.9200   160.7630   215.0780   233.5350   -26.7800 
  214.1250     2.2330    67.6480    25.5780   143.8250   192.3940   211.6040   -26.8810 
  214.2500     2.2270    70.0960    25.2730   133.1320   176.2160   197.9270   -26.9530 
  214.3750     2.2200    70.0490    25.1120   129.6510   167.9130   192.6750   -27.0260 
  214.5000     2.2180    68.2650    25.0810   132.6480   166.4400   194.2240   -27.1140 
  214.6250     2.2200    64.8760    25.1650   143.1640   170.0530   200.2480   -27.2310 
  214.7500     2.2180    63.3860    25.3400   155.7280   175.1420   206.7370   -27.3800 
  214.8750     2.2060    64.7530    25.5090   163.4040   179.5200   211.4220   -27.5590 
