~V
VERS. 2.00: Ver 2.00
~W
STRT.M 110.0000:
STOP.M 277.0000:
STEP.M 0.1250:
NULL. -999.2500:
UWI. DF3015:
~C
DEPT.M :
DEN.GM/CC :
SP.MV :
AC.US/MT :
GR.API :
CALI.CM :
RXO.OHMM :
RI. :
RML.OHMM :
~A
# ...
  230.0000     2.3130   -24.7180   340.1590    60.6630    25.1220    87.6260    82.9220    92.5540 
  230.1250     2.3720   -24.0990   321.9150    59.2800    25.1220    90.8070    83.6770    92.7310 
  230.2500     2.4310   -23.3890   303.1250    62.4930    25.1220    89.6120    82.3810    90.1030 
  230.3750     2.4550   -22.5990   289.2170    69.3870    25.1220    83.7360    78.0740    83.6760 
  230.5000     2.4320   -21.7520   284.6040    71.6520    25.1220    74.3740    70.8750    74.1660 
  230.6250     2.3900   -20.8530   291.5830    68.2380    25.1220    61.1060    62.0460    63.7280 
  230.7500     2.3710   -19.9330   304.8080    64.1860    25.1220    46.9220    53.5920    54.4440 
  230.8750     2.3730   -18.9890   319.7710    63.2300    25.1220    36.7100    46.4870    47.0240 
  231.0000     2.3750   -18.0880   333.4500    64.6440    25.1220    33.3500    41.0470    41.5110 
  231.1250     2.3620   -17.3100   344.7410    67.6190    25.1220    33.6040    37.3580    37.8570 
  231.2500     2.3440   -16.7020   354.3460    68.9570    25.1220    32.4650    34.8580    35.4330 
  231.3750     2.3200   -16.2810   361.8590    66.7870    25.1220    29.5490    33.2960    33.9620 
  231.5000     2.2880   -16.0080   365.7040    65.5930    25.1220    27.4360    32.3940    33.1420 
  231.6250     2.2680   -15.8790   363.0500    68.5890    25.1220    27.9040    31.8230    32.6150 
  231.7500     2.2820   -15.8230   354.9200    72.7920    25.1210    29.3780    31.2230    32.0070 
  231.8750     2.3230   -15.8230   344.2240    75.1550    25.0930    30.2330    30.4960    31.2270 
  232.0000     2.3630   -15.8600   335.6780    77.2280    25.0060    28.9820    29.7320    30.4020 
  232.1250     2.3850   -15.9260   334.8670    78.3900    24.8390    26.2580    29.2400    29.9360 
  232.2500     2.3880   -15.9640   341.3720    77.6370    24.7510    24.7950    29.2920    30.1630 
  232.3750     2.3700   -15.9480   351.9960    74.0450    24.7250    26.6170    30.0520    31.2620 
  232.5000     2.3330   -15.8800   362.0670    69.4190    24.7230    30.6450    31.4710    33.1360 
  232.6250     2.2970   -15.7190   367.1350    65.8530    24.7230    34.1650    33.1770    35.2890 
  232.7500     2.2800   -15.4950   367.7860    64.6850    24.7230    35.9300    34.4100    36.7960 
  232.8750     2.2840   -15.2040   366.4480    66.0670    24.7300    36.0450    34.5640    36.9550 
  233.0000     2.3090   -14.8810   365.9620    68.6860    24.7790    35.3890    33.4610    35.6330 
  233.1250     2.3400   -14.5700   368.5190    71.5790    24.9090    33.9010    31.4700    33.3890 
  233.2500     2.3560   -14.3140   373.2020    72.7940    25.0520    31.0260    29.5020    31.3050 
  233.3750     2.3480   -14.0870   378.2220    70.9070    25.1130    27.5820    28.0710    29.9330 
  233.5000     2.3200   -13.8610   381.8320    67.9250    25.1210    26.0340    27.3950    29.4560 
  233.6250     2.2880   -13.6510   383.1560    65.3260    25.1180    28.0710    27.4950    29.8040 
  233.7500     2.2660   -13.4620   383.3930    64.7310    25.1140    30.2170    27.9310    30.4080 
  233.8750     2.2560   -13.3220   383.4140    65.2570    25.1170    30.4170    28.3290    30.8210 
  234.0000     2.2560   -13.1900   383.4940    63.0350    25.1200    28.9650    28.3920    30.7520 
  234.1250     2.2640   -13.0100   383.3770    59.1040    25.1210    27.1640    27.9640    30.1240 
  234.2500     2.2730   -12.7700   383.0080    58.1750    25.1180    25.6250    27.2540    29.2480 
  234.3750     2.2810   -12.5050   382.6780    60.4340    25.1150    24.9910    26.4280    28.3190 
  234.5000     2.2830   -12.2370   382.7000    62.3040    25.1140    25.2590    25.5830    27.4120 
  234.6250     2.2770   -12.0070   383.2150    63.3620    25.1150    25.4240    24.7540    26.5270 
  234.7500     2.2680   -11.8010   383.9190    64.6750    25.1160    24.2520    23.9650    25.6770 
  234.8750     2.2690   -11.6250   384.5420    65.3280    25.1140    22.4440    23.2730    24.9380 
  235.0000     2.2820   -11.4990   384.9720    64.4580    25.1130    21.4950    22.7430    24.3910 
  235.1250     2.2950   -11.4120   385.1770    63.9250    25.1130    21.9260    22.4320    24.0900 
  235.2500     2.2960   -11.3450   385.0390    64.6250    25.1130    22.5290    22.2610    23.9200 
  235.3750     2.2900   -11.2720   384.2470    66.1150    25.1130    22.5620    22.1430    23.7690 
  235.5000     2.2900   -11.2040   382.5770    67.5380    25.1130    22.1190    21.9940    23.5460 
  235.6250     2.3060   -11.1530   380.2970    67.3170    25.1020    21.2650    21.7650    23.2260 
  235.7500     2.3290   -11.1500   378.4560    65.8270    25.0770    20.4520    21.5220    22.9250 
  235.8750     2.3450   -11.1520   377.8550    65.3250    25.0510    20.2630    21.3440    22.7500 
  236.0000     2.3430   -11.1230   378.6670    66.8740    25.0380    20.6600    21.2620    22.7190 
  236.1250     2.3190   -11.1200   380.3000    69.0790    25.0340    21.1930    21.2280    22.7420 
  236.2500     2.2890   -11.1470   381.6480    69.8690    25.0170    21.0770    21.1240    22.6480 
  236.3750     2.2660   -11.2090   382.2290    70.5580    24.9320    20.0260    20.8370    22.2920 
  236.5000     2.2550   -11.2710   382.0670    71.8680    24.7240    18.1970    20.2820    21.5910 
  236.6250     2.2610   -11.2810   381.4050    71.5930    24.5100    16.6120    19.4510    20.5780 
  236.7500     2.2750   -11.2670   380.5890    69.6230    24.4230    15.7040    18.5620    19.5370 
  236.8750     2.2920   -11.2890   379.7770    67.7950    24.4280    15.1050    17.8360    18.7320 
  237.0000     2.3070   -11.3380   379.0860    65.9650    24.5580    14.7100    17.4740    18.3960 
  237.1250     2.3180   -11.3040   378.6410    62.8770    24.8850    15.0730    17.6660    18.7200 
  237.2500     2.3220   -11.1940   378.4740    61.4460    25.2040    16.3780    18.2310    19.4360 
  237.3750     2.3180   -11.0780   378.6710    64.5480    25.3330    18.2190    18.8640    20.1440 
  237.5000     2.3070   -10.9960   379.3030    69.0710    25.3490    19.5510    19.1540    20.3620 
  237.6250     2.3000   -10.9230   379.8620    73.2050    25.3490    18.6880    18.7030    19.6830 
  237.7500     2.3040   -10.8110   378.6080    78.1380    25.3490    16.2640    17.7690    18.5030 
  237.8750     2.3180   -10.6330   373.4030    83.5340    25.3490    13.8840    16.7720    17.3640 
  238.0000     2.3340   -10.4320   363.3300    83.6230    25.3490    13.1550    16.0790    16.6930 
  238.1250     2.3540   -10.2680   350.7920    77.0480    25.3490    14.7360    15.9040    16.6900 
  238.2500     2.3810   -10.0960   342.0590    68.7260    25.3490    17.8970    16.0450    17.0210 
  238.3750     2.4040    -9.8450   341.5580    66.2790    25.3490    20.1070    16.2350    17.3170 
  238.5000     2.4040    -9.5260   349.9050    68.7820    25.3490    19.1500    16.2320    17.2880 
  238.6250     2.3700    -9.2110   363.4280    71.0090    25.3490    16.1980    15.9950    16.9590 
  238.7500     2.3250    -8.9260   375.3820    70.4270    25.3490    14.5640    15.8380    16.7900 
  238.8750     2.2880    -8.7010   382.8230    67.5340    25.3490    14.6410    16.0660    17.1690 
  239.0000     2.2660    -8.4990   385.6310    64.2600    25.3490    16.0910    16.8880    18.3030 
  239.1250     2.2560    -8.2880   384.2170    60.6430    25.3490    19.6750    18.3970    20.2030 
  239.2500     2.2520    -8.1510   379.9840    58.4360    25.3490    23.2460    20.1850    22.3000 
  239.3750     2.2520    -8.1490   373.0590    61.3830    25.3490    25.1430    21.8160    24.0650 
  239.5000     2.2570    -8.2110   363.9680    65.8600    25.3490    25.2870    23.0160    25.2420 
  239.6250     2.2800    -8.3420   354.5680    68.6120    25.3490    24.4000    23.8720    26.0540 
  239.7500     2.3210    -8.5260   347.4340    70.1580    25.3490    23.8160    24.8400    27.0860 
  239.8750     2.3540    -8.6960   343.1440    70.5370    25.3490    25.0350    26.2830    28.7440 
