~V
VERS. 2.00: Ver 2.00
~W
STRT.M 56.0000:
STOP.M 296.0000:
STEP.M 0.1250:
NULL. -999.2500:
UWI. DF301:
~C
DEPT.M :
DEN.GM/CC :
SP.MV :
AC.US/MT :
GR.API :
CALI.CM :
RXO.OHMM :
RI. :
RML.OHMM :
~A
# ...
   96.0000  -999.2500   -16.2700  -999.2500    71.2280    23.4590     9.6860     7.2350     9.0240 
   96.1250  -999.2500   -15.8460  -999.2500    71.5920    23.4560     9.6240     7.2770     9.1650 
   96.2500  -999.2500   -15.4890  -999.2500    70.5300    23.4810     9.6200     7.3730     9.3940 
   96.3750  -999.2500   -15.2220  -999.2500    70.9420    23.5100     9.8580     7.5120     9.6730 
   96.5000  -999.2500   -15.0230  -999.2500    73.0720    23.5120    10.2380     7.6670     9.9410 
   96.6250  -999.2500   -14.9280  -999.2500    74.3300    23.4930    10.6250     7.7920    10.1270 
   96.7500  -999.2500   -14.9510  -999.2500    71.9690    23.4860    10.8470     7.8400    10.1570 
   96.8750  -999.2500   -15.0480  -999.2500    68.5330    23.4620    10.8210     7.8200    10.0650 
   97.0000  -999.2500   -15.2270  -999.2500    65.9140    23.3950    10.4500     7.7580     9.9120 
   97.1250  -999.2500   -15.3870  -999.2500    65.1600    23.3000    10.0040     7.6970     9.7790 
   97.2500  -999.2500   -15.5700  -999.2500    68.9170    23.2110    10.1560     7.7020     9.7610 
   97.3750  -999.2500   -15.8010  -999.2500    73.7590    23.1640    10.5760     7.8060     9.8870 
   97.5000  -999.2500   -16.1050  -999.2500    75.2970    23.1920    10.9050     8.0160    10.1610 
   97.6250  -999.2500   -16.3700  -999.2500    73.9380    23.2490    10.9790     8.3110    10.5380 
   97.7500  -999.2500   -16.5880  -999.2500    71.5230    23.2810    11.4130     8.6230    10.9060 
   97.8750  -999.2500   -16.8230  -999.2500    68.5700    23.2540    12.8870     8.8390    11.1130 
   98.0000  -999.2500   -17.0420  -999.2500    66.0650    23.2060    14.7000     8.8600    11.0500 
   98.1250  -999.2500   -17.3010  -999.2500    66.0510    23.2310    14.8120     8.6390    10.6890 
   98.2500  -999.2500   -17.5390  -999.2500    68.2360    23.3470    12.7430     8.1920    10.0880 
   98.3750  -999.2500   -17.7410  -999.2500    69.0890    23.4150    10.7470     7.6770     9.4500 
   98.5000  -999.2500   -17.8990  -999.2500    67.6180    23.4120     9.6270     7.2100     8.9220 
   98.6250  -999.2500   -18.0450  -999.2500    65.2860    23.5190     9.0430     6.8720     8.6040 
   98.7500  -999.2500   -18.1870  -999.2500    65.9600    23.5960     8.8440     6.7240     8.5620 
   98.8750  -999.2500   -18.2580  -999.2500    68.1940    23.6490     8.9600     6.7290     8.7160 
   99.0000  -999.2500   -18.2520  -999.2500    68.8260    23.6570     9.2690     6.8490     8.9820 
   99.1250  -999.2500   -18.1420  -999.2500    69.5110    23.6540     9.5660     7.0210     9.2470 
   99.2500  -999.2500   -17.9170  -999.2500    73.1940    23.6600     9.7370     7.1350     9.3510 
   99.3750  -999.2500   -17.5950  -999.2500    76.2160    23.6660     9.7230     7.1120     9.2290 
   99.5000  -999.2500   -17.1720  -999.2500    74.6500    23.6700     9.4920     6.9440     8.8940 
   99.6250  -999.2500   -16.7190  -999.2500    71.7800    23.6890     9.0840     6.6940     8.4460 
   99.7500  -999.2500   -16.2470  -999.2500    74.4570    23.6890     8.4820     6.4810     8.0710 
   99.8750  -999.2500   -15.8460  -999.2500    80.2270    23.6310     8.1720     6.3990     7.9120 
  100.0000  -999.2500   -15.5370  -999.2500    83.4880    23.5490     8.4140     6.4950     8.0300 
  100.1250  -999.2500   -15.2320  -999.2500    81.2450    23.5120     9.0250     6.7670     8.3960 
  100.2500  -999.2500   -15.0410  -999.2500    75.8020    23.4920     9.6380     7.1620     8.8890 
  100.3750  -999.2500   -14.9380  -999.2500    71.6550    23.4420     9.8220     7.5240     9.2840 
  100.5000  -999.2500   -14.8100  -999.2500    69.4100    23.3760     9.7440     7.6960     9.4060 
  100.6250  -999.2500   -14.5720  -999.2500    68.0220    23.3310     9.5110     7.5690     9.1640 
  100.7500  -999.2500   -14.2440  -999.2500    65.8420    23.2820     9.0230     7.1090     8.5630 
  100.8750  -999.2500   -13.7770  -999.2500    65.0920    23.2400     8.3410     6.4990     7.8320 
  101.0000  -999.2500   -13.2710  -999.2500    68.8990    23.2490     7.5290     5.8860     7.1470 
  101.1250  -999.2500   -12.9110  -999.2500    75.7030    23.3150     6.8290     5.3860     6.6310 
  101.2500  -999.2500   -12.6550  -999.2500    80.8690    23.4020     6.5920     5.0840     6.3610 
  101.3750  -999.2500   -12.5550  -999.2500    83.1720    23.4720     6.6520     4.9560     6.2940 
  101.5000  -999.2500   -12.6970  -999.2500    82.0180    23.5160     6.9580     5.0070     6.4410 
  101.6250  -999.2500   -13.0210  -999.2500    77.9770    23.5640     7.4460     5.2840     6.8710 
  101.7500  -999.2500   -13.4230  -999.2500    74.1090    23.6680     7.8750     5.9240     7.7730 
  101.8750  -999.2500   -13.8870  -999.2500    70.6330    23.7860     8.1660     6.9480     9.1440 
  102.0000  -999.2500   -14.2980  -999.2500    65.9810    23.8570     8.5540     8.3370    10.8530 
  102.1250  -999.2500   -14.6180  -999.2500    60.9450    23.8030     9.0420     9.8790    12.5020 
  102.2500  -999.2500   -14.8410  -999.2500    61.2450    23.6820     9.5600    10.9600    13.3370 
  102.3750  -999.2500   -14.9410  -999.2500    63.2410    23.5430     9.8960    11.1410    13.1030 
  102.5000  -999.2500   -14.9100  -999.2500    63.2420    23.3870     9.9800    10.4720    12.0000 
  102.6250  -999.2500   -14.8120  -999.2500    63.3450    23.1810     9.9240     9.3960    10.5740 
  102.7500  -999.2500   -14.6550  -999.2500    65.6260    23.0190     9.8910     8.4140     9.4310 
  102.8750  -999.2500   -14.4750  -999.2500    66.9800    23.0000     9.9360     7.7430     8.7600 
  103.0000  -999.2500   -14.3350  -999.2500    66.8070    23.1640     9.9650     7.3910     8.4980 
  103.1250  -999.2500   -14.1000  -999.2500    68.1050    23.3070     9.8330     7.2840     8.4950 
  103.2500  -999.2500   -13.7690  -999.2500    71.6780    23.2920     9.4900     7.3360     8.6110 
  103.3750  -999.2500   -13.3700  -999.2500    72.1580    23.2490     9.1990     7.4380     8.7280 
  103.5000  -999.2500   -12.8590  -999.2500    70.5870    23.2140     9.1140     7.5290     8.7880 
  103.6250  -999.2500   -12.2060  -999.2500    70.9150    23.1810     9.1740     7.5480     8.7290 
  103.7500  -999.2500   -11.4230  -999.2500    73.2290    23.2140     9.0200     7.3950     8.4510 
  103.8750  -999.2500   -10.5730  -999.2500    77.4530    23.4140     8.4180     7.0580     7.9710 
  104.0000  -999.2500    -9.6110  -999.2500    83.9930    23.7040     7.5200     6.5780     7.3640 
  104.1250  -999.2500    -8.6560  -999.2500    90.7040    23.9920     6.6440     6.0530     6.7590 
  104.2500  -999.2500    -7.7050  -999.2500    92.4700    24.1560     6.1430     5.6140     6.3280 
  104.3750  -999.2500    -6.7780  -999.2500    90.8390    24.2370     5.8960     5.3170     6.1220 
  104.5000  -999.2500    -6.0050  -999.2500    91.7150    24.3090     5.9380     5.1690     6.1190 
  104.6250  -999.2500    -5.4100  -999.2500    95.9020    24.4250     6.1040     5.1320     6.2250 
  104.7500  -999.2500    -5.0500  -999.2500   100.2000    24.5330     6.2390     5.1320     6.2910 
  104.8750  -999.2500    -4.8990  -999.2500   102.1750    24.5670     6.3030     5.1010     6.2340 
  105.0000  -999.2500    -4.9380  -999.2500   100.6270    24.5470     6.3800     5.0490     6.0940 
  105.1250  -999.2500    -5.1510  -999.2500    95.5790    24.5000     6.6000     5.0570     6.0220 
  105.2500  -999.2500    -5.5570  -999.2500    89.2630    24.4050     7.1480     5.3150     6.3170 
  105.3750  -999.2500    -5.9660  -999.2500    85.4300    24.2750     8.2220     5.9730     7.1830 
  105.5000  -999.2500    -6.2970  -999.2500    83.9120    24.1510    10.4430     7.2300     8.8250 
  105.6250  -999.2500    -6.6450  -999.2500    82.5260    24.1210    14.9080     9.3130    11.4150 
  105.7500  -999.2500    -6.9760  -999.2500    79.6630    24.2480    21.7540    12.5600    15.0800 
  105.8750  -999.2500    -7.2460  -999.2500    74.1820    24.4660    27.8720    16.5330    19.0790 
