~V
VERS. 2.00: Ver 2.00
~W
STRT.M 64.0000:
STOP.M 262.0000:
STEP.M 0.1250:
NULL. -999.2500:
UWI. DF3019:
~C
DEPT.M :
GR.API :
RML.OHMM :
RI. :
RXO.OHMM :
CALI.CM :
DEN.GM/CC :
SP.MV :
~A
# ...
  165.2500    62.0580   123.9180   119.8520   120.5500    24.4470     2.2370   -26.4140 
  165.3750    66.1810    90.5250    88.5080    74.5590    24.4400     2.2630   -26.2470 
  165.5000    72.1210    70.6620    69.2280    44.5060    24.4350     2.2870   -26.1210 
  165.6250    76.5060    60.6880    59.4370    32.8580    24.3770     2.3070   -25.9820 
  165.7500    78.2090    55.3090    54.2340    33.6420    24.1840     2.3200   -25.9040 
  165.8750    79.5190    52.0700    51.2220    34.8490    23.8020     2.3270   -25.7990 
  166.0000    81.2940    49.1740    48.6130    30.3210    23.3270     2.3280   -25.7300 
  166.1250    80.1320    45.3410    45.1070    24.6820    22.9920     2.3250   -25.6660 
  166.2500    78.5410    40.7160    40.7590    22.2370    22.9160     2.3240   -25.6810 
  166.3750    80.5840    36.2750    36.4450    21.5260    22.9610     2.3260   -25.6780 
  166.5000    86.3030    33.3700    33.3870    21.1380    22.9660     2.3280   -25.6510 
  166.6250    89.6200    33.6690    33.0970    19.3010    22.8770     2.3260   -25.7620 
  166.7500    86.6190    37.1140    35.6570    18.8800    22.7670     2.3190   -25.8280 
  166.8750    81.2950    43.2060    40.7980    22.3550    22.7480     2.3060   -25.9990 
  167.0000    78.1430    50.7720    47.5790    29.0390    22.7800     2.2910   -26.1630 
  167.1250    79.3730    58.0550    54.3360    33.7360    22.8180     2.2780   -26.4150 
  167.2500    81.5960    63.7670    59.5460    34.0490    22.8560     2.2680   -26.6940 
  167.3750    81.7100    67.8130    62.8010    32.9580    22.8790     2.2640   -27.0240 
  167.5000    80.2100    71.6580    64.9060    33.0300    22.9170     2.2620   -27.3350 
  167.6250    78.4900    77.2740    67.8250    36.7660    23.0990     2.2630   -27.6210 
  167.7500    77.0460    85.8330    73.0270    45.8310    23.4970     2.2640   -27.8940 
  167.8750    74.2000    96.6600    81.0560    62.8700    24.0570     2.2640   -28.1030 
  168.0000    69.6760   109.9790    91.8150    85.1750    24.5490     2.2630   -28.2880 
  168.1250    67.0970   123.4900   105.3270   103.9140    24.7960     2.2590   -28.3500 
  168.2500    67.1930   138.9040   121.0980   115.0160    24.8630     2.2530   -28.4220 
  168.3750    68.4000   160.6210   139.6030   124.1270    24.8660     2.2430   -28.3700 
  168.5000    68.8460   189.8450   161.7400   133.2280    24.8470     2.2300   -28.3970 
  168.6250    68.5320   225.7510   188.7860   141.9850    24.7590     2.2160   -28.2950 
  168.7500    66.5410   265.7910   218.8020   150.1220    24.5260     2.2050   -28.2360 
  168.8750    62.5860   305.5400   248.4800   144.5480    24.1250     2.1970   -28.1900 
  169.0000    59.2430   338.4170   273.0870   108.0310    23.7140     2.1930   -28.1290 
  169.1250    57.8210   354.7040   285.8060    84.9100    23.5780     2.1920   -28.1610 
  169.2500    57.1550   353.3840   285.9890    93.0660    23.7320     2.1930   -28.1440 
  169.3750    57.8660   336.9440   275.1770   120.5950    24.0670     2.1950   -28.2420 
  169.5000    60.5340   311.4230   257.2990   159.8280    24.4320     2.1970   -28.2880 
  169.6250    62.4610   283.1580   236.6170   187.0280    24.6310     2.1980   -28.4280 
  169.7500    61.2960   255.7910   216.0960   189.0410    24.7050     2.1990   -28.5130 
  169.8750    60.2030   229.3090   195.9360   180.0010    24.7130     2.1990   -28.5900 
  170.0000    62.2870   202.9930   175.6060   179.4080    24.7100     2.2010   -28.7390 
  170.1250    66.3220   177.1180   155.0590   177.3390    24.7160     2.2080   -28.8060 
  170.2500    68.6330   153.1120   135.3740   161.5140    24.7230     2.2200   -28.9220 
  170.3750    68.9810   132.5120   117.8930   131.3450    24.7120     2.2350   -28.9190 
  170.5000    69.6770   116.3170   103.6780   101.6460    24.6960     2.2510   -28.9100 
  170.6250    72.0280   105.6190    93.8970    86.8090    24.6920     2.2650   -28.8480 
  170.7500    75.7950    99.3830    87.8800    84.2260    24.7070     2.2750   -28.8220 
  170.8750    78.0650    97.1780    85.3220    83.7650    24.7410     2.2810   -28.7770 
  171.0000    76.9090    98.4950    85.8210    82.2470    24.7750     2.2820   -28.7330 
  171.1250    73.2440   103.0200    89.1540    80.2810    24.7890     2.2740   -28.6480 
  171.2500    70.0700   109.1600    93.9980    83.8100    24.7900     2.2530   -28.6290 
  171.3750    68.9360   115.5900    99.2770    92.6670    24.7780     2.2220   -28.6290 
  171.5000    70.0010   120.9240   103.8540   100.1090    24.7480     2.1930   -28.6420 
  171.6250    72.5000   123.8230   106.6030   103.0930    24.6890     2.1880   -28.6960 
  171.7500    73.4550   124.9130   107.9020   106.5770    24.6160     2.2200   -28.6660 
  171.8750    73.3550   125.4640   108.6970   111.2810    24.5020     2.2850   -28.7220 
  172.0000    75.2040   126.7470   109.9970   115.1360    24.3670     2.3610   -28.7390 
  172.1250    77.4200   128.9020   112.0020   116.2130    24.2990     2.4140   -28.8250 
  172.2500    77.3410   129.9220   113.1930   117.0390    24.2880     2.4310   -28.8770 
  172.3750    76.1560   127.2190   111.4750   120.4320    24.2340     2.4260   -28.8960 
  172.5000    74.5730   118.7430   105.0510   133.7370    24.1330     2.4180   -28.9340 
  172.6250    71.7610   103.6630    92.8880   130.6460    24.0480     2.4190   -28.9100 
  172.7500    71.4090    85.8790    77.9630   104.3830    24.0160     2.4190   -28.9590 
  172.8750    75.8170    69.0250    63.2860    70.2100    24.0100     2.4090   -28.9160 
  173.0000    81.4170    55.6570    51.2380    39.6990    24.0100     2.3800   -28.9160 
  173.1250    83.1180    47.0750    43.2320    26.5830    24.0830     2.3360   -28.8540 
  173.2500    83.0550    41.7770    38.1790    22.0610    24.3000     2.2930   -28.7910 
  173.3750    83.1940    38.8360    35.3190    26.4220    24.5970     2.2630   -28.8110 
  173.5000    81.5030    37.5910    34.0640    35.0930    24.7280     2.2560   -28.7940 
  173.6250    80.0640    37.8670    34.2340    34.8440    24.5680     2.2680   -28.8350 
  173.7500    81.4740    39.2110    35.3930    32.0710    24.3310     2.2850   -28.8340 
  173.8750    83.6580    41.3690    37.3150    35.4010    24.2200     2.2950   -28.9190 
  174.0000    83.6780    43.9870    39.6940    40.8150    24.2930     2.2910   -28.9710 
  174.1250    82.4090    46.6260    42.1250    43.3700    24.4890     2.2750   -29.1420 
  174.2500    83.9150    48.9270    44.2310    44.0720    24.6900     2.2550   -29.2340 
  174.3750    87.0250    50.7280    45.8100    42.6120    24.8680     2.2350   -29.3340 
  174.5000    88.5690    52.0340    46.8250    41.5930    24.9570     2.2210   -29.4170 
  174.6250    85.9000    52.9470    47.3410    45.4980    24.9640     2.2160   -29.5780 
  174.7500    82.0040    53.6970    47.6220    47.6770    24.9320     2.2230   -29.7370 
  174.8750    80.9790    54.3850    47.7970    48.4260    24.8030     2.2390   -29.8180 
  175.0000    83.7410    55.1080    47.9780    49.4830    24.5330     2.2610   -29.9290 
  175.1250    85.2390    56.0640    48.3580    49.2230    24.1470     2.2820   -29.9220 
  175.2500    82.0980    57.4020    49.0840    48.6870    23.9590     2.2950   -30.0210 
  175.3750    78.4160    59.2190    50.2470    50.1060    23.9520     2.2950   -30.0740 
  175.5000    78.5570    61.5110    51.8510    51.6690    24.1250     2.2840   -30.1060 
  175.6250    82.0510    64.1930    53.8540    53.2470    24.4670     2.2640   -30.0990 
  175.7500    83.8620    66.9840    56.0280    54.6820    24.7760     2.2440   -30.0760 
  175.8750    83.4290    69.6480    58.1860    56.3280    24.9180     2.2280   -30.0900 
  176.0000    81.6000    71.9510    60.1270    58.4890    24.9480     2.2190   -30.0330 
  176.1250    77.9960    73.5300    61.5390    61.1770    24.9430     2.2210   -30.0770 
  176.2500    75.1230    74.2580    62.2860    62.5650    24.9350     2.2300   -29.9840 
  176.3750    75.2720    73.9970    62.2360    61.9980    24.9300     2.2430   -29.9000 
