~V
VERS. 2.00: Ver 2.00
~W
STRT.M 55.0000:
STOP.M 272.0000:
STEP.M 0.1250:
NULL. -999.2500:
UWI. DF3078:
~C
DEPT.M :
GR.API :
CALI.CM :
RXO.OHMM :
RI. :
RML.OHMM :
DEN.GM/CC :
SP.MV :
~A
# ...
   66.2500    74.0840    23.8440    10.2550     6.0440     8.9360  -999.2500    -6.3100 
   66.3750    73.0540    23.7440     9.6830     6.3400     8.6060  -999.2500    -8.4320 
   66.5000    70.7990    23.6780     8.4230     6.4000     8.4610  -999.2500    -9.9060 
   66.6250    70.8850    23.7970     7.6630     6.3510     8.4770  -999.2500   -10.8850 
   66.7500    72.1170    23.9270     7.2640     6.3460     8.6110  -999.2500   -11.5590 
   66.8750    73.6050    24.0700     7.0300     6.4580     8.8700  -999.2500   -12.0460 
   67.0000    75.2910    24.0860     7.0070     6.6910     9.2480  -999.2500   -12.4010 
   67.1250    74.6640    23.9060     7.3360     6.9800     9.6850  -999.2500   -12.6800 
   67.2500    71.7170    23.7180     7.6250     7.2110    10.0570  -999.2500   -12.8980 
   67.3750    69.3870    23.6140     7.6260     7.3240    10.2740  -999.2500   -13.0620 
   67.5000    68.2930    23.6630     7.5240     7.3060    10.3000  -999.2500   -13.1880 
   67.6250    66.3380    23.7570     7.6610     7.1870    10.1660  -999.2500   -13.3010 
   67.7500    65.5000    23.8160     8.0460     7.0520     9.9970  -999.2500   -13.4020 
   67.8750    68.9030    23.8070     8.4530     6.9470     9.8780  -999.2500   -13.4700 
   68.0000    73.9220    23.7550     8.6750     6.8920     9.8440  -999.2500   -13.4810 
   68.1250    74.8760    23.6550     8.7410     6.8850     9.8970  -999.2500   -13.4440 
   68.2500    72.8250    23.6630     8.8310     6.9020     9.9830  -999.2500   -13.3740 
   68.3750    70.0390    23.7440     8.9430     6.9350    10.0660  -999.2500   -13.3040 
   68.5000    70.3140    23.7810     9.0160     6.9760    10.1270  -999.2500   -13.2550 
   68.6250    73.5270    23.8150     9.1050     7.0130    10.1550  -999.2500   -13.2350 
   68.7500    75.9010    23.9570     9.3040     7.0370    10.1580  -999.2500   -13.2800 
   68.8750    77.6070    24.1540     9.6140     7.0410    10.1400  -999.2500   -13.3880 
   69.0000    78.3210    24.2140     9.7310     7.0200    10.0990  -999.2500   -13.5850 
   69.1250    77.4850    24.1350     9.5010     6.9690    10.0350  -999.2500   -13.8640 
   69.2500    77.5140    24.0810     9.4470     6.8980     9.9560  -999.2500   -14.2100 
   69.3750    79.7510    24.0470     9.5590     6.8160     9.8610  -999.2500   -14.5880 
   69.5000    81.9720    23.9820     9.4050     6.7270     9.7380  -999.2500   -14.9880 
   69.6250    79.8870    23.8630     8.9730     6.6360     9.5790  -999.2500   -15.3920 
   69.7500    75.3820    23.7990     8.6850     6.5510     9.4120  -999.2500   -15.7440 
   69.8750    71.2440    23.8670     8.5070     6.4870     9.2950  -999.2500   -16.0510 
   70.0000    69.1130    23.9780     8.1970     6.4770     9.3060  -999.2500   -16.3180 
   70.1250    70.7840    24.0090     7.8380     6.5830     9.5400  -999.2500   -16.5140 
   70.2500    73.4400    23.9820     7.9530     6.8080     9.9500  -999.2500   -16.6560 
   70.3750    73.3360    23.9470     8.8770     7.1190    10.4400  -999.2500   -16.7520 
   70.5000    69.9980    23.8430    10.6230     7.4340    10.8570  -999.2500   -16.7990 
   70.6250    65.7750    23.6560    12.1450     7.6100    10.9670  -999.2500   -16.8120 
   70.7500    65.4970    23.5460    11.8560     7.5730    10.7210  -999.2500   -16.8450 
   70.8750    68.0860    23.5950     9.9290     7.3360    10.2140  -999.2500   -16.8740 
   71.0000    69.1480    23.7060     8.0230     6.9950     9.6450  -999.2500   -16.8790 
   71.1250    70.1320    23.7820     7.4090     6.6940     9.2510  -999.2500   -16.8820 
   71.2500    73.9430    23.8270     7.4980     6.5210     9.1040  -999.2500   -16.8540 
   71.3750    77.0960    23.8110     7.9640     6.4990     9.1880  -999.2500   -16.7900 
   71.5000    76.4040    23.6330     8.5250     6.6030     9.4140  -999.2500   -16.6770 
   71.6250    75.7570    23.3140     8.8410     6.7770     9.6490  -999.2500   -16.5200 
   71.7500    77.7180    23.1310     8.8730     6.9440     9.7960  -999.2500   -16.2930 
   71.8750    78.7940    23.2160     8.7970     7.0680     9.8360  -999.2500   -16.0200 
   72.0000    77.4600    23.4230     8.7610     7.1340     9.7850  -999.2500   -15.7080 
   72.1250    75.7130    23.6190     8.8500     7.1380     9.6650  -999.2500   -15.3260 
   72.2500    74.5730    23.7020     9.0770     7.1060     9.5090  -999.2500   -14.8930 
   72.3750    75.0050    23.6510     9.3090     7.0540     9.3310  -999.2500   -14.4050 
   72.5000    78.0650    23.5180     9.2960     6.9850     9.1380  -999.2500   -13.8840 
   72.6250    81.4950    23.4110     8.9330     6.8870     8.9300  -999.2500   -13.3030 
   72.7500    83.1160    23.3980     8.5690     6.7590     8.7020  -999.2500   -12.6700 
   72.8750    85.5330    23.4710     8.1110     6.5980     8.4370  -999.2500   -11.9770 
   73.0000    89.8960    23.5930     7.5790     6.4040     8.1250  -999.2500   -11.2480 
   73.1250    94.3790    23.7930     7.2070     6.1770     7.7810  -999.2500   -10.5300 
   73.2500    96.2030    24.0190     7.0090     5.9430     7.4610  -999.2500    -9.8700 
   73.3750    96.6960    24.2220     6.7130     5.7380     7.2260  -999.2500    -9.2960 
   73.5000    97.6760    24.3540     6.2670     5.6050     7.1290  -999.2500    -8.8210 
   73.6250    96.6930    24.3970     6.0740     5.6120     7.2390  -999.2500    -8.5100 
   73.7500    93.5030    24.3410     6.3880     5.7520     7.5200  -999.2500    -8.3450 
   73.8750    88.7740    24.1920     7.0580     5.9970     7.9120  -999.2500    -8.3170 
   74.0000    83.4450    24.0790     7.6760     6.2760     8.2980  -999.2500    -8.3690 
   74.1250    80.2670    24.0520     7.9970     6.4470     8.4600  -999.2500    -8.4450 
   74.2500    82.4440    24.1270     8.0030     6.3980     8.2850  -999.2500    -8.5130 
   74.3750    91.2800    24.1490     7.7610     6.1070     7.8070  -999.2500    -8.5660 
   74.5000   101.0750    24.0780     7.1840     5.6910     7.2530  -999.2500    -8.6250 
   74.6250   107.8680    24.0090     6.5980     5.3870     7.0000  -999.2500    -8.6960 
   74.7500   110.1880    24.0650     6.2290     5.3570     7.2210  -999.2500    -8.8330 
   74.8750   103.1810    24.1800     6.5580     5.6620     7.9350  -999.2500    -9.0710 
   75.0000    87.1820    24.3050     8.5100     6.2810     9.0080  -999.2500    -9.4430 
   75.1250    74.9290    24.3170    12.9450     7.0690    10.0890  -999.2500   -10.0010 
   75.2500    72.8220    24.2320    15.0770     7.7060    10.7370  -999.2500   -10.6840 
   75.3750    74.9460    24.0120    13.3320     7.9780    10.7530  -999.2500   -11.4360 
   75.5000    75.8080    23.8170    10.6110     7.8760    10.2800  -999.2500   -12.2000 
   75.6250    75.4040    23.7280     9.6100     7.5790     9.6910  -999.2500   -12.8980 
   75.7500    73.9110    23.7120     9.2820     7.3280     9.2980  -999.2500   -13.4720 
   75.8750    72.4790    23.6790     9.0760     7.2080     9.1550  -999.2500   -13.9080 
   76.0000    73.9450    23.6130     8.9730     7.2030     9.1840  -999.2500   -14.2070 
   76.1250    77.3940    23.5690     8.9360     7.2490     9.2730  -999.2500   -14.3300 
   76.2500    78.4700    23.6140     8.8770     7.2930     9.3520  -999.2500   -14.3440 
   76.3750    77.1210    23.7290     8.7590     7.3270     9.4170  -999.2500   -14.2850 
   76.5000    75.5610    23.7770     8.6040     7.3590     9.4720  -999.2500   -14.1640 
   76.6250    74.3720    23.6840     8.5410     7.3860     9.5080  -999.2500   -14.0240 
   76.7500    72.4170    23.5850     8.5990     7.3930     9.5080  -999.2500   -13.8680 
   76.8750    70.7790    23.5690     8.6680     7.3580     9.4500  -999.2500   -13.6990 
   77.0000    72.1360    23.5650     8.6280     7.2580     9.3230  -999.2500   -13.5240 
   77.1250    76.3440    23.4910     8.5320     7.0840     9.1350  -999.2500   -13.3860 
   77.2500    78.0420    23.4870     8.3570     6.8760     8.9380  -999.2500   -13.2890 
   77.3750    75.6820    23.5560     8.0640     6.6800     8.7800  -999.2500   -13.2460 
