~V
VERS. 2.00: Ver 2.00
~W
STRT.M 125.0000:
STOP.M 256.0000:
STEP.M 0.1250:
NULL. -999.2500:
UWI. DF3030:
~C
DEPT.M :
GR.API :
RML.OHMM :
RI. :
RXO.OHMM :
CALI.CM :
DEN.GM/CC :
SP.MV :
~A
# ...
  147.5000    66.7150    17.9270    16.9450    16.2990    24.6200     2.5530   -27.6980 
  147.6250    63.3340    18.0930    16.9890    16.1800    24.5810     2.5440   -27.7660 
  147.7500    59.0910    18.4270    17.2200    16.6000    24.5120     2.5430   -27.8320 
  147.8750    56.3890    18.7340    17.4880    17.3870    24.4400     2.5480   -27.9710 
  148.0000    56.6710    18.8620    17.6510    17.5870    24.3720     2.5560   -28.0210 
  148.1250    58.9040    18.7320    17.6130    17.4180    24.2830     2.5630   -28.1010 
  148.2500    60.8300    18.4840    17.4590    17.1050    24.2300     2.5650   -28.2230 
  148.3750    62.8210    18.2750    17.3130    16.9000    24.1940     2.5600   -28.1940 
  148.5000    67.1270    18.2360    17.2950    16.6070    24.2140     2.5490   -28.2350 
  148.6250    72.0690    18.4540    17.4940    16.3800    24.3240     2.5310   -28.2680 
  148.7500    73.8810    18.8230    17.8400    17.0000    24.4310     2.5120   -28.1890 
  148.8750    74.0620    19.2230    18.2370    17.8700    24.4470     2.4950   -28.1190 
  149.0000    75.3380    19.5220    18.5720    18.4590    24.4210     2.4850   -28.0330 
  149.1250    76.0280    19.6000    18.7220    18.5490    24.3960     2.4870   -27.9590 
  149.2500    73.6930    19.4960    18.6940    17.8510    24.3810     2.4950   -27.8690 
  149.3750    70.3680    19.2980    18.5420    17.1310    24.3220     2.5050   -27.8610 
  149.5000    69.0200    19.1160    18.3580    16.9040    24.2660     2.5110   -27.8320 
  149.6250    70.1150    19.0350    18.2300    16.7110    24.2590     2.5120   -27.7690 
  149.7500    70.8230    19.0230    18.1620    16.4570    24.2900     2.5100   -27.8350 
  149.8750    70.5740    19.0090    18.1150    16.4900    24.3300     2.5100   -27.8820 
  150.0000    71.8590    18.9220    18.0300    16.8060    24.3520     2.5150   -27.9420 
  150.1250    73.4290    18.7150    17.8550    17.1370    24.3560     2.5240   -28.0140 
  150.2500    73.3000    18.4430    17.6140    17.3360    24.3560     2.5330   -28.0390 
  150.3750    73.8510    18.1850    17.3620    16.9970    24.3560     2.5380   -28.0610 
  150.5000    76.3120    18.0270    17.1720    16.6910    24.3440     2.5360   -28.0460 
  150.6250    75.6300    18.0570    17.1320    16.6900    24.3090     2.5310   -28.0810 
  150.7500    70.0800    18.2500    17.2370    16.6640    24.2640     2.5250   -28.1160 
  150.8750    65.8840    18.5520    17.4540    16.6950    24.2440     2.5210   -28.1050 
  151.0000    66.8980    18.8790    17.7110    16.8770    24.2280     2.5180   -28.0640 
  151.1250    68.5000    19.1120    17.9050    17.0450    24.2000     2.5110   -28.0590 
  151.2500    68.3590    19.1900    17.9740    17.1330    24.1910     2.4980   -28.1460 
  151.3750    69.2380    19.1040    17.8990    17.0480    24.1900     2.4840   -28.1550 
  151.5000    72.5010    18.8890    17.7020    16.8800    24.1500     2.4760   -28.2410 
  151.6250    73.8860    18.6220    17.4360    16.6520    24.0530     2.4790   -28.3340 
  151.7500    70.7800    18.4110    17.1960    16.5020    23.8790     2.4910   -28.3260 
  151.8750    66.3950    18.3370    17.0540    16.4710    23.6210     2.5050   -28.4190 
  152.0000    64.3760    18.4530    17.0680    16.5420    23.3180     2.5140   -28.5460 
  152.1250    64.9490    18.7980    17.2840    16.7500    23.0630     2.5160   -28.5190 
  152.2500    67.5910    19.2860    17.6390    16.7810    22.9460     2.5120   -28.4970 
  152.3750    69.8150    19.8300    18.0640    16.9750    23.1150     2.5050   -28.5310 
  152.5000    68.3700    20.3280    18.4770    17.4190    23.6200     2.4980   -28.5580 
  152.6250    64.2110    20.6600    18.7760    17.9630    24.0540     2.4930   -28.5630 
  152.7500    62.6810    20.8020    18.9250    18.2390    24.2780     2.4930   -28.6100 
  152.8750    65.4030    20.7720    18.9250    18.1730    24.3260     2.4980   -28.5890 
  153.0000    68.8780    20.6360    18.8170    18.2850    24.3260     2.5070   -28.5700 
  153.1250    70.6680    20.5110    18.6900    18.5420    24.3530     2.5190   -28.6880 
  153.2500    70.8360    20.5130    18.6440    18.5030    24.3260     2.5300   -28.7260 
  153.3750    70.0000    20.7020    18.7420    18.1010    24.2710     2.5360   -28.7550 
  153.5000    70.1560    21.0780    18.9960    18.0870    24.2200     2.5370   -28.7660 
  153.6250    72.3360    21.5730    19.3690    18.2320    24.1720     2.5310   -28.7630 
  153.7500    73.4420    22.0370    19.7460    18.5870    24.1550     2.5220   -28.7960 
  153.8750    71.8130    22.3580    20.0390    19.0510    24.1590     2.5120   -28.7800 
  154.0000    69.2180    22.4660    20.1840    19.2770    24.1810     2.5040   -28.7540 
  154.1250    70.9730    22.3390    20.1380    18.9750    24.2180     2.4980   -28.7510 
  154.2500    75.7400    22.0860    19.9690    18.7790    24.2340     2.4910   -28.7350 
  154.3750    79.0490    21.7930    19.7320    18.9050    24.2380     2.4830   -28.7250 
  154.5000    78.9230    21.5310    19.4860    18.8330    24.2340     2.4740   -28.7470 
  154.6250    75.2900    21.3680    19.2920    18.7850    24.2150     2.4710   -28.7800 
  154.7500    71.2240    21.3050    19.1670    18.7000    24.1840     2.4800   -28.7660 
  154.8750    67.5550    21.3070    19.0850    18.6250    24.1620     2.5020   -28.7250 
  155.0000    65.9400    21.2810    18.9780    18.5200    24.1580     2.5340   -28.7660 
  155.1250    68.2600    21.0570    18.7120    18.3640    24.1560     2.5660   -28.7570 
  155.2500    71.1110    20.5590    18.2350    18.0680    24.1690     2.5860   -28.7290 
  155.3750    69.2910    19.8050    17.5680    17.8150    24.2030     2.5880   -28.7520 
  155.5000    63.4000    18.9410    16.8210    17.4480    24.2210     2.5750   -28.6620 
  155.6250    59.1200    18.2420    16.1950    16.2520    24.2140     2.5540   -28.6450 
  155.7500    58.0390    17.8920    15.8210    15.3000    24.1940     2.5390   -28.5980 
  155.8750    58.2510    17.9300    15.7350    14.9600    24.1750     2.5350   -28.6560 
  156.0000    58.1840    18.2490    15.8760    15.1910    24.1680     2.5420   -28.6680 
  156.1250    58.9580    18.6200    16.1030    15.7490    24.1860     2.5580   -28.6320 
  156.2500    59.7270    18.8090    16.2360    16.0720    24.2210     2.5720   -28.6830 
  156.3750    59.2570    18.7270    16.1880    16.0870    24.2420     2.5790   -28.6480 
  156.5000    57.6950    18.4180    15.9580    15.7430    24.2660     2.5780   -28.6740 
  156.6250    56.5810    18.0160    15.6220    15.3670    24.3230     2.5730   -28.6570 
  156.7500    56.1050    17.6780    15.3020    15.1530    24.3780     2.5700   -28.6930 
  156.8750    55.4250    17.4550    15.0560    15.1100    24.4130     2.5710   -28.6680 
  157.0000    54.1530    17.3320    14.8860    15.1230    24.4350     2.5710   -28.7230 
  157.1250    54.5530    17.2580    14.7670    15.2730    24.4510     2.5650   -28.7890 
  157.2500    56.0210    17.1810    14.6550    15.2480    24.4620     2.5510   -28.8390 
  157.3750    56.6090    17.0930    14.5370    14.9950    24.4560     2.5330   -28.9990 
  157.5000    56.1180    17.0110    14.4210    14.6760    24.4670     2.5180   -29.1010 
  157.6250    56.4250    16.9670    14.3300    14.4430    24.4430     2.5110   -29.2920 
  157.7500    58.3730    16.9690    14.2700    14.3800    24.4310     2.5100   -29.4890 
  157.8750    60.0960    17.0020    14.2320    14.3370    24.4310     2.5140   -29.6400 
  158.0000    59.9720    17.0400    14.1930    14.4310    24.4240     2.5200   -29.7850 
  158.1250    59.9710    17.0460    14.1300    14.5210    24.3830     2.5240   -29.9180 
  158.2500    60.9000    17.0100    14.0450    14.5730    24.3590     2.5220   -30.0630 
  158.3750    60.4090    16.9480    13.9530    14.4400    24.3790     2.5160   -30.1670 
  158.5000    59.1400    16.9030    13.8850    14.2590    24.3770     2.5080   -30.2860 
  158.6250    59.4640    16.9490    13.8860    14.1800    24.3380     2.5020   -30.3540 
