~V
VERS. 2.00: Ver 2.00
~W
STRT.M 57.0000:
STOP.M 272.0000:
STEP.M 0.1250:
NULL. -999.2500:
UWI. DF3050:
~C
DEPT.M :
SP.MV :
GR.API :
CALI.CM :
RXO.OHMM :
RI. :
RML.OHMM :
DEN.GM/CC :
~A
# ...
  113.2500   -28.0260    71.5030    23.9040     7.8450     7.5260     9.9640  -999.2500 
  113.3750   -27.9840    69.3430    23.9130     7.6370     7.4620     9.7920  -999.2500 
  113.5000   -27.8680    72.7460    23.9280     7.5770     7.3890     9.6720  -999.2500 
  113.6250   -27.7120    75.7220    24.0210     7.7690     7.3740     9.6820  -999.2500 
  113.7500   -27.5340    74.2500    24.0010     7.9910     7.4280     9.8250  -999.2500 
  113.8750   -27.3340    71.6980    23.9350     8.0280     7.5280    10.0460  -999.2500 
  114.0000   -27.1160    71.4690    23.9280     7.8100     7.6550    10.2890  -999.2500 
  114.1250   -26.9010    73.6860    24.0340     7.5870     7.7660    10.4450  -999.2500 
  114.2500   -26.7230    74.0000    24.0700     7.6670     7.7880    10.4300  -999.2500 
  114.3750   -26.5660    70.7450    24.0120     7.7550     7.7220    10.2810  -999.2500 
  114.5000   -26.4270    66.9820    23.9050     7.7560     7.5640    10.0080  -999.2500 
  114.6250   -26.2910    66.1310    23.7070     7.7160     7.3520     9.6650  -999.2500 
  114.7500   -26.1600    70.4780    23.9450     7.6460     7.1230     9.3440  -999.2500 
  114.8750   -26.0650    75.3730    24.0370     7.5050     6.8960     9.0450  -999.2500 
  115.0000   -26.0030    77.6460    24.1260     7.3200     6.6770     8.7720  -999.2500 
  115.1250   -25.9680    77.7590    23.9830     7.1860     6.4920     8.5560  -999.2500 
  115.2500   -25.9430    80.0040    24.0430     7.1840     6.3690     8.3970  -999.2500 
  115.3750   -25.9220    85.1320    24.0340     7.1310     6.2700     8.2440  -999.2500 
  115.5000   -25.9280    88.1620    23.9630     6.9260     6.2050     8.1610  -999.2500 
  115.6250   -25.9620    86.8060    23.9110     6.5990     6.1940     8.1740  -999.2500 
  115.7500   -26.0210    83.3480    23.8710     6.5890     6.2400     8.2800  -999.2500 
  115.8750   -26.0680    80.7310    23.7770     6.9010     6.3200     8.4320  -999.2500 
  116.0000   -26.0970    79.7550    23.7100     7.2280     6.4130     8.5990     2.1810 
  116.1250   -26.0840    79.9610    23.6580     7.4250     6.5000     8.7530     2.1810 
  116.2500   -26.0330    81.1850    23.8890     7.4420     6.5670     8.8650     2.1790 
  116.3750   -25.9830    80.8830    24.0000     7.3290     6.6220     8.9190     2.1790 
  116.5000   -25.8910    77.6720    23.9930     7.1630     6.6700     8.9410     2.1800 
  116.6250   -25.7540    76.0480    23.8890     7.1480     6.7100     8.9810     2.1830 
  116.7500   -25.5700    79.3230    23.6520     7.4540     6.7720     9.0730     2.1860 
  116.8750   -25.3730    80.3390    23.6480     7.9010     6.8550     9.2030     2.1850 
  117.0000   -25.1630    75.9510    23.6520     8.3040     6.9470     9.3500     2.1780 
  117.1250   -24.9610    70.3030    23.6500     8.4960     7.0360     9.5200     2.1680 
  117.2500   -24.7660    68.7290    23.6270     8.4020     7.1320     9.6960     2.1640 
  117.3750   -24.5490    69.9670    23.5910     8.2560     7.2250     9.8620     2.1670 
  117.5000   -24.3280    70.8580    23.5770     8.0830     7.2970     9.9750     2.1700 
  117.6250   -24.1130    69.8080    23.5760     7.9620     7.3260     9.9780     2.1670 
  117.7500   -23.8970    67.8780    23.6350     8.1220     7.2900     9.8970     2.1600 
  117.8750   -23.6650    68.9730    23.7780     8.1720     7.2080     9.7130     2.1560 
  118.0000   -23.4190    73.5990    24.0510     8.0880     7.0840     9.4450     2.1590 
  118.1250   -23.1560    78.2770    24.0520     7.9570     6.9470     9.1630     2.1630 
  118.2500   -22.8840    79.6180    24.0680     7.6270     6.8740     9.0010     2.1640 
  118.3750   -22.6310    79.5070    24.1300     7.1760     6.8840     8.9980     2.1660 
  118.5000   -22.3780    79.6110    24.1810     6.9770     6.9670     9.0990     2.1710 
  118.6250   -22.1000    79.9040    24.1360     7.0710     7.0880     9.2380     2.1740 
  118.7500   -21.8150    79.1410    24.3020     7.3200     7.1490     9.2320     2.1740 
  118.8750   -21.5090    80.9660    24.3580     7.8520     7.0640     8.9720     2.1840 
  119.0000   -21.1790    89.4710    24.2820     9.1270     6.7880     8.4420     2.2110 
  119.1250   -20.8440   101.6530    24.2070     8.8530     6.3630     7.7180     2.2520 
  119.2500   -20.5600   108.5850    24.1130     6.8370     5.8560     6.9010     2.2840 
  119.3750   -20.3100   109.0670    24.2200     4.6820     5.3580     6.1600     2.2980 
  119.5000   -20.1060   108.3480    24.3530     4.1130     4.9490     5.6120     2.2970 
  119.6250   -19.9650   109.0080    24.5060     4.0710     4.6620     5.2890     2.2930 
  119.7500   -19.8910   108.8310    24.6800     4.2530     4.5180     5.1950     2.2930 
  119.8750   -19.8740   109.2110    24.6190     4.4980     4.4680     5.2250     2.2930 
  120.0000   -19.9210   111.7000    24.6610     4.4970     4.4830     5.2890     2.2880 
  120.1250   -20.0020   113.7900    24.7830     4.2560     4.5330     5.3580     2.2810 
  120.2500   -20.0380   111.7460    24.7710     4.0750     4.6050     5.4540     2.2790 
  120.3750   -20.0350   108.1570    24.6520     4.3680     4.7400     5.6680     2.2800 
  120.5000   -20.0140   105.5880    24.4440     4.9940     4.9770     6.0500     2.2870 
  120.6250   -19.9590   103.7160    24.1450     5.3440     5.3030     6.5660     2.3060 
  120.7500   -19.8810   103.2970    24.1820     5.4330     5.6810     7.1580     2.3420 
  120.8750   -19.7980   103.9600    24.1520     6.1170     6.0620     7.7400     2.3810 
  121.0000   -19.7090   106.3790    23.9830     7.2630     6.3740     8.1760     2.4060 
  121.1250   -19.6360   111.4090    24.0010     8.8790     6.5040     8.2980     2.4080 
  121.2500   -19.6110   116.1480    23.9860     9.3220     6.4100     8.0650     2.3790 
  121.3750   -19.6110   115.4870    23.9220     8.1510     6.1790     7.6490     2.3340 
  121.5000   -19.6210   110.4410    23.9210     6.2320     5.8770     7.1580     2.2870 
  121.6250   -19.6660   106.1870    23.9880     5.4770     5.5940     6.7760     2.2540 
  121.7500   -19.7560   105.8410    24.0130     5.3430     5.4320     6.6160     2.2410 
  121.8750   -19.8830   106.6260    24.2200     5.2780     5.3860     6.6240     2.2340 
  122.0000   -20.0370   106.8510    24.4670     5.2410     5.4290     6.7590     2.2240 
  122.1250   -20.1850   105.9180    24.4960     5.5140     5.5440     6.9800     2.2200 
  122.2500   -20.3040   105.6660    24.3890     5.8560     5.6780     7.1660     2.2330 
  122.3750   -20.4200   107.5680    24.3980     5.7520     5.7690     7.2570     2.2550 
  122.5000   -20.5540   109.5090    24.4580     5.5380     5.8030     7.2460     2.2670 
  122.6250   -20.6730   109.1100    24.2680     5.6330     5.7610     7.1430     2.2650 
  122.7500   -20.7490   106.2750    24.2710     5.7730     5.6400     6.9110     2.2560 
  122.8750   -20.7800   103.9240    24.3400     5.8500     5.4610     6.6230     2.2500 
  123.0000   -20.7740   103.6460    24.4640     6.0320     5.2750     6.3450     2.2500 
  123.1250   -20.7640   106.4650    24.5090     6.0640     5.1180     6.1320     2.2570 
  123.2500   -20.7740   110.5380    24.5170     5.6910     5.0190     6.0230     2.2700 
  123.3750   -20.7770   112.7870    24.5220     5.0750     4.9720     6.0230     2.2780 
  123.5000   -20.7430   112.5470    24.5190     4.6640     4.9670     6.0910     2.2830 
  123.6250   -20.7030   109.6560    24.5230     4.6630     4.9800     6.1570     2.2950 
  123.7500   -20.6390   105.5350    24.5190     5.3640     4.9720     6.1630     2.3160 
  123.8750   -20.5690   102.8820    24.4980     5.7900     4.9280     6.1210     2.3320 
  124.0000   -20.5130   103.1320    24.4660     5.5270     4.8720     6.0400     2.3340 
  124.1250   -20.4650   106.4580    24.5140     4.8240     4.8250     5.9760     2.3250 
  124.2500   -20.4210   108.5070    24.5310     4.7030     4.8220     5.9790     2.3160 
  124.3750   -20.3920   105.4600    24.5240     4.5860     4.8750     6.0640     2.3060 
