~V
VERS. 2.00: Ver 2.00
~W
STRT.M 60.0000:
STOP.M 277.0000:
STEP.M 0.1250:
NULL. -999.2500:
UWI. DF3048:
~C
DEPT.M :
SP.MV :
GR.API :
RML.OHMM :
RI. :
RXO.OHMM :
CALI.CM :
DEN.GM/CC :
~A
# ...
  262.5000    -9.0880    62.1720     9.4950     8.1970     8.8390    24.4740     2.3530 
  262.6250    -9.1710    61.7350     9.2800     8.0450     8.5070    24.4820     2.3480 
  262.7500    -9.2440    62.6730     9.2570     8.0090     7.7690    24.4930     2.3470 
  262.8750    -9.3030    63.9440     9.4850     8.1470     7.3800    24.5090     2.3640 
  263.0000    -9.3630    63.9100     9.9450     8.4680     7.5780    24.4980     2.3980 
  263.1250    -9.4100    62.7420    10.5230     8.9330     7.9770    24.4340     2.4340 
  263.2500    -9.4570    61.8260    11.0080     9.3960     8.2250    24.3180     2.4550 
  263.3750    -9.4820    62.2150    11.2510     9.7330     8.2720    24.2550     2.4430 
  263.5000    -9.5210    63.9970    11.1830     9.8550     8.2550    24.2380     2.4110 
  263.6250    -9.5500    66.2300    10.8350     9.7170     7.8340    24.2400     2.3780 
  263.7500    -9.5860    68.0430    10.4210     9.4460     7.4770    24.2550     2.3590 
  263.8750    -9.6480    69.4250    10.0930     9.1560     7.3200    24.2570     2.3600 
  264.0000    -9.7050    70.6750     9.9370     8.9430     7.4270    24.1600     2.3700 
  264.1250    -9.7760    71.8990     9.9750     8.8760     7.7420    24.1030     2.3810 
  264.2500    -9.8240    72.2510    10.1010     8.9220     8.0220    24.0790     2.3860 
  264.3750    -9.9080    71.0370    10.2260     9.0340     8.2230    24.0790     2.3830 
  264.5000   -10.0280    69.0000    10.2910     9.1610     8.3660    24.0890     2.3760 
  264.6250   -10.1750    67.4680    10.2800     9.2630     8.7190    24.1200     2.3680 
  264.7500   -10.3610    66.6650    10.2500     9.3400     9.0410    24.1700     2.3640 
  264.8750   -10.5470    67.5430    10.2560     9.4110     8.8490    24.2130     2.3670 
  265.0000   -10.7790    69.9120    10.3240     9.4940     8.4830    24.2450     2.3730 
  265.1250   -11.0580    70.1170    10.4430     9.5950     8.9660    24.2710     2.3780 
  265.2500   -11.3800    67.7580    10.5570     9.6980    10.1510    24.2790     2.3780 
  265.3750   -11.7200    65.1230    10.6230     9.7790    12.0690    24.2170     2.3710 
  265.5000   -12.0300    63.8110    10.6170     9.8270    14.4750    23.9770     2.3600 
  265.6250   -12.3550    62.3930    10.5240     9.8490    16.5890    23.8660     2.3540 
  265.7500   -12.6890    63.0600    10.4580     9.8910    17.6100    23.8380     2.3580 
  265.8750   -13.0230    66.9820    10.5060    10.0030    18.3750    23.8530     2.3720 
  266.0000   -13.3480    70.2490    10.8470    10.2380    19.4640    23.8620     2.3850 
  266.1250   -13.6120    69.4180    11.4950    10.6590    19.6390    23.8970     2.3900 
  266.2500   -13.8210    67.7370    12.4470    11.2320    19.3700    23.9960     2.3870 
  266.3750   -13.9570    66.6260    13.5130    11.9090    18.7330    24.1110     2.3820 
  266.5000   -14.0260    64.5820    14.2450    12.6120    18.1490    24.2230     2.3820 
  266.6250   -13.9710    62.7630    14.7730    13.2370    18.0500    24.3140     2.3860 
  266.7500   -13.8120    63.8190    15.1910    13.7270    18.4270    24.3560     2.3910 
  266.8750   -13.5670    67.1730    15.5090    14.0640    18.6340    24.2800     2.3900 
  267.0000   -13.2320    69.1510    15.7270    14.2620    18.6520    24.1850     2.3820 
  267.1250   -12.8800    69.1510    15.8230    14.3400    18.8950    24.0760     2.3680 
  267.2500   -12.5640    69.1510    15.8240    14.3510    19.3330    23.8510     2.3530 
  267.3750   -12.2480    69.1510    15.7630    14.3190    20.0320    23.5980     2.3460 
  267.5000   -11.9750    69.1510    15.6720    14.2670    21.3280    23.5120     2.3540 
  267.6250   -11.7610    69.1510    15.5580    14.2180    21.2020    23.7680     2.3750 
  267.7500   -11.5780    69.1510    15.4140    14.1880    20.3100    24.0090     2.3980 
  267.8750   -11.5230    69.1510    15.2480    14.1910    19.2810    23.9560     2.4120 
  268.0000   -11.4560    69.1510    15.0960    14.2330    18.6680    23.7780     2.4160 
  268.1250   -11.4350    69.1510    15.0300    14.3130    17.8660    23.6080     2.4150 
  268.2500   -11.4470    69.1510    15.0620    14.4050    17.7220    23.4210     2.4160 
  268.3750   -11.4270    69.1510    15.1560    14.4740    17.5640    23.4190     2.4170 
  268.5000   -11.4260    69.1510    15.2250    14.4730    17.3080    23.3820     2.4060 
  268.6250   -11.5630    69.1510    15.1600    14.3450    16.9340    23.2880     2.3730 
  268.7500   -11.7400    69.1510    14.9520    14.1040    16.4600    22.9670     2.3170 
  268.8750   -11.8260    69.1510    14.6330    13.7830    15.4320    22.3930     2.2470 
  269.0000   -12.0360    69.1510    14.2630    13.4280    14.0670    21.4950     2.1810 
  269.1250   -12.2090    69.1510    13.9040    13.0890    13.0850    20.9650     2.1360 
  269.2500   -12.2830    69.1510    13.5910    12.7910    12.6010    20.5740     2.1200 
  269.3750   -12.5000    69.1510    13.3380    12.5470    11.8770    20.1340     2.1400 
  269.5000   -12.6950    69.1510    13.1560    12.3640    10.7130    19.6430     2.1760 
  269.6250   -12.6590    69.1510    13.0510    12.2550     9.5570    18.8800     2.2100 
  269.7500   -12.6500    69.1510    12.9970    12.2030     8.8160    18.4800     2.2260 
  269.8750   -12.6910    69.1510    12.9760    12.1910     8.5310    18.7930     2.2150 
  270.0000   -12.5730    69.1510    12.9740    12.2020     8.6350    19.5780     2.1900 
  270.1250   -12.5150    69.1510    12.9940    12.2260     9.0850    20.6480     2.1690 
  270.2500   -12.5030    69.1510    13.0390    12.2590     9.9600    21.3190     2.1590 
  270.3750   -12.3210    69.1510    13.1090    12.3110    11.0760    21.9640     2.1670 
  270.5000   -12.1830    69.1510    13.1920    12.3850    12.4410    22.8170     2.1870 
  270.6250   -12.1090    69.1510    13.2650    12.4730    14.0630    22.9480     2.2140 
  270.7500   -11.9510    69.1510    13.3070    12.5530    15.4820    23.0900     2.2450 
  270.8750   -11.8150    69.1510    13.3110    12.6100    15.5560    23.2320     2.2730 
  271.0000   -11.7250    69.1510    13.2810    12.6380    14.5520    23.4610     2.2920 
  271.1250   -11.6620    69.1510    13.2380    12.6430    13.7970    23.7040     2.3040 
  271.2500   -11.6520    69.1510    13.2170    12.6400    12.9130    23.7550     2.3160 
  271.3750   -11.6870    69.1510    13.2410    12.6390    12.5960    23.7550     2.3390 
  271.5000   -11.7130    69.1510    13.3190    12.6420    13.6190    23.7560     2.3720 
  271.6250   -11.8480    69.1510    13.4370    12.6480    15.7150    23.7500     2.4050 
  271.7500   -12.0570    69.1510    13.5490    12.6520    17.5370    23.7580     2.4240 
  271.8750   -12.2440    69.1510    13.6160    12.6520    16.6360    23.8150     2.4150 
  272.0000   -12.4450    69.1510    13.6190    12.6450    13.3160    23.8850     2.3880 
  272.1250   -12.4920    69.1510    13.5590    12.6350    10.8310    23.9630     2.3600 
  272.2500   -12.5240    69.1510    13.4770    12.6250     9.6650    24.0260     2.3460 
  272.3750   -12.6660    69.1510    13.4050    12.6180     9.3380    24.0450     2.3580 
  272.5000   -12.7620    69.1510    13.3600    12.6160     9.3040    24.0420     2.3880 
  272.6250   -12.7030    69.1510    13.3440    12.6180     9.1480    24.0400     2.4200 
  272.7500   -12.6770    69.1510    13.3430    12.6210     8.9970    24.0400     2.4400 
  272.8750   -12.7150    69.1510    13.3450    12.6250     9.1140    24.0400     2.4380 
  273.0000   -12.7930    69.1510    13.3480    12.6280     9.4610    24.0400     2.4230 
  273.1250   -12.9520    69.1510    13.3480    12.6280     9.8640    24.0400     2.4050 
  273.2500   -13.0680    69.1510    13.3480    12.6280    10.2750    24.0400     2.3920 
  273.3750   -13.0970    69.1510    13.3480    12.6280    10.4940    24.0400     2.3870 
  273.5000   -13.1650    69.1510    13.3480    12.6280    10.5310    24.0400     2.3860 
  273.6250   -13.3090    69.1510    13.3480    12.6280    10.9130    24.0570     2.3870 
