~V
VERS. 2.00: Ver 2.00
~W
STRT.M 60.0000:
STOP.M 270.0000:
STEP.M 0.1250:
NULL. -999.2500:
UWI. DF3075:
~C
DEPT.M :
GR.API :
RML.OHMM :
RI. :
RXO.OHMM :
CALI.CM :
DEN.GM/CC :
SP.MV :
~A
# ...
  138.7500    73.8600    13.5120    12.6970    13.5550    23.6840     2.2070   -25.7370 
  138.8750    74.5650    12.8150    12.1960    13.0760    23.6360     2.2230   -25.1480 
  139.0000    75.8960    11.9650    11.4670    12.8500    23.6310     2.2380   -24.4980 
  139.1250    79.1060    11.1320    10.6300    12.2580    23.6910     2.2510   -23.7920 
  139.2500    83.0100    10.4100     9.8430    10.3450    23.7600     2.2610   -23.1550 
  139.3750    85.9260     9.8360     9.1880     8.3260    23.7920     2.2640   -22.5600 
  139.5000    87.2800     9.4270     8.7060     7.6850    23.8020     2.2580   -22.0810 
  139.6250    89.1230     9.1970     8.3990     7.9000    23.8300     2.2470   -21.5870 
  139.7500    90.4050     9.0430     8.1920     8.0620    23.8730     2.2390   -21.0960 
  139.8750    92.4720     8.8710     8.0210     7.9050    23.8920     2.2420   -20.6590 
  140.0000    96.5890     8.6240     7.8440     7.5130    23.8260     2.2570   -20.2070 
  140.1250    97.9890     8.3320     7.6380     7.1540    23.8300     2.2780   -19.8570 
  140.2500    93.5570     8.0780     7.4040     6.9160    23.9370     2.2940   -19.4290 
  140.3750    87.9660     7.8900     7.1660     6.7490    24.1680     2.3030   -19.0250 
  140.5000    86.5130     7.7600     6.9620     6.3530    24.5390     2.3080   -18.5720 
  140.6250    89.9310     7.6710     6.8060     6.0040    24.9820     2.3120   -18.3000 
  140.7500    93.1200     7.5980     6.6710     5.8390    25.3440     2.3160   -18.0800 
  140.8750    94.4400     7.5350     6.5220     5.8320    25.5120     2.3170   -17.9380 
  141.0000    93.7330     7.4570     6.3390     5.9390    25.5840     2.3130   -17.8520 
  141.1250    92.8150     7.3140     6.1270     6.0220    25.6510     2.3080   -17.8010 
  141.2500    94.3340     7.1350     5.9190     5.8650    25.6410     2.3120   -17.8120 
  141.3750    99.6520     7.0060     5.7740     5.5240    25.6240     2.3270   -17.8820 
  141.5000   107.6990     7.0260     5.7450     5.3070    25.6060     2.3510   -18.0530 
  141.6250   112.8980     7.3040     5.9120     5.3730    25.4890     2.3720   -18.2940 
  141.7500   110.8710     7.7960     6.2760     5.8330    25.3990     2.3770   -18.6110 
  141.8750   103.3730     8.4350     6.8110     6.8050    25.3040     2.3600   -18.9610 
  142.0000    95.2140     9.1350     7.4560     8.1660    25.2630     2.3250   -19.3410 
  142.1250    89.0390     9.8010     8.1000     9.4430    24.9710     2.2840   -19.7010 
  142.2500    86.4460    10.3490     8.6400    10.0390    24.7990     2.2490   -20.0270 
  142.3750    87.1540    10.7040     9.0150    10.2670    24.5380     2.2260   -20.2850 
  142.5000    89.0560    10.8290     9.2070    10.5540    24.3650     2.2140   -20.4150 
  142.6250    89.2600    10.7490     9.2430    10.5820    24.3330     2.2090   -20.4910 
  142.7500    87.6070    10.6240     9.2090    10.6070    24.3980     2.2040   -20.4420 
  142.8750    87.3460    10.5630     9.1600    10.7610    24.5180     2.1990   -20.3480 
  143.0000    88.6440    10.5920     9.1280    10.8910    24.6380     2.1950   -20.2620 
  143.1250    89.4090    10.6600     9.1220    10.7480    24.7210     2.1970   -20.1560 
  143.2500    89.0810    10.7040     9.1340    10.4520    24.6300     2.2060   -20.1160 
  143.3750    87.6060    10.7310     9.1560    10.0180    24.3300     2.2200   -20.1040 
  143.5000    85.6510    10.7740     9.1740     9.6830    24.0410     2.2360   -20.2070 
  143.6250    84.2580    10.8270     9.1860     9.6050    23.9380     2.2500   -20.2850 
  143.7500    85.1710    10.8520     9.1950     9.6470    23.9450     2.2570   -20.4670 
  143.8750    86.8710    10.8370     9.2130     9.9730    23.9720     2.2560   -20.6300 
  144.0000    87.3460    10.8220     9.2520    10.3580    23.9930     2.2490   -20.7870 
  144.1250    87.3660    10.8630     9.3000    10.5700    23.9900     2.2400   -20.9150 
  144.2500    89.3390    10.9540     9.3400    10.5970    23.9860     2.2360   -21.0010 
  144.3750    90.7790    11.0320     9.3540    10.6500    23.9800     2.2350   -21.0820 
  144.5000    88.7520    11.0450     9.3360    10.6690    23.9780     2.2380   -21.1350 
  144.6250    83.0780    10.9940     9.2710    10.5050    23.9620     2.2400   -21.1750 
  144.7500    79.7600    10.9380     9.1680    10.1880    23.9550     2.2390   -21.2150 
  144.8750    80.6410    10.9000     9.0420     9.7760    23.9570     2.2360   -21.2220 
  145.0000    82.6420    10.8690     8.9140     9.5250    23.9100     2.2330   -21.1960 
  145.1250    83.6180    10.8440     8.8360     9.5330    23.9300     2.2330   -21.1460 
  145.2500    82.7510    10.8620     8.8400     9.6910    23.9110     2.2370   -21.0990 
  145.3750    81.5530    10.9860     8.9440     9.8710    23.9590     2.2430   -20.9960 
  145.5000    81.7170    11.2380     9.1470    10.0880    24.1400     2.2460   -20.8420 
  145.6250    84.7030    11.5640     9.4390    10.2800    24.3430     2.2390   -20.6470 
  145.7500    89.6470    11.8600     9.7620    10.8730    24.5010     2.2250   -20.4700 
  145.8750    92.2290    12.1040    10.0860    11.6470    24.4730     2.2100   -20.2700 
  146.0000    88.7480    12.3320    10.3950    12.2380    24.1920     2.2010   -20.1040 
  146.1250    81.2250    12.5950    10.6900    12.8590    24.0420     2.2030   -19.9420 
  146.2500    76.6040    12.8900    10.9890    13.7690    24.0080     2.2120   -19.7560 
  146.3750    77.0370    13.1620    11.2950    14.8820    24.0640     2.2250   -19.5970 
  146.5000    79.4360    13.3530    11.5730    15.8200    24.1810     2.2350   -19.4080 
  146.6250    82.3130    13.4000    11.7360    14.2560    24.3700     2.2370   -19.2930 
  146.7500    84.9280    13.2680    11.7050    14.1500    24.5760     2.2310   -19.0720 
  146.8750    85.4110    12.8770    11.4000    14.7020    24.7240     2.2220   -18.9060 
  147.0000    85.9110    12.1660    10.7970    14.8100    24.7340     2.2200   -18.6630 
  147.1250    93.3850    11.1580     9.9180    12.5030    24.5250     2.2340   -18.5080 
  147.2500   102.5450    10.0810     8.9400     9.5720    24.4250     2.2630   -18.3610 
  147.3750   105.7470     9.1260     8.0040     7.4830    24.3930     2.2960   -18.2600 
  147.5000   101.8410     8.4210     7.2400     6.7850    24.3720     2.3220   -18.2120 
  147.6250    97.6450     8.0730     6.7870     6.9050    24.3590     2.3300   -18.1380 
  147.7500    96.6150     8.0440     6.6540     7.1520    24.3480     2.3280   -18.0960 
  147.8750    96.0080     8.3270     6.8410     7.0710    24.3410     2.3230   -18.0800 
  148.0000    94.0710     8.8640     7.2930     7.1890    24.3400     2.3180   -18.1140 
  148.1250    89.8260     9.5230     7.9050     8.3860    24.3540     2.3070   -18.1190 
  148.2500    84.2180    10.0980     8.5110    10.6670    24.3710     2.2870   -18.0800 
  148.3750    79.4070    10.4730     9.0210    13.1610    24.3810     2.2630   -18.0150 
  148.5000    76.7400    10.6360     9.3820    14.1820    24.3730     2.2410   -17.9250 
  148.6250    75.9020    10.6590     9.5600    13.6730    24.3320     2.2350   -17.8290 
  148.7500    76.6390    10.6360     9.6200    11.2800    24.2760     2.2460   -17.7080 
  148.8750    78.0070    10.5620     9.5810     9.7850    24.2350     2.2750   -17.6010 
  149.0000    78.1340    10.3950     9.4570    10.7200    24.2210     2.3210   -17.4730 
  149.1250    77.9450    10.0970     9.2310    13.2600    24.2230     2.3770   -17.3720 
  149.2500    80.7300     9.6990     8.9050    15.0680    24.2300     2.4250   -17.3020 
  149.3750    86.1050     9.2280     8.4840    13.6880    24.2410     2.4510   -17.2550 
  149.5000    90.8750     8.7180     8.0020     9.3240    24.2600     2.4480   -17.2530 
  149.6250    93.8790     8.2320     7.5480     7.2830    24.2810     2.4250   -17.2340 
  149.7500    96.2180     7.8710     7.1920     6.6690    24.3000     2.3980   -17.2870 
  149.8750    97.9630     7.7070     6.9790     6.8430    24.3130     2.3760   -17.2950 
