~V
VERS. 2.00: Ver 2.00
~W
STRT.M 66.0000:
STOP.M 262.0000:
STEP.M 0.1250:
NULL. -999.2500:
UWI. DF3009:
~C
DEPT.M :
GR.API :
RML.OHMM :
RI. :
RXO.OHMM :
CALI.CM :
DEN.GM/CC :
SP.MV :
~A
# ...
   77.2500    82.4700    11.0210    10.6010     0.5000    24.1990  -999.2500   -23.8430 
   77.3750    80.3680     9.8550     9.7120     0.5000    24.2100  -999.2500   -23.7410 
   77.5000    83.1980     8.5990     8.6090     0.5000    24.2860  -999.2500   -23.4860 
   77.6250    93.2710     7.6210     7.6240     0.5000    24.4590  -999.2500   -23.1950 
   77.7500   102.6250     6.9890     6.8900     0.5000    24.5780  -999.2500   -22.9190 
   77.8750   107.5440     6.6540     6.4090     0.5000    24.7260  -999.2500   -22.5780 
   78.0000   112.1810     6.5080     6.1200     0.5000    24.6970  -999.2500   -22.3570 
   78.1250   117.1750     6.4400     5.9520     0.5000    24.6310  -999.2500   -22.2140 
   78.2500   114.9040     6.3640     5.8220     0.5000    24.5220  -999.2500   -22.1310 
   78.3750   107.5520     6.2660     5.7120     0.5000    24.3330  -999.2500   -22.2270 
   78.5000   105.2140     6.1800     5.6360     0.5000    24.0990  -999.2500   -22.4850 
   78.6250   107.7380     6.2060     5.6570     0.5000    23.8160  -999.2500   -22.9450 
   78.7500   105.5560     6.4080     5.8150     0.5000    23.6380  -999.2500   -23.6170 
   78.8750   102.2230     6.8080     6.1360     0.5000    23.4620  -999.2500   -24.3450 
   79.0000   100.9620     7.3710     6.6040     0.5000    23.3070  -999.2500   -25.0180 
   79.1250    96.0960     8.0060     7.1660     0.5000    23.3850  -999.2500   -25.8910 
   79.2500    86.5160     8.5920     7.7180     0.5000    23.5880  -999.2500   -26.8070 
   79.3750    77.4650     9.0690     8.1920     0.5000    24.0220  -999.2500   -27.5570 
   79.5000    72.5860     9.4340     8.5540     0.5000    24.2580  -999.2500   -28.3140 
   79.6250    69.2700     9.7250     8.8000     0.5000    24.3510  -999.2500   -28.9720 
   79.7500    66.6750     9.9940     8.9750     0.5000    24.4270  -999.2500   -29.3670 
   79.8750    65.5290    10.2270     9.0820     0.5000    24.7620  -999.2500   -29.6890 
   80.0000    65.4190    10.3600     9.0930     0.5000    25.0220  -999.2500   -29.9190 
   80.1250    66.7320    10.2580     8.9360     0.5000    24.7820  -999.2500   -29.7760 
   80.2500    69.4070     9.9050     8.6080     0.5000    24.3570  -999.2500   -29.4860 
   80.3750    74.2500     9.3540     8.1440     0.5000    23.9480  -999.2500   -29.1590 
   80.5000    81.0160     8.7500     7.6350     0.5000    23.8760  -999.2500   -28.6990 
   80.6250    85.4870     8.3350     7.2360     0.5000    23.8810  -999.2500   -28.2000 
   80.7500    86.7760     8.2260     7.0400     0.5000    23.9380  -999.2500   -27.7560 
   80.8750    85.1830     8.4320     7.0760     0.5000    23.8570  -999.2500   -27.3390 
   81.0000    83.7000     8.8620     7.3110     0.5000    23.6070  -999.2500   -27.0630 
   81.1250    83.8180     9.3580     7.6730     0.5000    23.4440  -999.2500   -26.9550 
   81.2500    83.6070     9.7670     8.0350     0.5000    23.1430  -999.2500   -26.8740 
   81.3750    80.7490    10.0440     8.3350     0.5000    23.1740  -999.2500   -26.9580 
   81.5000    75.5240    10.2180     8.5540     0.5000    23.2340  -999.2500   -27.1180 
   81.6250    72.6560    10.3540     8.7060     0.5000    23.2810  -999.2500   -27.2220 
   81.7500    72.3960    10.4980     8.8290     0.5000    23.3240  -999.2500   -27.4930 
   81.8750    71.4090    10.6240     8.9240     0.5000    23.3000  -999.2500   -27.7920 
   82.0000    70.3800    10.6710     8.9660     0.5000    23.3390  -999.2500   -27.9720 
   82.1250    70.8200    10.5740     8.9140     0.5000    23.2920  -999.2500   -28.3320 
   82.2500    70.4920    10.3880     8.7930     0.5000    23.3930  -999.2500   -28.7660 
   82.3750    66.9050    10.2010     8.6540     0.5000    23.4390  -999.2500   -29.0570 
   82.5000    61.9280    10.1090     8.5610     0.5000    23.4910  -999.2500   -29.4310 
   82.6250    61.4540    10.1830     8.5770     0.5000    23.5900  -999.2500   -29.8400 
   82.7500    66.2070    10.3710     8.6890     0.5000    23.6040  -999.2500   -30.0380 
   82.8750    71.2830    10.6020     8.8670     0.5000    23.6170  -999.2500   -30.2280 
   83.0000    72.7910    10.8070     9.0650     0.5000    23.5740  -999.2500   -30.4440 
   83.1250    70.7380    10.9480     9.2460     0.5000    23.6660  -999.2500   -30.3480 
   83.2500    67.9940    11.0670     9.4100     0.5000    23.6800  -999.2500   -30.1480 
   83.3750    65.0180    11.2120     9.5700     0.5000    23.6950  -999.2500   -29.9940 
   83.5000    62.4590    11.4060     9.7310     0.5000    23.6950  -999.2500   -29.6630 
   83.6250    61.9550    11.6000     9.8580     0.5000    23.7050  -999.2500   -29.2510 
   83.7500    62.6560    11.6770     9.8840     0.5000    23.8380  -999.2500   -28.8450 
   83.8750    64.2150    11.5290     9.7370     0.5000    23.8900  -999.2500   -28.2470 
   84.0000    66.9390    11.1020     9.3790     0.5000    23.9930  -999.2500   -27.5700 
   84.1250    70.3020    10.4010     8.8090     0.5000    23.9140  -999.2500   -26.8520 
   84.2500    73.9810     9.6150     8.1560     0.5000    23.7200  -999.2500   -26.0710 
   84.3750    78.1630     8.9120     7.5410     0.5000    23.5060  -999.2500   -25.3040 
   84.5000    82.2970     8.4400     7.0700     0.5000    23.3890  -999.2500   -24.5850 
   84.6250    84.8390     8.3360     6.8580     0.5000    23.5410  -999.2500   -24.0040 
   84.7500    84.3340     8.5370     6.8880     0.5000    23.5080  -999.2500   -23.5600 
   84.8750    81.2610     8.9670     7.1310     0.5000    23.3780  -999.2500   -23.2620 
   85.0000    77.6230     9.5140     7.5300     0.5000    23.3440  -999.2500   -23.1020 
   85.1250    77.0070    10.0440     7.9980     0.5000    23.2920  -999.2500   -23.1930 
   85.2500    76.8850    10.4540     8.4310     0.5000    23.3410  -999.2500   -23.2970 
   85.3750    73.6870    10.6940     8.7590     0.5000    23.3100  -999.2500   -23.3280 
   85.5000    70.1410    10.7510     8.9420     0.5000    23.3830  -999.2500   -23.4680 
   85.6250    72.1530    10.6270     8.9530     0.5000    23.3540  -999.2500   -23.5060 
   85.7500    76.5130    10.4130     8.8530     0.5000    23.3610  -999.2500   -23.3460 
   85.8750    78.0930    10.1860     8.6950     0.5000    23.3680  -999.2500   -23.1950 
   86.0000    76.1070    10.0340     8.5450     0.5000    23.3590  -999.2500   -22.9800 
   86.1250    74.8370    10.0600     8.4810     0.5000    23.4460  -999.2500   -22.5460 
   86.2500    75.6130    10.2450     8.5120     0.5000    23.4760  -999.2500   -22.1560 
   86.3750    77.4210    10.4960     8.5960     0.5000    23.5990  -999.2500   -21.7470 
   86.5000    78.4940    10.6550     8.6460     0.5000    23.6620  -999.2500   -21.1610 
   86.6250    78.8340    10.5080     8.5270     0.5000    23.6970  -999.2500   -20.5660 
   86.7500    81.5610    10.0330     8.2000     0.5000    23.6800  -999.2500   -19.9710 
   86.8750    86.9160     9.3110     7.6890     0.5000    23.6520  -999.2500   -19.2890 
   87.0000    93.6700     8.5140     7.0850     0.5000    23.8510  -999.2500   -18.6030 
   87.1250    99.8180     7.8660     6.5260     0.5000    24.0250  -999.2500   -17.9730 
   87.2500   104.2610     7.4580     6.0970     0.5000    24.2100  -999.2500   -17.3430 
   87.3750   105.8390     7.2830     5.8230     0.5000    24.2490  -999.2500   -16.8500 
   87.5000   106.5080     7.2630     5.6780     0.5000    24.3230  -999.2500   -16.4610 
   87.6250   110.5380     7.2820     5.6150     0.5000    24.3700  -999.2500   -16.0870 
   87.7500   114.5570     7.2390     5.5630     0.5000    24.2160  -999.2500   -15.9390 
   87.8750   114.5770     7.1220     5.5000     0.5000    24.1920  -999.2500   -15.8740 
   88.0000   111.2570     6.9850     5.4450     0.5000    24.3120  -999.2500   -15.7900 
   88.1250   109.7750     6.9480     5.4580     0.5000    24.4620  -999.2500   -15.9300 
   88.2500   111.4460     7.0680     5.5690     0.5000    24.4690  -999.2500   -16.1440 
   88.3750   112.8120     7.3370     5.7760     0.5000    24.3930  -999.2500   -16.3070 
