~V
VERS. 2.00: Ver 2.00
~W
STRT.M 140.0000:
STOP.M 272.0000:
STEP.M 0.1250:
NULL. -999.2500:
UWI. DF3077:
~C
DEPT.M :
GR.API :
CALI.CM :
RXO.OHMM :
RI. :
RML.OHMM :
DEN.GM/CC :
SP.MV :
~A
# ...
  162.5000    63.9370    25.9230    22.6600    23.9990    26.3990     2.5550    -1.3850 
  162.6250    66.4480    25.9520    22.0140    24.0960    26.5050     2.5580    -1.3150 
  162.7500    64.8130    25.9900    21.6590    24.1750    26.5920     2.5560    -1.2570 
  162.8750    62.9110    26.0270    22.2140    24.2180    26.6400     2.5590    -1.2350 
  163.0000    64.1530    26.0540    22.8080    24.1630    26.5800     2.5720    -1.2020 
  163.1250    66.8030    26.0680    22.5510    23.7880    26.1670     2.5870    -1.1710 
  163.2500    66.8030    25.9920    23.2400    22.8940    25.1830     2.5940    -1.1440 
  163.3750    62.3260    25.8550    24.2010    21.4900    23.6390     2.5940    -1.1260 
  163.5000    57.5100    25.6190    22.9860    19.7000    21.6700     2.5890    -1.1220 
  163.6250    58.0930    25.3330    19.4970    17.8020    19.5820     2.5780    -1.1120 
  163.7500    61.0110    25.1650    16.5680    16.1410    17.7550     2.5630    -1.0370 
  163.8750    61.9220    25.1730    14.2640    14.9000    16.3900     2.5480    -0.9120 
  164.0000    59.7600    25.4190    12.5700    14.1950    15.6150     2.5380    -0.7810 
  164.1250    57.5080    25.5120    11.5820    14.1750    15.5930     2.5390    -0.6860 
  164.2500    55.6400    25.6160    12.2320    14.7350    16.2090     2.5520    -0.6310 
  164.3750    53.7020    25.7010    13.5740    15.7400    17.3140     2.5710    -0.6540 
  164.5000    53.0520    25.6490    15.9880    16.9930    18.6930     2.5850    -0.7260 
  164.6250    54.6870    25.7060    17.5270    18.2320    20.0550     2.5870    -0.7980 
  164.7500    57.8280    25.8420    18.2490    19.1880    21.1070     2.5850    -0.8910 
  164.8750    61.2710    25.8770    18.9730    19.6610    21.6270     2.5910    -0.9970 
  165.0000    62.4300    25.8010    19.7130    19.5960    21.5560     2.6040    -1.0430 
  165.1250    59.6720    25.8260    19.6330    19.0440    20.9490     2.6140    -0.9820 
  165.2500    56.6190    25.8590    18.7550    18.2840    20.1120     2.6110    -0.8880 
  165.3750    56.2700    25.8690    18.1000    17.5550    19.3100     2.5950    -0.7980 
  165.5000    58.3060    25.8820    16.8790    17.0580    18.7640     2.5710    -0.7560 
  165.6250    60.0150    25.9530    15.5090    16.9300    18.6230     2.5510    -0.7920 
  165.7500    60.1490    25.9590    15.3580    17.0940    18.8040     2.5530    -0.8450 
  165.8750    59.2110    25.8990    16.2230    17.4770    19.2250     2.5830    -0.9030 
  166.0000    57.4280    25.8650    17.7600    17.9520    19.7470     2.6230    -0.9880 
  166.1250    56.1770    25.8110    19.2880    18.3130    20.1440     2.6420    -1.1040 
  166.2500    56.1560    25.6620    19.8970    18.4840    20.3320     2.6400    -1.2080 
  166.3750    56.2540    25.5640    18.8770    18.4980    20.3480     2.6350    -1.2430 
  166.5000    54.8050    25.6170    17.0940    18.4360    20.2790     2.6330    -1.2080 
  166.6250    51.7420    25.6710    15.4940    18.4000    20.2400     2.6260    -1.1350 
  166.7500    51.1920    25.6960    15.9240    18.3900    20.2290     2.6200    -1.0860 
  166.8750    55.0480    25.6140    17.4980    18.3870    20.2260     2.6220    -1.0690 
  167.0000    61.7470    25.6930    18.4440    18.3330    20.1660     2.6220    -1.1040 
  167.1250    65.7580    25.9000    17.5260    18.1660    19.9830     2.6000    -1.1970 
  167.2500    64.9380    26.0370    16.5820    17.8640    19.6510     2.5610    -1.3090 
  167.3750    61.6500    25.9340    15.7080    17.4260    19.1680     2.5180    -1.4470 
  167.5000    59.7200    25.9160    15.1300    16.9260    18.6180     2.4800    -1.5740 
  167.6250    60.7920    25.9180    15.0700    16.5160    18.1670     2.4650    -1.6470 
  167.7500    62.4580    25.9140    14.8670    16.2530    17.8780     2.4750    -1.6530 
  167.8750    64.2100    26.0150    14.6720    16.0890    17.6980     2.4960    -1.6000 
  168.0000    67.0490    26.0370    14.4450    15.9950    17.5940     2.5100    -1.5070 
  168.1250    69.5230    25.8890    14.2140    15.9960    17.5960     2.5080    -1.4200 
  168.2500    68.9370    25.8960    13.7760    16.0700    17.6770     2.4980    -1.4060 
  168.3750    65.0050    26.0220    13.8010    16.2320    17.8550     2.4900    -1.4610 
  168.5000    60.3030    26.0540    13.8220    16.4600    18.1060     2.4910    -1.5620 
  168.6250    58.5260    25.8990    14.0890    16.6490    18.3140     2.5100    -1.6680 
  168.7500    58.9560    25.8280    14.5560    16.6860    18.3540     2.5390    -1.7750 
  168.8750    60.1110    25.6810    15.0710    16.5010    18.1510     2.5630    -1.8910 
  169.0000    61.6340    25.6350    15.1470    16.0500    17.6550     2.5680    -2.0130 
  169.1250    61.1420    25.6010    15.1840    15.3450    16.8790     2.5570    -2.0760 
  169.2500    58.9430    25.5560    14.3650    14.6060    16.0660     2.5510    -2.0650 
  169.3750    56.0320    25.6990    12.8500    13.9950    15.3940     2.5560    -2.0270 
  169.5000    54.4730    25.6350    11.3810    13.6160    14.9770     2.5620    -2.0070 
  169.6250    55.6520    25.7230    11.1900    13.5760    14.9340     2.5610    -2.0620 
  169.7500    56.5570    25.5560    11.6710    13.8040    15.1840     2.5630    -2.2080 
  169.8750    55.7850    25.5120    12.3110    14.2110    15.6320     2.5690    -2.3960 
  170.0000    54.3960    25.4180    12.8650    14.6740    16.1410     2.5710    -2.5680 
  170.1250    55.3240    25.4310    13.1750    15.0310    16.5350     2.5650    -2.7150 
  170.2500    58.0080    25.4100    13.2240    15.1820    16.7000     2.5580    -2.8700 
  170.3750    59.8460    25.1150    12.8590    15.1230    16.6350     2.5560    -3.0070 
  170.5000    62.0030    24.6750    12.6470    14.9120    16.4030     2.5590    -3.0990 
  170.6250    63.7110    24.3450    13.0790    14.6460    16.1100     2.5660    -3.1660 
  170.7500    60.8620    24.0550    13.6630    14.4420    15.8860     2.5740    -3.2360 
  170.8750    54.2040    23.9430    13.6020    14.3520    15.7870     2.5810    -3.3470 
  171.0000    49.5730    23.8910    13.3140    14.3710    15.8080     2.5870    -3.5200 
  171.1250    53.3030    23.8560    13.6230    14.5030    15.9530     2.5900    -3.7580 
  171.2500    58.2310    23.7400    13.7200    14.7220    16.1940     2.5890    -3.9860 
  171.3750    59.7140    23.5910    13.0300    14.9620    16.4580     2.5820    -4.1880 
  171.5000    60.0250    23.4890    12.2300    15.1440    16.6580     2.5710    -4.3980 
  171.6250    62.6230    23.3690    12.2810    15.1180    16.6300     2.5610    -4.6090 
  171.7500    65.3670    23.2880    12.4210    14.8210    16.3030     2.5540    -4.8130 
  171.8750    66.2100    23.2580    11.9510    14.2780    15.7060     2.5440    -5.0490 
  172.0000    67.2960    23.4330    11.1040    13.6900    15.0590     2.5240    -5.3250 
  172.1250    67.6350    23.6380    10.3010    13.3800    14.7180     2.4970    -5.6590 
  172.2500    65.8320    24.0270     9.7520    13.6000    14.9600     2.4760    -6.0330 
  172.3750    66.0730    24.3760     9.4940    14.9570    16.4520     2.4550    -6.4520 
  172.5000    69.8090    24.7520     9.9600    18.3360    20.1700     2.4210    -6.8990 
  172.6250    73.0180    25.1090    15.0430    24.7510    27.0770     2.3700    -7.3640 
  172.7500    71.6120    25.4860    31.3630    34.3380    37.0860     2.3230    -7.8020 
  172.8750    69.3440    25.7440    51.9720    47.6550    51.4680     2.2920    -8.1480 
  173.0000    67.2810    25.7970    65.0310    64.5970    69.7650     2.2780    -8.4300 
  173.1250    65.1630    25.8010    69.3830    83.1230    89.7730     2.2650    -8.7200 
  173.2500    65.8020    25.8330    74.5840    99.0110   106.9320     2.2470    -9.0400 
  173.3750    67.8020    25.9920    82.8550   108.8270   117.5330     2.2280    -9.3700 
  173.5000    68.6790    26.0390    91.1710   111.8720   120.8220     2.2200    -9.7300 
  173.6250    67.0580    25.9240    93.9490   111.9930   120.9520     2.2240   -10.0700 
