~V
VERS. 2.00: Ver 2.00
~W
STRT.M 140.0000:
STOP.M 272.0000:
STEP.M 0.1250:
NULL. -999.2500:
UWI. DF3077:
~C
DEPT.M :
GR.API :
CALI.CM :
RXO.OHMM :
RI. :
RML.OHMM :
DEN.GM/CC :
SP.MV :
~A
# ...
  185.0000    66.1710    23.8610    43.8370   133.3510   166.6120     2.2590   -10.0100 
  185.1250    61.6350    23.9120    57.0610   152.9090   198.7350     2.2390    -9.9420 
  185.2500    59.7940    24.1880    68.0410   163.3360   215.3140     2.2250    -9.8760 
  185.3750    59.4650    24.5710    77.1450   160.8230   207.4810     2.2250    -9.8290 
  185.5000    60.9800    24.7490    82.8980   146.0360   179.8720     2.2400    -9.8150 
  185.6250    64.9940    24.8600    79.2640   124.4390   147.7780     2.2700    -9.8030 
  185.7500    68.1150    24.8750    68.9270   103.8810   122.0110     2.2990    -9.7540 
  185.8750    68.8440    24.9590    58.2570    88.9280   105.7470     2.3180    -9.6140 
  186.0000    69.7070    25.1010    50.3220    80.6320    97.2020     2.3210    -9.3700 
  186.1250    73.0660    25.2770    45.8690    77.8470    95.0570     2.3110    -9.1290 
  186.2500    75.0270    25.3890    53.4820    78.2470    96.8120     2.3000    -8.9550 
  186.3750    73.0230    25.5110    64.0700    80.6250   101.0290     2.2920    -8.8360 
  186.5000    69.6870    25.5510    69.5210    83.8590   106.1730     2.2800    -8.7480 
  186.6250    69.7200    25.5570    71.9620    86.9500   110.6350     2.2600    -8.6900 
  186.7500    71.9930    25.5560    70.8520    89.3860   113.4850     2.2420    -8.6440 
  186.8750    73.2070    25.5420    69.2260    90.8240   113.8560     2.2320    -8.6070 
  187.0000    71.9810    25.7190    71.2710    91.0110   111.8200     2.2290    -8.6010 
  187.1250    69.5120    25.7490    72.7850    89.7360   107.4130     2.2350    -8.5480 
  187.2500    68.2720    25.7440    71.3720    86.4390   100.1760     2.2470    -8.3720 
  187.3750    69.8680    25.6680    69.6410    80.5600    90.3370     2.2610    -8.1330 
  187.5000    72.4350    25.6590    70.3230    72.2480    78.7710     2.2690    -7.8690 
  187.6250    72.7690    25.6900    70.8150    62.3940    66.9050     2.2720    -7.6330 
  187.7500    73.4570    25.6730    66.0380    52.5690    56.0500     2.2800    -7.5030 
  187.8750    76.5330    25.5950    53.3910    44.0700    47.3310     2.2990    -7.4740 
  188.0000    78.9980    25.4010    36.2180    37.4940    40.8980     2.3240    -7.4600 
  188.1250    77.9760    25.3790    23.4290    33.0140    36.1150     2.3440    -7.4510 
  188.2500    78.5960    25.3710    18.7870    30.0170    32.8700     2.3540    -7.4820 
  188.3750    81.3710    25.3710    20.7170    28.2260    31.1850     2.3550    -7.5530 
  188.5000    84.0520    25.3710    22.1910    27.6170    30.9460     2.3540    -7.6490 
  188.6250    82.7120    25.3710    21.7940    28.6560    32.5040     2.3500    -7.7680 
  188.7500    77.0060    25.3710    18.2640    31.2810    36.0660     2.3430    -7.8570 
  188.8750    71.2370    25.4430    19.1280    35.4620    42.2010     2.3260    -7.9130 
  189.0000    69.8670    25.4620    25.2960    41.1780    50.9830     2.3000    -7.9790 
  189.1250    70.9440    25.5170    33.0700    48.7610    62.6950     2.2780    -8.1100 
  189.2500    69.0410    25.4850    39.8240    57.4160    75.1900     2.2720    -8.2780 
  189.3750    66.6720    25.5510    46.6940    65.7970    85.3790     2.2780    -8.4590 
  189.5000    68.8400    25.6060    55.7810    71.7020    89.8850     2.2760    -8.6740 
  189.6250    74.5510    25.6000    62.8380    72.0550    86.9190     2.2600    -8.8740 
  189.7500    77.8260    25.4940    62.0790    67.3520    78.7200     2.2510    -9.0280 
  189.8750    75.7290    25.3860    57.3780    59.2580    67.6030     2.2560    -9.1180 
  190.0000    68.4230    25.2900    54.5670    49.5580    55.1790     2.2650    -9.1680 
  190.1250    63.7270    25.2410    52.1840    39.9630    43.2310     2.2710    -9.1380 
  190.2500    67.6170    25.1350    43.8910    31.7280    33.1200     2.2880    -9.0770 
  190.3750    76.8920    24.9310    30.8720    25.3960    26.4950     2.3240    -8.9880 
  190.5000    85.1910    24.8340    18.6940    20.8750    21.9180     2.3690    -8.8510 
  190.6250    88.3930    24.6770    13.5840    18.1200    19.0260     2.4030    -8.7290 
  190.7500    87.3990    24.7510    12.1530    16.6020    17.4320     2.4260    -8.6740 
  190.8750    84.2370    24.8310    11.7200    16.0300    16.8320     2.4410    -8.7290 
  191.0000    84.0360    24.8060    11.7620    16.2330    17.0440     2.4500    -8.8630 
  191.1250    88.4600    24.6160    12.2820    17.1190    17.9750     2.4480    -9.1090 
  191.2500    89.2820    24.5900    13.3670    18.3410    19.2580     2.4360    -9.3910 
  191.3750    85.3110    24.5490    15.3220    19.8990    20.8940     2.4150    -9.6730 
  191.5000    82.3930    24.5390    15.5460    22.1520    23.2600     2.3900    -9.9740 
  191.6250    82.5170    24.4750    14.0220    25.6710    26.9550     2.3690   -10.2690 
  191.7500    82.6280    24.3980    16.4340    30.5450    32.0720     2.3520   -10.5130 
  191.8750    81.9630    24.3390    22.5190    37.0560    38.9080     2.3360   -10.7210 
  192.0000    80.0780    24.2120    28.2400    45.1340    47.3910     2.3220   -10.9130 
  192.1250    73.8850    24.3900    34.0380    54.1090    56.8150     2.3130   -11.1280 
  192.2500    66.7680    24.5030    43.0340    62.7910    65.9310     2.3040   -11.3950 
  192.3750    64.0640    24.6790    50.7540    69.5740    73.0520     2.2950   -11.7120 
  192.5000    66.1470    25.1030    54.4380    73.0110    76.6620     2.2870   -12.0480 
  192.6250    69.9740    25.2790    56.3130    73.6400    77.3220     2.2790   -12.3750 
  192.7500    71.6990    25.3910    58.6060    73.4500    77.1220     2.2610   -12.6910 
  192.8750    68.4480    25.4100    60.5090    72.8730    76.5170     2.2400   -12.9660 
  193.0000    64.0570    25.4120    63.6460    72.3430    75.9600     2.2340   -13.1640 
  193.1250    65.2270    25.5550    65.8850    72.0760    75.6790     2.2540   -13.2610 
  193.2500    69.4410    25.5380    65.5230    71.9290    75.5250     2.2780   -13.3130 
  193.3750    70.7590    25.5470    63.6440    71.9910    75.5910     2.2900   -13.3560 
  193.5000    67.9040    25.5560    61.4430    72.4820    76.1060     2.2920   -13.4260 
  193.6250    65.1780    25.5150    57.7540    73.6570    77.3400     2.2950   -13.5340 
  193.7500    64.6330    25.5030    58.9170    75.3880    79.1580     2.2960   -13.6950 
  193.8750    64.9370    25.5630    65.4450    77.7070    81.5920     2.2880   -13.8910 
  194.0000    65.6190    25.5980    70.7390    80.6810    84.7150     2.2740   -14.1340 
  194.1250    68.1850    25.5940    68.4350    84.6600    88.8930     2.2610   -14.3880 
  194.2500    70.5030    25.5760    65.6360    89.6500    94.1320     2.2510   -14.6030 
  194.3750    69.7430    25.5690    68.3060    95.1710    99.9290     2.2430   -14.7320 
  194.5000    67.1290    25.5710    78.5910   100.6460   105.6780     2.2380   -14.7680 
  194.6250    67.1360    25.5110    92.1130   105.3200   110.5860     2.2400   -14.7470 
  194.7500    67.5800    25.4920    98.0110   108.9510   114.3980     2.2480   -14.7070 
  194.8750    64.9620    25.5500    96.6180   111.1080   116.6630     2.2520   -14.7040 
  195.0000    60.5080    25.5600    93.1850   111.5030   117.0780     2.2460   -14.7320 
  195.1250    57.1160    25.4200    92.0680   110.2660   115.7790     2.2360   -14.7830 
  195.2500    56.2620    25.4790    94.5550   108.3880   113.8070     2.2270   -14.8810 
  195.3750    60.1150    25.5590    96.0430   107.1380   112.4950     2.2180   -15.0430 
  195.5000    66.0520    25.6020    91.2360   107.5870   112.9660     2.2120   -15.2440 
  195.6250    67.5230    25.5040    83.0950   110.5440   116.0710     2.2230   -15.4590 
  195.7500    65.3910    25.3930    77.3830   115.5090   121.2850     2.2470   -15.6620 
  195.8750    64.1060    25.3810    79.7110   121.8990   127.9940     2.2640   -15.7960 
  196.0000    62.4520    25.4000    89.5130   128.4650   134.8890     2.2630   -15.8970 
  196.1250    58.3440    25.5280   101.5970   133.7030   140.3880     2.2510   -15.9680 
