~V
VERS. 2.00: Ver 2.00
~W
STRT.M 61.0000:
STOP.M 279.0000:
STEP.M 0.1250:
NULL. -999.2500:
UWI. DF3040:
~C
DEPT.M :
GR.API :
CALI.CM :
RXO.OHMM :
RI. :
RML.OHMM :
DEN.GM/CC :
SP.MV :
~A
# ...
   72.2500    79.2820    24.5030     9.0190     7.8060     8.4600  -999.2500   -25.9220 
   72.3750    81.0980    24.5370     9.6090     7.9920     8.7180  -999.2500   -26.0550 
   72.5000    84.0540    24.6380     9.8600     8.1430     8.9100  -999.2500   -26.1510 
   72.6250    85.2290    24.7920    10.5770     8.3060     9.1010  -999.2500   -26.1670 
   72.7500    83.6790    24.9860    11.3570     8.4870     9.2910  -999.2500   -26.1200 
   72.8750    80.2250    25.1300    12.3690     8.6990     9.4920  -999.2500   -26.0590 
   73.0000    74.1720    25.4710    14.8890     8.9190     9.6490  -999.2500   -26.0290 
   73.1250    68.4280    25.3560    19.6010     9.0640     9.6700  -999.2500   -26.0130 
   73.2500    66.7950    25.3080    20.6740     9.0750     9.5740  -999.2500   -25.9800 
   73.3750    70.1040    25.2000    16.0740     8.9580     9.3670  -999.2500   -25.9010 
   73.5000    74.0260    25.1350    10.4010     8.7370     9.1080  -999.2500   -25.7970 
   73.6250    72.6930    25.0460     8.7450     8.5080     8.8660  -999.2500   -25.6790 
   73.7500    70.3700    24.8620     8.4610     8.3280     8.7160  -999.2500   -25.5710 
   73.8750    71.9340    24.6820     8.7050     8.2380     8.6850  -999.2500   -25.4170 
   74.0000    75.0140    24.5320     9.6470     8.2220     8.7510  -999.2500   -25.2170 
   74.1250    73.8050    24.4370    10.2280     8.2690     8.8590  -999.2500   -24.9890 
   74.2500    69.7130    24.4720    10.2600     8.3060     8.8970  -999.2500   -24.7780 
   74.3750    69.8590    24.5060     9.8760     8.2830     8.8550  -999.2500   -24.6230 
   74.5000    74.9350    24.2820    10.0240     8.1870     8.7230  -999.2500   -24.5100 
   74.6250    80.3710    24.2350    10.2180     8.0150     8.5150  -999.2500   -24.4120 
   74.7500    85.8000    24.2500     9.9050     7.8140     8.3050  -999.2500   -24.3330 
   74.8750    92.3590    24.4200     9.1690     7.6240     8.1180  -999.2500   -24.2900 
   75.0000    97.4460    24.6470     8.9310     7.4900     7.9890  -999.2500   -24.2840 
   75.1250    96.7770    24.7870     9.2150     7.4510     7.9590  -999.2500   -24.3120 
   75.2500    92.2440    24.6900     8.8650     7.4950     8.0390  -999.2500   -24.3600 
   75.3750    84.8390    24.5720     8.8000     7.6170     8.1870  -999.2500   -24.4320 
   75.5000    74.2250    24.5940     9.4570     7.8140     8.4080  -999.2500   -24.5280 
   75.6250    66.8840    24.4670     9.7180     8.0940     8.7420  -999.2500   -24.6130 
   75.7500    67.6900    24.4090     9.8490     8.4300     9.1650  -999.2500   -24.7050 
   75.8750    71.6590    24.4110     9.7290     8.8050     9.6620  -999.2500   -24.7870 
   76.0000    74.2960    24.5310     9.6650     9.2180    10.2010  -999.2500   -24.8640 
   76.1250    74.6480    24.5350    10.7940     9.5940    10.6470  -999.2500   -24.9640 
   76.2500    73.5130    24.5400    13.2850     9.8560    10.9080  -999.2500   -25.0830 
   76.3750    72.5330    24.5070    15.3640     9.9520    10.9600  -999.2500   -25.2160 
   76.5000    73.4430    24.4200    14.9270     9.8680    10.8180  -999.2500   -25.3450 
   76.6250    76.1350    24.4630    12.9280     9.6040    10.4780  -999.2500   -25.5100 
   76.7500    74.9070    24.5810    11.6960     9.2660    10.0680  -999.2500   -25.6570 
   76.8750    69.7720    24.5670    11.5560     8.9460     9.6880  -999.2500   -25.7850 
   77.0000    65.6190    24.5110    11.8840     8.6880     9.4070  -999.2500   -25.8640 
   77.1250    62.7000    24.4120    12.0820     8.5510     9.2620  -999.2500   -25.8700 
   77.2500    59.5620    24.4270    12.1240     8.5230     9.2030  -999.2500   -25.8180 
   77.3750    58.0000    24.4770    12.0390     8.5610     9.1810  -999.2500   -25.7020 
   77.5000    62.2910    24.4680    11.8920     8.6180     9.1460  -999.2500   -25.5350 
   77.6250    69.3160    24.2300    11.5980     8.6430     9.0670  -999.2500   -25.3330 
   77.7500    70.3490    23.9200    11.5570     8.5760     8.8940  -999.2500   -25.1200 
   77.8750    67.2410    23.4730    11.6090     8.5100     8.7530  -999.2500   -24.9290 
   78.0000    65.9260    23.4470    11.6540     8.4580     8.6660  -999.2500   -24.7900 
   78.1250    67.9990    23.6020    11.9720     8.4420     8.6630  -999.2500   -24.6700 
   78.2500    68.9800    23.8170    11.9280     8.4380     8.7480  -999.2500   -24.5560 
   78.3750    66.6970    24.0600    11.0630     8.4440     8.9050  -999.2500   -24.4370 
   78.5000    62.5280    24.1520     9.8430     8.4550     9.1180  -999.2500   -24.2900 
   78.6250    59.7870    23.9560     9.6450     8.4510     9.3410  -999.2500   -24.0970 
   78.7500    60.8870    23.9460    10.1150     8.4470     9.5460  -999.2500   -23.8880 
   78.8750    64.4260    24.0460    10.2540     8.3750     9.6310  -999.2500   -23.6600 
   79.0000    67.6810    24.0980     9.8100     8.2650     9.5960  -999.2500   -23.4060 
   79.1250    69.4490    24.1240     9.8140     8.1490     9.4880  -999.2500   -23.1570 
   79.2500    70.3080    24.2340    10.3300     8.0370     9.3220  -999.2500   -22.9240 
   79.3750    72.8590    24.5740    10.3960     7.9200     9.1290  -999.2500   -22.7220 
   79.5000    77.0590    25.1470    10.0320     7.8160     8.9480  -999.2500   -22.6130 
   79.6250    79.4670    25.6630     9.9630     7.7360     8.8220  -999.2500   -22.6170 
   79.7500    79.5420    25.6480    10.2000     7.6920     8.7640  -999.2500   -22.6740 
   79.8750    80.2430    25.4950     9.9800     7.6970     8.7780  -999.2500   -22.7350 
   80.0000    81.4730    25.4860     9.1930     7.7580     8.8540  -999.2500   -22.8020 
   80.1250    80.6950    25.5130     9.1000     7.8600     8.9640  -999.2500   -22.8380 
   80.2500    78.2350    25.4010     9.2010     7.9710     9.0480  -999.2500   -22.8660 
   80.3750    74.4380    25.1980     8.7900     8.0500     9.0550  -999.2500   -22.8890 
   80.5000    69.3130    24.6290     8.1780     8.0610     8.9980  -999.2500   -22.8870 
   80.6250    66.1540    24.4920     8.4230     8.0740     9.0230  -999.2500   -22.7990 
   80.7500    67.2060    24.3600     9.0910     8.2410     9.2950  -999.2500   -22.6430 
   80.8750    71.3440    24.3970     9.6110     8.6270     9.8800  -999.2500   -22.4460 
   81.0000    72.7340    24.6320    10.1200     9.2370    10.7200  -999.2500   -22.2410 
   81.1250    66.4740    24.9770    10.9760    10.0540    11.6900  -999.2500   -22.1050 
   81.2500    58.8970    25.0040    13.0710    10.8460    12.4610  -999.2500   -21.9720 
   81.3750    58.0800    24.8690    20.2860    11.2970    12.7190  -999.2500   -21.8300 
   81.5000    65.7020    24.7920    31.3770    11.1630    12.2930  -999.2500   -21.6790 
   81.6250    77.0550    24.6870    32.5850    10.3500    11.1470  -999.2500   -21.5820 
   81.7500    85.9080    24.6040    21.5060     9.2050     9.7410  -999.2500   -21.5450 
   81.8750    90.7370    24.5830    11.6470     8.0600     8.4090  -999.2500   -21.5540 
   82.0000    92.7680    24.5320     9.2320     7.1750     7.4640  -999.2500   -21.5570 
   82.1250    92.7730    24.5760     8.1800     6.7220     7.0890  -999.2500   -21.5740 
   82.2500    90.8690    24.7320     7.6800     6.6700     7.2080  -999.2500   -21.6610 
   82.3750    87.7590    25.0490     7.7640     7.0020     7.7480  -999.2500   -21.8350 
   82.5000    84.1490    25.3880     8.0880     7.6310     8.5210  -999.2500   -22.0820 
   82.6250    79.2130    25.6500     7.9440     8.4120     9.3190  -999.2500   -22.3890 
   82.7500    76.4200    25.7610     8.1210     9.1270     9.9270  -999.2500   -22.6980 
   82.8750    77.9410    25.8090     8.9360     9.6560    10.2790  -999.2500   -23.0030 
   83.0000    82.0470    25.7830    10.1250     9.9370    10.3590  -999.2500   -23.2780 
   83.1250    79.4400    25.7720    10.5940     9.9180    10.1800  -999.2500   -23.4500 
   83.2500    70.9810    25.6200    10.9360     9.7310     9.9030  -999.2500   -23.5030 
   83.3750    64.2420    25.3640    11.1050     9.4830     9.6210  -999.2500   -23.4380 
