~V
VERS. 2.00: Ver 2.00
~W
STRT.M 140.0000:
STOP.M 286.0000:
STEP.M 0.1250:
NULL. -999.2500:
UWI. DF3059:
~C
DEPT.M :
SP.MV :
GR.API :
RML.OHMM :
RI. :
RXO.OHMM :
CALI.CM :
DEN.GM/CC :
~A
# ...
  263.7500   -23.0500    81.4100     9.8360     8.7800     9.2530    24.0240     2.3020 
  263.8750   -22.9810    81.1100     9.9530     8.8220     9.3620    24.0360     2.3100 
  264.0000   -22.8210    84.3260    10.2470     9.0180     9.4710    24.0590     2.3210 
  264.1250   -22.6500    87.5310    10.8090     9.4530     9.5660    24.0860     2.3350 
  264.2500   -22.4210    89.0470    11.5690    10.0860    10.3220    24.0760     2.3520 
  264.3750   -22.1920    91.3860    12.4140    10.8420    11.7800    23.9990     2.3640 
  264.5000   -21.9730    96.4850    13.1820    11.5970    13.7400    23.9800     2.3660 
  264.6250   -21.7240   101.9270    13.6790    12.1770    16.7590    24.0600     2.3560 
  264.7500   -21.5420   104.5930    13.8940    12.5200    19.2720    24.1190     2.3380 
  264.8750   -21.2970   102.8780    13.9050    12.6510    17.5120    24.1370     2.3200 
  265.0000   -21.1180    97.5370    13.8570    12.6740    14.7480    24.1290     2.3070 
  265.1250   -20.8630    92.5760    13.9130    12.7280    13.5580    24.1000     2.3020 
  265.2500   -20.6940    94.4470    14.1100    12.8870    13.2530    24.0680     2.3060 
  265.3750   -20.5060   100.9710    14.3970    13.1390    12.9640    24.0690     2.3190 
  265.5000   -20.3190   105.2360    14.6790    13.4200    13.0410    24.0630     2.3330 
  265.6250   -20.2100   102.1440    14.8360    13.6280    13.9670    23.9880     2.3420 
  265.7500   -20.0010    98.4840    14.8420    13.7170    14.4940    23.8720     2.3430 
  265.8750   -19.8060    97.7180    14.7260    13.6930    14.4230    23.7810     2.3340 
  266.0000   -19.5560    97.3960    14.5570    13.6100    14.3360    23.7490     2.3210 
  266.1250   -19.3360    96.8950    14.4320    13.5490    13.6680    23.7900     2.3070 
  266.2500   -19.0800    99.9830    14.4250    13.5830    13.3150    23.8490     2.2940 
  266.3750   -18.8140   105.0020    14.5850    13.7600    13.4630    23.8650     2.2880 
  266.5000   -18.6100   106.2350    14.9150    14.0910    13.9230    23.9200     2.2920 
  266.6250   -18.3140   103.6830    15.3570    14.5370    14.4040    23.8020     2.3070 
  266.7500   -18.1300   103.6170    15.7430    14.9540    15.0390    23.7570     2.3320 
  266.8750   -17.9200   106.7880    15.9070    15.1990    16.6160    23.7740     2.3590 
  267.0000   -17.7430   109.0820    15.7280    15.1530    18.7550    23.8650     2.3800 
  267.1250   -17.5400   108.5820    15.1520    14.7380    19.8350    23.7640     2.3860 
  267.2500   -17.3280   106.2350    14.4020    14.1250    16.7400    23.7910     2.3750 
  267.3750   -17.0650   103.4290    13.7040    13.5000    14.4460    23.9560     2.3440 
  267.5000   -16.7360   101.7940    13.2630    13.0470    13.8720    23.9640     2.3080 
  267.6250   -16.3150   101.5920    13.2210    12.9190    14.1410    23.9640     2.2840 
  267.7500   -15.8020   102.9680    13.4070    13.0180    14.5800    23.9640     2.2850 
  267.8750   -15.2440   102.9040    13.5930    13.1690    15.5190    23.9850     2.3170 
  268.0000   -14.6060    98.3600    13.5270    13.1520    17.2220    23.9700     2.3680 
  268.1250   -13.9890    93.0190    12.9790    12.7240    17.4910    23.9150     2.4200 
  268.2500   -13.3270    90.1040    12.0650    11.9340    17.2430    23.8440     2.4580 
  268.3750   -12.8020    85.9170    10.9730    10.9280    15.8710    23.8120     2.4700 
  268.5000   -12.2680    75.9040     9.9230     9.8990    11.2360    23.7720     2.4610 
  268.6250   -11.8770    63.8390     9.1060     9.0390     8.7200    23.7590     2.4410 
  268.7500   -11.5450    56.6220     8.5290     8.3870     8.6060    23.7560     2.4160 
  268.8750   -11.2530    53.2130     8.1540     7.9360     9.3250    23.7580     2.3950 
  269.0000   -11.0530    52.4200     7.9300     7.6520     8.5670    23.7580     2.3800 
  269.1250   -10.8700    54.7130     7.8240     7.5090     7.5930    23.7590     2.3720 
  269.2500   -10.7820    56.3510     7.7800     7.4450     7.0670    23.7630     2.3670 
  269.3750   -10.6060    56.0230     7.7710     7.4290     7.0330    23.7660     2.3630 
  269.5000   -10.5100    55.8920     7.7700     7.4330     7.1460    23.7680     2.3560 
  269.6250   -10.3620    59.3570     7.7520     7.4280     6.9880    23.7690     2.3480 
  269.7500   -10.2200    62.6870     7.7140     7.4010     6.9210    23.7690     2.3410 
  269.8750   -10.1060    61.8710     7.6670     7.3490     6.9720    23.7640     2.3360 
  270.0000    -9.9730    58.3640     7.6220     7.2780     6.6120    23.7600     2.3290 
  270.1250    -9.8910    57.7190     7.5800     7.1940     6.2670    23.7850     2.3170 
  270.2500    -9.7530    59.7160     7.5310     7.1000     6.0500    23.9090     2.3000 
  270.3750    -9.6800    61.5840     7.4670     6.9950     5.9770    24.2040     2.2830 
  270.5000    -9.5890    62.3230     7.3890     6.8860     5.9770    24.6480     2.2740 
  270.6250    -9.6250    62.0710     7.3150     6.7850     6.0450    25.0440     2.2750 
  270.7500    -9.6590    61.1760     7.2710     6.7120     6.1000    25.3040     2.2840 
  270.8750    -9.7470    60.7840     7.2790     6.6830     6.1830    25.4050     2.2990 
  271.0000    -9.8270    62.1270     7.3500     6.7080     6.3610    25.3420     2.3120 
  271.1250    -9.9520    62.4200     7.4880     6.7910     6.6880    25.0500     2.3250 
  271.2500   -10.0680    59.8920     7.6540     6.9060     7.0470    24.5990     2.3390 
  271.3750   -10.1970    56.6190     7.8180     7.0280     7.2190    24.0810     2.3530 
  271.5000   -10.2840    55.0030     7.9490     7.1300     7.1360    23.8020     2.3660 
  271.6250   -10.2870    55.0010     8.0170     7.1810     6.9980    23.7580     2.3740 
  271.7500   -10.3640    54.2900     8.0310     7.1840     6.8820    23.7580     2.3750 
  271.8750   -10.3530    52.8840     8.0060     7.1520     6.7570    23.7580     2.3730 
  272.0000   -10.4060    51.3300     7.9660     7.1030     6.6210    23.7580     2.3720 
  272.1250   -10.4110    50.4670     7.9390     7.0620     6.6600    23.7580     2.3730 
  272.2500   -10.4580    51.4130     7.9390     7.0400     6.8360    23.7580     2.3760 
  272.3750   -10.4690    53.6200     7.9620     7.0340     7.1570    23.7580     2.3790 
  272.5000   -10.4980    55.3140     7.9960     7.0380     7.6590    23.7580     2.3810 
  272.6250   -10.5650    53.9970     8.0240     7.0420     8.4660    23.7600     2.3810 
  272.7500   -10.5350    51.7160     8.0430     7.0440     8.8700    23.7640     2.3810 
  272.8750   -10.5870    51.2220     8.0640     7.0520     8.1710    23.7630     2.3800 
  273.0000   -10.5900    52.6190     8.0950     7.0770     7.5120    23.7600     2.3760 
  273.1250   -10.6450    54.9370     8.1400     7.1220     7.5590    23.7580     2.3690 
  273.2500   -10.6660    56.1720     8.1830     7.1720     8.2390    23.7580     2.3590 
  273.3750   -10.7240    54.5960     8.2090     7.2110     9.4750    23.7580     2.3500 
  273.5000   -10.7670    51.3850     8.2100     7.2240    10.7950    23.7580     2.3470 
  273.6250   -10.8110    50.1270     8.1930     7.2120    10.4590    23.7580     2.3520 
  273.7500   -10.8460    51.4380     8.1850     7.2000     8.7810    23.7580     2.3610 
  273.8750   -10.8580    53.2770     8.2080     7.2140     8.1040    23.7580     2.3690 
  274.0000   -10.8640    54.0500     8.2790     7.2720     7.6850    23.7580     2.3730 
  274.1250   -10.8400    53.8160     8.4020     7.3810     7.4540    23.7580     2.3720 
  274.2500   -10.8430    53.7160     8.5450     7.5160     7.4600    23.7580     2.3700 
  274.3750   -10.8370    53.7160     8.6730     7.6470     7.8540    23.7580     2.3680 
  274.5000   -10.8760    53.7160     8.7480     7.7420     8.2660    23.7580     2.3670 
  274.6250   -10.8370    53.7160     8.7300     7.7640     8.2820    23.7580     2.3660 
  274.7500   -10.8920    53.7160     8.6380     7.7160     8.1650    23.7580     2.3630 
  274.8750   -10.9050    53.7160     8.5000     7.6130     7.9220    23.7580     2.3600 
