~V
VERS. 2.00: Ver 2.00
~W
STRT.M 57.0000:
STOP.M 290.0000:
STEP.M 0.1250:
NULL. -999.2500:
UWI. DF3043:
~C
DEPT.M :
SP.MV :
DEN.GM/CC :
AC.US/MT :
GR.API :
CALI.CM :
RXO.OHMM :
RI. :
RML.OHMM :
~A
# ...
   97.0000   -18.0730     2.1270  -999.2500    77.0870    21.8920     8.6670     6.7230     9.8780 
   97.1250   -17.5740     2.1430  -999.2500    82.1720    22.2050     7.3530     6.4410     9.3900 
   97.2500   -17.0590     2.1740  -999.2500    84.9510    22.6640     6.7250     6.1360     8.8910 
   97.3750   -16.5000     2.2040  -999.2500    85.8820    23.0160     7.3720     5.7860     8.3270 
   97.5000   -15.8680     2.2130  -999.2500    87.2310    23.0800     7.9360     5.3690     7.6380 
   97.6250   -15.1770     2.2050  -999.2500    90.3520    23.1560     6.5750     4.8930     6.8400 
   97.7500   -14.4770     2.2110  -999.2500    96.0350    23.5950     4.8430     4.4320     6.0910 
   97.8750   -13.8040     2.2330  -999.2500   103.0320    24.2010     3.8770     4.0560     5.5330 
   98.0000   -13.1680     2.2530  -999.2500   106.8250    24.5970     3.8180     3.8190     5.2600 
   98.1250   -12.5810     2.2560  -999.2500   104.4720    24.6690     3.9860     3.7780     5.3410 
   98.2500   -12.0960     2.2560  -999.2500   100.7690    24.6480     4.1070     3.8920     5.6490 
   98.3750   -11.7620     2.2680  -999.2500    98.5950    24.6080     4.4600     4.1030     6.0440 
   98.5000   -11.5950     2.2930  -999.2500    97.2270    24.4600     5.1060     4.3270     6.3780 
   98.6250   -11.5800     2.3190  -999.2500    95.6910    24.1570     5.7700     4.4830     6.5290 
   98.7500   -11.6250     2.3290  -999.2500    94.7560    23.8370     5.4720     4.5600     6.5360 
   98.8750   -11.7060     2.3230  -999.2500    94.1300    23.6100     4.7440     4.5780     6.4640 
   99.0000   -11.8220     2.3090   429.4050    91.7240    23.4960     4.4920     4.5660     6.3740 
   99.1250   -11.9730     2.2950   429.4050    88.4090    23.3580     4.4900     4.5540     6.3090 
   99.2500   -12.1490     2.2820   429.2520    87.7380    23.0630     4.4220     4.5560     6.2720 
   99.3750   -12.3310     2.2720   427.9450    89.7490    22.7210     4.2870     4.5650     6.2480 
   99.5000   -12.5190     2.2660   428.3650    91.3140    22.6060     4.2650     4.5670     6.2220 
   99.6250   -12.7220     2.2620   428.8260    90.8750    22.9150     4.6220     4.5620     6.2120 
   99.7500   -12.9250     2.2590   426.5220    89.3080    23.4550     4.9980     4.5850     6.2760 
   99.8750   -13.1220     2.2570   423.6510    86.8840    24.0270     5.0850     4.6810     6.4760 
  100.0000   -13.3030     2.2580   424.4140    85.5750    24.4070     5.1170     4.8710     6.8320 
  100.1250   -13.4670     2.2700   421.1300    85.4510    24.4040     5.6330     5.1450     7.2950 
  100.2500   -13.6110     2.2980   404.3800    83.2550    24.2520     6.6810     5.4190     7.7000 
  100.3750   -13.7110     2.3390   379.7170    77.8210    24.1910     7.4290     5.5970     7.8830 
  100.5000   -13.7680     2.3710   363.9220    72.7410    24.2820     6.9590     5.5970     7.7330 
  100.6250   -13.7990     2.3690   372.9370    74.3660    24.4310     5.7020     5.3850     7.2740 
  100.7500   -13.8490     2.3430   394.5060    80.6860    24.5340     5.1430     5.0890     6.7560 
  100.8750   -13.9400     2.3160   413.2480    86.4380    24.5870     4.8450     4.8160     6.3590 
  101.0000   -14.0580     2.3020   421.4570    90.5350    24.5920     4.5560     4.6390     6.1860 
  101.1250   -14.2000     2.3000   423.1050    94.6950    24.5540     4.5000     4.6020     6.2710 
  101.2500   -14.3730     2.2950   425.0860    94.6580    24.4880     4.8330     4.6470     6.4590 
  101.3750   -14.6020     2.2850   425.3200    88.1690    24.3730     5.0250     4.7020     6.5940 
  101.5000   -14.9050     2.2710   423.2370    80.9910    24.1860     4.9480     4.6920     6.5460 
  101.6250   -15.2600     2.2590   423.0750    83.0440    23.9400     4.7490     4.5680     6.2610 
  101.7500   -15.6310     2.2560   426.2240    89.7400    23.8330     4.4040     4.3870     5.8920 
  101.8750   -15.9930     2.2700   429.6100    93.8210    23.9730     4.1020     4.2280     5.6050 
  102.0000   -16.3320     2.2980   428.6670    94.2510    24.2500     4.2690     4.1610     5.5230 
  102.1250   -16.6620     2.3270   419.1370    92.0270    24.4030     4.6820     4.2490     5.7360 
  102.2500   -17.0030     2.3420   405.7160    87.6960    24.2690     5.3830     4.4880     6.2000 
  102.3750   -17.3850     2.3360   396.8470    82.7990    23.8200     6.0560     4.8920     6.9110 
  102.5000   -17.8320     2.3120   397.8490    79.8330    23.1380     6.6160     5.4800     7.8820 
  102.6250   -18.3530     2.2850   399.4810    79.1050    22.5740     7.6660     6.2950     9.1400 
  102.7500   -18.9080     2.2810   382.1220    77.1230    22.5480     9.8020     7.2450    10.5200 
  102.8750   -19.4310     2.3160   339.8070    74.4610    23.0240    12.6280     8.1770    11.7410 
  103.0000   -19.8690     2.3850   288.0130    72.9330    23.4740    14.5190     8.8490    12.4150 
  103.1250   -20.1950     2.4370   262.9730    71.5930    23.2870    14.1280     8.9490    12.1440 
  103.2500   -20.4540     2.4290   278.3480    70.5230    22.7190    12.3110     8.5630    11.2520 
  103.3750   -20.7150     2.3620   325.3850    71.9430    22.2370    10.1140     7.9060    10.1710 
  103.5000   -21.0530     2.2780   380.2080    74.5910    22.0890     8.7030     7.2390     9.2820 
  103.6250   -21.5110     2.2230   415.6140    74.1850    22.2690     8.4180     6.7880     8.8440 
  103.7500   -22.0310     2.1970   429.0490    72.7360    22.5540     8.4750     6.5940     8.7950 
  103.8750   -22.5420     2.1890   430.2170    74.4300    22.7560     8.6550     6.6370     9.0520 
  104.0000   -23.0160     2.1840   429.2340    78.0850    22.7990     9.0710     6.8580     9.5000 
  104.1250   -23.4720     2.1720   428.7760    76.8000    22.8070     9.9280     7.1780     9.9940 
  104.2500   -23.9230     2.1550   429.0010    72.0390    22.9220    10.2280     7.4700    10.3630 
  104.3750   -24.3610     2.1410   431.3840    69.2730    23.0670     9.8820     7.6430    10.4880 
  104.5000   -24.7510     2.1360   434.6230    71.1180    23.0210     9.5670     7.6450    10.3300 
  104.6250   -25.0360     2.1370   435.1840    74.3860    22.6580     9.3040     7.4670     9.9390 
  104.7500   -25.2170     2.1420   433.9370    74.6820    22.2120     8.7690     7.2030     9.4990 
  104.8750   -25.2890     2.1540   434.2570    72.1650    21.8850     7.9170     6.9250     9.1300 
  105.0000   -25.2760     2.1690   437.0900    69.6390    21.7320     7.5640     6.6870     8.8940 
  105.1250   -25.2170     2.1820   438.7010    71.2030    21.6520     7.9190     6.5220     8.8070 
  105.2500   -25.1670     2.1910   437.1600    75.3590    21.5620     8.0600     6.4100     8.7950 
  105.3750   -25.1670     2.1990   434.6090    78.0250    21.4860     7.7370     6.3400     8.8150 
  105.5000   -25.2050     2.2070   434.0490    77.1070    21.4530     7.5750     6.3140     8.8430 
  105.6250   -25.2430     2.2100   435.7130    74.0610    21.4500     7.7100     6.3470     8.8830 
  105.7500   -25.2660     2.2010   436.0720    71.8090    21.3810     8.1180     6.4510     8.9970 
  105.8750   -25.2790     2.1860   433.9420    71.1410    21.2430     8.8570     6.6690     9.2940 
  106.0000   -25.3020     2.1670   431.1870    72.1840    21.1140     9.7180     7.0410     9.8580 
  106.1250   -25.3010     2.1520   429.3180    74.8040    21.1110     9.7170     7.5960    10.7060 
  106.2500   -25.2390     2.1500   424.1660    76.6130    21.3360    10.0020     8.2290    11.6220 
  106.3750   -25.1140     2.1630   411.3260    75.8380    21.8530    13.5130     8.7940    12.3330 
  106.5000   -24.9440     2.1830   393.3740    71.9290    22.4630    15.4620     9.1040    12.5520 
  106.6250   -24.7810     2.1900   383.3350    68.9830    22.7150    13.9240     8.9980    12.1040 
  106.7500   -24.6440     2.1840   386.7900    69.1850    22.6340    10.2740     8.6370    11.3420 
  106.8750   -24.5400     2.1760   397.7440    70.3180    22.5120     9.3780     8.2010    10.5940 
