~V
VERS. 2.00: Ver 2.00
~W
STRT.M 125.0000:
STOP.M 275.0000:
STEP.M 0.1250:
NULL. -999.2500:
UWI. DF3074:
~C
DEPT.M :
GR.API :
CALI.CM :
RXO.OHMM :
RI. :
RML.OHMM :
DEN.GM/CC :
SP.MV :
~A
# ...
  147.5000    75.0910    24.4360     9.7060    10.4740    12.0420     2.2810   -14.2520 
  147.6250    80.9280    24.4830     8.7990    10.4640    12.0720     2.2910   -13.8460 
  147.7500    83.2150    24.6800     8.8120    10.2930    11.8870     2.3460   -13.4030 
  147.8750    79.8540    24.9840     9.0170     9.7800    11.1870     2.4260   -12.8720 
  148.0000    75.6930    25.1920     8.5550     8.8570     9.8770     2.4770   -12.2830 
  148.1250    79.5640    25.2250     7.3100     7.6610     8.2120     2.4530   -11.7270 
  148.2500    86.5120    25.2270     6.3090     6.5300     6.7190     2.3920   -11.1590 
  148.3750    87.8840    25.1840     5.8740     5.6510     5.6580     2.3400   -10.5370 
  148.5000    86.0230    25.1140     5.6700     5.0910     5.0780     2.3180    -9.8970 
  148.6250    89.3140    25.0700     5.5290     4.8730     4.9310     2.3230    -9.3110 
  148.7500    96.2000    25.1400     5.4840     4.8530     4.9740     2.3370    -8.7110 
  148.8750   102.8270    25.2690     5.5630     4.9250     5.0560     2.3490    -8.2260 
  149.0000   108.2520    25.3990     5.6180     5.0070     5.0950     2.3500    -7.8250 
  149.1250   111.4220    25.4680     5.6010     5.0640     5.0860     2.3360    -7.4300 
  149.2500   109.9350    25.4920     5.5530     5.1030     5.0720     2.3190    -7.1220 
  149.3750   108.1310    25.4960     5.4700     5.1320     5.0710     2.3120    -6.8700 
  149.5000   107.7940    25.4920     5.3820     5.1530     5.0880     2.3210    -6.7490 
  149.6250   107.6720    25.4720     5.3750     5.1470     5.1050     2.3470    -6.7530 
  149.7500   108.2950    25.4550     5.4090     5.0900     5.0810     2.3750    -6.8000 
  149.8750   110.5730    25.4730     5.3780     4.9570     4.9820     2.3950    -6.8530 
  150.0000   112.7850    25.5340     5.2270     4.7410     4.7970     2.3970    -6.9320 
  150.1250   111.8620    25.5840     5.0200     4.4530     4.5250     2.3850    -6.9580 
  150.2500   111.3470    25.6190     4.8260     4.1270     4.1890     2.3740    -6.9720 
  150.3750   113.0080    25.6300     4.6860     3.7840     3.7970     2.3700    -6.9650 
  150.5000   113.9120    25.6330     4.6650     3.4570     3.3830     2.3670    -6.9250 
  150.6250   113.6390    25.6240     4.7160     3.2300     3.0750     2.3600    -6.9010 
  150.7500   113.1990    25.5980     4.7860     3.1960     3.0460     2.3610    -6.9250 
  150.8750   113.9420    25.5720     4.9490     3.4750     3.5050     2.3830    -7.0250 
  151.0000   113.6410    25.5560     5.5500     4.2160     4.6730     2.4240    -7.1880 
  151.1250   107.2120    25.5380     7.5230     5.7080     6.9220     2.4710    -7.5400 
  151.2500    96.3770    25.5120    10.7870     7.9030    10.0800     2.5070    -7.9570 
  151.3750    83.3770    25.4960    14.2010    10.4440    13.5260     2.5220    -8.4620 
  151.5000    74.2970    25.4920    15.8490    12.3830    15.8350     2.5150    -9.0910 
  151.6250    74.7790    25.4290    14.5440    12.4430    15.2920     2.4880    -9.8230 
  151.7500    78.7630    25.2200    11.6340    11.1580    13.0220     2.4390   -10.5960 
  151.8750    81.6940    24.8790     8.9420     9.4770    10.5560     2.3670   -11.3840 
  152.0000    83.3580    24.5960     7.5320     8.0760     8.7960     2.2890   -12.1660 
  152.1250    87.0110    24.4930     7.2080     7.2700     8.0520     2.2360   -12.8190 
  152.2500    90.5240    24.4690     7.2340     6.9400     7.9960     2.2130   -13.4100 
  152.3750    90.6040    24.4670     7.3680     6.9770     8.3840     2.2110   -13.9520 
  152.5000    88.8930    24.4530     7.5080     7.2470     8.9620     2.2130   -14.3840 
  152.6250    87.9820    24.4440     7.6190     7.6170     9.5000     2.2100   -14.6780 
  152.7500    87.9610    24.4380     7.7080     7.9730     9.9140     2.2020   -14.9440 
  152.8750    87.8400    24.4240     7.8070     8.2850    10.2350     2.1970   -15.1490 
  153.0000    85.9800    24.3900     7.9270     8.5380    10.4910     2.1960   -15.3210 
  153.1250    84.2020    24.3290     8.0300     8.6830    10.6180     2.1930   -15.5150 
  153.2500    84.4190    24.2060     8.0440     8.6780    10.5340     2.1870   -15.6030 
  153.3750    84.9120    24.0420     7.9240     8.4810    10.1660     2.1800   -15.6080 
  153.5000    83.6440    23.9340     7.6750     8.0930     9.5330     2.1760   -15.4890 
  153.6250    82.0800    23.9050     7.3300     7.5830     8.7710     2.1800   -15.2000 
  153.7500    84.1530    24.0080     6.9170     7.0950     8.1090     2.1980   -14.8600 
  153.8750    88.0470    24.3110     6.5510     6.7230     7.6790     2.2270   -14.4640 
  154.0000    90.2560    24.6760     6.4250     6.5100     7.5140     2.2530   -14.0980 
  154.1250    89.7970    24.7640     6.5600     6.4470     7.5610     2.2600   -13.8000 
  154.2500    89.1620    24.6530     6.7650     6.4350     7.6300     2.2510   -13.5750 
  154.3750    89.1090    24.5070     6.8470     6.3980     7.5840     2.2360   -13.3610 
  154.5000    90.1660    24.4590     6.7060     6.2930     7.3610     2.2230   -13.1470 
  154.6250    92.6130    24.6110     6.5380     6.1510     7.0500     2.2200   -13.0790 
  154.7500    95.1360    24.8810     6.4910     6.1020     6.8980     2.2210   -13.0590 
  154.8750    94.3890    25.0010     6.7020     6.2860     7.1350     2.2240   -13.1100 
  155.0000    89.9630    24.8870     7.0480     6.8260     7.9340     2.2390   -13.0810 
  155.1250    86.7180    24.7990     7.4840     7.8680     9.4820     2.2910   -12.8810 
  155.2500    85.9910    24.9310     8.1950     9.2760    11.5300     2.3790   -12.6160 
  155.3750    83.0170    25.0770     9.3100    10.7630    13.5980     2.4730   -12.3890 
  155.5000    76.5920    25.0980    10.2490    11.8070    14.8650     2.5380   -12.2610 
  155.6250    72.6440    25.0380    10.0990    11.7450    14.3860     2.5370   -12.1590 
  155.7500    73.7480    24.8060     9.2440    10.8590    12.7720     2.4850   -11.9680 
  155.8750    76.3030    24.3480     8.3830     9.7220    10.9960     2.4100   -11.7010 
  156.0000    78.5790    23.7490     7.8050     8.8900     9.8820     2.3500   -11.4120 
  156.1250    82.5320    23.5080     8.1960     8.8180    10.0280     2.3500   -11.1140 
  156.2500    84.9660    23.6600    10.2340     9.4590    11.2130     2.4070   -10.8450 
  156.3750    80.4490    24.0530    13.0930    10.6090    13.0050     2.4880   -10.5590 
  156.5000    70.4630    24.5440    15.1690    11.7980    14.5760     2.5410   -10.2850 
  156.6250    62.6950    25.0440    14.4300    12.2710    14.7590     2.5210    -9.9330 
  156.7500    61.7380    25.2530    11.9870    11.8900    13.6580     2.4590    -9.6810 
  156.8750    65.9200    25.2940     9.3060    10.9750    11.9980     2.3950    -9.4670 
  157.0000    71.3350    25.4050     8.2590     9.9760    10.5080     2.3550    -9.3040 
  157.1250    74.1260    25.4190     8.8010     9.1960     9.5450     2.3540    -9.2870 
  157.2500    73.9370    25.3900     9.1340     8.6030     8.9020     2.3760    -9.3040 
  157.3750    75.1140    25.3640     8.5800     8.0960     8.3630     2.3960    -9.4030 
  157.5000    80.7200    25.3360     7.5880     7.6020     7.7950     2.3890    -9.5670 
  157.6250    87.5580    25.1660     6.8260     7.1020     7.1840     2.3520    -9.7700 
  157.7500    91.3290    24.7860     6.6150     6.6420     6.6240     2.3160    -9.9260 
  157.8750    89.4970    24.4130     6.5470     6.2930     6.2180     2.3020   -10.0600 
  158.0000    85.0790    24.4410     6.4540     6.1370     6.0650     2.3070   -10.1310 
  158.1250    85.5880    24.7020     6.3300     6.2540     6.2590     2.3200   -10.1250 
  158.2500    89.1780    24.8690     6.3590     6.5710     6.6980     2.3380   -10.1240 
  158.3750    90.3760    24.9660     7.0920     7.0090     7.2710     2.3660   -10.0890 
  158.5000    86.1590    25.0190     8.8610     7.4890     7.8650     2.4000   -10.0360 
  158.6250    80.6540    25.0210     9.8180     7.9450     8.3740     2.4210    -9.9700 
