~V
VERS. 2.00: Ver 2.00
~W
STRT.M 64.0000:
STOP.M 264.0000:
STEP.M 0.1250:
NULL. -999.2500:
UWI. DF3031:
~C
DEPT.M :
DEN.GM/CC :
AC.US/MT :
GR.API :
CALI.CM :
RXO.OHMM :
RI. :
RML.OHMM :
SP.MV :
~A
# ...
  114.0000     2.1790   409.3810    85.1210    24.4980     8.0880     7.9170     9.6030   -20.7410 
  114.1250     2.1650   418.3390    82.5890    24.5320     8.0850     7.5360     9.2360   -21.0650 
  114.2500     2.1610   422.1630    79.8290    24.5350     8.0800     7.3990     9.2300   -21.3030 
  114.3750     2.1650   421.9360    79.5950    24.5090     8.0270     7.3840     9.3390   -21.4610 
  114.5000     2.1720   419.4610    81.4180    24.4480     7.9960     7.3870     9.3950   -21.5540 
  114.6250     2.1810   416.4880    84.2190    24.3660     7.9640     7.3370     9.3180   -21.6040 
  114.7500     2.1870   413.8710    85.8240    24.2960     7.8700     7.2420     9.1650   -21.6320 
  114.8750     2.1850   411.3840    85.1640    24.2500     7.6980     7.1330     9.0100   -21.6580 
  115.0000     2.1760   408.4920    85.3680    24.2260     7.4960     7.0500     8.9190   -21.6710 
  115.1250     2.1730   404.7740    85.7320    24.2200     7.3970     7.0300     8.9460   -21.6680 
  115.2500     2.1860   400.6130    83.5030    24.2210     7.4900     7.0680     9.0650   -21.6710 
  115.3750     2.2070   396.5450    81.0300    24.2170     7.7080     7.1440     9.2320   -21.6680 
  115.5000     2.2190   393.0840    81.9380    24.2200     7.8900     7.2270     9.3870   -21.6710 
  115.6250     2.2140   390.7400    82.9390    24.3300     7.9860     7.2750     9.4610   -21.6850 
  115.7500     2.2020   389.4230    77.9590    24.6080     8.1240     7.2700     9.4380   -21.6950 
  115.8750     2.1930   388.9540    71.1310    24.9680     8.3140     7.2090     9.3210   -21.6910 
  116.0000     2.1870   388.9810    70.5610    25.2280     8.4270     7.0990     9.1320   -21.6710 
  116.1250     2.1830   389.0620    77.3690    25.2760     8.3270     6.9580     8.9050   -21.6300 
  116.2500     2.1810   388.9550    83.2120    25.2460     8.0860     6.8200     8.6940   -21.5610 
  116.3750     2.1810   388.7660    83.7070    25.2270     7.8360     6.7130     8.5460   -21.4570 
  116.5000     2.1820   388.7520    81.6370    25.2170     7.7220     6.6600     8.4990   -21.2980 
  116.6250     2.1860   389.0360    81.5720    25.2010     7.8150     6.6740     8.5700   -21.0430 
  116.7500     2.1970   389.2090    84.2260    25.2090     7.9250     6.7120     8.6670   -20.6880 
  116.8750     2.2170   388.7360    86.5130    25.2710     7.8550     6.7140     8.6770   -20.2290 
  117.0000     2.2410   387.3170    88.3970    25.3550     7.5430     6.6110     8.4840   -19.6730 
  117.1250     2.2680   385.1930    91.4700    25.3860     7.0990     6.3440     8.0040   -19.0210 
  117.2500     2.2990   383.3420    95.9660    25.4360     6.6800     5.9680     7.3630   -18.3400 
  117.3750     2.3300   382.4840   100.3270    25.6310     6.3040     5.5590     6.7090   -17.6650 
  117.5000     2.3490   382.8140   102.3010    25.9910     5.9550     5.1990     6.1760   -17.0480 
  117.6250     2.3420   383.8250   101.6350    26.3810     5.6870     4.9590     5.8660   -16.5500 
  117.7500     2.3210   384.3300   100.5080    26.6710     5.5840     4.8340     5.7380   -16.1660 
  117.8750     2.2960   383.4750    99.3000    26.8290     5.6690     4.8090     5.7510   -15.9120 
  118.0000     2.2690   380.8690    99.6150    26.8210     5.8230     4.8570     5.8520   -15.7750 
  118.1250     2.2440   376.6110   101.3330    26.6390     5.8410     4.9520     5.9980   -15.7460 
  118.2500     2.2310   371.9030   101.4210    26.4290     5.7890     5.0610     6.1510   -15.7600 
  118.3750     2.2350   367.8310    98.4690    26.2360     5.8350     5.1690     6.2900   -15.7900 
  118.5000     2.2460   365.3470    95.5460    26.0090     5.9760     5.2580     6.3860   -15.7860 
  118.6250     2.2540   365.3670    96.6210    25.7530     6.0120     5.2910     6.3830   -15.6920 
  118.7500     2.2640   367.4160    99.1530    25.6230     5.9200     5.2520     6.2620   -15.5310 
  118.8750     2.2840   370.9290   101.7770    25.6810     5.7750     5.1320     6.0210   -15.3020 
  119.0000     2.3110   375.2240   105.6460    25.8410     5.5940     4.9400     5.6860   -15.0390 
  119.1250     2.3340   379.8110   109.5810    25.9340     5.4020     4.7040     5.3170   -14.7590 
  119.2500     2.3530   384.4480   110.9720    25.9040     5.2670     4.4740     4.9950   -14.4840 
  119.3750     2.3780   388.9610   109.5430    25.7930     5.1950     4.2890     4.7710   -14.2430 
  119.5000     2.4110   392.7940   109.4070    25.6970     5.1320     4.1720     4.6780   -14.0620 
  119.6250     2.4420   394.4630   110.7040    25.6750     5.0940     4.1470     4.7340   -13.9980 
  119.7500     2.4630   393.2190   108.3790    25.6760     5.1230     4.1820     4.8680   -14.0470 
  119.8750     2.4700   389.0420   101.9650    25.6770     5.1980     4.2440     5.0100   -14.2120 
  120.0000     2.4630   383.0190    96.8920    25.6770     5.2470     4.2960     5.0950   -14.4610 
  120.1250     2.4490   377.1360    97.0770    25.6770     5.2200     4.3120     5.0870   -14.7900 
  120.2500     2.4380   372.8220    96.8630    25.6770     5.1520     4.3100     5.0480   -15.1540 
  120.3750     2.4280   370.2000    96.1220    25.6760     5.0910     4.3250     5.0520   -15.4960 
  120.5000     2.4100   368.5720    95.8710    25.6770     5.1070     4.3900     5.1610   -15.7670 
  120.6250     2.3870   367.0740    92.8460    25.6600     5.3260     4.5350     5.4090   -15.8590 
  120.7500     2.3750   365.4460    88.3050    25.5910     5.7110     4.7310     5.7220   -15.7230 
  120.8750     2.3820   364.0400    87.4850    25.4640     6.1390     4.9360     6.0130   -15.3660 
  121.0000     2.3960   363.3210    90.5530    25.3440     6.4740     5.1020     6.2030   -14.9040 
  121.1250     2.3930   363.6570    92.1330    25.3920     6.5600     5.1890     6.2540   -14.6880 
  121.2500     2.3740   364.7270    91.9480    25.6260     6.3950     5.2260     6.2470   -14.6420 
  121.3750     2.3530   366.2090    91.5390    25.9260     6.1070     5.2500     6.2640   -14.6290 
  121.5000     2.3420   367.7920    89.3040    26.1200     5.9180     5.2950     6.3610   -14.6660 
  121.6250     2.3410   369.2590    86.0190    25.9960     5.9910     5.3760     6.5410   -14.8100 
  121.7500     2.3370   370.7030    84.8250    25.6260     6.1990     5.4540     6.6980   -15.0760 
  121.8750     2.3360   372.4770    85.5230    25.2200     6.3590     5.4690     6.7110   -15.4340 
  122.0000     2.3430   375.0480    86.7610    25.0100     6.3420     5.3620     6.4810   -15.7930 
  122.1250     2.3510   378.7610    88.6680    25.0900     6.0870     5.1010     5.9810   -15.8270 
  122.2500     2.3460   382.8210    90.9030    25.3030     5.6750     4.7730     5.4030   -15.6940 
  122.3750     2.3350   386.0330    91.9730    25.6250     5.1840     4.4730     4.9270   -15.6050 
  122.5000     2.3330   387.2570    91.0720    26.0300     4.7960     4.2870     4.7000   -15.5920 
  122.6250     2.3470   386.0000    87.6430    26.2700     4.8500     4.3040     4.8520   -15.6940 
  122.7500     2.3600   384.0620    82.8860    26.1250     5.3120     4.5000     5.2960   -15.9120 
  122.8750     2.3550   383.4810    78.6270    25.6980     5.9220     4.8260     5.9050   -16.2170 
  123.0000     2.3280   385.8350    77.7020    25.3260     6.5810     5.1890     6.4890   -16.5690 
  123.1250     2.3000   391.6970    82.2140    25.2410     7.4220     5.4510     6.8030   -16.9040 
  123.2500     2.2940   398.8640    86.8730    25.2900     7.9640     5.5460     6.8010   -17.1540 
  123.3750     2.3100   405.1960    86.6300    25.3410     7.6320     5.4850     6.5670   -17.3060 
  123.5000     2.3300   408.9630    82.2370    25.3620     6.6900     5.3410     6.2630   -17.3700 
  123.6250     2.3370   408.6840    80.3850    25.3630     6.1480     5.2070     6.0570   -17.3630 
  123.7500     2.3300   404.7630    81.6900    25.4130     6.1420     5.1460     6.0150   -17.3280 
  123.8750     2.3090   397.0980    83.4020    25.5270     6.2920     5.1950     6.1770   -17.3150 
