~V
VERS. 2.00: Ver 2.00
~W
STRT.M 125.0000:
STOP.M 269.0000:
STEP.M 0.1250:
NULL. -999.2500:
UWI. DF3004:
~C
DEPT.M :
GR.API :
RML.OHMM :
RI. :
RXO.OHMM :
CALI.CM :
DEN.GM/CC :
SP.MV :
~A
# ...
  260.0000    70.0190    17.4580    17.2060    21.1060    24.1280     2.5440   -12.6160 
  260.1250    70.0190    17.3960    17.2160    20.8900    23.8790     2.5300   -12.6600 
  260.2500    70.0190    17.3310    17.2050    19.7310    23.7200     2.5130   -12.6650 
  260.3750    70.0190    17.2720    17.1830    18.1330    23.6010     2.5040   -12.6330 
  260.5000    70.0190    17.2210    17.1570    17.2430    23.5460     2.5030   -12.6220 
  260.6250    70.0190    17.1840    17.1400    17.8630    23.5270     2.5080   -12.6340 
  260.7500    70.0190    17.1610    17.1360    18.8650    23.6110     2.5140   -12.6310 
  260.8750    70.0190    17.1500    17.1460    19.8260    23.7160     2.5130   -12.6560 
  261.0000    70.0190    17.1480    17.1630    19.5020    23.8510     2.5050   -12.6530 
  261.1250    70.0190    17.1530    17.1810    18.7760    23.5970     2.4900   -12.6940 
  261.2500    70.0190    17.1590    17.1930    17.7410    23.2780     2.4730   -12.7650 
  261.3750    70.0190    17.1630    17.1960    15.3440    22.2790     2.4490   -12.7500 
  261.5000    70.0190    17.1630    17.1890    12.3920    20.8940     2.4130   -12.7750 
  261.6250    70.0190    17.1600    17.1740    10.4060    19.4440     2.3570   -12.8190 
  261.7500    70.0190    17.1560    17.1570     9.3600    18.2380     2.2830   -12.8330 
  261.8750    70.0190    17.1470    17.1460     8.7630    17.1710     2.1990   -12.7140 
  262.0000    70.0190    17.1320    17.1450     8.3550    16.4810     2.1210   -12.6040 
  262.1250    70.0190    17.1070    17.1520     8.2210    16.2290     2.0610   -12.5640 
  262.2500    70.0190    17.0740    17.1640     8.2830    16.1680     2.0210   -12.5240 
  262.3750    70.0190    17.0410    17.1760     8.4570    16.1790     2.0020   -12.5210 
  262.5000    70.0190    17.0140    17.1860     8.6740    16.1560     1.9930   -12.5060 
  262.6250    70.0190    16.9990    17.1920     8.8550    16.0530     1.9880   -12.4360 
  262.7500    70.0190    16.9910    17.1960     8.8040    15.9280     1.9830   -12.3720 
  262.8750    70.0190    16.9880    17.1980     8.6240    15.8300     1.9750   -12.3760 
  263.0000    70.0190    16.9870    17.1980     8.4240    15.7990     1.9700   -12.3470 
  263.1250    70.0190    16.9870    17.1980     8.3210    15.7790     1.9710   -12.4040 
  263.2500    70.0190    16.9870    17.1980     8.3540    15.7660     1.9780   -12.4240 
  263.3750    70.0190    16.9870    17.1980     8.4170    15.6980     1.9910   -12.3660 
  263.5000    70.0190    16.9870    17.1980     8.5320    15.5840     2.0030   -12.2440 
  263.6250    70.0190    16.9870    17.1980     8.7080    15.4500     2.0090   -12.2220 
  263.7500    70.0190    16.9870    17.1980     8.8910    15.3200     2.0070   -12.1860 
  263.8750    70.0190    16.9870    17.1980     8.9330    15.1650     1.9980   -12.0850 
  264.0000    70.0190    16.9870    17.1980     8.8590    15.0420     1.9870   -12.0790 
  264.1250    70.0190    16.9870    17.1980     8.8660    14.9340     1.9790   -11.9490 
  264.2500    70.0190    16.9870    17.1980     8.9380    14.8270     1.9730   -11.8160 
  264.3750    70.0190    16.9870    17.1980     9.0610    14.6930     1.9700   -11.8160 
  264.5000    70.0190    16.9870    17.1980     9.1760    14.5410     1.9670   -11.8160 
  264.6250    70.0190    16.9870    17.1980     9.2500    14.3780     1.9650  -999.2500 
  264.7500    70.0190    16.9870    17.1980     9.2650    14.1580     1.9640  -999.2500 
  264.8750    70.0190    16.9870    17.1980     9.2370    13.9340     1.9640  -999.2500 
  265.0000    70.0190    16.9870    17.1980     9.2160    13.8000     1.9650  -999.2500 
  265.1250    70.0190    16.9870    17.1980     9.3060    13.7360     1.9660  -999.2500 
  265.2500    70.0190    16.9870    17.1980     9.3450    13.7180     1.9670  -999.2500 
  265.3750    70.0190    16.9870    17.1980     9.3570    13.7140     1.9680  -999.2500 
  265.5000    70.0190    16.9870    17.1980     9.3550    13.7140     1.9700  -999.2500 
  265.6250    70.0190    16.9870    17.1980     9.3500    13.7140     1.9720  -999.2500 
  265.7500    70.0190    16.9870    17.1980     9.3480    13.7140     1.9730  -999.2500 
  265.8750    70.0190    16.9870    17.1980     9.3460    13.7140     1.9740  -999.2500 
  266.0000    70.0190    16.9870    17.1980     9.3440    13.7070     1.9740  -999.2500 
  266.1250    70.0190    16.9870    17.1980     9.3430    13.6810     1.9740  -999.2500 
  266.2500    70.0190    16.9870    17.1980     9.3420    13.6400     1.9750  -999.2500 
  266.3750    70.0190    16.9870    17.1980     9.3410    13.6140     1.9750  -999.2500 
  266.5000    70.0190    16.9870    17.1980     9.3410    13.6100     1.9740  -999.2500 
  266.6250    70.0190    16.9870    17.1980     9.3410    13.6060     1.9730  -999.2500 
  266.7500    70.0190    16.9870    17.1980     9.3410    13.6060     1.9720  -999.2500 
  266.8750    70.0190    16.9870    17.1980     9.3410    13.6060     1.9710  -999.2500 
  267.0000    70.0190    16.9870    17.1980     9.3390    13.6060     1.9700  -999.2500 
  267.1250    70.0190    16.9870    17.1980     9.3360    13.6060     1.9690  -999.2500 
  267.2500    70.0190    16.9870    17.1980     9.3300    13.6060     1.9680  -999.2500 
  267.3750    70.0190    16.9870    17.1980     9.3210    13.6060     1.9670  -999.2500 
  267.5000    70.0190    16.9870    17.1980     9.3070    13.6050     1.9660  -999.2500 
  267.6250    70.0190    16.9870    17.1980     9.2970    13.6020     1.9660  -999.2500 
  267.7500    70.0190    16.9870    17.1980     9.2920    13.5960     1.9670  -999.2500 
  267.8750    70.0190    16.9560    17.1670     9.2900    13.5960     1.9670  -999.2500 
  268.0000  -999.2500  -999.2500  -999.2500  -999.2500  -999.2500     1.9670  -999.2500 
  268.1250  -999.2500  -999.2500  -999.2500  -999.2500  -999.2500     1.9640  -999.2500 
  268.2500  -999.2500  -999.2500  -999.2500  -999.2500  -999.2500     1.9590  -999.2500 
  268.3750  -999.2500  -999.2500  -999.2500  -999.2500  -999.2500     1.9530  -999.2500 
  268.5000  -999.2500  -999.2500  -999.2500  -999.2500  -999.2500     1.9490  -999.2500 
  268.6250  -999.2500  -999.2500  -999.2500  -999.2500  -999.2500     1.9460  -999.2500 
  268.7500  -999.2500  -999.2500  -999.2500  -999.2500  -999.2500     1.9470  -999.2500 
  268.8750  -999.2500  -999.2500  -999.2500  -999.2500  -999.2500     1.9460  -999.2500 
  269.0000  -999.2500  -999.2500  -999.2500  -999.2500  -999.2500  -999.2500  -999.2500 
