~V
VERS. 2.00: Ver 2.00
~W
STRT.M 56.0000:
STOP.M 296.0000:
STEP.M 0.1250:
NULL. -999.2500:
UWI. DF301:
~C
DEPT.M :
DEN.GM/CC :
SP.MV :
AC.US/MT :
GR.API :
CALI.CM :
RXO.OHMM :
RI. :
RML.OHMM :
~A
# ...
  276.0000     2.4640    -4.8070   431.6010    36.0330    23.9890     4.8790     4.3590     5.0300 
  276.1250     2.4560    -5.0800   430.0240    34.3150    24.0090     5.0340     4.4400     5.1010 
  276.2500     2.4520    -5.2710   427.3670    32.2350    24.0560     5.1710     4.5130     5.1960 
  276.3750     2.4560    -5.4000   424.7230    32.4820    24.0910     5.2460     4.5590     5.2790 
  276.5000     2.4620    -5.4860   423.7620    33.8460    24.1410     5.2330     4.5600     5.3070 
  276.6250     2.4680    -5.5070   424.7790    33.5640    24.1910     5.0990     4.5020     5.2490 
  276.7500     2.4790    -5.4130   427.2210    31.7480    24.2650     4.9010     4.3830     5.1040 
  276.8750     2.4960    -5.2450   430.1420    29.7220    24.3320     4.7600     4.2480     4.9500 
  277.0000     2.5170    -5.0330   432.1010    27.2680    24.3600     4.6890     4.1500     4.8620 
  277.1250     2.5350    -4.8280   431.6030    24.9790    24.3660     4.6590     4.1360     4.8910 
  277.2500     2.5480    -4.6680   427.5740    24.9710    24.3450     4.7170     4.2350     5.0390 
  277.3750     2.5510    -4.5660   420.3220    26.8250    24.3150     4.9290     4.3880     5.2030 
  277.5000     2.5370    -4.5130   412.8950    28.6090    24.2510     5.1950     4.5170     5.2810 
  277.6250     2.5080    -4.4850   409.6830    28.9490    24.1740     5.1980     4.5430     5.2160 
  277.7500     2.4760    -4.5050   412.7240    28.6630    24.1810     4.9050     4.4350     5.0310 
  277.8750     2.4590    -4.5990   420.5850    29.7010    24.1880     4.6670     4.2930     4.8590 
  278.0000     2.4580    -4.7750   428.1040    31.6800    24.1510     4.6680     4.2040     4.7950 
  278.1250     2.4620    -5.0030   430.6880    34.5840    24.1320     4.8500     4.2250     4.8740 
  278.2500     2.4570    -5.2260   428.0050    38.1200    24.1260     5.0780     4.3730     5.0630 
  278.3750     2.4490    -5.3740   423.1640    40.5210    24.1150     5.2560     4.5600     5.2410 
  278.5000     2.4500    -5.4460   421.4710    40.2980    24.0930     5.2590     4.6980     5.3180 
  278.6250     2.4590    -5.4680   424.9380    37.6420    24.0980     5.0730     4.7250     5.2530 
  278.7500     2.4540    -5.4600   432.3960    34.4720    24.1160     4.8570     4.6330     5.0700 
  278.8750     2.4270    -5.4070   440.7370    30.4950    24.1390     4.7200     4.4990     4.8770 
  279.0000     2.3940    -5.3240   445.9110    26.5460    24.1970     4.6630     4.3850     4.7460 
  279.1250     2.3780    -5.2160   446.8560    24.5350    24.2220     4.6820     4.3290     4.7070 
  279.2500     2.3890    -5.0740   444.5650    25.6080    24.1670     4.7660     4.3360     4.7560 
  279.3750     2.4070    -4.9640   441.1160    27.8470    24.0880     4.8440     4.3660     4.8320 
  279.5000     2.4210    -4.9020   438.7670    29.5550    24.0830     4.8300     4.3820     4.8930 
  279.6250     2.4330    -4.8600   438.1080    29.8740    24.1350     4.7320     4.3640     4.9110 
  279.7500     2.4470    -4.7990   438.6830    28.5580    24.1950     4.6420     4.3110     4.8720 
  279.8750     2.4570    -4.6960   439.7360    27.2530    24.2360     4.6060     4.2430     4.7970 
  280.0000     2.4580    -4.5390   440.8070    26.8440    24.2510     4.6130     4.1770     4.7040 
  280.1250     2.4450    -4.3880   442.1510    26.8490    24.2500     4.6400     4.1150     4.6050 
  280.2500     2.4250    -4.2870   444.1860    26.7620    24.2390     4.6350     4.0600     4.5010 
  280.3750     2.4050    -4.1880   446.8710    26.2230    24.2670     4.5860     4.0090     4.3950 
  280.5000     2.3920    -4.0650   449.3090    26.1390    24.2650     4.5540     3.9680     4.3080 
  280.6250     2.3820    -3.9550   450.1420    26.9220    24.2450     4.5560     3.9470     4.2710 
  280.7500     2.3780    -3.9020   448.2110    27.5770    24.2500     4.5910     3.9660     4.3230 
  280.8750     2.3850    -3.9230   442.8920    28.3190    24.2360     4.6740     4.0230     4.4460 
  281.0000     2.4040    -3.9970   433.9940    30.2000    24.2110     4.8390     4.1130     4.6040 
  281.1250     2.4260    -4.0650   423.4990    34.0550    24.1930     5.0710     4.2100     4.7460 
  281.2500     2.4340    -4.1270   413.3000    39.1480    24.1820     5.2650     4.2830     4.8320 
  281.3750     2.4260    -4.2300   405.0140    43.9320    24.1830     5.4130     4.3510     4.9020 
  281.5000     2.4120    -4.3720   399.0500    47.4010    24.1630     5.5420     4.4850     5.0400 
  281.6250     2.4060    -4.4920   392.9520    48.0350    24.1410     5.6830     4.7830     5.3580 
  281.7500     2.4180    -4.5650   384.3170    46.9940    24.1240     5.9920     5.3700     5.9750 
  281.8750     2.4500    -4.5950   372.6340    47.1730    24.1130     6.5840     6.1780     6.7710 
  282.0000     2.4910    -4.6210   361.6800    49.0170    24.1220     7.2150     6.9970     7.4790 
  282.1250     2.5170    -4.6860   357.7060    50.2370    24.1510     7.4240     7.4470     7.7430 
  282.2500     2.5060    -4.7550   364.6610    49.5590    24.0200     6.7140     7.0980     7.2630 
  282.3750     2.4800    -4.7630   381.9370    48.3460    23.6340     5.7780     6.2220     6.3450 
  282.5000     2.4600    -4.7470   403.2860    45.8030    23.1130     5.0290     5.2130     5.3620 
  282.6250     2.4460    -4.7380   419.0070    40.8170    23.0420     4.6730     4.3780     4.6170 
  282.7500     2.4240    -4.7570   423.9630    36.4260    23.4160     4.7110     3.9300     4.3190 
  282.8750     2.4010    -4.7890   417.8280    36.1960    23.8840     4.7970     3.8600     4.4200 
  283.0000     2.3940    -4.8070   404.1030    38.8660    24.0550     4.8730     4.1680     4.8970 
  283.1250     2.4060    -4.7890   389.4230    41.8230    24.0500     5.1740     4.8200     5.6850 
  283.2500     2.4190    -4.7990   377.3080    43.5370    23.9970     6.4160     5.7040     6.6010 
  283.3750     2.4200    -4.8540   370.1630    44.0310    23.9260     7.9730     6.4850     7.2990 
  283.5000     2.4100    -4.9190   371.2510    43.5480    23.8120     8.5040     6.8390     7.5240 
  283.6250     2.4030    -4.9770   380.1370    42.6670    23.6400     7.4160     6.6190     7.2190 
  283.7500     2.4100    -4.9850   395.0580    41.9670    23.6380     5.7520     5.9600     6.5380 
  283.8750     2.4220    -4.9510   411.8780    40.7370    23.7790     4.8880     5.2560     5.8260 
  284.0000     2.4310    -4.8930   425.0750    39.6040    24.0220     4.6540     4.7010     5.2430 
  284.1250     2.4320    -4.8150   432.8670    39.7080    24.2210     4.6820     4.3640     4.8420 
  284.2500     2.4300    -4.7210   436.5290    41.1350    24.2450     4.7340     4.2520     4.6360 
  284.3750     2.4270    -4.6410   438.5000    43.3300    24.2090     4.7620     4.2590     4.5620 
  284.5000     2.4250    -4.5550   440.4540    43.6980    24.1690     4.7780     4.3190     4.5870 
  284.6250     2.4250    -4.4720   442.3430    41.3610    24.1670     4.7950     4.3900     4.6770 
  284.7500     2.4260    -4.4270   443.5700    41.3610    24.2090     4.8280     4.4560     4.8050 
  284.8750     2.4290    -4.4430   443.6350    41.3610    24.2380     4.8800     4.5200     4.9380 
  285.0000     2.4340    -4.4930   442.1140    41.3610    24.2390     4.9750     4.5800     5.0490 
  285.1250     2.4470    -4.5570   439.5410    41.3610    24.2400     5.1300     4.6240     5.1100 
  285.2500     2.4650    -4.5860   436.7680    41.3610    24.2140     5.2240     4.6260     5.0890 
  285.3750     2.4740    -4.5530   435.0520    41.3610    24.1310     5.1860     4.5760     5.0010 
  285.5000     2.4650    -4.5020   435.8610    41.3610    24.0540     5.0380     4.4770     4.8650 
  285.6250     2.4410    -4.4720   438.7270    41.3610    24.1440     4.8710     4.3450     4.7020 
  285.7500     2.4190    -4.4580   442.4210    41.3610    24.2770     4.7470     4.2140     4.5430 
  285.8750     2.4000    -4.4560   445.3550    41.3610    24.3600     4.6880     4.1180     4.4250 
