~V
VERS. 2.00: Ver 2.00
~W
STRT.M 125.0000:
STOP.M 256.0000:
STEP.M 0.1250:
NULL. -999.2500:
UWI. DF3030:
~C
DEPT.M :
GR.API :
RML.OHMM :
RI. :
RXO.OHMM :
CALI.CM :
DEN.GM/CC :
SP.MV :
~A
# ...
  136.2500    84.5390     9.7320     8.9600    10.6600    23.6490     2.3550   -32.6510 
  136.3750    86.7910     8.9890     8.2000     8.5830    23.4530     2.3070   -32.8540 
  136.5000    86.8900     8.5840     7.7210     8.0140    23.2560     2.2790   -33.1240 
  136.6250    86.7010     8.5540     7.6020     8.3580    23.1450     2.2680   -33.3560 
  136.7500    87.2030     8.7590     7.7440     8.4110    23.1100     2.2610   -33.5810 
  136.8750    87.1400     9.1170     8.0760     8.1450    23.1050     2.2540   -33.6970 
  137.0000    85.3470     9.5410     8.5050     7.8980    23.0930     2.2440   -33.6850 
  137.1250    83.0680     9.8900     8.8920     8.2200    23.0640     2.2350   -33.5600 
  137.2500    82.8000    10.0270     9.1020     8.6600    23.0590     2.2310   -33.2760 
  137.3750    83.3270     9.8570     9.0420     8.9980    23.1520     2.2370   -32.9740 
  137.5000    83.8830     9.3750     8.6840     9.2930    23.3290     2.2540   -32.6230 
  137.6250    85.0260     8.6860     8.0870     8.8810    23.5620     2.2810   -32.2170 
  137.7500    88.6250     8.0260     7.4620     7.9390    23.8200     2.3090   -31.8510 
  137.8750    94.3170     7.5380     6.9510     7.2290    24.0090     2.3300   -31.5630 
  138.0000    99.9380     7.2810     6.6330     6.9980    24.0980     2.3370   -31.3600 
  138.1250   101.1560     7.2630     6.5530     6.8690    24.1390     2.3310   -31.1190 
  138.2500    97.5440     7.3750     6.6270     6.8100    24.1370     2.3210   -31.0330 
  138.3750    94.1070     7.5400     6.7920     6.8360    24.0940     2.3160   -30.9340 
  138.5000    94.6620     7.6910     6.9810     6.8890    24.0430     2.3220   -30.7370 
  138.6250    97.4940     7.7670     7.1310     6.9410    24.0770     2.3360   -30.6580 
  138.7500    98.6880     7.7510     7.2080     7.0250    24.1970     2.3500   -30.5050 
  138.8750    99.1070     7.6390     7.1940     7.0280    24.3360     2.3590   -30.2610 
  139.0000   101.1380     7.4460     7.0890     6.9980    24.4500     2.3610   -30.0960 
  139.1250   103.9860     7.1980     6.9080     6.9200    24.4960     2.3560   -29.9740 
  139.2500   106.1340     6.9480     6.7050     6.8410    24.4800     2.3490   -29.8550 
  139.3750   107.3160     6.7450     6.5280     6.7850    24.4450     2.3420   -29.7640 
  139.5000   107.8320     6.6330     6.4200     6.7390    24.4230     2.3360   -29.7610 
  139.6250   105.4280     6.6710     6.4290     6.7000    24.3750     2.3340   -29.7330 
  139.7500   101.3820     6.8400     6.5390     6.6750    24.3080     2.3350   -29.6870 
  139.8750    98.9050     7.0970     6.7170     6.7210    24.2420     2.3400   -29.7010 
  140.0000    96.8520     7.3580     6.8960     6.8370    24.1910     2.3480   -29.6510 
  140.1250    93.3810     7.4890     6.9660     6.9350    24.2010     2.3530   -29.5270 
  140.2500    91.3370     7.4180     6.8670     6.9870    24.2380     2.3530   -29.3790 
  140.3750    94.5360     7.1340     6.5860     6.9540    24.2800     2.3500   -29.1990 
  140.5000   101.0300     6.7070     6.1820     6.9500    24.3270     2.3490   -29.0280 
  140.6250   106.1100     6.2960     5.7930     6.8390    24.3490     2.3560   -28.8510 
  140.7500   106.2160     6.0920     5.5960     6.8210    24.3560     2.3710   -28.7140 
  140.8750   102.8230     6.3430     5.7520     6.9760    24.3560     2.3920   -28.5900 
  141.0000    99.5780     7.2350     6.4260     7.6080    24.3560     2.4170   -28.4610 
  141.1250    96.9190     9.2240     7.8810     8.7460    24.3560     2.4480   -28.3130 
  141.2500    90.6770    12.0480    10.0410    10.7690    24.3590     2.4840   -28.1520 
  141.3750    80.9040    15.5110    12.7510    15.8890    24.3680     2.5230   -28.0560 
  141.5000    71.7610    19.1200    15.6580    18.3580    24.3940     2.5620   -27.8380 
  141.6250    65.2480    21.4710    18.1410    20.5460    24.4050     2.5920   -27.6520 
  141.7500    59.1750    22.7870    19.7890    21.0800    24.4280     2.6100   -27.5330 
  141.8750    53.8950    23.0680    20.4770    20.9540    24.4440     2.6130   -27.2860 
  142.0000    50.8650    22.5870    20.3670    20.4480    24.4770     2.6030   -27.0930 
  142.1250    50.4130    21.7400    19.7590    20.2160    24.5160     2.5880   -27.0980 
  142.2500    51.2460    20.9950    19.0970    19.9620    24.5740     2.5770   -27.0290 
  142.3750    52.3530    20.6250    18.6500    19.3560    24.6820     2.5700   -26.9930 
  142.5000    53.2690    20.8130    18.6180    18.0380    24.7970     2.5680   -27.0510 
  142.6250    52.2290    21.6990    19.1890    17.9360    24.7740     2.5680   -27.0980 
  142.7500    51.4450    23.0130    20.2030    18.6370    24.5940     2.5730   -27.1510 
  142.8750    51.9790    24.4370    21.4330    20.0170    24.3830     2.5870   -27.2410 
  143.0000    52.5110    25.5830    22.5550    21.7430    24.2330     2.6060   -27.3620 
  143.1250    52.1400    25.9740    23.1270    22.9350    24.2610     2.6200   -27.3590 
  143.2500    52.7950    25.5920    23.0290    22.8180    24.4160     2.6220   -27.3800 
  143.3750    54.7290    24.5750    22.3140    21.4700    24.5270     2.6100   -27.4200 
  143.5000    55.6120    23.2070    21.2000    19.9080    24.5240     2.5890   -27.4050 
  143.6250    56.2590    21.8550    20.0020    19.1670    24.4350     2.5710   -27.4110 
  143.7500    58.8730    20.8320    19.0340    18.1920    24.2800     2.5630   -27.3800 
  143.8750    62.5390    20.3160    18.4810    17.4180    24.0510     2.5660   -27.3680 
  144.0000    64.7610    20.3750    18.4340    17.0810    23.8490     2.5710   -27.3440 
  144.1250    64.0350    21.0450    18.9720    16.8490    23.6950     2.5670   -27.3180 
  144.2500    62.1630    22.0920    19.9240    17.1910    23.7980     2.5480   -27.3040 
  144.3750    61.1800    23.3310    21.1530    18.1100    24.0080     2.5230   -27.3130 
  144.5000    63.1030    24.5580    22.4700    19.4600    24.1100     2.5040   -27.3500 
  144.6250    65.5450    25.5010    23.5940    19.8770    23.9870     2.5040   -27.2870 
  144.7500    64.3540    25.9930    24.3010    20.6560    24.0540     2.5220   -27.3160 
  144.8750    60.7630    25.8970    24.4200    22.1020    24.2310     2.5480   -27.3220 
  145.0000    58.6120    25.1470    23.8650    23.3420    24.3400     2.5690   -27.2640 
  145.1250    60.2160    23.7370    22.6070    22.1070    24.3570     2.5760   -27.3470 
  145.2500    61.2710    22.0130    20.9790    19.7910    24.3660     2.5720   -27.3740 
  145.3750    59.8160    20.2800    19.2730    18.2660    24.3720     2.5620   -27.3330 
  145.5000    57.1060    18.8200    17.7690    17.0940    24.3360     2.5540   -27.3680 
  145.6250    54.3350    17.8970    16.7460    16.1440    24.3220     2.5510   -27.4050 
  145.7500    53.9000    17.4470    16.1890    15.4060    24.3970     2.5490   -27.4080 
  145.8750    56.8300    17.3740    16.0420    15.2600    24.4960     2.5460   -27.4150 
  146.0000    61.6530    17.5640    16.2090    15.3610    24.5410     2.5390   -27.4290 
  146.1250    64.2630    17.9440    16.6160    15.7570    24.5110     2.5290   -27.4260 
  146.2500    64.1370    18.4340    17.1480    16.0910    24.4280     2.5220   -27.4230 
  146.3750    63.9600    19.0150    17.7590    16.2500    24.3220     2.5210   -27.4340 
  146.5000    63.0460    19.6500    18.4030    16.5660    24.2670     2.5250   -27.3930 
  146.6250    59.3490    20.2290    18.9830    17.0740    24.2550     2.5350   -27.3880 
  146.7500    56.3110    20.5960    19.3680    17.5080    24.2840     2.5460   -27.4110 
  146.8750    57.1870    20.6090    19.4370    17.9820    24.3670     2.5590   -27.4340 
  147.0000    62.4790    20.2130    19.1340    18.5260    24.4750     2.5700   -27.5020 
  147.1250    67.0170    19.4770    18.5010    18.1380    24.5320     2.5750   -27.4960 
  147.2500    68.7980    18.7090    17.8010    17.3370    24.5810     2.5730   -27.5390 
  147.3750    68.5860    18.1450    17.2380    16.7460    24.6150     2.5640   -27.6320 
