~V
VERS. 2.00: Ver 2.00
~W
STRT.M 64.0000:
STOP.M 259.0000:
STEP.M 0.1250:
NULL. -999.2500:
UWI. DF3067:
~C
DEPT.M :
DEN.GM/CC :
GR.API :
CALI.CM :
RXO.OHMM :
RI. :
RML.OHMM :
SP.MV :
~A
# ...
  131.5000     2.3220   105.8050    24.2830     6.1300     4.7980     5.8660   -26.6320 
  131.6250     2.3110   106.6470    24.9720     5.1740     4.5360     5.6260   -26.2310 
  131.7500     2.2940   102.9630    25.5720     5.0880     4.3250     5.4200   -25.8270 
  131.8750     2.2820    97.7180    25.8700     4.9860     4.1790     5.2640   -25.4480 
  132.0000     2.2790    95.3290    25.9220     4.7500     4.1020     5.1760   -25.1230 
  132.1250     2.2750    99.3730    25.9140     4.7240     4.1040     5.1800   -24.8890 
  132.2500     2.2710   105.8650    25.9090     4.8710     4.1720     5.2670   -24.7520 
  132.3750     2.2720   108.8130    25.9040     5.0300     4.2930     5.4200   -24.7190 
  132.5000     2.2830   105.8680    25.9090     5.1210     4.4370     5.6010   -24.7840 
  132.6250     2.2930   100.9740    25.9220     5.2110     4.5480     5.7250   -24.9390 
  132.7500     2.2950    95.9510    25.9280     5.3640     4.5770     5.7320   -25.1320 
  132.8750     2.2940    92.0930    25.9430     5.3140     4.4970     5.5970   -25.3400 
  133.0000     2.3010    92.4280    25.9880     4.9410     4.3150     5.3460   -25.5490 
  133.1250     2.3220    97.7270    26.0390     4.5340     4.0640     5.0400   -25.7530 
  133.2500     2.3460   103.2350    26.0360     4.1980     3.8150     4.7730   -25.9550 
  133.3750     2.3630   106.0540    25.9740     4.0270     3.6250     4.6150   -26.1530 
  133.5000     2.3730   105.8340    25.9070     3.9640     3.5440     4.6240   -26.3510 
  133.6250     2.3830   103.5270    25.8800     4.0660     3.6360     4.8600   -26.5400 
  133.7500     2.3980   102.5250    25.8760     4.2710     3.8810     5.2670   -26.7200 
  133.8750     2.4110   103.5260    25.8640     5.0090     4.2370     5.7720   -26.8940 
  134.0000     2.4060   103.7020    25.7890     6.1230     4.6320     6.2550   -27.0730 
  134.1250     2.3720   101.2400    25.6240     6.6860     4.9390     6.5290   -27.2740 
  134.2500     2.3270    97.7160    25.4640     6.4150     5.0850     6.5550   -27.5040 
  134.3750     2.2900    95.1070    25.3880     5.8960     5.0800     6.4150   -27.7670 
  134.5000     2.2740    95.6440    25.3810     5.7060     5.0150     6.2770   -28.0590 
  134.6250     2.2730    98.5060    25.3520     5.5700     5.0300     6.3270   -28.3710 
  134.7500     2.2640    99.4560    25.2690     5.5540     5.1850     6.5890   -28.6920 
  134.8750     2.2380    95.5770    25.0120     6.2410     5.4680     6.9970   -29.0210 
  135.0000     2.2080    88.2500    24.4960     6.9960     5.8020     7.4190   -29.3610 
  135.1250     2.2040    84.6550    23.8960     7.0100     6.0630     7.6920   -29.7080 
  135.2500     2.2300    86.5440    23.5300     6.3720     6.1980     7.7910   -30.0390 
  135.3750     2.2710    90.8310    23.4410     5.8840     6.2270     7.7650   -30.3140 
  135.5000     2.3070    92.0340    23.4300     6.0200     6.1980     7.6830   -30.4820 
  135.6250     2.3280    89.3830    23.2990     6.8540     6.1470     7.5800   -30.4950 
  135.7500     2.3330    88.3300    23.1180     7.8020     6.0820     7.4520   -30.3880 
  135.8750     2.3240    90.2640    23.0600     8.1860     5.9900     7.2860   -30.2000 
  136.0000     2.3120    94.8080    23.2080     7.8530     5.8680     7.0950   -29.9770 
  136.1250     2.3110    99.0660    23.3990     7.4140     5.7370     6.9300   -29.7530 
  136.2500     2.3190   100.2860    23.4050     7.2780     5.6330     6.8330   -29.5290 
  136.3750     2.3270    98.3330    23.1850     8.1720     5.5710     6.8090   -29.2910 
  136.5000     2.3310    94.4510    22.8320     9.3090     5.5390     6.8230   -29.0300 
  136.6250     2.3300    91.7160    22.5090     9.5080     5.4960     6.8130   -28.7850 
  136.7500     2.3190    90.5680    22.3140     9.5320     5.4220     6.7580   -28.6000 
  136.8750     2.2950    88.9620    22.2390     9.8400     5.3520     6.7020   -28.5120 
  137.0000     2.2760    85.9080    22.2530     9.6480     5.3560     6.7260   -28.5170 
  137.1250     2.2850    85.2570    22.3460     8.8120     5.5080     6.9110   -28.5840 
  137.2500     2.3130    86.8360    22.4320     7.9670     5.7760     7.2070   -28.6520 
  137.3750     2.3340    87.7420    22.3790     8.3810     6.0940     7.5150   -28.6970 
  137.5000     2.3340    85.8150    22.1590     9.5430     6.3600     7.7140   -28.7070 
  137.6250     2.3230    83.6960    21.9310     9.8230     6.4710     7.7190   -28.6830 
  137.7500     2.3170    85.3860    21.8250     8.7810     6.5030     7.6840   -28.6350 
  137.8750     2.3180    89.4210    21.8140     8.6410     6.6040     7.8100   -28.5690 
  138.0000     2.3270    91.6930    21.8200     9.7020     6.9040     8.2220   -28.4830 
  138.1250     2.3590    88.2180    21.8230    11.0830     7.4670     8.9030   -28.3520 
  138.2500     2.4050    83.7580    21.8370    13.1870     8.1030     9.5370   -28.1600 
  138.3750     2.4390    81.4560    21.8540    15.8350     8.5280     9.7690   -27.9000 
  138.5000     2.4340    79.4090    21.8580    16.0280     8.4930     9.4050   -27.5840 
  138.6250     2.3920    77.0870    21.8470    12.6710     7.9910     8.6280   -27.2370 
  138.7500     2.3520    77.8600    21.8380    10.0790     7.4040     7.9240   -26.8930 
  138.8750     2.3410    81.4180    21.8340     8.5550     6.9290     7.4750   -26.5740 
  139.0000     2.3560    83.6580    21.8320     7.8440     6.6080     7.2510   -26.2900 
  139.1250     2.3710    83.4150    21.8430    10.4640     6.3860     7.1010   -26.0430 
  139.2500     2.3690    83.3030    21.8570    12.1230     6.1520     6.8730   -25.8140 
  139.3750     2.3570    85.3980    21.9030    10.6040     5.8790     6.5710   -25.5930 
  139.5000     2.3500    87.8250    22.0910     7.8530     5.6370     6.3340   -25.3770 
  139.6250     2.3640    87.3020    22.5610     6.9130     5.6240     6.4420   -25.1500 
  139.7500     2.4000    84.7080    23.1850     7.6250     5.9810     7.0380   -24.9020 
  139.8750     2.4570    82.9050    23.7460     9.3530     6.8480     8.2370   -24.6340 
  140.0000     2.5240    82.5750    24.0860    10.7390     8.3350    10.0980   -24.3570 
  140.1250     2.5760    79.7250    24.1840    15.8000    10.5550    12.6350   -24.0950 
  140.2500     2.5980    74.1180    24.1890    20.7380    13.1290    15.3710   -23.8570 
  140.3750     2.5910    68.5620    24.1860    23.3840    15.5440    17.7240   -23.6430 
  140.5000     2.5670    66.9890    24.1880    21.9480    17.3150    19.2220   -23.4530 
  140.6250     2.5460    69.1570    24.1880    19.0420    18.2430    19.8110   -23.3000 
  140.7500     2.5370    70.8530    24.1890    18.5180    18.7960    20.1550   -23.1990 
  140.8750     2.5350    70.2640    24.1860    20.7450    19.3260    20.6690   -23.1580 
  141.0000     2.5320    68.5250    24.1710    22.7100    20.0160    21.4880   -23.1670 
  141.1250     2.5190    68.7570    24.1350    24.2730    20.7570    22.3700   -23.2130 
  141.2500     2.4970    69.2790    24.0970    23.9210    21.1990    22.8410   -23.2730 
  141.3750     2.4700    68.5730    24.0770    22.2100    21.1290    22.6740   -23.3270 
  141.5000     2.4510    68.1410    24.0750    20.5950    20.5880    21.9800   -23.3520 
  141.6250     2.4540    69.4610    24.0790    20.0480    19.7960    21.0760   -23.3390 
  141.7500     2.4730    70.5700    24.0820    19.1090    19.0540    20.3030   -23.3070 
  141.8750     2.4940    69.5710    24.0860    20.4290    18.5340    19.8220   -23.2790 
  142.0000     2.5090    67.8990    24.0890    22.8750    18.3410    19.7070   -23.2690 
  142.1250     2.5210    67.6650    24.0900    21.6670    18.6240    20.0790   -23.2920 
  142.2500     2.5330    67.0900    24.0890    20.5100    19.3590    20.8880   -23.3330 
  142.3750     2.5460    66.2700    24.0900    20.6440    20.4610    22.0190   -23.3790 
  142.5000     2.5600    66.2140    24.0900    22.0030    21.6910    23.1880   -23.4170 
  142.6250     2.5750    66.8740    24.0590    24.2840    22.6110    23.8920   -23.4540 
