~V
VERS. 2.00: Ver 2.00
~W
STRT.M 85.0000:
STOP.M 235.0000:
STEP.M 0.1250:
NULL. -999.2500:
UWI. DF305:
~C
DEPT.M :
DEN.GM/CC :
SP.MV :
AC.US/MT :
GR.API :
CALI.CM :
RXO.OHMM :
RI. :
RML.OHMM :
~A
# ...
  135.0000     2.4960   -19.8070   298.2380    68.5610    24.5250    19.5030    21.4960    24.2220 
  135.1250     2.5040   -19.7910   298.3990    73.3350    24.5300    21.2660    21.7390    24.6460 
  135.2500     2.5140   -19.7790   295.7240    76.7010    24.5320    22.7630    22.1450    25.2290 
  135.3750     2.5160   -19.7720   293.0520    75.8380    24.5230    23.4180    22.4940    25.6630 
  135.5000     2.5080   -19.7700   293.4490    72.6540    24.4990    23.4530    22.6530    25.7870 
  135.6250     2.4920   -19.7790   297.2100    70.4200    24.4570    22.3650    22.6150    25.6420 
  135.7500     2.4800   -19.7950   299.8770    72.2020    24.4380    21.2440    22.4930    25.4260 
  135.8750     2.4820   -19.8100   298.5130    80.8230    24.4170    20.5200    22.2980    25.1570 
  136.0000     2.4970   -19.8310   293.5990    91.2080    24.3700    20.4290    22.0050    24.7740 
  136.1250     2.5060   -19.8650   289.3470    92.0050    24.2550    20.5910    21.6070    24.2440 
  136.2500     2.4980   -19.9100   289.6420    83.9800    24.1320    20.0070    21.2060    23.7090 
  136.3750     2.4800   -19.9560   295.1770    78.1040    24.0350    18.4820    20.9100    23.3400 
  136.5000     2.4640   -20.0020   303.7890    81.6400    24.0450    17.4580    20.7790    23.2550 
  136.6250     2.4590   -20.0460   311.4380    88.1390    24.1850    18.1290    20.7640    23.4120 
  136.7500     2.4570   -20.0840   315.6450    91.3330    24.3840    19.2310    20.6720    23.4960 
  136.8750     2.4530   -20.1180   316.1770    91.2310    24.6140    19.4490    20.3500    23.2330 
  137.0000     2.4460   -20.1420   314.2670    89.5530    24.7700    18.5990    19.7410    22.5000 
  137.1250     2.4440   -20.1710   311.7230    87.8950    24.8220    17.5330    18.9140    21.3950 
  137.2500     2.4550   -20.1910   309.4780    84.3190    24.8000    16.7380    18.1160    20.3270 
  137.3750     2.4820   -20.2060   306.9900    80.4020    24.6950    16.2880    17.5300    19.5750 
  137.5000     2.5140   -20.2150   304.0150    78.5080    24.4600    16.1070    17.2520    19.2650 
  137.6250     2.5330   -20.2120   302.6690    80.1310    24.3100    16.0890    17.3120    19.4120 
  137.7500     2.5290   -20.1880   304.9740    81.1350    24.2470    16.1330    17.5500    19.7940 
  137.8750     2.5060   -20.1500   310.0870    78.2120    24.2090    16.1730    17.8230    20.2350 
  138.0000     2.4790   -20.1240   314.6280    74.4430    24.1320    16.0670    17.9590    20.5350 
  138.1250     2.4670   -20.0930   315.4750    74.7620    24.0210    15.5520    17.7060    20.3780 
  138.2500     2.4740   -20.0630   314.6410    79.1840    23.7090    14.5490    17.0190    19.6580 
  138.3750     2.4920   -20.0280   314.9810    84.2480    23.2050    13.4550    15.9650    18.4300 
  138.5000     2.5080   -19.9840   317.4940    88.1900    22.8920    12.5840    14.7560    16.9550 
  138.6250     2.5150   -19.9390   320.1710    87.9420    23.4200    11.7510    13.7180    15.6790 
  138.7500     2.5190   -19.9070   319.8790    84.5450    23.9610    10.9350    13.0650    14.9200 
  138.8750     2.5260   -19.8840   315.3410    80.9740    24.3060    10.6110    12.8930    14.8260 
  139.0000     2.5350   -19.8490   307.7220    78.8990    24.4270    11.1430    13.2040    15.3990 
  139.1250     2.5430   -19.8130   300.8770    76.4910    24.4460    12.9360    13.9580    16.5640 
  139.2500     2.5510   -19.7850   298.0750    71.3570    24.4460    15.2410    14.8600    17.8970 
  139.3750     2.5560   -19.7670   299.5640    67.9330    24.4460    16.6820    15.6270    18.9880 
  139.5000     2.5570   -19.7640   303.2780    67.3460    24.4460    16.7100    16.0180    19.4970 
  139.6250     2.5490   -19.7670   306.6540    67.1600    24.4460    15.9930    15.9100    19.2740 
  139.7500     2.5300   -19.7850   308.9030    66.5430    24.4460    15.1680    15.5630    18.7250 
  139.8750     2.5050   -19.8130   310.5480    65.3510    24.4460    14.5230    15.2100    18.2140 
  140.0000     2.4880   -19.8490   312.3820    65.4250    24.4460    14.2250    15.0380    18.0150 
  140.1250     2.4930   -19.8720   314.6630    66.7080    24.4450    14.3100    15.1760    18.3200 
  140.2500     2.5030   -19.8980   316.3470    73.5310    24.4420    14.7030    15.5230    18.9560 
  140.3750     2.5040   -19.9240   316.3600    85.5490    24.4390    15.4830    15.9020    19.6390 
  140.5000     2.5010   -19.9350   315.0660    94.0050    24.4460    16.5070    16.0710    19.9790 
  140.6250     2.5100   -19.9420   314.9380    87.9860    24.4570    17.0170    15.7600    19.5360 
  140.7500     2.5300   -19.9440   317.0920    74.8480    24.4650    16.4790    15.0820    18.4880 
  140.8750     2.5450   -19.9270   319.6410    65.0800    24.4670    14.7820    14.2740    17.2240 
  141.0000     2.5450   -19.8920   319.3990    63.8180    24.4670    12.8850    13.6110    16.2000 
  141.1250     2.5310   -19.8650   314.8090    74.0980    24.4670    12.1610    13.3550    15.8210 
  141.2500     2.5200   -19.8250   309.3550    84.9380    24.4670    12.6640    13.4860    16.0240 
  141.3750     2.5220   -19.7940   305.9030    85.3830    24.4670    13.8670    13.9120    16.6330 
  141.5000     2.5360   -19.7460   304.8310    76.8580    24.4670    14.7870    14.4450    17.3450 
  141.6250     2.5480   -19.6920   304.2340    71.6370    24.4670    14.8100    14.7520    17.6910 
  141.7500     2.5520   -19.6330   303.3590    71.0230    24.4670    14.5510    14.6210    17.4220 
  141.8750     2.5530   -19.5640   304.2740    68.6950    24.4670    14.3400    14.0160    16.5250 
  142.0000     2.5520   -19.4960   309.3200    66.4450    24.4670    13.7980    13.0750    15.2110 
  142.1250     2.5390   -19.4330   317.7160    68.9280    24.4680    12.5760    12.0330    13.8090 
  142.2500     2.5180   -19.3710   324.0340    72.6600    24.4700    10.8560    11.1180    12.6130 
  142.3750     2.5030   -19.3220   325.2900    71.5060    24.4740     9.4310    10.4270    11.7470 
  142.5000     2.5080   -19.2700   322.7520    65.8730    24.4770     8.7230     9.9900    11.2270 
  142.6250     2.5310   -19.2090   320.3660    63.1170    24.4780     8.7040     9.8200    11.0330 
  142.7500     2.5510   -19.1540   319.5770    64.4150    24.4780     8.7960     9.8220    11.0120 
  142.8750     2.5620   -19.1130   318.9650    64.4760    24.4780     8.7740     9.9420    11.0850 
  143.0000     2.5630   -19.0870   317.2370    60.9420    24.4780     8.7330    10.1340    11.2100 
  143.1250     2.5580   -19.0850   314.8260    65.2670    24.4780     8.8170    10.3660    11.3710 
  143.2500     2.5510   -19.1140   313.3820    75.6260    24.4780     9.0180    10.5730    11.5140 
  143.3750     2.5430   -19.1620   313.8500    80.3040    24.4780     9.1170    10.6820    11.5570 
  143.5000     2.5380   -19.2330   316.2330    74.4060    24.4740     9.1210    10.6260    11.4220 
  143.6250     2.5440   -19.3450   319.3740    65.8540    24.4470     8.8680    10.3460    11.0480 
  143.7500     2.5580   -19.4800   321.3880    62.4980    24.4120     8.3690     9.9260    10.5390 
  143.8750     2.5670   -19.6390   321.5580    61.7770    24.4140     7.7610     9.4670    10.0260 
  144.0000     2.5660   -19.8250   320.5080    62.3080    24.4410     7.3950     9.0780     9.6450 
  144.1250     2.5530   -20.0570   319.7360    65.6350    24.4690     7.4640     8.8830     9.5410 
  144.2500     2.5380   -20.3130   319.9550    68.6410    24.4770     7.7190     8.9160     9.7350 
  144.3750     2.5220   -20.6010   320.9970    71.1130    24.4840     8.2520     9.2090    10.2490 
  144.5000     2.5090   -20.9230   322.3750    73.8140    24.5010     9.1500     9.7690    11.0810 
  144.6250     2.5020   -21.2950   324.0890    77.6720    24.5350    10.2870    10.6320    12.2540 
  144.7500     2.4890   -21.7040   327.8370    80.0930    24.5510    11.5390    11.7690    13.7320 
  144.8750     2.4590   -22.1450   336.6400    80.5730    24.5540    13.1650    13.2520    15.6140 
