~V
VERS. 2.00: Ver 2.00
~W
STRT.M 60.0000:
STOP.M 280.0000:
STEP.M 0.1250:
NULL. -999.2500:
UWI. DF3041:
~C
DEPT.M :
SP.MV :
GR.API :
RML.OHMM :
RI. :
RXO.OHMM :
CALI.CM :
DEN.GM/CC :
~A
# ...
  217.5000   -19.9160    62.6700   135.7640   116.5690   111.4550    24.1310     2.1800 
  217.6250   -19.9920    66.0110   145.2240   126.3040   120.9840    24.2760     2.1790 
  217.7500   -20.0870    69.7450   153.3270   134.7610   122.9760    24.3590     2.1860 
  217.8750   -20.1720    69.5480   159.6780   141.4920   123.4670    24.1670     2.1980 
  218.0000   -20.2270    65.7230   164.1320   146.4010   128.1480    23.7850     2.2090 
  218.1250   -20.2190    62.0820   165.5900   148.6970   139.8250    23.5350     2.2130 
  218.2500   -20.1810    61.0760   163.1870   147.7260   151.8150    23.4250     2.2110 
  218.3750   -20.1570    61.3600   156.1930   142.6460   157.4450    23.4070     2.2040 
  218.5000   -20.1420    62.5300   145.1920   133.5890   155.7280    23.4280     2.1970 
  218.6250   -20.1570    64.5610   132.0190   122.0470   152.7250    23.4990     2.1950 
  218.7500   -20.2060    66.1910   120.4530   111.2930   137.1730    23.4670     2.1990 
  218.8750   -20.2770    65.8580   112.6320   103.7570   115.3960    23.3770     2.2060 
  219.0000   -20.3370    64.9760   111.2200   101.0320   103.3290    23.2960     2.2150 
  219.1250   -20.4010    66.3050   116.8660   104.5070   106.7160    23.2980     2.2210 
  219.2500   -20.4500    68.5600   129.2820   112.5400   116.6050    23.3670     2.2240 
  219.3750   -20.4800    69.3330   145.4900   123.4320   131.7470    23.5020     2.2240 
  219.5000   -20.5380    68.7890   157.8550   134.7390   149.1090    23.6860     2.2260 
  219.6250   -20.6020    68.0950   165.0060   142.9860   165.2020    23.8030     2.2320 
  219.7500   -20.6420    68.4630   166.1550   146.3630   165.6180    23.7830     2.2420 
  219.8750   -20.6310    68.9080   161.0430   144.3000   157.6470    23.6650     2.2520 
  220.0000   -20.5990    67.2490   151.0140   137.4870   156.0280    23.5430     2.2600 
  220.1250   -20.5670    63.8350   137.9240   127.0330   153.2080    23.5160     2.2600 
  220.2500   -20.5660    62.5610   124.1400   115.1370   140.2090    23.5340     2.2550 
  220.3750   -20.5690    64.7420   110.7930   102.9980   120.8130    23.6000     2.2480 
  220.5000   -20.5440    68.1330    98.7070    91.5860   106.2210    23.5780     2.2450 
  220.6250   -20.5210    69.3300    89.0250    82.0840    95.4760    23.2950     2.2510 
  220.7500   -20.5020    68.0940    82.0560    74.9260    82.5120    23.1430     2.2630 
  220.8750   -20.5230    67.4550    78.1380    70.4920    71.2480    23.0580     2.2750 
  221.0000   -20.5990    70.0800    77.3590    68.9550    67.6000    23.0160     2.2830 
  221.1250   -20.7230    73.5480    79.9970    70.7430    69.0330    23.0590     2.2790 
  221.2500   -20.8890    72.9020    85.0480    75.0450    75.1390    23.1130     2.2660 
  221.3750   -21.1060    69.9590    91.8270    81.2630    85.2490    23.1840     2.2490 
  221.5000   -21.3620    69.1870    99.5640    88.5960    96.4250    23.3220     2.2340 
  221.6250   -21.6350    70.8410   107.5480    96.1690   109.6950    23.5760     2.2240 
  221.7500   -21.9050    73.3580   115.3320   103.3090   124.4120    23.7120     2.2170 
  221.8750   -22.1760    76.2640   122.8530   109.7610   131.6950    23.7500     2.2130 
  222.0000   -22.4300    77.7840   130.0830   115.4080   135.0700    23.7500     2.2080 
  222.1250   -22.6650    76.3000   136.4810   119.7860   141.8660    23.7460     2.2040 
  222.2500   -22.8300    73.5640   141.1820   122.4930   157.7380    23.7330     2.2020 
  222.3750   -22.9540    70.0640   143.2020   122.9600   163.8010    23.7080     2.2040 
  222.5000   -23.0470    65.8680   142.1020   120.9770   158.7220    23.6450     2.2090 
  222.6250   -23.1090    63.5790   138.4010   116.9360   149.7600    23.5550     2.2170 
  222.7500   -23.2150    65.2610   134.6430   112.7310   137.9600    23.4640     2.2260 
  222.8750   -23.3200    66.9200   133.0480   110.1120   128.0440    23.4320     2.2340 
  223.0000   -23.4130    66.7340   135.2930   110.5940   126.0810    23.4260     2.2390 
  223.1250   -23.4730    67.1080   142.8380   115.7650   131.8160    23.4390     2.2380 
  223.2500   -23.5230    69.1950   154.2710   124.7610   146.4120    23.4590     2.2320 
  223.3750   -23.5550    70.9540   167.8040   136.3030   169.4480    23.4730     2.2240 
  223.5000   -23.5600    71.4900   180.7010   148.2140   187.2380    23.5090     2.2160 
  223.6250   -23.5730    69.7070   188.6020   156.9530   192.0410    23.5680     2.2120 
  223.7500   -23.5080    65.8520   189.2560   160.2340   195.5620    23.6170     2.2090 
  223.8750   -23.4100    62.4130   181.8360   156.8990   193.1450    23.6150     2.2070 
  224.0000   -23.2730    60.8300   167.5970   147.4040   184.5390    23.6590     2.2040 
  224.1250   -23.1190    60.6360   149.2590   133.2730   171.5400    23.6640     2.1980 
  224.2500   -22.9800    63.1900   130.8880   117.8920   153.3800    23.6930     2.1930 
  224.3750   -22.8680    68.5970   114.6030   103.2340   128.3210    23.7400     2.1900 
  224.5000   -22.8030    71.6870   101.5420    90.6090   104.6080    23.7640     2.1910 
  224.6250   -22.7750    68.4400    92.9180    81.3930    96.0250    23.7650     2.1980 
  224.7500   -22.7970    65.1960    88.5870    75.8520    91.3630    23.7760     2.2070 
  224.8750   -22.8410    66.3770    89.1820    74.7500    84.4350    23.8110     2.2150 
  225.0000   -22.9190    69.9160    95.4520    78.8490    77.9850    23.8580     2.2200 
  225.1250   -23.0330    70.9350   108.9020    89.4570    84.3440    23.9920     2.2180 
  225.2500   -23.1480    68.9130   127.7980   104.9240   102.1920    24.1420     2.2130 
  225.3750   -23.2480    64.9450   149.8620   123.2530   137.0910    24.1670     2.2070 
  225.5000   -23.3400    61.4560   171.2780   141.3460   174.7340    24.1440     2.2010 
  225.6250   -23.3600    59.2230   186.1670   154.5780   192.0190    24.1280     2.1930 
  225.7500   -23.3370    58.9460   191.9410   160.7410   186.7250    24.1920     2.1830 
  225.8750   -23.2540    61.0460   187.5850   159.0660   179.1940    24.3220     2.1720 
  226.0000   -23.1200    63.8050   174.7370   150.3330   170.1020    23.9760     2.1640 
  226.1250   -22.9740    64.7490   154.2390   135.9080   164.4480    23.7430     2.1650 
  226.2500   -22.8120    64.7270   131.5860   119.4900   156.1560    23.6140     2.1740 
  226.3750   -22.6460    66.5330   109.5560   103.7730   138.6270    23.5740     2.1880 
  226.5000   -22.4360    70.2870    91.0870    90.9780   115.7690    23.4420     2.2040 
  226.6250   -22.2470    72.5740    83.8100    82.9600    94.6420    23.2860     2.2120 
  226.7500   -22.0490    72.1930    80.8970    78.8060    83.0870    23.1390     2.2130 
  226.8750   -21.9330    71.8640    81.1860    77.5660    76.5320    23.1400     2.2080 
  227.0000   -21.8870    73.5160    83.2280    78.0990    76.2120    23.2610     2.2020 
  227.1250   -21.8720    74.0310    85.5770    79.4320    80.6750    23.2880     2.2030 
  227.2500   -21.9020    70.9940    87.3680    80.8640    78.5170    23.2910     2.2110 
  227.3750   -21.9600    67.6330    88.6820    82.3680    73.5970    23.3140     2.2220 
  227.5000   -22.0700    67.2850    90.0940    84.1530    71.7830    23.3910     2.2310 
  227.6250   -22.2490    68.9660    92.3410    86.4250    73.9260    23.4200     2.2330 
  227.7500   -22.4820    69.9650    95.3370    88.8800    81.8790    23.4760     2.2290 
  227.8750   -22.6880    70.6030    98.5140    90.9910    91.1950    23.5470     2.2210 
  228.0000   -22.8760    70.4640   101.0770    92.1840    98.2140    23.3240     2.2130 
  228.1250   -23.0390    68.6250   102.2590    91.9560    99.3070    23.0870     2.2070 
  228.2500   -23.1780    67.3280   102.4230    90.7850    97.2930    22.9010     2.2040 
  228.3750   -23.2890    68.4800   102.2260    89.2630    93.7370    22.9220     2.2040 
  228.5000   -23.3950    70.1730   102.3510    87.9880    89.1380    23.2130     2.2040 
  228.6250   -23.4360    68.8120   103.2170    87.4400    83.0150    23.5440     2.2060 
