~V
VERS. 2.00: Ver 2.00
~W
STRT.M 60.0000:
STOP.M 273.0000:
STEP.M 0.1250:
NULL. -999.2500:
UWI. DF3001:
~C
DEPT.M :
DEN.GM/CC :
SP.MV :
AC.US/MT :
GR.API :
RML.OHMM :
RI. :
RXO.OHMM :
CALI.CM :
~A
# ...
  150.0000     2.4920   -11.6010   244.1690    56.0640    23.0330    22.0190    22.6880    24.6530 
  150.1250     2.4980   -11.5380   248.1540    57.5170    21.6550    20.7930    20.6450    24.6550 
  150.2500     2.5090   -11.4870   251.2470    62.2230    20.3070    19.4800    18.3330    24.6540 
  150.3750     2.5200   -11.4410   252.6390    64.9380    19.2100    18.3050    17.0600    24.6540 
  150.5000     2.5270   -11.3680   253.0350    62.6050    18.4380    17.3920    17.0980    24.6500 
  150.6250     2.5260   -11.2210   253.5680    57.1850    18.0060    16.8140    17.2100    24.6410 
  150.7500     2.5170   -11.0230   254.1680    53.0670    17.7940    16.4890    16.8900    24.6350 
  150.8750     2.5060   -10.8520   253.9090    50.9560    17.7580    16.3780    16.4040    24.6320 
  151.0000     2.4950   -10.7390   252.2840    50.7920    17.8650    16.4390    16.0170    24.6270 
  151.1250     2.4900   -10.6550   249.8410    52.8150    18.0830    16.6430    16.1520    24.6130 
  151.2500     2.4920   -10.5520   248.1140    54.8990    18.3170    16.9030    16.4780    24.5940 
  151.3750     2.5020   -10.4410   247.7940    55.2690    18.4770    17.1470    16.7000    24.5690 
  151.5000     2.5150   -10.3410   248.8080    52.6520    18.4830    17.2970    16.4840    24.5220 
  151.6250     2.5230   -10.2530   250.7000    49.9290    18.2740    17.2710    16.2940    24.4360 
  151.7500     2.5170   -10.2160   253.3170    49.8190    17.9090    17.0800    15.9960    24.3490 
  151.8750     2.4940   -10.2250   257.2410    52.2140    17.4420    16.7420    15.6620    24.3130 
  152.0000     2.4580   -10.2550   262.9970    55.3750    16.9250    16.2920    15.4780    24.3080 
  152.1250     2.4220   -10.2950   270.5150    57.1130    16.3930    15.7610    15.0260    24.3080 
  152.2500     2.4000   -10.3830   278.7260    56.6530    15.8580    15.1930    14.6080    24.3080 
  152.3750     2.3930   -10.5490   287.5360    55.3480    15.3120    14.5970    14.0780    24.3160 
  152.5000     2.3960   -10.8340   297.5940    57.3000    14.7330    13.9730    13.4110    24.3510 
  152.6250     2.3990   -11.2480   308.9620    64.6020    14.0740    13.2960    12.6690    24.4430 
  152.7500     2.3960   -11.6400   319.7900    73.8690    13.3310    12.5630    12.0190    24.5420 
  152.8750     2.3900   -12.0090   328.7210    83.3070    12.5600    11.8110    11.3710    24.6380 
  153.0000     2.3840   -12.3900   336.2360    90.1590    11.9020    11.1430    11.0770    24.7590 
  153.1250     2.3810   -12.8480   344.3130    92.0960    11.6740    10.8140    10.9750    24.8500 
  153.2500     2.3760   -13.3510   353.4470    92.2440    12.0850    11.0190    11.0580    24.8520 
  153.3750     2.3650   -13.8090   362.4780    93.8230    13.2950    11.9290    12.4870    24.8220 
  153.5000     2.3470   -14.1470   370.2400    94.8120    15.2820    13.5860    16.1050    24.8120 
  153.6250     2.3290   -14.3810   375.9400    91.8020    17.7760    15.8590    21.3570    24.8260 
  153.7500     2.3160   -14.6290   379.6880    88.1580    20.0600    18.1500    26.3520    24.8320 
  153.8750     2.3100   -14.8960   381.4380    87.1430    21.4950    19.8800    29.4130    24.8160 
  154.0000     2.3100   -15.1600   381.7310    88.3500    21.6780    20.5940    28.8580    24.7770 
  154.1250     2.3130   -15.3240   381.0350    89.5640    20.6120    20.0820    24.6990    24.7550 
  154.2500     2.3190   -15.3950   379.4710    90.9980    19.1900    19.0120    21.1180    24.7470 
  154.3750     2.3270   -15.4690   376.8070    93.2600    18.0710    17.9770    19.1190    24.7470 
  154.5000     2.3360   -15.5560   373.0990    94.9150    17.6550    17.4280    18.0510    24.7470 
  154.6250     2.3430   -15.5910   368.9630    94.6750    18.1680    17.6930    17.8550    24.7470 
  154.7500     2.3450   -15.5500   365.7880    95.4570    19.2390    18.5390    18.8990    24.7470 
  154.8750     2.3440   -15.4530   364.8410    96.0360    20.4110    19.5980    21.0460    24.7470 
  155.0000     2.3430   -15.3230   366.7230    92.7020    21.1190    20.3620    23.6640    24.7470 
  155.1250     2.3430   -15.2620   371.4410    87.3270    20.7500    20.2170    24.9080    24.7450 
  155.2500     2.3460   -15.2960   376.9560    87.4290    19.4550    19.2090    24.9780    24.7420 
  155.3750     2.3510   -15.3560   381.1150    90.8370    17.7620    17.7340    21.6840    24.7390 
  155.5000     2.3550   -15.4450   382.2690    92.7310    16.4890    16.4620    15.9370    24.7390 
  155.6250     2.3530   -15.6090   380.3690    93.6050    16.6930    16.3840    14.3500    24.7450 
  155.7500     2.3400   -15.8690   378.4280    95.3030    19.0620    18.0700    17.6890    24.7510 
  155.8750     2.3180   -16.2010   378.2470    93.4740    24.1260    22.0330    25.5550    24.7500 
  156.0000     2.2890   -16.5790   379.9160    84.7490    31.9900    28.4540    36.9710    24.7440 
  156.1250     2.2630   -16.8890   382.3520    76.1920    42.0900    36.9920    50.8070    24.6840 
  156.2500     2.2470   -17.0920   384.0740    73.2720    51.4130    45.7090    63.5820    24.5450 
  156.3750     2.2430   -17.2630   384.3520    73.2260    58.4980    52.7670    69.4130    24.3820 
  156.5000     2.2500   -17.4330   383.4210    72.1370    62.0130    56.9180    67.5930    24.2750 
  156.6250     2.2600   -17.5600   382.0120    70.5610    62.1960    57.9950    62.5710    24.2120 
  156.7500     2.2660   -17.6040   381.4700    72.2200    61.7410    58.0440    54.3120    24.1900 
  156.8750     2.2650   -17.5750   381.8770    75.0950    62.2730    58.5260    47.8290    24.2210 
  157.0000     2.2590   -17.5180   383.0260    76.5910    64.4100    60.2150    47.7780    24.2770 
  157.1250     2.2520   -17.4950   384.9820    78.1940    68.0070    63.2100    53.3320    24.3090 
  157.2500     2.2470   -17.5420   387.1130    80.9780    71.9000    66.6070    58.7410    24.3350 
  157.3750     2.2440   -17.6030   389.0590    82.4120    75.0830    69.5800    60.0090    24.3570 
  157.5000     2.2400   -17.6090   390.0610    79.6760    76.7000    71.3820    58.5930    24.3760 
  157.6250     2.2380   -17.5980   390.3620    76.5510    75.9880    71.2530    58.5660    24.3820 
  157.7500     2.2400   -17.5780   390.0850    76.1760    73.5600    69.5340    59.4570    24.3850 
  157.8750     2.2470   -17.5220   389.6670    77.5870    70.1350    66.7390    59.8790    24.3870 
  158.0000     2.2570   -17.4740   389.7110    78.9880    66.5540    63.5830    58.9090    24.3900 
  158.1250     2.2640   -17.4680   390.3770    78.8780    63.8070    60.9680    54.3290    24.3910 
  158.2500     2.2640   -17.4340   391.0210    77.1300    62.3700    59.4410    49.3600    24.3910 
  158.3750     2.2590   -17.3640   391.3270    76.0540    62.3620    59.2040    49.3570    24.3950 
  158.5000     2.2510   -17.3330   391.1680    77.3620    63.4780    60.0760    52.8440    24.4050 
  158.6250     2.2460   -17.3800   390.1350    79.0640    65.0020    61.5840    56.1020    24.4250 
  158.7500     2.2450   -17.5160   388.9780    78.4060    66.2130    62.9670    57.1210    24.4410 
  158.8750     2.2460   -17.7060   387.7980    78.1050    66.6610    63.7630    56.3700    24.4490 
  159.0000     2.2490   -17.8330   386.0330    81.2190    66.5310    63.7490    53.9600    24.4510 
  159.1250     2.2510   -17.8480   387.9710    83.4510    65.6360    62.8080    51.8920    24.4570 
  159.2500     2.2540   -17.8660   391.1220    80.3930    64.5980    61.2240    51.5580    24.4720 
  159.3750     2.2570   -17.9350   394.1940    75.3190    63.3090    59.1960    50.8940    24.4890 
  159.5000     2.2590   -18.0400   396.5050    73.2630    60.9530    57.0330    47.8300    24.4980 
  159.6250     2.2590   -18.1310   398.9670    73.3230    58.9120    55.2970    42.2250    24.5020 
  159.7500     2.2570   -18.1520   398.9870    72.8030    57.8930    54.4220    37.1270    24.5100 
  159.8750     2.2540   -18.1320   397.6740    74.3290    58.0420    54.6160    36.3530    24.5240 
