~V
VERS. 2.00: Ver 2.00
~W
STRT.M 85.0000:
STOP.M 235.0000:
STEP.M 0.1250:
NULL. -999.2500:
UWI. DF305:
~C
DEPT.M :
DEN.GM/CC :
SP.MV :
AC.US/MT :
GR.API :
CALI.CM :
RXO.OHMM :
RI. :
RML.OHMM :
~A
# ...
  215.0000     2.5190   -15.9700   289.6230    82.0450    23.9190    14.7990    12.9480    15.6920 
  215.1250     2.5020   -15.9450   293.0050    80.7570    23.8350    17.9440    12.8540    15.5080 
  215.2500     2.4820   -15.9120   294.0080    78.5440    23.9440    19.3670    12.5980    15.1490 
  215.3750     2.4650   -15.8780   293.9260    76.3470    24.0490    18.4250    12.2750    14.7530 
  215.5000     2.4560   -15.8600   293.2960    73.9680    24.0720    16.8230    11.9910    14.4350 
  215.6250     2.4590   -15.8390   291.9180    73.2700    24.0340    15.6680    11.8430    14.2830 
  215.7500     2.4680   -15.8260   290.6080    76.1630    23.9670    15.5870    11.8230    14.2680 
  215.8750     2.4740   -15.8100   291.1350    79.5400    23.8960    15.2070    11.8910    14.3430 
  216.0000     2.4750   -15.7810   294.5060    79.5350    23.8330    14.2060    11.9840    14.4390 
  216.1250     2.4780   -15.7640   298.8940    75.7900    23.7590    12.7690    12.0280    14.4620 
  216.2500     2.4890   -15.7440   300.4520    72.3770    23.7550    11.5130    11.9960    14.3790 
  216.3750     2.5070   -15.7290   298.5280    72.3110    23.8700    10.5580    11.8900    14.1990 
  216.5000     2.5290   -15.7080   296.0050    74.6510    24.0620     9.9630    11.7390    13.9690 
  216.6250     2.5480   -15.6850   295.5760    75.5500    24.1510     9.8210    11.5980    13.7710 
  216.7500     2.5550   -15.6560   294.5750    75.5470    24.1740    10.2620    11.5220    13.6910 
  216.8750     2.5550   -15.6130   289.9410    76.0570    24.1740    11.1550    11.5570    13.7920 
  217.0000     2.5540   -15.5550   282.3910    76.8070    24.1740    11.9480    11.7380    14.1050 
  217.1250     2.5580   -15.4800   276.5530    77.3490    24.1740    12.7390    12.1120    14.6520 
  217.2500     2.5620   -15.4060   274.1790    78.9720    24.1740    13.9080    12.6380    15.3650 
  217.3750     2.5640   -15.3080   273.3020    80.6850    24.1740    15.1740    13.2870    16.1980 
  217.5000     2.5700   -15.1950   271.1580    80.8330    24.1740    15.9090    14.0070    17.1030 
  217.6250     2.5780   -15.0790   266.8240    81.8310    24.1720    15.9470    14.6950    17.9760 
  217.7500     2.5730   -14.9570   262.7750    84.5200    24.1550    16.4050    15.2080    18.6420 
  217.8750     2.5540   -14.8440   261.4730    86.1870    24.1150    18.4740    15.4050    18.9180 
  218.0000     2.5410   -14.7620   264.0630    84.2800    24.0850    22.2430    15.1970    18.6860 
  218.1250     2.5570   -14.6810   269.3490    78.9000    24.0720    23.8530    14.5670    17.9160 
  218.2500     2.5880   -14.5820   273.2230    73.8150    24.0680    20.6330    13.7680    16.9320 
  218.3750     2.6080   -14.4970   272.8020    71.4750    24.0680    15.4070    13.0050    15.9980 
  218.5000     2.6050   -14.4270   268.0510    71.0970    24.0730    12.5210    12.4260    15.3020 
  218.6250     2.5860   -14.3750   262.8440    70.7020    24.0760    13.1480    12.1250    14.9560 
  218.7500     2.5690   -14.3290   261.7280    70.6360    24.0760    14.2390    12.0170    14.8370 
  218.8750     2.5560   -14.2920   265.3970    72.3690    24.0760    14.1380    12.0110    14.8090 
  219.0000     2.5490   -14.2680   271.2710    74.3760    24.0760    12.7880    12.0190    14.7530 
  219.1250     2.5500   -14.2560   275.7210    75.2670    24.0760    11.5140    11.9860    14.6280 
  219.2500     2.5570   -14.2650   277.8490    75.9570    24.0710    10.8890    11.9370    14.5170 
  219.3750     2.5630   -14.2790   278.3720    77.9330    24.0450    11.1250    11.9020    14.4870 
  219.5000     2.5640   -14.2680   277.9990    80.7650    23.9820    12.1490    11.8920    14.5440 
  219.6250     2.5680   -14.2560   276.8760    81.2380    23.9210    13.5990    11.8730    14.6280 
  219.7500     2.5750   -14.2560   275.5490    79.8960    23.8950    14.2930    11.7980    14.6350 
  219.8750     2.5750   -14.2370   274.9490    79.3020    23.8810    13.4180    11.6400    14.5200 
  220.0000     2.5620   -14.1950   276.0170    80.6990    23.8550    11.2960    11.4090    14.2920 
  220.1250     2.5400   -14.1660   278.6890    80.9920    23.8140     9.4110    11.1500    13.9960 
  220.2500     2.5260   -14.1400   281.0110    79.0580    23.7910     8.5080    10.9220    13.7150 
  220.3750     2.5260   -14.1180   282.0480    77.5740    23.7840     8.4250    10.7580    13.5110 
  220.5000     2.5360   -14.1220   282.8040    77.7240    23.7830     8.8210    10.6660    13.4250 
  220.6250     2.5480   -14.1280   285.2970    77.1650    23.7830     9.5030    10.6420    13.4580 
  220.7500     2.5510   -14.1340   289.0240    74.4290    23.7830    10.1760    10.6540    13.5190 
  220.8750     2.5440   -14.1580   292.2680    72.2120    23.7830    10.6220    10.6860    13.5560 
  221.0000     2.5300   -14.1950   293.6060    72.5440    23.7830    11.3890    10.7330    13.5650 
  221.1250     2.5200   -14.2220   291.7710    73.5080    23.7830    13.5120    10.8040    13.5950 
  221.2500     2.5230   -14.2340   287.2960    72.3200    23.7830    15.5500    10.8870    13.6750 
  221.3750     2.5320   -14.2330   281.9180    71.0460    23.7830    15.3390    10.9620    13.7860 
  221.5000     2.5380   -14.2190   278.2530    71.0360    23.7830    12.9980    11.0010    13.8760 
  221.6250     2.5430   -14.1960   277.9750    69.6960    23.7830    11.0870    10.9720    13.8780 
  221.7500     2.5560   -14.1760   279.2290    67.3580    23.7810     9.9940    10.8830    13.7940 
  221.8750     2.5740   -14.1610   280.5720    68.1770    23.7770     9.4550    10.7560    13.6580 
  222.0000     2.5860   -14.1400   281.6930    72.4400    23.7700     9.1270    10.6230    13.5120 
  222.1250     2.5820   -14.1090   283.0390    75.2150    23.7760     8.8950    10.5180    13.3890 
  222.2500     2.5710   -14.0820   284.6270    74.3540    23.7780     8.7050    10.4460    13.3020 
  222.3750     2.5690   -14.0680   285.9280    71.7530    23.7800     8.5760    10.4100    13.2460 
  222.5000     2.5800   -14.0730   286.5010    69.4190    23.7810     8.5490    10.4050    13.2070 
  222.6250     2.5880   -14.0970   286.9830    70.6390    23.7760     8.7370    10.4170    13.1770 
  222.7500     2.5820   -14.1220   288.4910    73.4350    23.7700     9.0180    10.4250    13.1610 
  222.8750     2.5660   -14.1320   290.6680    74.9380    23.7740     9.1540    10.4120    13.1590 
  223.0000     2.5540   -14.1460   291.7860    75.6350    23.7800     9.0120    10.3690    13.1550 
  223.1250     2.5500   -14.1570   290.4260    76.9030    23.7830     8.9790    10.2990    13.1250 
  223.2500     2.5500   -14.1860   288.5130    76.4810    23.7830     9.2240    10.2280    13.0690 
  223.3750     2.5560   -14.2150   287.7280    72.7670    23.7830     9.9690    10.1870    13.0090 
  223.5000     2.5700   -14.2370   287.2520    69.7870    23.7730    11.3120    10.1980    12.9880 
  223.6250     2.5890   -14.2420   283.3120    72.3250    23.7440    12.3240    10.3080    13.0990 
  223.7500     2.6010   -14.2430   275.1320    75.2920    23.7100    12.2360    10.5360    13.4110 
  223.8750     2.6040   -14.2540   271.2060    74.3250    23.7120    11.4230    10.8970    13.9780 
  224.0000     2.6020   -14.2500   258.8430    73.8190    23.7540    11.3900    11.3800    14.7860 
  224.1250     2.6020   -14.2720   257.9250    73.8190    23.7760    12.3850    11.9320    15.7060 
  224.2500     2.6070   -14.2860   260.1040    73.8190    23.7830    12.6630    12.4260    16.4750 
  224.3750     2.6150   -14.2910   262.4550    73.8190    23.7830    12.0830    12.7530    16.8810 
  224.5000     2.6180   -14.2860   263.2060    73.8190    23.7830    11.5220    12.8500    16.8610 
  224.6250     2.6070   -14.2770   261.9660    73.8190    23.7830    11.1860    12.7320    16.5410 
  224.7500     2.5880   -14.2500   259.9260    73.8190    23.7830    10.8810    12.5450    16.2220 
  224.8750     2.5710   -14.2220   258.2790    73.8190    23.7830    10.7730    12.3830    16.0460 
