~V
VERS. 2.00: Ver 2.00
~W
STRT.M 66.0000:
STOP.M 262.0000:
STEP.M 0.1250:
NULL. -999.2500:
UWI. DF3009:
~C
DEPT.M :
GR.API :
RML.OHMM :
RI. :
RXO.OHMM :
CALI.CM :
DEN.GM/CC :
SP.MV :
~A
# ...
   88.5000   109.4140     7.6740     6.0360     0.5000    24.3830  -999.2500   -16.6080 
   88.6250   100.1320     7.9270     6.2590     0.5000    24.3020  -999.2500   -16.9070 
   88.7500    93.1950     8.0000     6.3730     0.5000    24.3480  -999.2500   -16.9950 
   88.8750    93.6050     7.8820     6.3530     0.5000    24.3270  -999.2500   -17.0930 
   89.0000    99.0790     7.6470     6.2270     0.5000    24.3930  -999.2500   -17.2300 
   89.1250   103.1860     7.4260     6.0630     0.5000    24.3720  -999.2500   -17.1600 
   89.2500   104.7800     7.3160     5.9380     0.5000    24.2470  -999.2500   -17.0230 
   89.3750   106.7420     7.3320     5.8850     0.5000    24.1100  -999.2500   -16.9630 
   89.5000   110.5660     7.4350     5.9000     0.5000    23.9950  -999.2500   -16.8090 
   89.6250   112.9460     7.5690     5.9670     0.5000    24.1030  -999.2500   -16.5910 
   89.7500   110.1710     7.6990     6.0540     0.5000    24.2320  -999.2500   -16.5400 
   89.8750   105.8830     7.8370     6.1540     0.5000    24.4210  -999.2500   -16.4630 
   90.0000   104.7590     8.0120     6.2730     0.5000    24.5010  -999.2500   -16.2780 
   90.1250   103.4530     8.2470     6.4180     0.5000    24.5130  -999.2500   -16.2600 
   90.2500    97.0630     8.4890     6.5650     0.5000    24.5280  -999.2500   -16.2720 
   90.3750    89.3430     8.6630     6.6740     0.5000    24.4620  -999.2500   -16.1700 
   90.5000    86.1900     8.7020     6.7070     0.5000    24.4520  -999.2500   -16.0950 
   90.6250    87.5860     8.5550     6.6290     0.5000    24.3420  -999.2500   -16.0110 
   90.7500    89.3010     8.2920     6.4710     0.5000    24.3830  -999.2500   -15.8810 
   90.8750    90.6920     7.9960     6.2780     0.5000    24.4950  -999.2500   -15.8340 
   91.0000    92.2710     7.7640     6.1040     0.5000    24.4850  -999.2500   -15.8140 
   91.1250    93.7100     7.7000     6.0130     0.5000    24.4760  -999.2500   -15.7320 
   91.2500    94.2470     7.8040     6.0180     0.5000    24.2110  -999.2500   -15.7710 
   91.3750    93.7490     8.0260     6.1050     0.5000    23.9360  -999.2500   -15.8430 
   91.5000    91.6950     8.2540     6.2230     0.5000    23.6870  -999.2500   -15.8570 
   91.6250    90.7550     8.3040     6.2780     0.5000    23.7400  -999.2500   -16.0950 
   91.7500    90.7050     8.1190     6.2210     0.5000    24.0260  -999.2500   -16.3420 
   91.8750    89.4000     7.7830     6.0770     0.5000    24.2370  -999.2500   -16.4790 
   92.0000    88.2500     7.5350     5.9640     0.5000    24.2970  -999.2500   -16.7170 
   92.1250    89.8630     7.7910     6.1110     0.5000    23.9600  -999.2500   -17.0440 
   92.2500    90.6080     8.6530     6.6080     0.5000    23.9130  -999.2500   -17.2640 
   92.3750    85.8900     9.9820     7.4130     0.5000    23.8770  -999.2500   -17.4880 
   92.5000    78.5950    11.3730     8.3230     0.5000    23.9630  -999.2500   -17.8530 
   92.6250    74.9070    12.1200     8.9330     0.5000    24.1130  -999.2500   -18.0880 
   92.7500    74.3920    11.8720     8.9630     0.5000    24.0520  -999.2500   -18.3170 
   92.8750    77.6920    10.6640     8.3630     0.5000    24.0290  -999.2500   -18.6650 
   93.0000    83.1510     8.9540     7.3620     0.5000    24.0700  -999.2500   -18.8960 
   93.1250    85.7760     7.5190     6.4110     0.5000    24.2050  -999.2500   -18.9940 
   93.2500    81.7590     6.9670     5.9280     0.5000    24.1250  -999.2500   -19.1830 
   93.3750    75.0440     7.7490     6.2590     0.5000    24.1440  -999.2500   -19.3500 
   93.5000    73.2620    10.1960     7.7420     0.5000    24.2200  -999.2500   -19.3180 
   93.6250    76.5600    14.5330    10.7740     0.5000    24.2500  -999.2500   -19.3630 
   93.7500    77.1800    19.6860    14.7840     0.5000    24.2830  -999.2500   -19.4240 
   93.8750    71.2880    24.2240    18.8270     0.5000    24.1370  -999.2500   -19.4630 
   94.0000    62.7600    26.4810    21.5710     0.5000    24.0120  -999.2500   -19.7140 
   94.1250    61.1520    24.8470    21.4100     0.5000    23.7470  -999.2500   -20.0030 
   94.2500    65.5860    20.7490    18.9380     0.5000    23.6760  -999.2500   -20.2150 
   94.3750    71.0170    16.1660    15.4920     0.5000    23.5940  -999.2500   -20.5320 
   94.5000    72.8130    12.6090    12.3570     0.5000    23.3650  -999.2500   -20.8680 
   94.6250    73.2020    10.6860    10.2340     0.5000    23.2570  -999.2500   -21.0920 
   94.7500    75.4380     9.7840     8.8890     0.5000    23.3100  -999.2500   -21.3350 
   94.8750    77.7930     9.4490     8.0800     0.5000    23.3850  -999.2500   -21.4720 
   95.0000    78.2120     9.3020     7.5790     0.5000    23.4190  -999.2500   -21.3810 
   95.1250    78.1870     9.0800     7.2270     0.5000    23.3350  -999.2500   -21.3440 
   95.2500    80.5250     8.7490     6.9190     0.5000    23.4780  -999.2500   -21.3740 
   95.3750    84.7320     8.4180     6.6730     0.5000    23.5040  -999.2500   -21.2950 
   95.5000    88.1540     8.2330     6.5410     0.5000    23.5560  -999.2500   -21.2400 
   95.6250    89.2190     8.3190     6.5940     0.5000    23.5240  -999.2500   -21.3820 
   95.7500    87.7790     8.6130     6.7970     0.5000    23.5410  -999.2500   -21.5730 
   95.8750    83.6850     9.0140     7.0970     0.5000    23.5060  -999.2500   -21.8410 
   96.0000    77.0920     9.4030     7.4160     0.5000    23.4870  -999.2500   -22.3140 
   96.1250    71.3860     9.6580     7.6650     0.5000    23.5320  -999.2500   -22.7900 
   96.2500    70.4140     9.7780     7.8190     0.5000    23.5400  -999.2500   -23.1750 
   96.3750    74.1360     9.8060     7.8930     0.5000    23.6150  -999.2500   -23.6970 
   96.5000    78.1920     9.8100     7.9230     0.5000    23.5960  -999.2500   -24.2800 
   96.6250    76.6550     9.8370     7.9420     0.5000    23.6240  -999.2500   -24.7130 
   96.7500    72.6210     9.8790     7.9570     0.5000    23.6650  -999.2500   -25.1620 
   96.8750    71.7130     9.8940     7.9530     0.5000    23.5840  -999.2500   -25.5830 
   97.0000    73.5360     9.8490     7.9170     0.5000    23.4140  -999.2500   -25.8420 
   97.1250    72.7540     9.7420     7.8550     0.5000    23.1870  -999.2500   -26.1440 
   97.2500    69.7270     9.6510     7.8090     0.5000    23.2900  -999.2500   -26.4620 
   97.3750    68.2660     9.6550     7.8270     0.5000    23.3660  -999.2500   -26.6010 
   97.5000    67.4040     9.8040     7.9390     0.5000    23.4250  -999.2500   -26.7760 
   97.6250    65.1710    10.0870     8.1460     0.5000    23.5190  -999.2500   -26.8980 
   97.7500    65.2550    10.3780     8.3720     0.5000    23.5430  -999.2500   -26.8830 
   97.8750    69.9540    10.5580     8.5400     0.5000    23.6260  -999.2500   -26.9820 
   98.0000    74.8830    10.5460     8.5890     0.5000    23.5710  -999.2500   -27.1180 
   98.1250    75.5250    10.3080     8.4840     0.6120    23.5240  -999.2500   -27.1000 
   98.2500    75.1350     9.9640     8.2950     1.1730    23.5360  -999.2500   -27.1640 
   98.3750    74.9010     9.6220     8.0930     2.1280    23.5280  -999.2500   -27.3010 
   98.5000    71.7340     9.3660     7.9400     3.3490    23.5530  -999.2500   -27.3010 
   98.6250    67.4960     9.2510     7.8840     9.4980    23.4540  -999.2500   -27.3710 
   98.7500    66.6150     9.2490     7.9130     9.5410    23.4660  -999.2500   -27.4900 
   98.8750    68.1510     9.3410     8.0150     9.6320    23.4550  -999.2500   -27.4210 
   99.0000    68.7340     9.5250     8.1810     9.7630    23.4670  -999.2500   -27.2580 
   99.1250    69.8370     9.8260     8.4140     9.9320    23.5440  -999.2500   -27.1620 
   99.2500    72.8540    10.1960     8.6740    10.0560    23.5770  -999.2500   -26.9290 
   99.3750    74.6230    10.5330     8.8950    10.1030    23.6990  -999.2500   -26.5120 
   99.5000    72.4710    10.6750     8.9720    10.1420    23.6840  -999.2500   -26.1290 
   99.6250    69.2170    10.3840     8.7430    10.2260    23.7200  -999.2500   -25.6360 
