~V
VERS. 2.00: Ver 2.00
~W
STRT.M 64.0000:
STOP.M 257.0000:
STEP.M 0.1250:
NULL. -999.2500:
UWI. DF3069:
~C
DEPT.M :
GR.API :
CALI.CM :
RXO.OHMM :
RI. :
RML.OHMM :
DEN.GM/CC :
SP.MV :
~A
# ...
   75.2500    71.2120    26.1540    10.7490     8.0480    10.8010  -999.2500   -31.7470 
   75.3750    71.4910    25.8810    10.7260     7.9260    10.7020  -999.2500   -31.5680 
   75.5000    73.9280    25.2860    10.5190     7.9010    10.7640  -999.2500   -31.4520 
   75.6250    80.3340    24.7240    10.1000     7.9940    10.9820  -999.2500   -31.4270 
   75.7500    84.7440    24.6050    10.3510     8.1600    11.2850  -999.2500   -31.4700 
   75.8750    83.8920    24.4900    11.4600     8.3440    11.5660  -999.2500   -31.5400 
   76.0000    80.5070    24.6940    14.6270     8.4980    11.7410  -999.2500   -31.6220 
   76.1250    78.0560    25.0670    15.4020     8.5760    11.7880  -999.2500   -31.6770 
   76.2500    75.4870    25.4220    13.7600     8.5880    11.7410  -999.2500   -31.6960 
   76.3750    72.6120    25.5810    11.6880     8.5650    11.6200  -999.2500   -31.6730 
   76.5000    70.0970    25.6120    11.3700     8.5370    11.5230  -999.2500   -31.5920 
   76.6250    67.7650    25.7490    11.6330     8.5320    11.4860  -999.2500   -31.4330 
   76.7500    66.4230    26.2010    11.9320     8.5680    11.5300  -999.2500   -31.2350 
   76.8750    66.2370    26.3920    12.0480     8.6350    11.6180  -999.2500   -31.0000 
   77.0000    64.4450    26.3500    12.0000     8.6830    11.6510  -999.2500   -30.7440 
   77.1250    60.3420    26.0120    11.8210     8.6130    11.4730  -999.2500   -30.4540 
   77.2500    58.6200    25.4550    11.5770     8.4250    11.1180  -999.2500   -30.1100 
   77.3750    62.3990    24.9820    11.2860     8.1350    10.6320  -999.2500   -29.6870 
   77.5000    68.2540    24.5930    10.8290     7.7620    10.0320  -999.2500   -29.1880 
   77.6250    73.1280    24.4310    10.0920     7.3440     9.3960  -999.2500   -28.5860 
   77.7500    78.3430    24.4350     9.1300     6.9340     8.8260  -999.2500   -27.9110 
   77.8750    83.2510    24.4770     8.1440     6.5730     8.3890  -999.2500   -27.2030 
   78.0000    85.1530    24.2890     7.6280     6.3110     8.1550  -999.2500   -26.4920 
   78.1250    83.9630    24.2570     7.7570     6.2040     8.1800  -999.2500   -25.8440 
   78.2500    84.6580    24.0880     7.6850     6.2170     8.3380  -999.2500   -25.3030 
   78.3750    86.8250    23.9620     7.5100     6.3320     8.6100  -999.2500   -24.9030 
   78.5000    86.8360    23.9670     7.5170     6.5340     8.9580  -999.2500   -24.6620 
   78.6250    83.0100    24.1390     7.9140     6.7700     9.2620  -999.2500   -24.6210 
   78.7500    77.8460    24.1610     9.1950     6.9400     9.4230  -999.2500   -24.6740 
   78.8750    74.1340    24.0340    11.0430     6.9790     9.3800  -999.2500   -24.7550 
   79.0000    73.5810    24.0180    11.2140     6.8510     9.1300  -999.2500   -24.8210 
   79.1250    79.6550    24.3500     9.4330     6.5260     8.6400  -999.2500   -24.8610 
   79.2500    88.1850    24.4280     8.0040     6.1120     8.0800  -999.2500   -24.8580 
   79.3750    92.3000    24.3440     7.3950     5.7010     7.5700  -999.2500   -24.8090 
   79.5000    91.5460    24.4070     6.8670     5.3680     7.2000  -999.2500   -24.7290 
   79.6250    92.6810    24.7590     6.5210     5.2050     7.1270  -999.2500   -24.6560 
   79.7500    97.5180    24.9420     6.3870     5.2230     7.3200  -999.2500   -24.6650 
   79.8750    99.3770    24.9100     6.5390     5.4100     7.7200  -999.2500   -24.7980 
   80.0000    95.0350    24.6390     6.9650     5.7050     8.2460  -999.2500   -25.0280 
   80.1250    89.3410    24.2390     7.9260     6.0370     8.7790  -999.2500   -25.3290 
   80.2500    85.4360    23.7930     8.5220     6.3250     9.2070  -999.2500   -25.6870 
   80.3750    82.2890    23.5340     8.5980     6.5010     9.4280  -999.2500   -26.0870 
   80.5000    79.6700    23.4580     8.6410     6.5510     9.4580  -999.2500   -26.4980 
   80.6250    79.4640    23.5130     8.6080     6.5150     9.3450  -999.2500   -26.8690 
   80.7500    80.5310    23.3840     8.1700     6.4590     9.2450  -999.2500   -27.1630 
   80.8750    80.3830    23.4290     7.8860     6.4370     9.2210  -999.2500   -27.3800 
   81.0000    78.2280    23.7540     8.1150     6.4980     9.3160  -999.2500   -27.5720 
   81.1250    78.8750    24.2440     8.4710     6.6660     9.5820  -999.2500   -27.7290 
   81.2500    82.7180    24.5650     8.6610     6.8960     9.9710  -999.2500   -27.8710 
   81.3750    84.6200    24.6220     8.8500     7.1560    10.4280  -999.2500   -27.9900 
   81.5000    80.9980    24.6310     9.3190     7.3940    10.8380  -999.2500   -28.0780 
   81.6250    73.3530    24.5820     9.6840     7.5130    11.0600  -999.2500   -28.1360 
   81.7500    67.7060    24.4410     9.9090     7.4940    11.0580  -999.2500   -28.1760 
   81.8750    66.1710    24.6170     9.9240     7.3290    10.8120  -999.2500   -28.1740 
   82.0000    69.8010    25.0060     9.7300     7.0640    10.4130  -999.2500   -28.1030 
   82.1250    77.7140    25.5870     9.2740     6.7730     9.9850  -999.2500   -27.9650 
   82.2500    85.2260    26.1760     8.5830     6.5380     9.6510  -999.2500   -27.7890 
   82.3750    89.7050    26.6660     7.8750     6.4020     9.4930  -999.2500   -27.5980 
   82.5000    90.6070    26.7870     7.6210     6.4010     9.5460  -999.2500   -27.4010 
   82.6250    89.1760    26.6730     7.8360     6.5200     9.7300  -999.2500   -27.1390 
   82.7500    87.4490    26.0840     8.0890     6.6580     9.9210  -999.2500   -26.8280 
   82.8750    84.3430    25.4010     8.6310     6.7470    10.0100  -999.2500   -26.5030 
   83.0000    80.0230    24.9150     9.0390     6.7190     9.8950  -999.2500   -26.1750 
   83.1250    79.9090    24.3670     8.8330     6.5280     9.4830  -999.2500   -25.8590 
   83.2500    85.9920    24.0930     8.5190     6.2410     8.9590  -999.2500   -25.5250 
   83.3750    93.7610    24.0330     7.7840     5.9370     8.4640  -999.2500   -25.1910 
   83.5000    98.2900    24.0290     6.8480     5.6810     8.0780  -999.2500   -24.8820 
   83.6250    96.7430    23.9620     6.3380     5.5290     7.8940  -999.2500   -24.6490 
   83.7500    93.5170    23.8710     6.5680     5.4930     7.8860  -999.2500   -24.4580 
   83.8750    91.2270    23.9900     7.0150     5.5400     8.0070  -999.2500   -24.2490 
   84.0000    90.6820    24.2630     7.3850     5.6280     8.1950  -999.2500   -23.9970 
   84.1250    89.2460    24.2780     7.6720     5.7140     8.3440  -999.2500   -23.7170 
   84.2500    87.8210    24.2930     7.4670     5.7650     8.3810  -999.2500   -23.4420 
   84.3750    89.2310    24.3220     7.0880     5.7650     8.2930  -999.2500   -23.1540 
   84.5000    94.0390    24.3090     6.9250     5.7220     8.1230  -999.2500   -22.8570 
   84.6250   100.9410    24.2710     6.9630     5.6510     7.9060  -999.2500   -22.5870 
   84.7500   104.2290    24.3080     6.9430     5.5860     7.7450  -999.2500   -22.3690 
   84.8750   102.0050    24.3020     6.9260     5.5370     7.6490  -999.2500   -22.2790 
   85.0000    98.5060    24.1150     6.9660     5.5040     7.6050  -999.2500   -22.3200 
   85.1250    98.2970    23.8440     6.8480     5.4800     7.6190  -999.2500   -22.4390 
   85.2500    99.0520    23.9040     6.7020     5.4510     7.6500  -999.2500   -22.5850 
   85.3750    96.2160    24.0270     6.6920     5.4120     7.6700  -999.2500   -22.7550 
   85.5000    93.3510    24.1640     6.7270     5.3610     7.6350  -999.2500   -22.9180 
   85.6250    93.6910    24.2940     7.0380     5.2750     7.5120  -999.2500   -23.0000 
   85.7500    94.1980    24.3340     7.0000     5.1510     7.2760  -999.2500   -23.0280 
   85.8750    92.1070    24.3320     6.7760     5.0140     7.0100  -999.2500   -22.9950 
   86.0000    87.3370    24.3210     6.7120     4.9560     6.8960  -999.2500   -22.9480 
   86.1250    84.3630    24.3070     6.9310     5.0940     7.1450  -999.2500   -22.9570 
   86.2500    85.8160    24.1050     7.3010     5.4850     7.8210  -999.2500   -23.0210 
   86.3750    90.0660    23.8300     7.6070     6.1770     9.0130  -999.2500   -23.1360 
