~V
VERS. 2.00: Ver 2.00
~W
STRT.M 60.0000:
STOP.M 238.0000:
STEP.M 0.1250:
NULL. -999.2500:
UWI. DF308:
~C
DEPT.M :
DEN.GM/CC :
SP.MV :
AC.US/MT :
GR.API :
CALI.CM :
RXO.OHMM :
RI. :
RML.OHMM :
~A
# ...
  230.0000     2.5710   -15.7620   287.4100    69.4680    23.8130    11.5260     8.1330     9.9150 
  230.1250     2.5500   -15.6880   292.3320    69.4680    23.8580    11.6510     8.1600     9.9360 
  230.2500     2.5290   -15.6100   296.4490    69.4680    23.8610    11.1940     8.1990     9.9640 
  230.3750     2.5190   -15.5180   296.8120    69.4680    23.8580    10.3370     8.2310     9.9850 
  230.5000     2.5180   -15.4390   292.8380    69.4680    23.8610     9.4860     8.2470     9.9980 
  230.6250     2.5220   -15.3740   290.4940    69.4680    23.8360     9.1850     8.2490    10.0080 
  230.7500     2.5180   -15.3230   295.0270    69.4680    23.8030     9.5410     8.2470    10.0180 
  230.8750     2.4820   -15.2770   306.7780    69.4680    23.7800    10.6360     8.2440    10.0250 
  231.0000     2.4230   -15.2320   318.7620    69.4680    23.7420    11.5680     8.2410    10.0300 
  231.1250     2.3770   -15.1940   322.2590    69.4680    23.8310    11.3880     8.2380    10.0310 
  231.2500     2.3750   -15.1550   314.1070    69.4680    23.9150    10.8690     8.2380    10.0320 
  231.3750     2.4230   -15.1220   296.7410    69.4680    24.0070    10.8820     8.2400    10.0310 
  231.5000     2.4780   -15.0970   277.0650    69.4680    23.9830    11.8420     8.2430    10.0250 
  231.6250     2.4990   -15.1010   262.4470    69.4680    23.8220    13.0110     8.2430    10.0250 
  231.7500     2.4650   -15.1220   256.5410    69.4680    23.6720    13.8830     8.2430    10.0250 
  231.8750     2.3920   -15.1570   260.8950    69.4680    23.7020    14.1550     8.2430    10.0250 
  232.0000     2.3300   -15.1830   276.1750    69.4680    23.7960    14.0310     8.2430    10.0250 
  232.1250     2.2930   -15.2000   301.0960    69.4680    23.8460    15.2420     8.2430    10.0250 
  232.2500     2.2730   -15.2260   338.5330    69.4680    23.8340    19.8260     8.2430    10.0250 
  232.3750     2.2500   -15.2520   384.5290    69.4680    23.8390    28.3430     8.2430    10.0250 
  232.5000     2.2120   -15.2620   420.0750    69.4680    23.8030    33.4490     8.2430    10.0250 
  232.6250     2.1540   -15.2650   436.5530    69.4680    23.8550    26.3100     8.2430    10.0250 
  232.7500     2.0910   -15.2740   440.4560    69.4680    23.9310    17.6280     8.2430    10.0250 
  232.8750     2.0490   -15.2560   441.1380    69.4680    23.8810    14.0360     8.2430    10.0250 
  233.0000     2.0350   -15.2380   441.8380    69.4680    23.5690    14.1460     8.2430    10.0250 
  233.1250     2.0330   -15.2270   442.2910    69.4680    23.2670    14.7390     8.2430    10.0250 
  233.2500     2.0310   -15.2070   442.3300    69.4680    23.0770    14.4930     8.2430    10.0250 
  233.3750     2.0170   -15.1970   442.1460    69.4680    22.8060    13.8470     8.2430    10.0250 
  233.5000     1.9960   -15.1890   441.9160    69.4680    22.2160    13.5170     8.2430    10.0250 
  233.6250     1.9770   -15.1870   441.8400    69.4680    20.9850    13.4640     8.2430    10.0250 
  233.7500     1.9740   -15.1800   441.9690    69.4680    18.9110    13.6840     8.2430    10.0250 
  233.8750     1.9950   -15.1770   442.1840    69.4680    16.4870    14.0140     8.2430    10.0250 
  234.0000     2.0210   -15.1770   442.2970    69.4680    15.0940    14.2340     8.2430    10.0250 
  234.1250     2.0360   -15.1770   442.2590    69.4680    14.7640    14.2980     8.2430    10.0250 
  234.2500     2.0400   -15.1770   442.1440    69.4680    14.7640    14.2970     8.2430    10.0250 
  234.3750     2.0400   -15.1810   442.0390    69.4680    14.7640    14.2940     8.2430    10.0250 
  234.5000     2.0390   -15.1890   442.0340    69.4680    14.7640    14.2910     8.2430    10.0250 
  234.6250     2.0350   -15.1890   443.1690    69.4680    14.7640    14.2890     8.2430    10.0250 
  234.7500     2.0270   -15.1890   447.2340    69.4680    14.7640    14.2850     8.2430    10.0250 
  234.8750     2.0180  -999.2500   455.9400    69.4680    14.7640    14.2790     8.2430    10.0250 
  235.0000     2.0120  -999.2500   459.6330    69.4680    14.7640    14.2760     8.2430    10.0250 
  235.1250     2.0130  -999.2500   461.6560    69.4680    14.7640    14.2780     8.2430    10.0250 
  235.2500     2.0200  -999.2500   463.2630    69.4680    14.7640    14.2770     8.2430    10.0250 
  235.3750     2.0250  -999.2500  -999.2500    69.4680    14.7640    14.2760     8.2430    10.0250 
  235.5000     2.0240  -999.2500  -999.2500    69.4680    14.7640    14.2760     8.2430    10.0250 
  235.6250     2.0220  -999.2500  -999.2500    69.4680    14.7640    14.2760     8.2430    10.0250 
  235.7500     2.0260  -999.2500  -999.2500    69.4680    14.7640    14.2750     8.2430    10.0250 
  235.8750     2.0320  -999.2500  -999.2500    69.4680    14.7640    14.2710     8.2430    10.0250 
  236.0000     2.0330  -999.2500  -999.2500    69.4680    14.7640    14.2650     8.2430    10.0250 
  236.1250     2.0240  -999.2500  -999.2500    69.4680    14.7640    14.2600     8.2430    10.0250 
  236.2500     2.0120  -999.2500  -999.2500    69.4680    14.7640    14.2610     8.2430    10.0250 
  236.3750     2.0060  -999.2500  -999.2500    69.4680    14.7640    14.2650     8.2430    10.0250 
  236.5000     2.0070  -999.2500  -999.2500    69.4680    14.7640    14.2690     8.2430    10.0250 
  236.6250     2.0110  -999.2500  -999.2500  -999.2500  -999.2500  -999.2500  -999.2500  -999.2500 
  236.7500     2.0170  -999.2500  -999.2500  -999.2500  -999.2500  -999.2500  -999.2500  -999.2500 
  236.8750     2.0230  -999.2500  -999.2500  -999.2500  -999.2500  -999.2500  -999.2500  -999.2500 
  237.0000     2.0290  -999.2500  -999.2500  -999.2500  -999.2500  -999.2500  -999.2500  -999.2500 
  237.1250     2.0350  -999.2500  -999.2500  -999.2500  -999.2500  -999.2500  -999.2500  -999.2500 
  237.2500     2.0430  -999.2500  -999.2500  -999.2500  -999.2500  -999.2500  -999.2500  -999.2500 
  237.3750     2.0450  -999.2500  -999.2500  -999.2500  -999.2500  -999.2500  -999.2500  -999.2500 
  237.5000     2.0380  -999.2500  -999.2500  -999.2500  -999.2500  -999.2500  -999.2500  -999.2500 
  237.6250     2.0500  -999.2500  -999.2500  -999.2500  -999.2500  -999.2500  -999.2500  -999.2500 
  237.7500     2.1160  -999.2500  -999.2500  -999.2500  -999.2500  -999.2500  -999.2500  -999.2500 
  237.8750     2.2130  -999.2500  -999.2500  -999.2500  -999.2500  -999.2500  -999.2500  -999.2500 
  238.0000     2.2740  -999.2500  -999.2500  -999.2500  -999.2500  -999.2500  -999.2500  -999.2500 
