~V
VERS. 2.00: Ver 2.00
~W
STRT.M 110.0000:
STOP.M 242.0000:
STEP.M 0.1250:
NULL. -999.2500:
UWI. DF306:
~C
DEPT.M :
DEN.GM/CC :
AC.US/MT :
GR.API :
CALI.CM :
RXO.OHMM :
RI. :
RML.OHMM :
SP.MV :
~A
# ...
  150.0000     2.2710   400.7740    76.1510    25.2390    62.9020    55.8490    67.1400   -23.8490 
  150.1250     2.2690   398.2150    77.0650    25.2420    67.3660    58.2920    70.5700   -23.9460 
  150.2500     2.2670   397.2710    78.6560    25.2310    71.3990    61.2220    74.4900   -24.0000 
  150.3750     2.2690   398.7340    80.8620    25.2210    76.9200    64.3910    78.5860   -24.0190 
  150.5000     2.2720   401.3290    81.5040    25.2230    82.7160    67.5040    82.4870   -23.9800 
  150.6250     2.2710   402.2150    78.6110    25.2080    85.5850    70.1710    85.6910   -23.8870 
  150.7500     2.2660   400.2400    74.3140    25.1520    87.3160    72.1840    87.9930   -23.7610 
  150.8750     2.2590   396.2450    70.9700    25.0960    89.4400    73.3780    89.2450   -23.6210 
  151.0000     2.2550   392.2330    70.5330    25.1000    90.1980    73.7060    89.4450   -23.4750 
  151.1250     2.2590   390.3030    74.4740    25.1640    87.3040    73.1710    88.6400   -23.3530 
  151.2500     2.2650   390.3790    79.1240    25.2100    83.2690    72.1130    87.2360   -23.2650 
  151.3750     2.2660   391.5060    79.9630    25.2170    80.6650    70.7600    85.5030   -23.2040 
  151.5000     2.2600   392.4410    77.3590    25.2060    79.5840    69.3230    83.6840   -23.1820 
  151.6250     2.2560   392.1760    74.4050    25.1380    77.8440    67.8920    81.8290   -23.1830 
  151.7500     2.2570   391.1670    71.2580    24.9610    74.8670    66.3590    79.7370   -23.1900 
  151.8750     2.2600   390.3830    70.6130    24.7200    71.9680    64.5900    77.1810   -23.1930 
  152.0000     2.2590   390.6040    74.5130    24.5210    69.1790    62.5490    74.0940   -23.1820 
  152.1250     2.2570   392.0100    76.9970    24.4320    64.6120    60.3330    70.6350   -23.1530 
  152.2500     2.2640   393.9160    73.5520    24.4280    59.8580    58.2410    67.3260   -23.1110 
  152.3750     2.2800   395.8520    68.5930    24.5300    58.0680    56.6210    64.7120   -23.0610 
  152.5000     2.2920   397.2650    68.1200    24.7520    59.2350    55.8490    63.3070   -23.0030 
  152.6250     2.2850   397.0090    69.3290    25.0020    60.1030    56.4050    63.6750   -22.9610 
  152.7500     2.2690   394.6590    69.7190    25.1620    59.9690    58.0480    65.3960   -22.9340 
  152.8750     2.2620   390.6490    71.3790    25.2210    61.4190    60.3230    67.8260   -22.9090 
  153.0000     2.2650   386.5740    73.8720    25.2230    66.2780    62.3990    69.8770   -22.9080 
  153.1250     2.2710   385.2180    73.4790    25.1860    70.4630    62.5610    69.4330   -22.9230 
  153.2500     2.2770   387.7050    70.5280    25.1210    67.6360    59.6900    65.3600   -22.9520 
  153.3750     2.2890   393.6770    69.4320    25.0410    59.3640    53.6750    57.8500   -22.9990 
  153.5000     2.3030   401.2510    73.2690    24.9700    52.0120    45.9210    48.7850   -23.0910 
  153.6250     2.3120   407.0140    79.1710    24.9360    46.8130    38.9030    41.1100   -23.2140 
  153.7500     2.3120   408.5630    84.2410    24.9570    40.1570    34.2080    36.4890   -23.3690 
  153.8750     2.3060   405.3490    85.2620    25.0090    33.7680    32.5230    35.7010   -23.5590 
  154.0000     2.2980   398.9190    80.3160    24.9470    31.8850    34.2200    39.1400   -23.7830 
  154.1250     2.2840   392.5630    72.1090    24.6210    37.6050    40.3920    47.9170   -24.0230 
  154.2500     2.2650   388.8080    67.4750    24.2490    48.9900    50.7960    61.4630   -24.2550 
  154.3750     2.2480   387.7820    68.4090    24.1310    65.6440    65.0380    79.1390   -24.4780 
  154.5000     2.2430   387.9460    72.1240    24.3590    85.6590    81.2990    98.7510   -24.6540 
  154.6250     2.2530   387.0930    73.7410    24.6930   100.9280    95.8600   115.7740   -24.7800 
  154.7500     2.2690   384.6680    72.3730    24.8590   105.9910   106.2810   127.4300   -24.8640 
  154.8750     2.2790   381.5460    68.7510    24.8040   105.2970   112.1760   133.5980   -24.9040 
  155.0000     2.2780   379.2180    65.1930    24.6060   104.9800   114.3040   135.6040   -24.9100 
  155.1250     2.2650   379.3570    63.9700    24.4390   105.1850   113.6920   134.9820   -24.9030 
  155.2500     2.2520   381.9600    63.8600    24.4660   105.1020   112.1020   133.6930   -24.9080 
  155.3750     2.2420   386.4860    65.1730    24.7190   108.0040   110.3710   132.5440   -24.9300 
  155.5000     2.2340   391.7940    68.9190    25.0580   115.9540   108.8930   131.7870   -24.9900 
  155.6250     2.2360   396.0680    72.8690    25.2730   126.8340   107.7300   131.2160   -25.0750 
  155.7500     2.2480   398.2110    72.5910    25.3420   133.7270   106.5470   130.2340   -25.1770 
  155.8750     2.2640   398.1780    68.3180    25.3510   132.0330   105.0230   128.3620   -25.3100 
  156.0000     2.2730   396.8610    66.3030    25.3620   122.5880   103.0130   125.4800   -25.4440 
  156.1250     2.2670   395.6490    68.5470    25.3450   109.8700   100.6890   121.9680   -25.5700 
  156.2500     2.2590   395.4590    69.2410    25.2730    97.9830    98.6130   118.7440   -25.6770 
  156.3750     2.2590   396.4680    68.2920    25.1840    89.4540    97.2770   116.4670   -25.7560 
  156.5000     2.2600   398.3790    70.0680    25.1450    86.8760    97.0190   115.5200   -25.7810 
  156.6250     2.2530   400.5140    72.4750    25.1740    91.7910    98.1870   116.2590   -25.7840 
  156.7500     2.2430   401.9200    69.5510    25.2160   100.5570   100.5570   118.3840   -25.7680 
  156.8750     2.2410   401.7270    64.2300    25.2630   109.8070   103.9990   121.6850   -25.7200 
  157.0000     2.2470   399.3100    62.7040    25.3320   117.0820   108.0560   125.5420   -25.6710 
  157.1250     2.2500   394.4370    66.1530    25.4030   121.5350   111.2770   128.0850   -25.6320 
  157.2500     2.2530   388.6240    69.8340    25.4170   124.0180   111.8980   127.2790   -25.5980 
  157.3750     2.2610   383.4700    72.1090    25.3600   123.5060   108.7600   121.9850   -25.5610 
  157.5000     2.2700   380.4320    73.2470    25.2720   116.6380   101.9600   112.7410   -25.5500 
  157.6250     2.2700   380.5640    73.6060    25.2200   100.7590    92.8540   101.6370   -25.5440 
  157.7500     2.2670   382.5470    74.4560    25.2040    83.7230    84.0090    91.5430   -25.5320 
  157.8750     2.2700   384.7170    74.9450    25.1890    73.3830    76.9580    83.9820   -25.5290 
  158.0000     2.2810   385.5140    73.8740    25.1710    71.3200    72.5860    79.7300   -25.5180 
  158.1250     2.2860   384.1370    74.1180    25.1720    73.0750    71.9450    79.8070   -25.5180 
  158.2500     2.2760   381.9750    76.4840    25.1750    74.3790    74.8870    83.8730   -25.5290 
  158.3750     2.2530   380.5290    77.9610    25.1630    78.3620    81.6600    92.0750   -25.5580 
  158.5000     2.2310   380.7640    74.8560    25.1460    91.7920    92.2390   104.2660   -25.6090 
  158.6250     2.2210   382.7830    69.6490    25.1480   122.2970   106.1700   119.7900   -25.6810 
  158.7500     2.2190   385.1840    69.0590    25.1670   161.7280   120.6590   135.4620   -25.7700 
  158.8750     2.2240   386.6920    72.2490    25.1710   186.6340   132.7110   147.7730   -25.8530 
  159.0000     2.2370   386.5180    73.8540    25.1420   178.3010   139.6670   153.8020   -25.9350 
  159.1250     2.2530   384.6960    70.5940    25.0830   150.2960   139.7200   152.0830   -25.9750 
  159.2500     2.2590   382.5900    66.8710    25.0380   136.2190   135.0980   145.6640   -25.9840 
  159.3750     2.2490   381.2810    65.4320    25.0470   136.6170   127.2150   136.1530   -25.9660 
  159.5000     2.2320   381.4880    64.6150    25.1090   133.8800   117.1330   124.5740   -25.9310 
  159.6250     2.2240   383.4100    64.8900    25.1750   115.9310   106.1610   112.4490   -25.8900 
  159.7500     2.2310   385.7750    67.1430    25.2020    94.6230    96.4870   102.2140   -25.8870 
  159.8750     2.2460   387.3790    69.4710    25.2080    79.4600    89.9930    95.8930   -25.9590 
