~V
VERS. 2.00: Ver 2.00
~W
STRT.M 67.0000:
STOP.M 264.0000:
STEP.M 0.1250:
NULL. -999.2500:
UWI. DF3014:
~C
DEPT.M :
GR.API :
CALI.CM :
RXO.OHMM :
RI. :
RML.OHMM :
DEN.GM/CC :
SP.MV :
~A
# ...
  247.0000    71.7640    22.9040    18.4480    17.6370    19.1480     2.6050   -19.6120 
  247.1250    68.8850    22.8420    19.8720    18.1810    19.6300     2.6010   -19.5760 
  247.2500    66.8910    22.6660    18.9910    18.6000    19.9670     2.6000   -19.5600 
  247.3750    67.6890    22.6130    17.4770    18.8950    20.1860     2.6030   -19.4560 
  247.5000    68.0620    22.6330    17.7330    19.0970    20.3410     2.6080   -19.3000 
  247.6250    65.0680    22.8010    18.4750    19.2460    20.4760     2.6130   -19.2120 
  247.7500    64.2570    22.6890    17.9970    19.3770    20.6130     2.6120   -19.2120 
  247.8750    66.5180    22.6240    17.0810    19.5360    20.7980     2.6050   -19.1980 
  248.0000    66.1060    22.6000    16.1280    19.7570    21.0650     2.5970   -19.0870 
  248.1250    63.7060    22.6160    16.1070    20.0520    21.3830     2.5970   -18.9500 
  248.2500    64.4560    22.6870    16.6000    20.4010    21.7350     2.6040   -18.9010 
  248.3750    67.4560    22.8010    17.5700    20.7850    22.0950     2.6070   -18.8750 
  248.5000    68.1700    22.6520    18.9040    21.1530    22.4000     2.6010   -18.7700 
  248.6250    68.1060    22.6980    21.0430    21.4010    22.5620     2.5930   -18.5900 
  248.7500    70.4810    22.7010    21.7810    21.5040    22.5680     2.5930   -18.4530 
  248.8750    72.8360    22.6620    20.8940    21.4520    22.4040     2.6060   -18.4110 
  249.0000    73.8870    22.8300    20.3060    21.2890    22.1360     2.6180   -18.3850 
  249.1250    74.4400    22.7300    20.1930    21.1150    21.9010     2.6210   -18.2480 
  249.2500    73.5860    22.7130    19.6940    20.9990    21.7710     2.6190   -18.1440 
  249.3750    72.2680    22.7970    19.4120    21.0080    21.7880     2.6160   -18.1280 
  249.5000    71.7140    22.6490    19.1100    21.1340    21.9190     2.6040   -18.1290 
  249.6250    70.3890    22.7080    18.9320    21.2810    22.0480     2.5800   -18.1120 
  249.7500    67.3680    22.7790    19.5090    21.3570    22.0860     2.5610   -18.1170 
  249.8750    67.0130    22.7010    20.3320    21.3350    22.0070     2.5700   -18.0710 
  250.0000    71.4880    22.6290    20.8750    21.2110    21.8080     2.5880   -18.0130 
  250.1250    75.0890    22.7560    20.6570    21.0260    21.5580     2.5890   -18.0850 
  250.2500    74.0190    22.7790    19.7260    20.8960    21.3970     2.5700   -18.0770 
  250.3750    71.1030    22.8530    18.9160    20.9130    21.4200     2.5530   -17.9600 
  250.5000    69.4580    22.8740    22.7770    21.1060    21.6620     2.5540   -17.9340 
  250.6250    68.2730    22.7840    32.7100    21.5170    22.1210     2.5730   -17.9600 
  250.7500    68.6290    22.7970    38.6750    22.0610    22.6790     2.5960   -17.8460 
  250.8750    73.8870    22.8180    36.6710    22.6220    23.2350     2.6040   -17.7630 
  251.0000    80.5480    22.6250    31.0480    23.1200    23.6830     2.5960   -17.8000 
  251.1250    80.1200    22.6100    25.3020    23.4740    23.9810     2.5800   -17.7280 
  251.2500    73.6270    22.5570    22.9490    23.6800    24.1300     2.5640   -17.6720 
  251.3750    67.8910    22.5650    21.7750    23.7620    24.1730     2.5640   -17.7620 
  251.5000    67.5620    22.5820    21.0640    23.7830    24.1760     2.5750   -17.8060 
  251.6250    70.7970    22.5550    20.5070    23.8030    24.1930     2.5800   -17.7620 
  251.7500    72.5440    22.5520    20.4180    23.8590    24.2560     2.5660   -17.8580 
  251.8750    70.8120    22.5760    20.3420    23.9970    24.4050     2.5540   -17.9400 
  252.0000    67.2930    22.5740    20.3430    24.2440    24.6790     2.5680   -17.8910 
  252.1250    66.6050    22.5700    21.2160    24.6310    25.0910     2.6010   -17.9450 
  252.2500    67.8130    22.6020    21.6980    25.0890    25.5460     2.6270   -18.0100 
  252.3750    68.2170    22.5840    21.5840    25.5360    25.9890     2.6320   -17.9430 
  252.5000    68.1460    22.5790    22.5250    25.9160    26.3460     2.6280   -17.9280 
  252.6250    71.8780    22.5910    25.2120    26.0930    26.5010     2.6230   -17.9800 
  252.7500    74.7370    22.5700    27.6740    26.0530    26.4220     2.6170   -17.9040 
  252.8750    71.4670    22.5730    29.4890    25.8120    26.1280     2.6090   -17.8640 
  253.0000    64.6100    22.5720    32.6520    25.4500    25.7190     2.6070   -17.9280 
  253.1250    62.8870    22.5590    34.8280    25.0270    25.2820     2.6060   -17.8710 
  253.2500    62.8870    22.5650    34.0760    24.6320    24.9010     2.5980   -17.8490 
  253.3750    62.8870    22.5720    29.8250    24.3240    24.6090     2.5890   -17.9030 
  253.5000    62.8870    22.5710    23.9230    24.1050    24.4070     2.5970   -17.8790 
  253.6250    62.8870    22.5500    21.0570    24.0050    24.3200     2.6190   -17.8580 
  253.7500    62.8870    22.5310    19.7840    24.0010    24.3300     2.6310   -17.8970 
  253.8750    62.8870    22.5350    19.1100    24.0720    24.4050     2.6160   -17.9140 
  254.0000    62.8870    22.5530    19.0080    24.1930    24.4950     2.6000   -17.9280 
  254.1250    62.8870    22.5640    19.5930    24.3410    24.5940     2.6000   -17.9370 
  254.2500    62.8870    22.5490    20.1710    24.4940    24.6940     2.6120   -17.9430 
  254.3750    62.8870    22.5500    20.3190    24.6190    24.7660     2.6160   -17.9260 
  254.5000    62.8870    22.5440    20.3400    24.7210    24.8030     2.6080   -17.9710 
  254.6250    62.8870    22.5650    20.8470    24.7870    24.8260     2.5930   -17.9900 
  254.7500    62.8870    22.5380    21.4830    24.8410    24.8560     2.5810   -18.0160 
  254.8750    62.8870    22.5220    21.7760    24.8830    24.9070     2.5780   -18.0100 
  255.0000    62.8870    22.5510    21.7290    24.9130    24.9720     2.5820   -18.0010 
  255.1250    62.8870    22.5670    20.7330    24.9010    25.0080     2.5910   -18.0680 
  255.2500    62.8870    22.5480    20.2270    24.8540    25.0120     2.5960   -18.0930 
  255.3750    62.8870    22.5440    20.8080    24.7840    24.9930     2.5910   -18.0990 
  255.5000    62.8870    22.5300    21.3490    24.7070    24.9670     2.5840   -18.1110 
  255.6250    62.8870    22.5610    20.8930    24.6460    24.9490     2.5820   -18.1900 
  255.7500    62.8870    22.5170    20.2350    24.6390    24.9650     2.5850   -18.2180 
  255.8750    62.8870    22.4480    19.3050    24.6760    25.0080     2.5860   -18.2680 
  256.0000    62.8870    22.3410    18.3160    24.7330    25.0550     2.5810   -18.3060 
  256.1250    62.8870    22.5160    18.5750    24.7940    25.1130     2.5750   -18.3850 
  256.2500    62.8870    22.5030    19.1900    24.8560    25.1660     2.5750   -18.4130 
  256.3750    62.8870    22.4810    19.0400    24.9060    25.2040     2.5820   -18.4680 
  256.5000    62.8870    22.5560    18.2930    24.9390    25.2360     2.5920   -18.5010 
  256.6250    62.8870    22.5610    17.4240    24.9900    25.3020     2.6010   -18.5070 
  256.7500    62.8870    22.5150    16.8850    25.0830    25.4140     2.6150   -18.5010 
  256.8750    62.8870    22.4590    17.0160    25.2220    25.5900     2.6320   -18.5140 
  257.0000    62.8870    22.4590    18.1960    25.4430    25.8620     2.6390   -18.5140 
  257.1250    62.8870    22.5270    20.2260    25.7540    26.2070     2.6340   -18.4780 
  257.2500    62.8870    22.4660    21.3460    26.1270    26.6330     2.6190   -18.4830 
  257.3750    62.8870    22.3920    21.1950    26.5660    27.1520     2.5950   -18.4780 
  257.5000    62.8870    22.3730    22.3840    27.0490    27.7370     2.5630   -18.4590 
  257.6250    62.8870    22.2660    31.4800    27.5250    28.3540     2.5280   -18.4620 
  257.7500    62.8870    22.2470    41.9000    27.9540    28.9560     2.5080   -18.4920 
  257.8750    62.8870    22.1880    47.5230    28.3240    29.4950     2.5150   -18.4770 
  258.0000    62.8870    22.1570    46.3510    28.5970    29.9190     2.5370   -18.4890 
  258.1250    62.8870    22.2090    41.3470    28.7380    30.1690     2.5610   -18.5090 
