~V
VERS. 2.00: Ver 2.00
~W
STRT.M 105.0000:
STOP.M 269.0000:
STEP.M 0.1250:
NULL. -999.2500:
UWI. DF304:
~C
DEPT.M :
GR.API :
CALI.CM :
RXO.OHMM :
RI. :
RML.OHMM :
SP.MV :
DEN.GM/CC :
AC.US/MT :
~A
# ...
  235.0000    78.0820    24.6820    40.5650    50.7610    47.5720   -13.7250     2.3560   316.3310 
  235.1250    82.5960    24.7690    41.5930    50.8270    48.3300   -13.5470     2.3640   319.2970 
  235.2500    83.8210    24.8220    41.9700    49.6980    48.0200   -13.4020     2.3830   323.8250 
  235.3750    80.2350    24.8420    43.0110    46.8140    45.8880   -13.2980     2.3980   334.2050 
  235.5000    76.1730    24.8360    45.8830    42.6820    42.1620   -13.2190     2.3980   347.5010 
  235.6250    73.2810    24.8160    47.5460    38.8630    38.3120   -13.1470     2.3810   352.0540 
  235.7500    69.3160    24.8050    44.2630    36.7950    36.1880   -13.0970     2.3540   337.5080 
  235.8750    65.0510    24.8180    39.3920    37.5180    37.1550   -13.0650     2.3340   304.4630 
  236.0000    62.7630    24.8900    46.2200    41.8280    42.0910   -13.0540     2.3420   265.0620 
  236.1250    62.5240    25.0590    70.1350    50.6360    51.8120   -13.0420     2.3910   237.7140 
  236.2500    65.7880    25.1820    97.1860    62.0710    64.2820   -13.0450     2.4480   227.6920 
  236.3750    72.3000    25.2150   114.7450    72.8450    76.0660   -13.0660     2.4910   232.0640 
  236.5000    77.6450    25.1590   113.7520    78.5410    82.2710   -13.1030     2.5150   245.0200 
  236.6250    76.1570    25.0220    89.6700    76.2760    79.4260   -13.1500     2.5260   260.2090 
  236.7500    71.6770    24.9080    63.1690    70.3490    72.5540   -13.2060     2.5260   271.7000 
  236.8750    72.0300    24.8440    51.5580    64.1280    65.7320   -13.2540     2.5160   276.7250 
  237.0000    77.8900    24.7950    50.4820    59.1070    60.6260   -13.2920     2.5040   275.3670 
  237.1250    81.8300    24.8010    52.7780    55.6910    57.4880   -13.3890     2.5020   270.2010 
  237.2500    81.3950    24.8520    50.3960    53.3790    55.5520   -13.5180     2.5090   267.1720 
  237.3750    79.5100    24.8820    46.7280    51.8060    54.3270   -13.6550     2.5190   270.8450 
  237.5000    79.2590    24.8660    44.6990    50.6610    53.4380   -13.8160     2.5240   281.3630 
  237.6250    81.4080    24.8040    46.7110    49.8340    52.7360   -14.0380     2.5110   292.0520 
  237.7500    83.8100    24.7310    50.0330    49.2320    52.1380   -14.3040     2.4810   296.0170 
  237.8750    82.5640    24.6860    49.8920    48.8100    51.6170   -14.6220     2.4450   292.2590 
  238.0000    78.0470    24.6070    44.9030    48.5540    51.2280   -15.0000     2.4150   282.9020 
  238.1250    79.1920    24.3840    40.3680    48.5790    51.2320   -15.4280     2.4070   270.3120 
  238.2500    86.3470    24.2280    39.2720    48.8380    51.6770   -15.9210     2.4220   259.5900 
  238.3750    89.6390    24.2150    40.0830    48.8550    52.1010   -16.4780     2.4600   257.6890 
  238.5000    84.6860    24.2450    41.8730    47.5010    51.2910   -17.0680     2.4980   263.9440 
  238.6250    81.6290    24.1890    44.7580    42.9840    47.1810   -17.6660     2.5030   274.4570 
  238.7500    88.7820    24.1470    46.4470    35.9630    40.0710   -18.2910     2.4700   293.2880 
  238.8750   102.2500    24.1300    41.6660    28.2360    31.6170   -18.9390     2.4210   305.2110 
  239.0000   114.6650    24.1010    30.3300    21.6390    23.9320   -19.5870     2.3830   320.1950 
  239.1250   117.8990    24.0180    19.8440    17.3540    18.7410   -20.2310     2.3710   322.1030 
  239.2500   112.2060    23.9270    14.7100    14.9240    15.8640   -20.8410     2.3680   320.8320 
  239.3750   105.6130    23.9100    13.1570    14.0220    14.9830   -21.4190     2.3620   312.3920 
  239.5000   105.9550    23.9260    14.1470    14.3910    15.7210   -21.9780     2.3540   307.1820 
  239.6250   111.4940    23.9350    17.2640    15.9300    17.7630   -22.4950     2.3480   303.5650 
  239.7500   112.8910    23.9350    20.6090    17.9820    20.1940   -22.9480     2.3420   304.2420 
  239.8750   108.4850    23.9350    22.7090    19.7790    22.1430   -23.3190     2.3300   312.1540 
  240.0000   103.7600    23.9350    23.1080    20.4710    22.7930   -23.6010     2.3170   324.0760 
  240.1250   102.3480    23.9350    22.4220    19.4330    21.5690   -23.7870     2.3070   336.3010 
  240.2500   101.6780    23.9350    21.0600    17.3750    19.2110   -23.9060     2.3070   346.3680 
  240.3750    98.7680    23.9350    18.4190    15.0220    16.4840   -23.9750     2.3180   352.5030 
  240.5000    92.6630    23.9330    14.4420    12.9370    14.0550   -24.0280     2.3370   353.4610 
  240.6250    89.5350    23.9680    11.5830    11.5110    12.4560   -24.0930     2.3460   349.6860 
  240.7500    91.4750    24.0790    10.4450    10.7130    11.6790   -24.1440     2.3380   345.3830 
  240.8750    96.0530    24.2390    10.4400    10.5150    11.6810   -24.1850     2.3180   342.9540 
  241.0000   100.2900    24.3600    10.9080    10.8550    12.3520   -24.2050     2.2980   342.0050 
  241.1250   104.1330    24.3960    11.7570    11.6230    13.4800   -24.1610     2.2910   340.2570 
  241.2500   106.5330    24.4030    12.7400    12.4230    14.5440   -24.0370     2.2980   338.3840 
  241.3750   103.7040    24.4030    13.9280    12.8630    15.0820   -23.8360     2.3180   340.3760 
  241.5000    93.4470    24.4030    15.0480    12.6380    14.7730   -23.5400     2.3450   349.4130 
  241.6250    82.6320    24.4030    14.3840    11.6600    13.5250   -23.1620     2.3630   363.2800 
  241.7500    79.9130    24.4030    11.8990    10.4120    11.9280   -22.7650     2.3640   373.2920 
  241.8750    84.9550    24.4000     9.3390     9.2820    10.4960   -22.3920     2.3500   374.1650 
  242.0000    89.6370    24.3860     8.0930     8.5170     9.5850   -22.1060     2.3330   365.7840 
  242.1250    86.7920    24.3520     7.8850     8.2830     9.4220   -21.9810     2.3270   352.4350 
  242.2500    83.8230    24.3190     8.1410     8.4600     9.8030   -22.0150     2.3270   341.3300 
  242.3750    84.7230    24.3060     8.7160     8.9230    10.5150   -22.1860     2.3300   336.7390 
  242.5000    88.9460    24.3050     9.7320     9.4780    11.2760   -22.4480     2.3320   339.4320 
  242.6250    94.4750    24.3120    10.7830     9.8610    11.7430   -22.7210     2.3330   345.7750 
  242.7500    96.7930    24.3480    11.2090     9.9470    11.8090   -22.9820     2.3310   350.1360 
  242.8750    95.8490    24.4210    10.9100     9.7380    11.5180   -23.2150     2.3270   351.4990 
  243.0000    95.4200    24.4730    10.2790     9.3310    11.0180   -23.3870     2.3200   351.6630 
  243.1250    97.8340    24.4850     9.9520     8.8580    10.4910   -23.4900     2.3160   351.9480 
  243.2500    97.7230    24.4730     9.4280     8.4500    10.0790   -23.5730     2.3180   351.4570 
  243.3750    92.2720    24.4620     8.9360     8.1710     9.8470   -23.6620     2.3230   349.5530 
  243.5000    86.8450    24.4570     8.7560     8.0570     9.8210   -23.7900     2.3190   347.0160 
  243.6250    85.7230    24.4570     8.7290     8.1500    10.0470   -24.0370     2.3070   345.0160 
  243.7500    86.6320    24.4570     8.7840     8.4230    10.4950   -24.3910     2.3010   343.1650 
  243.8750    89.8220    24.4650     9.0880     8.8660    11.1560   -24.8270     2.3060   340.7420 
  244.0000    93.5630    24.4980     9.7570     9.4500    11.9780   -25.3150     2.3150   338.2070 
  244.1250    94.0580    24.5730    10.1640    10.1070    12.8500   -25.8320     2.3160   337.6570 
  244.2500    90.6250    24.6320    10.8690    10.7180    13.6120   -26.3310     2.3090   339.3160 
  244.3750    87.6670    24.6580    12.2600    11.1940    14.1560   -26.7790     2.3000   341.1280 
  244.5000    87.1600    24.6650    13.7000    11.4990    14.4510   -27.1570     2.2950   340.4780 
  244.6250    88.5650    24.6710    13.8730    11.6680    14.5660   -27.4480     2.2940   336.9000 
  244.7500    89.8630    24.6730    13.3860    11.8320    14.7000   -27.6480     2.2900   334.0730 
  244.8750    90.7290    24.6710    13.3050    12.0690    14.9760   -27.7520     2.2880   334.4590 
