~V
VERS. 2.00: Ver 2.00
~W
STRT.M 64.0000:
STOP.M 264.0000:
STEP.M 0.1250:
NULL. -999.2500:
UWI. DF3031:
~C
DEPT.M :
DEN.GM/CC :
AC.US/MT :
GR.API :
CALI.CM :
RXO.OHMM :
RI. :
RML.OHMM :
SP.MV :
~A
# ...
  104.0000     2.2100   376.5810    70.1190    25.2280     8.6810     7.6740     9.6110   -23.3360 
  104.1250     2.2040   383.0510    73.1790    25.2260     8.9940     7.7510     9.8500   -23.2250 
  104.2500     2.2150   388.3270    76.8940    25.2290    10.5290     7.9100    10.2080   -23.0890 
  104.3750     2.2320   391.8460    79.0720    25.2550    13.0000     8.0880    10.5520   -22.9560 
  104.5000     2.2400   393.5760    78.0230    25.2790    14.1320     8.2070    10.7410   -22.8460 
  104.6250     2.2380   393.8610    75.3860    25.1520    12.0940     8.1830    10.6450   -22.7720 
  104.7500     2.2390   393.7610    73.3520    24.8600     9.4200     8.0390    10.3470   -22.7450 
  104.8750     2.2470   393.9580    71.3270    24.5500     8.1800     7.8270     9.9720   -22.7540 
  105.0000     2.2530   394.8120    70.7120    24.3880     8.2530     7.6230     9.6600   -22.8020 
  105.1250     2.2450   396.2830    70.9100    24.4470     8.5830     7.4970     9.5250   -22.8870 
  105.2500     2.2290   397.8010    70.3580    24.6020     8.6600     7.4520     9.5350   -22.9870 
  105.3750     2.2130   398.9590    70.3280    24.7640     8.6760     7.4630     9.6230   -23.0950 
  105.5000     2.2050   399.6030    71.5330    24.8860     8.8410     7.4900     9.7070   -23.2010 
  105.6250     2.2060   399.8610    71.8340    24.9870     9.0970     7.4930     9.7130   -23.2940 
  105.7500     2.2090   400.0710    70.6150    25.1060     9.2480     7.4660     9.6440   -23.3710 
  105.8750     2.2120   400.3040    72.3850    25.2140     9.2350     7.4200     9.5360   -23.4310 
  106.0000     2.2150   400.4170    77.4470    25.2780     9.0380     7.3820     9.4510   -23.4720 
  106.1250     2.2240   400.1850    79.4820    25.3350     8.6840     7.3950     9.4740   -23.4930 
  106.2500     2.2400   399.7910    77.4770    25.3680     8.3870     7.4760     9.6250   -23.4990 
  106.3750     2.2520   399.6950    75.1660    25.2470     8.2940     7.6200     9.8870   -23.4810 
  106.5000     2.2490   400.4760    76.0260    24.9390     8.4320     7.7960    10.1910   -23.4350 
  106.6250     2.2360   402.7630    77.0460    24.6880     8.7590     7.9370    10.4150   -23.3580 
  106.7500     2.2270   406.2510    75.9550    24.7010     9.0430     7.9810    10.4600   -23.2610 
  106.8750     2.2250   410.4130    74.6870    24.8990     8.9660     7.8880    10.2700   -23.1500 
  107.0000     2.2210   414.4670    74.8450    25.0930     8.4280     7.6550     9.8530   -23.0400 
  107.1250     2.2170   417.2260    76.7580    25.1930     7.8350     7.3080     9.2820   -22.9410 
  107.2500     2.2210   417.9780    79.4720    25.2450     7.6140     6.9360     8.7120   -22.8590 
  107.3750     2.2320   416.2480    83.2140    25.2800     7.6350     6.6050     8.2520   -22.8170 
  107.5000     2.2410   412.0380    86.7160    25.3000     7.5570     6.3690     7.9790   -22.8310 
  107.6250     2.2410   405.7330    86.6270    25.2560     7.3420     6.2840     7.9650   -22.9030 
  107.7500     2.2390   398.7400    84.7720    25.1300     7.2890     6.3320     8.1470   -23.0180 
  107.8750     2.2350   391.9600    83.2370    24.9700     7.4880     6.4850     8.4500   -23.1490 
  108.0000     2.2230   385.8840    80.3410    24.8630     7.8170     6.6980     8.7770   -23.2740 
  108.1250     2.2040   380.6180    74.1680    24.9230     8.1320     6.9090     9.0190   -23.3610 
  108.2500     2.1910   375.8290    71.2710    25.1390     8.3370     7.0750     9.1470   -23.3890 
  108.3750     2.1930   371.5540    75.8170    25.4140     8.4050     7.1840     9.1840   -23.3330 
  108.5000     2.2100   368.1990    81.3420    25.6070     8.3920     7.2450     9.1810   -23.1600 
  108.6250     2.2270   366.7280    80.8070    25.5780     8.3790     7.2690     9.1680   -22.8370 
  108.7500     2.2360   367.3530    78.1250    25.3870     8.3480     7.2540     9.1160   -22.3940 
  108.8750     2.2370   369.9930    77.3000    25.1410     8.2680     7.1610     8.9490   -21.8510 
  109.0000     2.2330   374.0750    78.1380    24.9610     8.1850     6.9540     8.6040   -21.2170 
  109.1250     2.2280   378.6550    83.0940    24.9340     8.0640     6.6020     8.0490   -20.4860 
  109.2500     2.2320   382.7020    94.7820    25.0000     7.6740     6.1760     7.4080   -19.7130 
  109.3750     2.2520   385.7670   106.7140    25.0870     6.9260     5.7520     6.8090   -18.9310 
  109.5000     2.2850   387.8770   110.6660    25.1650     6.1150     5.3990     6.3530   -18.1940 
  109.6250     2.3210   389.4500   107.5050    25.2330     5.7370     5.1770     6.1160   -17.5690 
  109.7500     2.3430   391.1840   106.6730    25.2800     5.7560     5.0640     6.0370   -17.0430 
  109.8750     2.3470   393.4730   108.4510    25.2850     5.8890     5.0350     6.0570   -16.6320 
  110.0000     2.3330   396.4800   107.3760    25.2550     5.9460     5.0580     6.1180   -16.3380 
  110.1250     2.3180   400.1860   105.3300    25.2170     5.9360     5.1200     6.2020   -16.1830 
  110.2500     2.3210   404.0750   106.7700    25.1840     5.9370     5.2140     6.3240   -16.1330 
  110.3750     2.3370   407.5340   109.2380    25.1600     6.0040     5.3400     6.5000   -16.1690 
  110.5000     2.3450   409.8350   108.7200    25.1430     6.2780     5.4850     6.7020   -16.2470 
  110.6250     2.3330   410.0280   104.5140    25.1180     6.8060     5.6010     6.8350   -16.3190 
  110.7500     2.3250   408.3000   102.3540    25.0960     7.1980     5.6420     6.8190   -16.3860 
  110.8750     2.3330   405.0920   103.8770    25.1290     7.1500     5.5960     6.6460   -16.4530 
  111.0000     2.3470   401.1060   107.7310    25.2530     6.7980     5.4900     6.3980   -16.5470 
  111.1250     2.3530   397.0360   109.0790    25.3560     6.6310     5.4000     6.2290   -16.6990 
  111.2500     2.3610   393.2550   106.4620    25.2940     6.7430     5.3890     6.2320   -16.9040 
  111.3750     2.3830   389.8590   103.9670    25.1050     6.9000     5.4790     6.4170   -17.1360 
  111.5000     2.4080   386.9850   102.3360    24.9340     6.9290     5.6520     6.7250   -17.3890 
  111.6250     2.3970   385.2400    98.3700    24.8730     6.8650     5.8470     7.0340   -17.6550 
  111.7500     2.3500   385.0920    94.5840    24.8480     6.7910     5.9800     7.2230   -17.8900 
  111.8750     2.3010   386.8980    95.6700    24.8420     6.6720     6.0050     7.2450   -18.0680 
  112.0000     2.2810   390.5040   101.2050    24.9110     6.4770     5.9270     7.1230   -18.1650 
  112.1250     2.2970   395.1570   102.3790    25.1070     6.3070     5.7820     6.9240   -18.1660 
  112.2500     2.3170   399.4770    98.7540    25.3410     6.2840     5.6340     6.7400   -18.1020 
  112.3750     2.3200   402.5800    96.2270    25.4540     6.4430     5.5150     6.6000   -17.9940 
  112.5000     2.3040   403.9120    97.1060    25.3290     6.7280     5.4270     6.4940   -17.8610 
  112.6250     2.2820   402.5570    98.0470    25.0430     7.0140     5.3840     6.4390   -17.7250 
  112.7500     2.2750   398.1340    96.6620    24.8390     7.1710     5.4380     6.5560   -17.6390 
  112.8750     2.2950   390.0270    96.7670    24.7960     7.1820     5.6910     7.0560   -17.6270 
  113.0000     2.3480   378.4330    98.1720    24.8730     7.3120     6.2520     8.1380   -17.7070 
  113.1250     2.4250   365.2430    97.2290    24.9920     8.8760     7.2550     9.9890   -17.9090 
  113.2500     2.4780   354.4070    93.0340    25.0960    13.6050     8.5620    12.2340   -18.1980 
  113.3750     2.4690   349.2760    86.9670    25.1530    20.7370     9.8580    14.2040   -18.5650 
  113.5000     2.3970   351.8420    80.3130    25.0930    24.0470    10.6430    15.0250   -18.9920 
  113.6250     2.3070   362.9010    76.0120    24.8720    19.0420    10.4320    14.0840   -19.4460 
  113.7500     2.2420   378.4510    78.0410    24.6240    12.4540     9.6140    12.3390   -19.9050 
  113.8750     2.2030   395.0310    83.2510    24.4930     9.0090     8.6640    10.6800   -20.3410 
