~V
VERS. 2.00: Ver 2.00
~W
STRT.M 60.0000:
STOP.M 264.0000:
STEP.M 0.1250:
NULL. -999.2500:
UWI. DF303:
~C
DEPT.M :
DEN.GM/CC :
SP.MV :
AC.US/MT :
GR.API :
CALI.CM :
RXO.OHMM :
RI. :
RML.OHMM :
~A
# ...
  250.0000     2.3560   -30.7320   334.6730    86.8960    24.8310    12.0640    10.7080    12.7270 
  250.1250     2.3530   -30.3690   335.7660    87.1650    24.6880    12.3610    10.8960    12.8990 
  250.2500     2.3600   -29.9420   336.9500    89.5490    24.6440    12.2830    10.9210    12.8650 
  250.3750     2.3680   -29.4650   337.6110    90.9880    24.6350    11.9430    10.7520    12.6060 
  250.5000     2.3720   -28.9020   338.1280    92.0880    24.6180    11.7160    10.3870    12.1130 
  250.6250     2.3710   -28.2430   339.1350    91.7020    24.5660    11.6220     9.8250    11.3730 
  250.7500     2.3690   -27.5050   341.7390    89.7000    24.4390    11.2080     9.1500    10.4890 
  250.8750     2.3690   -26.6570   346.9510    87.9160    24.2850    10.4390     8.4350     9.5650 
  251.0000     2.3740   -25.7180   355.2630    89.8320    24.1840     9.6280     7.7650     8.7250 
  251.1250     2.3800   -24.7570   364.9250    95.8230    24.1670     8.7120     7.2640     8.1210 
  251.2500     2.3830   -23.7960   370.5890    99.8540    24.1620     7.7470     6.9810     7.7890 
  251.3750     2.3840   -22.8580   369.1730    97.9700    24.1520     7.3030     6.9470     7.7510 
  251.5000     2.3880   -21.9840   361.6220    90.5720    24.1400     7.6280     7.1480     7.9930 
  251.6250     2.3950   -21.1960   351.9180    84.0310    24.1360     8.4510     7.5170     8.4430 
  251.7500     2.4030   -20.4900   345.0090    82.7390    24.1370     9.1680     7.8520     8.8560 
  251.8750     2.4050   -19.8840   343.3880    84.5930    24.1410     9.5100     7.9690     8.9800 
  252.0000     2.4020   -19.3680   348.5420    87.3730    24.1440     9.4180     7.7420     8.6380 
  252.1250     2.3990   -18.9120   360.4800    88.9400    24.1440     8.6170     7.1340     7.7990 
  252.2500     2.3980   -18.5070   376.7150    89.2760    24.1450     7.2970     6.3600     6.7830 
  252.3750     2.3970   -18.1310   391.9960    88.9510    24.1490     5.9060     5.5910     5.8280 
  252.5000     2.3930   -17.7940   403.5200    88.9910    24.1400     4.9570     4.9470     5.0770 
  252.6250     2.3850   -17.5310   410.1960    90.6690    24.1290     4.6360     4.5150     4.6190 
  252.7500     2.3740   -17.3030   411.0120    91.9910    24.1190     4.5900     4.2610     4.3910 
  252.8750     2.3700   -17.1380   408.0130    96.9540    24.1180     4.6030     4.1560     4.3480 
  253.0000     2.3740   -17.0370   403.6260   104.8210    24.1150     4.6120     4.1620     4.4340 
  253.1250     2.3800   -16.9820   399.7490   107.0700    24.1100     4.6730     4.2500     4.6020 
  253.2500     2.3760   -16.9670   395.7970   100.2540    24.0800     4.8100     4.3740     4.7980 
  253.3750     2.3650   -16.9880   390.0770    91.9400    24.0110     5.0170     4.5120     4.9930 
  253.5000     2.3570   -17.0130   382.7360    89.7130    23.9550     5.2750     4.6450     5.1640 
  253.6250     2.3580   -17.0430   375.4960    89.7130    23.9290     5.5380     4.7530     5.2910 
  253.7500     2.3640   -17.1100   370.2780    89.7130    23.9260     5.7550     4.8360     5.3840 
  253.8750     2.3680   -17.1780   367.0190    89.7130    23.9220     5.9030     4.8950     5.4510 
  254.0000     2.3690   -17.2450   365.3450    89.7130    23.9220     5.9580     4.9340     5.5030 
  254.1250     2.3710   -17.3210   364.9990    89.7130    23.9220     5.9740     4.9580     5.5490 
  254.2500     2.3700   -17.3970   365.6000    89.7130    23.9320     6.0420     4.9790     5.5950 
  254.3750     2.3680   -17.4830   366.0560    89.7130    23.9550     6.1470     5.0050     5.6470 
  254.5000     2.3680   -17.5920   365.7270    89.7130    23.9840     6.2060     5.0410     5.7110 
  254.6250     2.3710   -17.7190   364.6720    89.7130    23.9980     6.2370     5.0910     5.7970 
  254.7500     2.3710   -17.8240   363.5570    89.7130    24.0010     6.3240     5.1500     5.8990 
  254.8750     2.3670   -17.9070   362.8240    89.7130    24.0010     6.3590     5.2070     6.0030 
  255.0000     2.3660   -17.9640   362.2830    89.7130    24.0010     6.3200     5.2580     6.0950 
  255.1250     2.3700   -18.0000   361.5770    89.7130    24.0000     6.3970     5.2970     6.1630 
  255.2500     2.3800   -18.0130   360.7310    89.7130    24.0010     6.5520     5.3280     6.2160 
  255.3750     2.3900   -17.9950   360.1240    89.7130    23.9980     6.6790     5.3530     6.2610 
  255.5000     2.3950   -17.9520   359.8200    89.7130    23.9960     6.7070     5.3730     6.3010 
  255.6250     2.3950   -17.8640   359.4850    89.7130    23.9980     6.5980     5.3920     6.3330 
  255.7500     2.3970   -17.7600   358.4870    89.7130    24.0000     6.5130     5.4140     6.3540 
  255.8750     2.4000   -17.6520   356.8750    89.7130    23.9990     6.4690     5.4400     6.3680 
  256.0000     2.3960   -17.5070   355.1660    89.7130    23.9980     6.4030     5.4650     6.3790 
  256.1250     2.3810   -17.3090   353.9930    89.7130    24.0020     6.3940     5.4820     6.3890 
  256.2500     2.3650   -17.0530   353.3800    89.7130    24.0040     6.5380     5.4920     6.3920 
  256.3750     2.3600   -16.7460   352.2870    89.7130    24.0050     6.8260     5.4950     6.3860 
  256.5000     2.3670   -16.4400   350.1540    89.7130    24.0050     7.0620     5.4980     6.3790 
  256.6250     2.3830   -16.1210   347.5150    89.7130    23.9750     7.1190     5.5020     6.3850 
  256.7500     2.4020   -15.8140   345.9710    89.7130    23.8950     7.0680     5.5060     6.4010 
  256.8750     2.4150   -15.5260   346.1280    89.7130    23.7950     7.0320     5.5090     6.4180 
  257.0000     2.4180   -15.2740   347.3660    89.7130    23.7430     7.1100     5.5120     6.4210 
  257.1250     2.4120   -15.0870   348.6070    89.7130    23.7360     7.2570     5.5150     6.4040 
  257.2500     2.4060   -14.9660   349.6200    89.7130    23.7360     7.4750     5.5160     6.3840 
  257.3750     2.4000   -14.9010   351.2650    89.7130    23.7340     7.6530     5.5150     6.3730 
  257.5000     2.3920   -14.8470   353.7030    89.7130    23.7330     7.6840     5.5120     6.3770 
  257.6250     2.3790   -14.8180   356.0530    89.7130    23.7330     7.3990     5.5060     6.3870 
  257.7500     2.3710   -14.7930   357.4500    89.7130    23.7330     6.9460     5.5020     6.3960 
  257.8750     2.3700   -14.7670   358.2540    89.7130    23.7330     6.5210     5.4990     6.4010 
  258.0000     2.3740   -14.7440   358.4790    89.7130    23.7330     6.1820     5.4980     6.4040 
  258.1250     2.3830   -14.7210   357.8210    89.7130    23.7330     5.9120     5.5000     6.4090 
  258.2500     2.3950   -14.7040   356.4300    89.7130    23.7330     5.6870     5.5040     6.4130 
  258.3750     2.4050   -14.7010   354.9590    89.7130    23.7330     5.5170     5.5090     6.4150 
  258.5000     2.4090   -14.7010   353.0690    89.7130    23.7320     5.3830     5.5110     6.4120 
  258.6250     2.4080   -14.7090   350.1370    89.7130    23.7270     5.3410     5.5110     6.4070 
  258.7500     2.4070   -14.7100   346.9420    89.7130    23.7190     5.3280     5.5090     6.4010 
  258.8750     2.4080   -14.7120   345.6620    89.7130    23.7130     5.3000     5.5080     6.3980 
  259.0000     2.4130   -14.7310   347.1180    89.7130    23.7110     5.3010     5.5070     6.3960 
  259.1250     2.4210   -14.7530   350.0040    89.7130    23.7110     5.3640     5.5050     6.3980 
  259.2500     2.4270   -14.7680   351.8220    89.7130    23.7110     5.4330     5.4990     6.4030 
  259.3750     2.4260   -14.7790   352.0970    89.7130    23.7080     5.4770     5.4930     6.4090 
  259.5000     2.4200   -14.7740   351.8840    89.7130    23.7000     5.5410     5.4900     6.4070 
  259.6250     2.4170   -14.7680   352.1320    89.7130    23.6930     5.6630     5.4900     6.4070 
  259.7500     2.4170   -14.7740   352.7990    89.7130    23.6860     5.8160     5.4900     6.4070 
  259.8750     2.4140   -14.7850   353.2830    89.7130    23.6670     5.9630     5.4900     6.4070 
