~V
VERS. 2.00: Ver 2.00
~W
STRT.M 54.0000:
STOP.M 250.0000:
STEP.M 0.1250:
NULL. -999.2500:
UWI. DF3016:
~C
DEPT.M :
GR.API :
RML.OHMM :
RI. :
RXO.OHMM :
CALI.CM :
DEN.GM/CC :
SP.MV :
~A
# ...
  189.0000    82.9220     9.8570     8.3900     8.7780    24.4780     2.4500   -16.3940 
  189.1250    85.1900    10.0920     8.7590     9.3280    24.4830     2.4480   -16.2350 
  189.2500    82.6230    10.0330     8.9010     9.7110    24.4600     2.4440   -16.0740 
  189.3750    76.6340     9.7140     8.8030     9.6700    24.4020     2.4420   -15.9210 
  189.5000    71.0530     9.2520     8.5350     9.0420    24.3360     2.4440   -15.7590 
  189.6250    68.4510     8.8140     8.2180     7.9880    24.2840     2.4480   -15.5870 
  189.7500    66.5590     8.5160     7.9760     7.5540    24.2430     2.4510   -15.4240 
  189.8750    65.0350     8.4030     7.8650     7.4110    24.2200     2.4520   -15.2830 
  190.0000    67.7590     8.4710     7.9000     7.3310    24.2130     2.4520   -15.1980 
  190.1250    73.8660     8.6870     8.0740     7.2730    24.2130     2.4520   -15.1490 
  190.2500    76.7960     8.9410     8.3020     7.2860    24.2180     2.4540   -15.2010 
  190.3750    78.3690     9.1420     8.5100     7.3950    24.2470     2.4570   -15.3120 
  190.5000    83.9470     9.2080     8.6240     7.6180    24.3240     2.4590   -15.4600 
  190.6250    91.7230     9.0660     8.5730     7.9770    24.4120     2.4580   -15.6230 
  190.7500    94.0960     8.7840     8.3920     8.1030    24.4630     2.4520   -15.7930 
  190.8750    92.2050     8.4590     8.1500     7.8190    24.4720     2.4440   -15.9710 
  191.0000    89.9860     8.2130     7.9440     7.5840    24.4670     2.4340   -16.1500 
  191.1250    91.1780     8.1790     7.8980     7.6140    24.4430     2.4270   -16.3340 
  191.2500    94.9760     8.3630     8.0420     7.8320    24.4190     2.4240   -16.4670 
  191.3750    96.1360     8.7230     8.3620     8.3090    24.4090     2.4230   -16.5820 
  191.5000    91.2770     9.1710     8.7920     8.8750    24.4080     2.4240   -16.7300 
  191.6250    83.0160     9.5660     9.2110     9.5060    24.4080     2.4210   -16.8910 
  191.7500    79.0360     9.7930     9.4970    10.3540    24.4080     2.4160   -17.1020 
  191.8750    80.8150     9.7900     9.5740    11.1420    24.4030     2.4090   -17.3310 
  192.0000    83.7200     9.5630     9.4330    11.7280    24.3860     2.4050   -17.5840 
  192.1250    81.8070     9.2140     9.1350    10.6650    24.3460     2.4050   -17.8250 
  192.2500    78.7560     8.8820     8.8560    10.0020    24.3050     2.4100   -18.1400 
  192.3750    80.3430     8.7250     8.7620     9.4070    24.2520     2.4130   -18.4680 
  192.5000    85.2150     9.0250     9.0280     9.2550    24.2230     2.4100   -18.7800 
  192.6250    85.3950    10.1380     9.9350    10.0270    24.2280     2.3940   -19.0950 
  192.7500    82.0020    12.3740    11.5250    11.9910    24.2340     2.3670   -19.3790 
  192.8750    79.0060    15.6840    13.7870    14.8930    24.2060     2.3320   -19.6620 
  193.0000    76.5490    19.6730    16.5210    18.3700    24.1660     2.2970   -19.9460 
  193.1250    75.3230    23.5490    19.2500    22.7980    24.1540     2.2720   -20.2670 
  193.2500    75.7160    25.3970    21.4090    27.4000    24.1800     2.2620   -20.5570 
  193.3750    74.4440    26.1940    22.6800    30.5360    24.2320     2.2690   -20.8330 
  193.5000    70.6370    26.1670    23.0960    31.9260    24.2870     2.2860   -21.0880 
  193.6250    70.5910    25.9160    23.0420    31.4030    24.3100     2.3040   -21.3320 
  193.7500    74.7400    26.1660    23.2000    28.6370    24.3390     2.3140   -21.5670 
  193.8750    76.7200    27.3160    24.0070    27.2550    24.3920     2.3150   -21.7880 
  194.0000    74.2710    29.4790    25.6880    30.0540    24.4540     2.3120   -21.9910 
  194.1250    73.7810    32.5470    28.3210    31.7170    24.4800     2.3080   -22.1760 
  194.2500    75.0140    35.8680    31.4160    36.2560    24.4860     2.3060   -22.3510 
  194.3750    74.1110    38.9040    34.5010    42.6560    24.4920     2.3050   -22.5400 
  194.5000    73.4800    41.3010    37.1770    46.3870    24.5100     2.3030   -22.7290 
  194.6250    75.9170    43.0960    39.3200    47.5920    24.5450     2.3000   -22.9000 
  194.7500    76.6180    45.0160    41.4490    48.6120    24.5600     2.2950   -23.0860 
  194.8750    73.3940    47.7860    44.1860    49.1350    24.5640     2.2880   -23.2630 
  195.0000    70.6830    51.9060    48.0480    48.7050    24.5640     2.2780   -23.4680 
  195.1250    72.2980    57.4550    53.2660    51.7790    24.5640     2.2650   -23.6070 
  195.2500    73.8060    63.2620    58.9000    62.2430    24.5600     2.2520   -23.7580 
  195.3750    72.4730    68.0210    63.7630    73.7790    24.5450     2.2410   -23.8680 
  195.5000    69.5030    70.4990    66.6630    78.2840    24.5100     2.2340   -23.9620 
  195.6250    67.1820    69.5280    66.5720    78.2870    24.4920     2.2320   -24.0650 
  195.7500    67.7590    66.8280    64.6240    75.0050    24.4860     2.2330   -24.1420 
  195.8750    69.5410    64.3190    62.4600    69.7250    24.4860     2.2370   -24.2020 
  196.0000    70.8110    64.9730    62.0100    64.5430    24.4900     2.2430   -24.2000 
  196.1250    70.8920    70.8610    65.6000    63.5160    24.5100     2.2470   -24.2720 
  196.2500    70.1460    82.8760    73.4700    67.6670    24.5550     2.2440   -24.3040 
  196.3750    68.9550    99.6590    85.1840    80.1080    24.6170     2.2330   -24.3450 
  196.5000    67.8580   116.1580    99.0850   104.4850    24.6690     2.2160   -24.3900 
  196.6250    67.2670   130.2380   112.0010   120.8270    24.7010     2.2020   -24.4080 
  196.7500    67.3560   139.5260   121.1460   120.9090    24.6480     2.1930   -24.3990 
  196.8750    68.4470   142.9360   125.3830   114.3220    24.5150     2.1930   -24.3800 
  197.0000    70.9430   141.6440   125.4050   111.5920    24.3910     2.1960   -24.3650 
  197.1250    73.4100   138.2530   123.1230   105.8630    24.4160     2.1980   -24.3470 
  197.2500    74.1310   135.4580   120.9780   101.2580    24.4700     2.1960   -24.3410 
  197.3750    74.5760   134.2210   119.9670   102.4570    24.5050     2.1900   -24.3350 
  197.5000    75.9410   134.8700   120.4940   108.6280    24.5210     2.1860   -24.3220 
  197.6250    76.7330   137.8200   122.9790   114.4820    24.5010     2.1910   -24.3300 
  197.7500    74.5500   142.5980   127.0750   115.6180    24.4900     2.2080   -24.3190 
  197.8750    70.9330   148.8010   132.5030   114.4140    24.4930     2.2310   -24.3000 
  198.0000    69.9980   155.7340   138.7430   116.7890    24.5190     2.2530   -24.2980 
  198.1250    69.7720   162.1970   144.8720   124.5060    24.5800     2.2580   -24.2520 
  198.2500    67.4660   167.0310   149.8240   126.5570    24.6260     2.2470   -24.2100 
  198.3750    65.8600   169.4650   152.8190   122.9590    24.6460     2.2260   -24.1440 
  198.5000    68.5160   169.3810   153.5850   119.5920    24.6480     2.2060   -24.0660 
  198.6250    72.1630   167.3960   152.4450   120.3910    24.6430     2.1970   -23.9230 
  198.7500    72.8080   165.3930   151.0110   122.0270    24.6270     2.1980   -23.8070 
  198.8750    72.6280   164.8600   150.6520   122.8180    24.6000     2.2050   -23.7040 
  199.0000    72.8450   166.8840   152.4660   121.2120    24.5930     2.2120   -23.5900 
  199.1250    69.9510   172.3220   157.4000   121.2430    24.6240     2.2150   -23.5320 
  199.2500    66.3030   180.0120   164.5560   126.4070    24.6430     2.2030   -23.5110 
  199.3750    66.4810   188.5050   172.7210   135.8160    24.6410     2.1870   -23.5810 
  199.5000    71.0460   195.9050   180.2260   146.3940    24.6210     2.1710   -23.7240 
  199.6250    74.9170   199.7940   184.8860   153.7160    24.5830     2.1630   -23.9910 
  199.7500    74.8370   199.8620   186.2030   154.5620    24.5520     2.1630   -24.3130 
  199.8750    72.8110   196.7180   184.4950   150.7960    24.5070     2.1730   -24.6950 
  200.0000    70.3500   191.7970   180.8420   145.8300    24.4550     2.1850   -25.1160 
  200.1250    67.9120   186.6870   176.5570   143.2090    24.3970     2.1960   -25.5000 
