~V
VERS. 2.00: Ver 2.00
~W
STRT.M 55.0000:
STOP.M 252.0000:
STEP.M 0.1250:
NULL. -999.2500:
UWI. DF3024:
~C
DEPT.M :
GR.API :
RML.OHMM :
RI. :
RXO.OHMM :
CALI.CM :
DEN.GM/CC :
SP.MV :
~A
# ...
  100.0000    72.2090    10.2820     8.8430     9.3820    23.6960  -999.2500   -29.4010 
  100.1250    71.1050    10.0430     8.7170     9.4380    23.7590  -999.2500   -29.0210 
  100.2500    69.0040     9.8270     8.5890     9.3810    23.7800  -999.2500   -28.5190 
  100.3750    67.3120     9.7110     8.5150     9.2390    23.6860  -999.2500   -27.7660 
  100.5000    68.6500     9.7760     8.5590     8.9800    23.5710  -999.2500   -26.9780 
  100.6250    72.1790    10.0510     8.7610     8.7100    23.4900  -999.2500   -26.1240 
  100.7500    75.4200    10.3670     9.0120     8.5570    23.4610  -999.2500   -25.0400 
  100.8750    78.0830    10.5230     9.1630     8.6880    23.4290  -999.2500   -23.9620 
  101.0000    81.9150    10.3420     9.0570     9.0790    23.3630  -999.2500   -22.9870 
  101.1250    88.5280     9.7200     8.5690     9.5330    23.3100  -999.2500   -21.8990 
  101.2500    95.6890     8.8740     7.8480     9.1900    23.5100  -999.2500   -20.8900 
  101.3750   100.5550     8.0450     7.0870     7.6690    23.9110  -999.2500   -20.1560 
  101.5000   104.4350     7.4380     6.4760     6.4440    24.2590  -999.2500   -19.5200 
  101.6250   108.2270     7.2090     6.1790     6.0510    24.3460  -999.2500   -18.9760 
  101.7500   109.0820     7.2650     6.1480     6.1610    24.3050  -999.2500   -18.7020 
  101.8750   107.3420     7.4890     6.3020     6.5720    24.2540  -999.2500   -18.6100 
  102.0000   105.4430     7.7410     6.5240     6.9190    24.2230  -999.2500   -18.5610 
  102.1250   103.5970     7.8850     6.6860     7.5380    24.2060  -999.2500   -18.5940 
  102.2500   100.1680     7.8940     6.7390     7.9900    24.2170  -999.2500   -18.7050 
  102.3750    98.8940     7.8010     6.6980     7.5020    24.2290  -999.2500   -18.8570 
  102.5000   101.6750     7.6700     6.6110     6.7190    24.2150  -999.2500   -19.0680 
  102.6250   104.3200     7.5710     6.5360     6.2800    24.1620  -999.2500   -19.2970 
  102.7500   103.6310     7.5220     6.4990     6.2490    24.0910  -999.2500   -19.5320 
  102.8750   102.9690     7.5030     6.4960     6.2440    24.0400  -999.2500   -19.7810 
  103.0000   105.3340     7.4840     6.5080     6.2240    24.0220  -999.2500   -20.0140 
  103.1250   107.9910     7.4390     6.5130     6.2010    24.0250  -999.2500   -20.3480 
  103.2500   108.7510     7.3790     6.5100     6.2720    24.0260  -999.2500   -20.8010 
  103.3750   108.1250     7.3360     6.5120     6.3320    24.0480  -999.2500   -21.1860 
  103.5000   106.5710     7.3400     6.5410     6.3550    24.0950  -999.2500   -21.5460 
  103.6250   101.8360     7.4210     6.6170     6.4120    24.1480  -999.2500   -22.1470 
  103.7500    95.3600     7.5530     6.7280     6.5240    24.1490  -999.2500   -22.7550 
  103.8750    92.4310     7.7010     6.8470     6.6780    24.0900  -999.2500   -23.2790 
  104.0000    92.0780     7.8040     6.9280     6.9390    24.0110     2.2690   -23.9200 
  104.1250    89.7700     7.7510     6.8880     7.2020    23.9980     2.2690   -24.5640 
  104.2500    85.9830     7.5010     6.6930     7.3060    23.9990     2.2580   -24.9820 
  104.3750    83.6320     7.0920     6.3580     7.2920    24.0020     2.2430   -25.3680 
  104.5000    85.0800     6.7060     5.9950     7.3100    24.0100     2.2280   -25.8060 
  104.6250    91.8270     6.8170     5.9180     7.4720    24.0570     2.2240   -26.0290 
  104.7500   100.0920     7.8230     6.4520     7.7830    24.1420     2.2460   -26.2240 
  104.8750   102.8390     9.9690     7.8610     8.8880    24.2070     2.3040   -26.5980 
  105.0000    94.9780    13.1170    10.1770    12.0910    24.2240     2.3960   -27.0820 
  105.1250    81.4540    16.5110    13.0170    18.4160    24.2130     2.5000   -27.6890 
  105.2500    72.7830    18.8810    15.3720    26.4510    24.2020     2.5770   -28.4580 
  105.3750    70.6990    19.2910    16.3330    29.9700    24.1650     2.6010   -29.3650 
  105.5000    71.4410    17.5690    15.4730    26.0380    24.0530     2.5640   -30.3840 
  105.6250    72.6910    14.5600    13.2180    18.1850    23.8770     2.4770   -31.4730 
  105.7500    75.0440    11.8420    10.9390    12.1720    23.7280     2.3800   -32.4740 
  105.8750    79.5160    10.0480     9.2600     9.4120    23.6660     2.2920   -33.3330 
  106.0000    86.0900     9.1870     8.2900     8.8150    23.6580     2.2260   -34.0460 
  106.1250    91.0610     9.0340     7.9490     8.9690    23.6580     2.1880   -34.5280 
  106.2500    90.2290     9.1460     7.9220     9.0470    23.6250     2.1710   -34.9190 
  106.3750    83.8150     9.3050     8.0330     8.9830    23.5760     2.1670   -35.2320 
  106.5000    76.4160     9.3880     8.1500     8.8360    23.5490     2.1710   -35.3030 
  106.6250    70.7950     9.3490     8.1880     8.7830    23.5420     2.1780   -35.2420 
  106.7500    67.8290     9.2500     8.1610     8.7570    23.5430     2.1840   -35.2940 
  106.8750    68.7000     9.1440     8.0970     8.6510    23.5430     2.1870   -35.2820 
  107.0000    73.1120     9.0720     8.0280     8.5050    23.5430     2.1890   -35.1260 
  107.1250    77.7700     9.0740     7.9810     8.6710    23.5430     2.1890   -35.1170 
  107.2500    79.2000     9.1480     7.9610     8.7960    23.5510     2.1900   -35.1900 
  107.3750    79.0800     9.2830     7.9690     8.7890    23.5900     2.1910   -35.1540 
  107.5000    79.1820     9.4490     7.9940     8.7370    23.6800     2.1930   -35.2000 
  107.6250    76.5450     9.5920     8.0160     8.6940    23.6690     2.1920   -35.4120 
  107.7500    69.5650     9.6660     8.0160     8.7730    23.4950     2.1890   -35.5170 
  107.8750    63.5890     9.6460     7.9820     8.9180    23.2970     2.1840   -35.6310 
  108.0000    62.9110     9.5360     7.9140     9.0050    23.2040     2.1780   -35.9020 
  108.1250    65.9470     9.3610     7.8240     9.0150    23.1930     2.1750   -36.1010 
  108.2500    66.9000     9.1810     7.7340     9.0160    23.1980     2.1760   -36.1300 
  108.3750    65.7190     9.0360     7.6600     9.0280    23.2100     2.1810   -36.1590 
  108.5000    64.9670     8.9500     7.6030     9.0220    23.2210     2.1870   -36.2130 
  108.6250    65.2840     8.9390     7.5650     9.0280    23.2270     2.1890   -36.2100 
  108.7500    64.2160     8.9830     7.5360     9.0430    23.2280     2.1860   -36.1300 
  108.8750    61.5610     9.0530     7.5140     8.9920    23.2250     2.1790   -35.9410 
  109.0000    61.4430     9.1120     7.4990     8.8150    23.2220     2.1710   -35.6820 
  109.1250    65.9640     9.1010     7.4970     8.5720    23.2190     2.1670   -35.4250 
  109.2500    69.7530     9.0120     7.5050     8.4500    23.2040     2.1660   -35.1230 
  109.3750    71.0290     8.8580     7.5200     8.5630    23.1680     2.1670   -34.7570 
  109.5000    70.8940     8.6820     7.5380     8.7330    23.1380     2.1700   -34.2960 
  109.6250    71.0850     8.5430     7.5610     8.8660    23.1490     2.1760   -33.5870 
  109.7500    70.2390     8.4760     7.6020     8.8770    23.1870     2.1830   -32.8500 
  109.8750    68.3050     8.4890     7.6740     8.8880    23.2330     2.1920   -32.1260 
  110.0000    66.8310     8.5580     7.7690     9.0180    23.3050     2.2040   -31.1530 
  110.1250    68.9620     8.6060     7.8340     9.3400    23.4290     2.2200   -29.9120 
  110.2500    73.8710     8.5500     7.8050     9.8180    23.5730     2.2400   -28.7570 
  110.3750    79.2280     8.3420     7.6390    10.5150    23.6860     2.2600   -27.5980 
  110.5000    83.6100     8.0000     7.3450    10.9620    23.7270     2.2780   -26.3430 
  110.6250    86.7700     7.6130     6.9840     9.5780    23.7310     2.2890   -25.3490 
  110.7500    89.8800     7.3030     6.6650     7.4170    23.7480     2.2930   -24.4670 
  110.8750    92.9120     7.1190     6.4380     6.6080    23.7720     2.2960   -23.5620 
  111.0000    94.6400     7.0370     6.2990     6.5270    23.7920     2.2990   -22.9070 
  111.1250    93.9880     6.9710     6.1970     6.4150    23.7980     2.3050   -22.6430 
