~V
VERS. 2.00: Ver 2.00
~W
STRT.M 62.0000:
STOP.M 282.0000:
STEP.M 0.1250:
NULL. -999.2500:
UWI. DF3054:
~C
DEPT.M :
DEN.GM/CC :
GR.API :
CALI.CM :
RXO.OHMM :
RI. :
RML.OHMM :
SP.MV :
~A
# ...
  185.7500     2.2140    70.8310    23.6090   106.3190   107.0780   109.7640   -25.5070 
  185.8750     2.2090    68.7940    23.4440   110.1690   102.6060   104.9040   -25.5910 
  186.0000     2.2350    69.1700    23.1060   103.5550    94.9040    97.3270   -25.5380 
  186.1250     2.2640    71.1210    22.5850    86.7110    87.0540    90.0870   -25.4710 
  186.2500     2.2740    72.2910    21.9630    73.1780    81.4510    85.3260   -25.4000 
  186.3750     2.2700    72.4930    21.2910    68.9990    78.8720    83.6900   -25.4200 
  186.5000     2.2690    71.8330    20.5190    70.8840    79.1300    84.8440   -25.4300 
  186.6250     2.2700    70.1320    19.9090    73.8050    81.6110    87.7990   -25.3080 
  186.7500     2.2660    68.5850    19.7140    76.3080    84.4800    90.6050   -25.1520 
  186.8750     2.2600    66.3800    19.9220    78.8660    86.2400    91.9090   -25.0510 
  187.0000     2.2640    64.3350    20.3470    81.4800    85.9720    90.9930   -25.0950 
  187.1250     2.2830    64.8140    20.7700    81.3970    83.4100    87.7560   -25.1530 
  187.2500     2.2990    67.8700    21.2490    77.2930    79.6450    83.5630   -25.2290 
  187.3750     2.2970    71.6870    21.7800    70.6630    75.7120    79.6560   -25.2390 
  187.5000     2.2800    74.6260    22.3310    65.7980    72.8060    77.3070   -25.2630 
  187.6250     2.2740    75.4430    22.7830    64.0010    72.5210    78.2760   -25.3950 
  187.7500     2.2870    74.0680    23.2740    60.5890    75.5220    83.1170   -25.6450 
  187.8750     2.3030    71.3860    23.9290    58.4730    82.6400    92.4030   -25.9100 
  188.0000     2.3030    69.5510    24.5120    67.9310    94.2300   106.1110   -26.0880 
  188.1250     2.2850    70.8350    24.8840    97.1410   109.8380   123.2860   -26.2230 
  188.2500     2.2680    74.1390    24.9900   129.2790   126.0120   140.2660   -26.3060 
  188.3750     2.2610    76.4080    24.9480   137.0760   139.1760   153.6280   -26.5360 
  188.5000     2.2620    75.4240    24.8160   140.0430   146.4960   161.0860   -26.8190 
  188.6250     2.2640    73.1130    24.7590   138.9960   147.1210   162.2370   -27.1220 
  188.7500     2.2660    72.3240    24.9100   135.3040   145.0370   160.9580   -27.4010 
  188.8750     2.2710    73.0280    25.1360   130.5570   143.0550   160.0600   -27.6570 
  189.0000     2.2810    72.3140    25.2720   127.7860   142.7140   161.1970   -27.9150 
  189.1250     2.2880    68.0440    25.2900   129.2970   144.8560   165.1590   -28.2020 
  189.2500     2.2800    64.4950    25.3010   133.2930   148.9350   171.1370   -28.4990 
  189.3750     2.2570    65.0730    25.3340   137.8060   154.5540   178.5740   -28.7720 
  189.5000     2.2280    68.3420    25.4450   143.2750   161.2650   186.8540   -29.0020 
  189.6250     2.2120    69.3660    25.5180   148.9670   168.3490   195.0960   -29.1870 
  189.7500     2.2100    69.1450    25.5610   154.8350   174.6960   202.1830   -29.3580 
  189.8750     2.2140    69.6240    25.5570   163.9800   179.2720   207.0760   -29.5340 
  190.0000     2.2220    69.5670    25.5420   177.1500   181.2670   209.0880   -29.7220 
  190.1250     2.2370    67.7380    25.5620   185.5010   180.2540   208.0500   -29.8920 
  190.2500     2.2510    66.0550    25.6260   183.4290   177.8950   205.8940   -30.0210 
  190.3750     2.2550    65.8590    25.7040   170.7060   175.9530   204.5450   -30.1250 
  190.5000     2.2450    66.8450    25.7810   157.3430   176.1180   205.7540   -30.2370 
  190.6250     2.2330    67.6240    25.8110   152.6620   180.0580   211.1200   -30.3590 
  190.7500     2.2270    67.4440    25.8360   153.9970   187.1540   219.7600   -30.4420 
  190.8750     2.2290    66.2990    25.8680   156.0590   196.3030   230.4710   -30.4450 
  191.0000     2.2400    65.0450    25.8800   158.4020   206.0570   241.6050   -30.3660 
  191.1250     2.2450    64.5200    25.8580   169.3840   214.7290   250.6540   -30.2250 
  191.2500     2.2330    64.1290    25.8400   180.6020   220.5680   255.3050   -30.0600 
  191.3750     2.2100    62.7480    25.8360   186.7360   221.2620   253.2870   -29.8730 
  191.5000     2.1950    60.6990    25.8390   187.2840   215.0040   243.4290   -29.6460 
  191.6250     2.2020    60.4410    25.8380   186.7120   201.0850   225.9500   -29.3750 
  191.7500     2.2150    61.6810    25.8380   177.5090   183.5910   205.5460   -29.1000 
  191.8750     2.2220    63.5550    25.8390   156.5490   166.0210   185.8860   -28.8570 
  192.0000     2.2230    65.0350    25.8390   137.5280   151.2820   169.7300   -28.6620 
  192.1250     2.2290    65.3820    25.8390   132.9720   141.6790   159.1830   -28.5050 
  192.2500     2.2390    65.3440    25.8370   127.2820   136.3650   153.0620   -28.3350 
  192.3750     2.2460    66.0410    25.8350   110.9000   134.1900   149.9540   -28.1290 
  192.5000     2.2490    66.4800    25.8360    94.8290   133.3170   147.9060   -27.8970 
  192.6250     2.2490    65.2450    25.8380    92.1230   131.3180   144.7140   -27.6870 
  192.7500     2.2450    64.9600    25.8340    99.8830   127.2950   139.7510   -27.5070 
  192.8750     2.2400    66.6580    25.8190   105.0910   122.0760   133.8410   -27.3190 
  193.0000     2.2420    67.8410    25.7950    97.7470   117.4750   128.7730   -27.0830 
  193.1250     2.2590    67.9880    25.7920    85.5780   116.1640   127.3450   -26.8070 
  193.2500     2.2800    68.9440    25.8010    81.1480   119.4350   130.6860   -26.5590 
  193.3750     2.2870    68.3650    25.8020    92.9010   127.8120   139.0780   -26.3760 
  193.5000     2.2740    65.0100    25.8050   119.1300   140.2800   151.2680   -26.2380 
  193.6250     2.2550    62.5250    25.8090   140.9640   153.5800   163.7060   -26.0940 
  193.7500     2.2470    63.1960    25.8220   146.7770   163.1000   171.3010   -25.9370 
  193.8750     2.2480    62.9470    25.8290   140.8380   165.4020   170.0110   -25.8060 
  194.0000     2.2470    60.3170    25.8330   130.3380   158.2870   158.2700   -25.7390 
  194.1250     2.2380    58.2510    25.8350   120.4070   141.1480   137.4540   -25.7110 
  194.2500     2.2230    57.5340    25.8140   113.2700   119.6040   114.2180   -25.6360 
  194.3750     2.2070    57.8780    25.7310    96.7650    97.7560    92.6420   -25.4730 
  194.5000     2.1970    58.9770    25.5470    66.6270    78.4480    74.7500   -25.2560 
  194.6250     2.1980    60.0560    25.4310    42.4240    63.7990    61.4750   -25.0690 
  194.7500     2.2010    60.1720    25.2890    35.8570    53.1530    51.6680   -24.9170 
  194.8750     2.2010    60.7710    25.0790    35.5640    45.8900    44.8930   -24.7300 
  195.0000     2.2180    62.7270    24.9890    32.2060    41.4800    40.8360   -24.4480 
  195.1250     2.2670    63.5990    25.0980    31.0320    39.9720    39.5480   -24.0990 
  195.2500     2.3190    63.9990    25.2710    35.1950    40.5130    40.1720   -23.8090 
  195.3750     2.3450    65.3750    25.3310    40.5890    42.6530    42.1770   -23.6570 
  195.5000     2.3400    67.9900    25.3510    43.5740    45.8720    44.9030   -23.6260 
  195.6250     2.3170    71.5560    25.4420    45.9500    49.2350    47.3900   -23.6320 
  195.7500     2.2960    74.3220    25.5900    47.4410    51.4780    48.8310   -23.6310 
  195.8750     2.2830    74.1680    25.7480    48.7710    51.9650    48.9490   -23.6550 
  196.0000     2.2810    70.8420    25.8470    48.5020    50.9460    48.0280   -23.7510 
  196.1250     2.2900    69.1030    25.9040    45.0720    49.2230    46.7680   -23.9270 
  196.2500     2.3070    70.1200    25.9140    39.8450    47.7470    45.9670   -24.1340 
  196.3750     2.3220    70.4990    25.8150    36.2930    47.0620    46.0990   -24.3460 
  196.5000     2.3260    71.0020    25.5660    37.5450    47.5510    47.4650   -24.5670 
  196.6250     2.3180    73.9380    25.3390    42.4270    49.6550    50.4270   -24.8200 
  196.7500     2.3070    76.1560    25.3610    48.2540    53.0710    54.6600   -25.1050 
  196.8750     2.2990    74.5240    25.5160    55.9330    57.5100    59.8550   -25.4290 
