~V
VERS. 2.00: Ver 2.00
~W
STRT.M 125.0000:
STOP.M 254.0000:
STEP.M 0.1250:
NULL. -999.2500:
UWI. DF3068:
~C
DEPT.M :
SP.MV :
GR.API :
CALI.CM :
RXO.OHMM :
RI. :
RML.OHMM :
DEN.GM/CC :
~A
# ...
  237.5000    -9.5540    63.8490    23.7320     6.5360     7.1920     9.0090     2.4550 
  237.6250    -9.7120    64.1760    23.5120     7.1570     7.1490     8.9660     2.4680 
  237.7500    -9.8760    65.0380    23.4250     7.0750     7.0630     8.8660     2.4780 
  237.8750    -9.9940    66.5810    23.4110     6.3620     6.9260     8.7280     2.4780 
  238.0000   -10.0360    67.4260    23.4050     5.9600     6.7590     8.5870     2.4720 
  238.1250   -10.0360    66.3610    23.4060     5.8660     6.6190     8.5120     2.4640 
  238.2500   -10.0880    65.4320    23.4060     5.8170     6.5670     8.5400     2.4610 
  238.3750   -10.2360    66.0500    23.4030     5.8030     6.6320     8.6740     2.4660 
  238.5000   -10.4600    66.4340    23.4010     5.9220     6.7970     8.8710     2.4800 
  238.6250   -10.6510    64.4000    23.4030     6.2230     6.9940     9.0430     2.4990 
  238.7500   -10.7180    61.8580    23.4050     6.5770     7.1260     9.1260     2.5170 
  238.8750   -10.6510    61.3590    23.4010     6.8820     7.1450     9.1070     2.5270 
  239.0000   -10.4910    63.4800    23.4000     6.9490     7.0630     9.0250     2.5270 
  239.1250   -10.2980    66.5910    23.4230     7.0280     6.9550     8.9690     2.5130 
  239.2500   -10.1320    67.7100    23.4600     7.4970     6.9250     9.0120     2.4950 
  239.3750   -10.0230    66.6930    23.4870     8.9450     7.0250     9.1880     2.4810 
  239.5000    -9.9990    64.7290    23.4980    10.4430     7.2620     9.4860     2.4740 
  239.6250   -10.1010    62.3230    23.4980    10.5900     7.5900     9.8500     2.4680 
  239.7500   -10.3070    59.3590    23.4800     9.3450     7.8910    10.1470     2.4610 
  239.8750   -10.5670    57.1220    23.4450     8.5610     8.0640    10.2620     2.4560 
  240.0000   -10.8050    56.1940    23.4140     8.7350     8.0480    10.1280     2.4560 
  240.1250   -10.9160    58.0060    23.4420     8.6860     7.8230     9.7410     2.4550 
  240.2500   -10.8830    61.3190    23.5790     7.8260     7.5000     9.2690     2.4480 
  240.3750   -10.7300    64.1890    23.8280     6.7400     7.1810     8.8520     2.4400 
  240.5000   -10.5260    65.2960    24.1000     6.0980     6.9410     8.5860     2.4350 
  240.6250   -10.3870    64.7850    24.2840     5.7740     6.8300     8.5100     2.4240 
  240.7500   -10.3840    64.3220    24.3080     5.7770     6.8110     8.5370     2.4080 
  240.8750   -10.5260    64.7830    24.1190     6.2990     6.8490     8.6020     2.3950 
  241.0000   -10.7590    65.9120    23.7870     6.5630     6.9130     8.6610     2.3930 
  241.1250   -10.9580    67.0030    23.5450     6.2300     7.0020     8.7230     2.4020 
  241.2500   -11.0260    68.2850    23.4800     5.9460     7.1250     8.8250     2.4140 
  241.3750   -10.9520    69.9060    23.4970     6.1260     7.2850     8.9810     2.4230 
  241.5000   -10.8010    70.7520    23.5050     6.2510     7.4580     9.1690     2.4270 
  241.6250   -10.6880    68.8640    23.5050     6.1720     7.5960     9.3440     2.4280 
  241.7500   -10.6770    65.8440    23.4860     6.0500     7.6750     9.4800     2.4320 
  241.8750   -10.7800    64.2000    23.4560     6.0350     7.7070     9.5940     2.4400 
  242.0000   -10.9690    64.3010    23.4310     6.2890     7.7470     9.7370     2.4430 
  242.1250   -11.2000    64.9300    23.3770     7.0860     7.8780     9.9810     2.4350 
  242.2500   -11.4150    65.6210    23.2930     8.0720     8.1110    10.3170     2.4220 
  242.3750   -11.5730    67.4640    23.2650     9.1200     8.4100    10.6900     2.4180 
  242.5000   -11.6360    69.1810    23.3410     9.4890     8.7140    11.0310     2.4260 
  242.6250   -11.5620    67.8910    23.4910     9.3560     8.9580    11.2680     2.4350 
  242.7500   -11.3880    65.9210    23.7980     9.0690     9.1300    11.4090     2.4430 
  242.8750   -11.1630    66.1000    24.3740     8.9460     9.2450    11.4830     2.4550 
  243.0000   -10.9470    68.2450    25.0470     8.3960     9.3310    11.5260     2.4760 
  243.1250   -10.8040    68.8500    25.3840     7.8720     9.3980    11.5590     2.4960 
  243.2500   -10.7540    67.6210    25.3910     7.7690     9.4330    11.5590     2.5030 
  243.3750   -10.8040    67.7530    25.3090     8.2820     9.4040    11.4810     2.4960 
  243.5000   -10.9350    70.3370    25.2670     8.7640     9.2830    11.2820     2.4840 
  243.6250   -11.0990    71.9480    25.2360     9.0220     9.0560    10.9420     2.4780 
  243.7500   -11.2430    71.9480    25.2180     9.2260     8.7820    10.5520     2.4810 
  243.8750   -11.3470    71.9480    25.2190     9.4820     8.5280    10.2170     2.4860 
  244.0000   -11.4250    71.9480    25.2150     9.6350     8.3530    10.0260     2.4800 
  244.1250   -11.5050    71.9480    25.1510     9.7720     8.3180    10.0440     2.4650 
  244.2500   -11.6000    71.9480    25.0380    10.3330     8.4180    10.2150     2.4540 
  244.3750   -11.7030    71.9480    24.9240    11.0170     8.6420    10.4850     2.4540 
  244.5000   -11.8030    71.9480    24.8540    11.6920     8.9530    10.7910     2.4580 
  244.6250   -11.9110    71.9480    24.8470    11.8390     9.2820    11.0630     2.4560 
  244.7500   -12.0450    71.9480    24.8620    12.0240     9.5350    11.2530     2.4460 
  244.8750   -12.1850    71.9480    24.8710    12.2060     9.6570    11.3270     2.4350 
  245.0000   -12.2940    71.9480    24.8700    12.2580     9.6290    11.2620     2.4300 
  245.1250   -12.3310    71.9480    24.8590    11.8910     9.4690    11.0440     2.4320 
  245.2500   -12.3090    71.9480    24.8450    11.7130     9.2570    10.7530     2.4350 
  245.3750   -12.2390    71.9480    24.8450    11.6200     9.0540    10.4880     2.4370 
  245.5000   -12.1300    71.9480    24.8840    11.3990     8.9280    10.3700     2.4350 
  245.6250   -11.9930    71.9480    24.9770    11.7650     8.9930    10.5640     2.4350 
  245.7500   -11.8370    71.9480    25.0920    13.4110     9.3000    11.0780     2.4460 
  245.8750   -11.6650    71.9480    25.2000    16.5680     9.8760    11.8720     2.4700 
  246.0000   -11.4860    71.9480    25.2640    20.1560    10.6770    12.8290     2.5000 
  246.1250   -11.3080    71.9480    25.2480    22.6150    11.5600    13.7300     2.5230 
  246.2500   -11.1090    71.9480    25.1920    21.2930    12.3130    14.3580     2.5360 
  246.3750   -10.8520    71.9480    25.1470    18.2130    12.8140    14.6050     2.5450 
  246.5000   -10.5160    71.9480    25.1400    16.8200    13.0540    14.5070     2.5490 
  246.6250   -10.1160    71.9480    25.1340    18.3270    13.1000    14.1940     2.5440 
  246.7500    -9.7240    71.9480    25.0860    21.7440    13.0860    13.8820     2.5340 
  246.8750    -9.4290    71.9480    25.0080    24.8970    13.0610    13.6850     2.5290 
  247.0000    -9.3000    71.9480    24.9430    25.1510    13.0420    13.6330     2.5300 
  247.1250    -9.3570    71.9480    24.9260    20.7260    13.0270    13.6650     2.5310 
  247.2500    -9.4910    71.9480    24.9290    19.0080    13.0150    13.6780     2.5260 
  247.3750    -9.6140    71.9480    24.9300    19.3720    13.0110    13.6510     2.5200 
  247.5000    -9.6630    71.9480    24.9310    18.9530    13.0210    13.6180     2.5180 
  247.6250    -9.6290    71.9480    24.9370    16.0960    13.0380    13.6160     2.5210 
  247.7500    -9.5820    71.9480    24.9400    13.2050    13.0470    13.6390     2.5160 
  247.8750    -9.5840    71.9480    24.9140    11.8750    13.0430    13.6590     2.4960 
  248.0000    -9.6520    71.9480    24.8540    11.1490    13.0300    13.6620     2.4700 
  248.1250    -9.7440    71.9480    24.7990    11.2900    13.0210    13.6800     2.4660 
  248.2500    -9.7960    71.9480    24.7690    11.9780    13.0240    13.7520     2.4890 
  248.3750    -9.7880    71.9480    24.7580    12.7710    13.0370    13.8840     2.5220 
  248.5000    -9.7600    71.9480    24.7610    13.5580    13.0500    14.0320     2.5460 
  248.6250    -9.7910    71.9480    24.7870    16.2360    13.0530    14.1240     2.5510 
