~V
VERS. 2.00: Ver 2.00
~W
STRT.M 59.0000:
STOP.M 281.0000:
STEP.M 0.1250:
NULL. -999.2500:
UWI. DF3005:
~C
DEPT.M :
DEN.GM/CC :
SP.MV :
AC.US/MT :
GR.API :
CALI.CM :
RXO.OHMM :
RI. :
RML.OHMM :
~A
# ...
  139.0000     2.3460   -16.6640   441.3800    89.9700    26.5520     4.4730     4.8680     4.5090 
  139.1250     2.3490   -16.7420   443.1190    96.8070    26.5710     4.3040     4.2530     4.1890 
  139.2500     2.3520   -16.8490   445.0440   102.1520    26.6380     4.3110     3.9680     4.1160 
  139.3750     2.3520   -16.9850   449.7050   104.9520    26.7130     4.2440     3.8600     4.1090 
  139.5000     2.3550   -17.1370   454.2320   104.2240    26.7580     4.0070     3.8020     4.0530 
  139.6250     2.3630   -17.2880   455.7390   100.7790    26.7670     3.5910     3.7190     3.9310 
  139.7500     2.3710   -17.4230   455.5620    97.5820    26.7680     3.4480     3.6230     3.8150 
  139.8750     2.3710   -17.5740   455.7530    96.2410    26.7690     3.3360     3.5540     3.7590 
  140.0000     2.3590   -17.7740   455.9170    96.4450    26.7690     3.3590     3.5580     3.7950 
  140.1250     2.3390   -18.0360   453.0080    95.2330    26.7690     3.7590     3.7060     3.9770 
  140.2500     2.3220   -18.3310   444.5380    90.9190    26.7690     5.1960     4.0130     4.3260 
  140.3750     2.3200   -18.6300   429.1610    85.4370    26.7690     7.1390     4.4910     4.8740 
  140.5000     2.3330   -18.9470   408.0030    81.7140    26.7690     8.0290     5.1220     5.6140 
  140.6250     2.3410   -19.2950   389.2410    78.3480    26.7690     8.0270     5.8420     6.4510 
  140.7500     2.3220   -19.6340   383.8650    73.1210    26.7680     8.7850     6.4830     7.1530 
  140.8750     2.2830   -19.9350   394.0150    69.0990    26.7700     8.8660     6.8750     7.5180 
  141.0000     2.2470   -20.1680   410.5170    69.2720    26.7770     7.9760     6.9050     7.4590 
  141.1250     2.2420   -20.3250   421.2680    72.5840    26.7870     7.8920     6.5540     7.0210 
  141.2500     2.2630   -20.4310   425.2660    77.5720    26.7930     7.2660     6.0470     6.4710 
  141.3750     2.2910   -20.4900   425.7750    84.4440    26.7940     5.9580     5.5480     5.9730 
  141.5000     2.3080   -20.5210   424.3350    91.0630    26.7930     4.8870     5.1610     5.6260 
  141.6250     2.3100   -20.5630   420.1050    93.5880    26.7940     5.0990     4.9340     5.4810 
  141.7500     2.3050   -20.6650   417.4700    93.2420    26.7960     5.5380     4.8080     5.4600 
  141.8750     2.3020   -20.8690   420.2870    93.1050    26.7990     5.5950     4.7330     5.4890 
  142.0000     2.3040   -21.1720   427.8180    93.9620    26.8030     5.1420     4.6690     5.4900 
  142.1250     2.3060   -21.5710   433.7310    94.6460    26.8090     4.7510     4.5910     5.4240 
  142.2500     2.2990   -22.0420   433.0000    94.4060    26.8040     4.4450     4.5090     5.3430 
  142.3750     2.2830   -22.5710   427.7580    93.3150    26.7740     4.3870     4.4590     5.3080 
  142.5000     2.2620   -23.1690   422.9800    92.2400    26.7190     4.7010     4.4840     5.3760 
  142.6250     2.2410   -23.8710   421.5300    90.2280    26.6640     5.2910     4.6540     5.6230 
  142.7500     2.2230   -24.6700   421.8440    85.4770    26.6320     6.1030     4.9880     6.0640 
  142.8750     2.2090   -25.5600   422.4820    78.1570    26.6090     6.9650     5.5020     6.7160 
  143.0000     2.1990   -26.5050   423.9720    73.0210    26.5410     8.2180     6.1810     7.5690 
  143.1250     2.1890   -27.4770   426.2140    73.4120    26.3830     9.9300     6.9730     8.5600 
  143.2500     2.1790   -28.4400   428.0630    74.5810    26.2020    11.2010     7.7570     9.5250 
  143.3750     2.1680   -29.3400   428.7140    72.7900    26.0700    11.7040     8.4320    10.3270 
  143.5000     2.1620   -30.1350   428.3940    68.8930    26.0050    12.3470     8.9300    10.8710 
  143.6250     2.1650   -30.7500   427.9800    66.6120    25.9830    12.8120     9.2020    11.0900 
  143.7500     2.1770   -31.1620   427.0560    66.6510    25.9750    13.0610     9.3090    11.0920 
  143.8750     2.1950   -31.3540   424.3040    67.3650    25.9730    12.9220     9.2920    10.9740 
  144.0000     2.2100   -31.3310   419.8110    67.4040    25.9890    12.0870     9.1890    10.8060 
  144.1250     2.2170   -31.1420   415.9130    67.2080    26.0370    11.4200     9.0240    10.5990 
  144.2500     2.2200   -30.8920   413.9490    67.7970    26.0720    11.1650     8.8410    10.3710 
  144.3750     2.2250   -30.6200   413.5070    70.4150    26.0570    11.2380     8.6790    10.1640 
  144.5000     2.2360   -30.3540   413.7850    74.1920    26.0070    11.2870     8.5800    10.0370 
  144.6250     2.2550   -30.0920   413.2210    77.9030    25.9770    11.3900     8.5920    10.0600 
  144.7500     2.2730   -29.8330   411.3260    80.3740    25.9680    11.7690     8.7120    10.2300 
  144.8750     2.2860   -29.5980   409.0680    81.8670    25.9550    13.0660     8.9360    10.5280 
  145.0000     2.2890   -29.3870   408.9060    83.7930    25.9250    13.9320     9.2480    10.9020 
  145.1250     2.2760   -29.1840   411.0470    86.0190    25.8730    13.5680     9.6240    11.2900 
  145.2500     2.2540   -28.9460   412.0570    85.7600    25.8170    12.9310     9.9920    11.6070 
  145.3750     2.2300   -28.6640   411.1950    81.2130    25.7760    12.8640    10.2540    11.7380 
  145.5000     2.2100   -28.3630   410.8470    73.7790    25.7600    13.2600    10.2970    11.5650 
  145.6250     2.2020   -28.0210   413.4600    69.6900    25.7720    13.7190    10.0470    11.0300 
  145.7500     2.2060   -27.6120   415.8080    70.6470    25.8080    13.3000     9.6660    10.3760 
  145.8750     2.2210   -27.1070   414.8310    74.4170    25.8950    12.1890     9.3460     9.8770 
  146.0000     2.2370   -26.4980   411.6810    76.8580    26.0260    11.1240     9.2750     9.7900 
  146.1250     2.2430   -25.7940   410.8710    75.7900    26.0960    11.5670     9.5990    10.2930 
  146.2500     2.2390   -25.0150   413.6410    72.5080    26.0400    12.7350    10.1060    11.0280 
  146.3750     2.2340   -24.1740   417.6950    68.4000    25.9230    13.9130    10.4140    11.4230 
  146.5000     2.2320   -23.2830   421.3350    65.0130    25.8700    14.9280    10.0840    10.8930 
  146.6250     2.2420   -22.3300   425.4750    64.3800    25.9650    15.3910     8.9340     9.3250 
  146.7500     2.2710   -21.3250   428.6020    67.4720    26.1670    15.0850     7.5590     7.6340 
  146.8750     2.3150   -20.2480   422.4890    73.8900    26.4330    12.6870     6.4340     6.4480 
  147.0000     2.3560   -19.1080   400.5710    81.7190    26.6880     9.5680     5.8130     6.0360 
  147.1250     2.3700   -17.9820   369.8450    85.9410    26.8470     9.0130     5.8970     6.5740 
  147.2500     2.3660   -16.9630   351.8380    84.0560    26.9470    11.2270     6.6560     7.9190 
  147.3750     2.3680   -16.1350   350.9190    77.7880    27.0470    13.7130     8.1660    10.0620 
  147.5000     2.3980   -15.5250   350.9510    70.6500    27.1560    16.6540    10.4180    12.8700 
  147.6250     2.4670   -15.1140   329.6720    65.2510    27.2220    21.5480    13.1450    15.8560 
  147.7500     2.5490   -14.8220   294.7060    62.5420    27.2440    24.9020    15.5950    18.1940 
  147.8750     2.6110   -14.5990   264.9600    62.2580    27.2540    24.2780    17.2350    19.4070 
  148.0000     2.6290   -14.4170   251.5120    62.3010    27.2830    20.6330    17.9280    19.5450 
  148.1250     2.6080   -14.2650   252.8330    60.3320    27.3310    19.6240    17.7980    18.9550 
  148.2500     2.5840   -14.1240   258.5340    57.0400    27.3850    18.7630    17.2960    18.1870 
  148.3750     2.5760   -14.0130   264.2060    54.3910    27.4470    17.5310    16.6910    17.5190 
  148.5000     2.5850   -13.9330   267.5860    54.7260    27.5170    15.8470    16.1990    17.1290 
  148.6250     2.6000   -13.8710   266.4650    55.9890    27.5770    15.3200    16.0130    17.1620 
  148.7500     2.6090   -13.8330   262.4560    54.8890    27.6190    16.2720    16.1380    17.5260 
  148.8750     2.6060   -13.8070   258.2570    51.4670    27.6580    17.9740    16.5240    18.1150 
