~V
VERS. 2.00: Ver 2.00
~W
STRT.M 57.0000:
STOP.M 290.0000:
STEP.M 0.1250:
NULL. -999.2500:
UWI. DF3043:
~C
DEPT.M :
SP.MV :
DEN.GM/CC :
AC.US/MT :
GR.API :
CALI.CM :
RXO.OHMM :
RI. :
RML.OHMM :
~A
# ...
  127.0000   -14.6740     2.3630   434.6290    99.7530    24.3240     3.8790     3.8840     4.3630 
  127.1250   -14.9050     2.3530   445.4790    98.6710    24.3180     3.8800     3.8080     4.3190 
  127.2500   -15.1910     2.3570   449.9150    97.9970    24.3110     3.8300     3.7970     4.3470 
  127.3750   -15.5200     2.3620   446.7180    97.0960    24.2930     4.0840     3.8630     4.4590 
  127.5000   -15.8790     2.3600   438.6040    96.7980    24.2640     4.4870     4.0180     4.6760 
  127.6250   -16.2700     2.3610   430.4910    97.8340    24.2710     4.5480     4.2830     5.0480 
  127.7500   -16.7100     2.3720   422.2740    97.8390    24.2680     4.6860     4.6470     5.5570 
  127.8750   -17.1980     2.3790   410.9590    94.9990    24.1250     5.4390     5.0840     6.1440 
  128.0000   -17.7160     2.3670   397.7320    89.5820    23.7700     6.2550     5.5250     6.6940 
  128.1250   -18.2620     2.3300   391.9260    83.5860    23.3300     6.4610     5.8470     7.0500 
  128.2500   -18.8430     2.2870   395.6940    78.9820    23.0430     6.5070     6.0170     7.2190 
  128.3750   -19.4700     2.2520   402.7690    76.8520    22.9660     6.4220     6.0770     7.2960 
  128.5000   -20.1060     2.2330   407.7180    77.8540    23.0050     6.2830     6.1250     7.4290 
  128.6250   -20.6460     2.2270   410.3900    80.5320    23.0090     6.4100     6.2950     7.7890 
  128.7500   -21.0580     2.2210   414.2520    80.5080    22.9260     7.1990     6.6430     8.4170 
  128.8750   -21.3530     2.2110   417.8830    77.4160    22.8180     8.2100     7.1910     9.3240 
  129.0000   -21.5820     2.2040   420.0280    75.1910    22.7510     8.8770     7.9310    10.4800 
  129.1250   -21.7830     2.2100   419.3390    77.3160    22.7390     9.4630     8.8290    11.7900 
  129.2500   -21.9440     2.2350   407.4110    81.1980    22.7560    11.0500     9.7370    13.0160 
  129.3750   -22.0520     2.2830   376.9360    82.7810    22.8120    14.7330    10.4960    13.9150 
  129.5000   -22.1030     2.3410   335.9680    80.9710    22.9030    16.6070    10.9400    14.2840 
  129.6250   -22.1230     2.3640   316.3830    77.7250    22.9500    14.4160    10.9310    14.0210 
  129.7500   -22.1540     2.3310   333.6540    72.3820    22.9180    11.1400    10.6260    13.4280 
  129.8750   -22.2180     2.2620   374.5760    67.5610    22.8350     9.9810    10.1800    12.7350 
  130.0000   -22.3460     2.1960   413.0360    67.5780    22.7090     9.5510     9.7150    12.0920 
  130.1250   -22.5560     2.1630   429.5300    72.3400    22.3970     9.6530     9.3090    11.5660 
  130.2500   -22.7970     2.1540   431.7420    73.9570    21.9320    10.0380     8.9550    11.1140 
  130.3750   -23.0180     2.1560   428.3570    71.6710    21.5750     9.9570     8.6480    10.7100 
  130.5000   -23.1650     2.1560   424.0820    70.1930    21.5590     9.3020     8.4110    10.3990 
  130.6250   -23.2420     2.1580   420.8150    69.9280    21.9110     8.9340     8.3430    10.3460 
  130.7500   -23.3130     2.1650   418.3580    68.3800    22.3840     9.3720     8.4760    10.6030 
  130.8750   -23.4010     2.1750   416.0000    68.2010    22.8930     9.9760     8.8050    11.1430 
  131.0000   -23.5090     2.1830   413.0870    71.3220    23.3800    10.5260     9.2650    11.8370 
  131.1250   -23.6180     2.1940   409.6180    74.5220    23.5870    10.9480     9.7180    12.4400 
  131.2500   -23.7130     2.2100   406.9970    73.1600    23.4370    11.0340    10.0110    12.7390 
  131.3750   -23.7770     2.2210   406.2710    68.9420    23.0940    10.8510    10.0730    12.6780 
  131.5000   -23.7920     2.2170   407.9110    66.8720    22.8190    10.7120     9.9420    12.3630 
  131.6250   -23.7500     2.1980   411.8590    69.5230    22.7740    10.7310     9.7230    11.9900 
  131.7500   -23.6560     2.1780   415.9500    71.2160    22.8070    10.5230     9.5280    11.7160 
  131.8750   -23.5110     2.1640   418.2690    68.5970    22.8050    10.2720     9.4000    11.5810 
  132.0000   -23.3400     2.1580   418.3610    64.6170    22.7190    10.1890     9.3440    11.5490 
  132.1250   -23.1610     2.1580   418.7980    64.1580    22.5980    10.3780     9.3270    11.5240 
  132.2500   -22.9750     2.1590   420.5430    66.2810    22.5400    10.5440     9.3000    11.4240 
  132.3750   -22.7780     2.1620   422.4240    67.2910    22.5480    10.4800     9.2500    11.2540 
  132.5000   -22.5480     2.1650   424.0360    65.5400    22.5590    10.2240     9.2000    11.0820 
  132.6250   -22.2730     2.1680   427.1570    62.3810    22.5200     9.9220     9.1980    11.0130 
  132.7500   -21.9720     2.1680   432.1330    62.2390    22.4610     9.7610     9.2410    11.0430 
  132.8750   -21.6490     2.1650   436.5290    66.0760    22.4260     9.7450     9.2760    11.0680 
  133.0000   -21.3110     2.1620   438.0400    69.3100    22.4550     9.8580     9.1810    10.8820 
  133.1250   -20.9390     2.1660   438.2650    69.2830    22.5420     9.8820     8.7390    10.1680 
  133.2500   -20.5300     2.1740   440.7400    69.1440    22.6240     9.0190     7.9460     8.9780 
  133.3750   -20.1040     2.1840   445.5070    71.0730    22.6980     7.3450     6.9370     7.5640 
  133.5000   -19.6700     2.2010   449.3650    74.0850    22.8080     5.6090     5.9370     6.2640 
  133.6250   -19.2350     2.2330   449.3490    77.9040    22.9590     4.6180     5.1830     5.4030 
  133.7500   -18.8270     2.2710   447.2090    83.3520    23.0580     4.0790     4.7440     5.0260 
  133.8750   -18.5010     2.2920   444.2700    88.0220    23.0580     4.4790     4.6530     5.1400 
  134.0000   -18.3330     2.2890   440.7570    89.4530    23.0300     5.3620     4.9100     5.7150 
  134.1250   -18.3790     2.2690   436.2600    86.5970    23.0230     5.9840     5.5280     6.7230 
  134.2500   -18.5740     2.2470   432.0380    82.8420    22.9220     7.0240     6.3500     7.9130 
  134.3750   -18.8680     2.2210   429.2440    81.0250    22.7230     8.4990     7.1790     8.9730 
  134.5000   -19.1910     2.1930   427.7760    80.4550    22.6000     9.2820     7.7420     9.5200 
  134.6250   -19.4690     2.1710   427.1380    78.7590    22.7210     9.0120     7.7600     9.2300 
  134.7500   -19.6500     2.1720   426.1410    76.0750    22.9530     7.8560     7.3840     8.4430 
  134.8750   -19.7010     2.1990   424.6770    74.6750    23.2560     6.6860     6.8460     7.5620 
  135.0000   -19.6350     2.2410   424.0030    75.6240    23.6060     6.0940     6.3750     6.9190 
  135.1250   -19.4740     2.2630   425.9960    77.0870    23.6940     6.5300     6.1740     6.7540 
  135.2500   -19.2900     2.2570   428.2570    77.7540    23.4660     7.2700     6.2540     6.9990 
  135.3750   -19.1320     2.2360   427.1140    78.0320    23.2370     7.7370     6.6010     7.5790 
  135.5000   -19.0300     2.2180   421.3990    77.7580    23.2770     8.1190     7.1700     8.3980 
  135.6250   -19.0200     2.2060   414.5670    76.1950    23.4570     9.0540     7.9020     9.3310 
  135.7500   -19.0450     2.1950   411.2030    72.6120    23.5300     9.4070     8.6410    10.1670 
  135.8750   -19.0470     2.1860   412.4920    68.0950    23.5300     9.4590     9.2200    10.6900 
  136.0000   -18.9750     2.1800   416.7650    65.3160    23.5270     9.5170     9.4430    10.6850 
  136.1250   -18.7960     2.1790   421.7250    66.1440    23.5370     9.5370     9.0850     9.9370 
  136.2500   -18.5680     2.1820   426.7740    69.5710    23.5860     8.9910     8.2820     8.7090 
  136.3750   -18.3210     2.1930   431.5840    74.2410    23.6450     7.6440     7.2500     7.3200 
  136.5000   -18.0580     2.2110   435.7170    79.2840    23.6770     5.9670     6.2300     6.0700 
  136.6250   -17.7790     2.2350   439.6350    83.3440    23.7050     4.8530     5.4270     5.1890 
  136.7500   -17.5080     2.2610   443.6390    86.3460    23.7650     4.5320     4.8660     4.6470 
  136.8750   -17.2970     2.2810   446.3600    91.2850    23.7900     4.5820     4.5410     4.4010 
