~V
VERS. 2.00: Ver 2.00
~W
STRT.M 100.0000:
STOP.M 264.0000:
STEP.M 0.1250:
NULL. -999.2500:
UWI. DF3023:
~C
DEPT.M :
GR.API :
CALI.CM :
RXO.OHMM :
RI. :
RML.OHMM :
SP.MV :
DEN.GM/CC :
AC.US/MT :
~A
# ...
  220.0000    66.3330    24.5820    24.5070    20.9180    22.1200   -16.3410     2.3020   394.6460 
  220.1250    68.8560    24.1180    21.5300    19.2250    20.1980   -16.2720     2.2880   391.5300 
  220.2500    73.2970    23.2490    19.0530    17.7090    18.6270   -16.1910     2.2700   389.5680 
  220.3750    78.5790    22.4110    18.7630    16.5150    17.4870   -16.1100     2.2610   388.9240 
  220.5000    82.8560    22.3050    20.8510    15.6010    16.6730   -16.0210     2.2680   386.3060 
  220.6250    84.3760    23.0710    22.9070    14.8570    16.0160   -15.9200     2.2830   378.2090 
  220.7500    86.6260    23.8730    22.0770    14.1690    15.3740   -15.8080     2.2930   369.7880 
  220.8750    89.6420    24.3560    19.0650    13.5570    14.7880   -15.6700     2.3120   367.5160 
  221.0000    89.3680    24.5820    15.8820    13.1020    14.3810   -15.5020     2.3450   373.6950 
  221.1250    83.9360    24.6110    14.1610    12.9140    14.2910   -15.3120     2.3660   386.0110 
  221.2500    78.8380    24.5260    14.9050    12.9580    14.4430   -15.1130     2.3430   399.1200 
  221.3750    77.2100    24.4600    16.8450    13.1810    14.7400   -14.9160     2.2980   407.9380 
  221.5000    76.8480    24.5240    18.8610    13.5220    15.1020   -14.7330     2.2590   400.9640 
  221.6250    75.0330    24.7210    18.2000    13.9660    15.5490   -14.5690     2.2470   370.2980 
  221.7500    72.9610    24.9100    16.8890    14.5220    16.1550   -14.4020     2.2560   338.7050 
  221.8750    71.5540    24.9640    16.4830    15.1930    16.9390   -14.2110     2.2690   330.2410 
  222.0000    70.3300    24.8920    19.1950    15.8790    17.7400   -13.9970     2.2910   345.5810 
  222.1250    69.3630    24.8250    23.3370    16.1990    18.0250   -13.7920     2.3170   355.5200 
  222.2500    69.4280    24.7920    27.0930    15.7840    17.3620   -13.6070     2.3310   343.1020 
  222.3750    69.9520    24.7500    25.8000    14.4870    15.6720   -13.4260     2.3430   320.4260 
  222.5000    69.5740    24.7010    20.5440    12.5590    13.3660   -13.2380     2.3670   309.2010 
  222.6250    68.6680    24.6950    16.8320    10.5460    11.1490   -13.0450     2.3950   319.5710 
  222.7500    69.5290    24.7290    13.1840     8.8830     9.4530   -12.8630     2.4130   335.1420 
  222.8750    71.3740    24.7700     9.3980     7.7090     8.3700   -12.7070     2.4260   344.5270 
  223.0000    71.8730    24.8050     6.8070     7.0170     7.8310   -12.5770     2.4370   345.6800 
  223.1250    70.5450    24.8480     6.6730     6.7820     7.7450   -12.4510     2.4310   341.1970 
  223.2500    70.1860    24.8900     6.6210     6.8230     7.8830   -12.3380     2.4160   334.1380 
  223.3750    71.5670    24.9080     6.7280     7.0320     8.1180   -12.2660     2.4050   327.2130 
  223.5000    71.7590    24.8620     7.1010     7.3020     8.3480   -12.2380     2.4030   322.7510 
  223.6250    70.2960    24.7250     7.4400     7.5200     8.4780   -12.2440     2.4150   320.7680 
  223.7500    70.5660    24.5780     7.6140     7.6130     8.4790   -12.2490     2.4200   318.3910 
  223.8750    73.1740    24.4790     7.7900     7.5470     8.3430   -12.2190     2.4200   315.2680 
  224.0000    74.6440    24.4200     8.1080     7.3240     8.0870   -12.1580     2.4220   313.0490 
  224.1250    71.3360    24.3630     8.3010     6.9870     7.7600   -12.1380     2.4220   313.8940 
  224.2500    67.5720    24.3190     8.2430     6.6480     7.4720   -12.1890     2.4180   317.4260 
  224.3750    67.5380    24.3030     7.6640     6.3880     7.3090   -12.2760     2.4160   321.9090 
  224.5000    69.8420    24.2720     7.0670     6.2620     7.3230   -12.3350     2.4090   324.3600 
  224.6250    69.9070    24.1990     7.2190     6.3030     7.5190   -12.3050     2.3880   322.7000 
  224.7500    68.4910    24.1810     7.8880     6.4400     7.7810   -12.2190     2.3770   319.7290 
  224.8750    67.7750    24.3050     8.0520     6.6040     8.0050   -12.1400     2.3950   319.5310 
  225.0000    66.8620    24.5400     7.4800     6.7290     8.1260   -12.0870     2.4160   323.4000 
  225.1250    64.6400    24.7050     6.6970     6.7900     8.1530   -12.0080     2.4190   326.4350 
  225.2500    63.4880    24.6810     6.5630     6.8290     8.1930   -11.8800     2.4130   321.6510 
  225.3750    64.4060    24.5030     7.8270     6.8960     8.3180   -11.7590     2.4280   304.5740 
  225.5000    64.8380    24.2930    11.1310     7.0190     8.5410   -11.7230     2.4700   280.2970 
  225.6250    63.3750    24.1850    15.0030     7.1770     8.7940   -11.7910     2.5050   265.8350 
  225.7500    61.9860    24.1620    14.6230     7.2930     8.9590   -11.8850     2.5080   269.1090 
  225.8750    60.6440    24.1450    11.5030     7.3070     8.9640   -11.9610     2.5100   282.9530 
  226.0000    58.2370    24.1060    10.1780     7.1980     8.8040   -12.0190     2.5310   293.9100 
  226.1250    57.3480    24.1330    11.1430     6.9860     8.5440   -12.0600     2.5510   294.7790 
  226.2500    60.4410    24.2420    11.1660     6.7650     8.3190   -12.0520     2.5470   290.7790 
  226.3750    65.5630    24.3580    10.9570     6.6070     8.2050   -11.9680     2.5320   287.0890 
  226.5000    68.1830    24.4100    10.8030     6.5500     8.2220   -11.8370     2.5170   286.8840 
  226.6250    67.8700    24.4170    10.2030     6.6130     8.3720   -11.7310     2.5040   289.5910 
  226.7500    67.3950    24.4450    10.0550     6.7550     8.6030   -11.6730     2.4990   291.6530 
  226.8750    67.4430    24.4860    10.5360     6.9440     8.8800   -11.6340     2.5010   293.0460 
  227.0000    68.5670    24.5230    10.6210     7.1470     9.1710   -11.5880     2.4970   296.2650 
  227.1250    70.6880    24.5680    10.1860     7.3450     9.4500   -11.5370     2.4800   302.1370 
  227.2500    70.2850    24.6160     9.6300     7.5390     9.7020   -11.4880     2.4840   306.0620 
  227.3750    66.6180    24.6440     9.6130     7.7310     9.9250   -11.4350     2.5150   305.0810 
  227.5000    62.4500    24.6450     9.9830     7.9290    10.1440   -11.3810     2.5380   300.2100 
  227.6250    61.3240    24.6620    10.9060     8.1570    10.4060   -11.3380     2.5140   293.3710 
  227.7500    61.9370    24.7320    11.8320     8.4250    10.7180   -11.3200     2.4710   285.4220 
  227.8750    62.7310    24.8270    11.9700     8.7270    11.0650   -11.3330     2.4660   277.2170 
  228.0000    63.8410    24.8950    11.5050     9.0450    11.4140   -11.3740     2.4840   271.0050 
  228.1250    65.7180    24.8940    11.3980     9.3360    11.7060   -11.4530     2.4860   268.4100 
  228.2500    66.3720    24.8760    11.7840     9.5530    11.8970   -11.5580     2.4760   266.8660 
  228.3750    65.0270    24.8870    11.9720     9.6660    11.9670   -11.6550     2.4780   264.9270 
  228.5000    63.1500    24.9280    11.6930     9.6680    11.9260   -11.7090     2.4790   263.3030 
  228.6250    63.6670    24.9570    11.3900     9.5770    11.7970   -11.7090     2.4650   263.7800 
  228.7500    64.5520    24.9470    10.9800     9.4560    11.6390   -11.6920     2.4600   266.6550 
  228.8750    63.5780    24.9170    10.6410     9.3470    11.4990   -11.6850     2.4680   270.5280 
  229.0000    62.5070    24.8670    10.0570     9.2770    11.4060   -11.7030     2.4660   273.2240 
  229.1250    64.4180    24.7560     9.4890     9.2510    11.3740   -11.7670     2.4440   275.0120 
  229.2500    67.7810    24.6150     9.1860     9.2460    11.3760   -11.8800     2.4270   277.3970 
  229.3750    69.4100    24.5610     9.4060     9.2460    11.3820   -12.0110     2.4270   279.1870 
  229.5000    68.2780    24.6740    10.0980     9.2390    11.3610   -12.0960     2.4340   278.4180 
  229.6250    67.8690    24.8130    11.1650     9.2240    11.2960   -12.0880     2.4420   276.4430 
  229.7500    68.3760    24.7620    11.9120     9.2110    11.2240   -12.0490     2.4470   277.4800 
  229.8750    67.9880    24.5410    12.1250     9.2080    11.1820   -12.0390     2.4410   281.9300 
