~V
VERS. 2.00: Ver 2.00
~W
STRT.M 120.0000:
STOP.M 268.0000:
STEP.M 0.1250:
NULL. -999.2500:
UWI. DF3028:
~C
DEPT.M :
DEN.GM/CC :
GR.API :
CALI.CM :
RXO.OHMM :
RI. :
RML.OHMM :
SP.MV :
~A
# ...
  153.7500     2.5290    60.5710    28.0200    15.4090    14.6660    19.6440   -17.6860 
  153.8750     2.5230    58.8850    27.9790    15.6070    14.4120    19.3160   -17.6470 
  154.0000     2.5310    54.7200    27.9330    15.2440    13.9530    18.6250   -17.6140 
  154.1250     2.5470    53.0750    27.8630    13.9570    13.2420    17.5170   -17.5770 
  154.2500     2.5580    53.5380    27.6990    12.3090    12.4260    16.2730   -17.5480 
  154.3750     2.5580    55.5470    27.4660    11.1350    11.6580    15.1580   -17.5300 
  154.5000     2.5500    58.6340    27.2890    10.9420    11.0690    14.3780   -17.5330 
  154.6250     2.5430    60.3870    27.2630    11.3370    10.7780    14.0840   -17.5260 
  154.7500     2.5440    58.7180    27.2990    11.4680    10.7330    14.1480   -17.5200 
  154.8750     2.5460    56.2550    27.3150    11.3780    10.8760    14.4570   -17.5290 
  155.0000     2.5390    56.0960    27.2800    11.5420    11.1280    14.8790   -17.5580 
  155.1250     2.5250    57.3700    27.2010    11.9620    11.4010    15.2720   -17.6110 
  155.2500     2.5180    57.0770    27.1460    12.1590    11.6160    15.5500   -17.6610 
  155.3750     2.5230    55.7240    27.1330    12.2130    11.7390    15.6840   -17.7140 
  155.5000     2.5340    56.7010    27.1370    12.4300    11.7640    15.6870   -17.7550 
  155.6250     2.5450    60.2610    27.1350    12.6040    11.7000    15.5900   -17.7890 
  155.7500     2.5550    61.8560    27.1340    12.3960    11.6030    15.4700   -17.7970 
  155.8750     2.5630    60.3660    27.1330    11.9780    11.5100    15.3800   -17.7610 
  156.0000     2.5640    58.4850    27.1320    11.7050    11.4460    15.3490   -17.6740 
  156.1250     2.5510    59.0740    27.1280    11.6830    11.4300    15.3950   -17.5440 
  156.2500     2.5320    61.0480    27.1270    11.7590    11.4610    15.5020   -17.4050 
  156.3750     2.5130    62.7670    27.1820    11.8620    11.5400    15.6620   -17.2550 
  156.5000     2.4990    62.3700    27.3620    11.8800    11.6610    15.8530   -17.1180 
  156.6250     2.4860    59.6350    27.6430    11.7720    11.7990    16.0340   -16.9830 
  156.7500     2.4760    58.1320    27.8550    11.8090    11.9160    16.1550   -16.8690 
  156.8750     2.4770    59.2290    27.9290    12.1620    11.9850    16.1720   -16.7900 
  157.0000     2.5030    60.4940    27.9160    12.5910    11.9920    16.0610   -16.7600 
  157.1250     2.5500    59.2920    27.8960    12.5910    11.9350    15.8190   -16.7530 
  157.2500     2.5900    57.8120    27.8800    12.2050    11.8510    15.5220   -16.7470 
  157.3750     2.5990    56.1820    27.8570    11.7740    11.7600    15.2150   -16.7500 
  157.5000     2.5740    54.1610    27.8570    11.4890    11.6690    14.9250   -16.7510 
  157.6250     2.5330    52.9770    27.9240    11.2540    11.5790    14.6720   -16.7800 
  157.7500     2.5070    53.2020    28.0190    10.9310    11.4950    14.4610   -16.8260 
  157.8750     2.5000    53.4150    28.0850    10.5990    11.4220    14.3030   -16.8970 
  158.0000     2.5040    53.1590    28.1010    10.3690    11.3670    14.2040   -16.9950 
  158.1250     2.5050    54.1390    28.0970    10.1710    11.3310    14.1510   -17.1480 
  158.2500     2.4990    55.5200    28.1020     9.8580    11.2820    14.0610   -17.3620 
  158.3750     2.4900    56.6690    28.0980     9.5080    11.1620    13.8370   -17.6330 
  158.5000     2.4810    59.8390    28.0690     9.3040    10.9250    13.4150   -17.9550 
  158.6250     2.4750    69.1940    28.0680     9.2740    10.5560    12.8120   -18.3170 
  158.7500     2.4710    80.5460    28.1350     9.2040    10.1570    12.2140   -18.7000 
  158.8750     2.4680    88.3400    28.2320     9.1210     9.8410    11.8080   -19.0930 
  159.0000     2.4620    90.6120    28.2880     9.3290     9.7270    11.7780   -19.4930 
  159.1250     2.4570    89.7220    28.2900    10.2350     9.9950    12.3910   -19.8970 
  159.2500     2.4580    88.5360    28.3150    11.7100    10.6960    13.6740   -20.3170 
  159.3750     2.4620    88.9130    28.3890    13.6070    11.8910    15.6610   -20.7330 
  159.5000     2.4540    90.9410    28.4800    15.8910    13.6030    18.3220   -21.1580 
  159.6250     2.4240    89.3920    28.5190    18.7620    15.8700    21.6450   -21.5910 
  159.7500     2.3890    83.1260    28.4710    22.0620    18.5680    25.4830   -22.0610 
  159.8750     2.3640    76.2220    28.3110    25.2940    21.7660    29.9930   -22.5630 
  160.0000     2.3450    71.9890    28.0970    28.1570    25.7150    35.5550   -23.1010 
  160.1250     2.3270    70.6110    28.0390    32.1500    31.0280    42.9450   -23.6500 
  160.2500     2.3090    70.4340    28.1650    40.6890    37.7430    52.1120   -24.1770 
  160.3750     2.2970    71.3860    28.3310    56.9650    45.5410    62.5050   -24.7000 
  160.5000     2.2910    72.1740    28.4010    76.6930    53.4350    72.6020   -25.2100 
  160.6250     2.2870    71.1420    28.3930    82.2660    59.6700    79.7860   -25.6960 
  160.7500     2.2790    70.4640    28.3880    73.3990    63.8530    83.9350   -26.1220 
  160.8750     2.2720    72.1510    28.3860    64.6830    66.8980    86.8050   -26.4960 
  161.0000     2.2660    74.9950    28.3790    67.3090    70.3390    90.6610   -26.8030 
  161.1250     2.2590    75.4710    28.3580    79.0520    75.3060    96.8100   -27.0460 
  161.2500     2.2530    74.0740    28.3320    88.4130    80.6480   103.2150   -27.2340 
  161.3750     2.2560    72.4640    28.3030    90.1810    84.0190   106.2190   -27.3420 
  161.5000     2.2640    70.1570    28.2610    84.8170    82.9950   102.5370   -27.3750 
  161.6250     2.2700    68.3710    28.1980    74.1330    76.6070    92.2280   -27.3530 
  161.7500     2.2750    70.9130    28.1360    61.8260    68.3760    81.0170   -27.3170 
  161.8750     2.2840    75.1360    28.1000    51.7200    61.1900    72.3480   -27.2600 
  162.0000     2.2920    74.4400    28.0940    46.9580    56.8480    67.7500   -27.2000 
  162.1250     2.2900    69.3380    28.1160    49.0510    56.9120    68.5430   -27.1480 
  162.2500     2.2810    67.8860    28.1330    53.9640    61.2600    74.2450   -27.1360 
  162.3750     2.2720    70.9510    28.1230    58.5180    69.9230    84.8330   -27.1690 
  162.5000     2.2690    72.6120    28.1010    63.5150    81.8360    99.1880   -27.2380 
  162.6250     2.2690    69.8650    28.1110    74.7730    93.3690   112.6340   -27.3180 
  162.7500     2.2640    68.8580    28.1310    89.5180    99.3390   117.8680   -27.4050 
  162.8750     2.2520    71.7440    28.1280    92.4310    96.8070   111.4230   -27.5140 
  163.0000     2.2450    76.7250    28.1080    76.7980    87.1450    97.0690   -27.6440 
  163.1250     2.2540    78.0700    28.0940    57.3680    75.3570    82.7170   -27.7920 
  163.2500     2.2740    74.9030    28.0470    48.0550    66.3000    73.0260   -27.9490 
  163.3750     2.2930    71.8130    27.9330    43.9370    61.7000    68.9700   -28.1510 
  163.5000     2.3010    71.1430    27.7660    41.1250    62.0810    70.5250   -28.4000 
  163.6250     2.3010    72.0830    27.6110    42.9610    68.0820    77.9840   -28.7040 
  163.7500     2.2970    73.0670    27.5500    51.4780    77.5070    88.7830   -29.0450 
  163.8750     2.2880    72.9230    27.6010    62.6400    87.5220    99.4910   -29.4200 
  164.0000     2.2720    69.7240    27.6820    70.7570    94.3520   105.4430   -29.8090 
  164.1250     2.2540    65.4250    27.6830    71.2490    94.2250   102.6390   -30.2020 
  164.2500     2.2460    66.2370    27.6510    64.0610    89.1180    94.9110   -30.5770 
  164.3750     2.2520    69.5200    27.6380    53.2780    82.2950    86.6830   -30.9240 
  164.5000     2.2690    70.9460    27.6310    47.5300    76.8200    81.0440   -31.2520 
  164.6250     2.2860    71.4540    27.6290    52.5360    74.6640    79.5670   -31.5890 
  164.7500     2.2920    71.9010    27.6490    60.9330    75.2370    81.2380   -31.9330 
  164.8750     2.2840    71.2950    27.6690    64.9740    77.8510    85.2670   -32.2930 
