~V
VERS. 2.00: Ver 2.00
~W
STRT.M 57.0000:
STOP.M 272.0000:
STEP.M 0.1250:
NULL. -999.2500:
UWI. DF3055:
~C
DEPT.M :
SP.MV :
GR.API :
RML.OHMM :
RI. :
RXO.OHMM :
CALI.CM :
DEN.GM/CC :
~A
# ...
  135.7500   -22.3110    65.8970    10.0440     9.1720    10.0190    24.1890     2.1830 
  135.8750   -22.3270    64.4490     9.8450     8.8680     9.9320    24.4080     2.1760 
  136.0000   -22.3190    63.2320     9.7880     8.7700     9.8500    24.5550     2.1710 
  136.1250   -22.2630    63.4180     9.7960     8.7800     9.7640    24.6240     2.1670 
  136.2500   -22.1600    62.9550     9.8420     8.8420     9.7310    24.6410     2.1650 
  136.3750   -22.0230    62.0190     9.9280     8.9320     9.7990    24.6520     2.1650 
  136.5000   -21.8670    63.1690    10.0690     9.0550    10.0800    24.6690     2.1660 
  136.6250   -21.7030    66.6270    10.2610     9.2160    10.6940    24.6990     2.1700 
  136.7500   -21.5290    69.3350    10.4480     9.3830    11.4700    24.7340     2.1780 
  136.8750   -21.3550    70.4410    10.5070     9.4720    12.1440    24.7580     2.1910 
  137.0000   -21.1810    72.1230    10.3000     9.3730    12.4370    24.7830     2.2110 
  137.1250   -20.9960    73.4050     9.7360     8.9980    11.8740    24.8120     2.2360 
  137.2500   -20.8320    72.1540     8.8320     8.3110    10.4990    24.8480     2.2620 
  137.3750   -20.6880    72.9180     7.8920     7.5160     8.8660    24.8800     2.2820 
  137.5000   -20.5660    76.6320     7.1940     6.8160     7.3460    24.9240     2.2900 
  137.6250   -20.4900    81.3970     6.9190     6.3730     6.4060    24.9870     2.2850 
  137.7500   -20.4520    83.9600     7.1350     6.3010     6.7640    25.0170     2.2660 
  137.8750   -20.4420    81.7070     7.5960     6.4730     7.8000    25.0130     2.2430 
  138.0000   -20.4310    75.3150     8.0570     6.7410     8.7750    24.9930     2.2240 
  138.1250   -20.4360    67.6020     8.2730     6.9280     9.2270    24.9740     2.2150 
  138.2500   -20.4220    68.4270     8.0310     6.8400     8.8470    24.9410     2.2230 
  138.3750   -20.4150    76.6170     7.4850     6.5000     7.6780    24.8830     2.2430 
  138.5000   -20.4120    85.2560     6.8770     6.0380     6.2750    24.8170     2.2700 
  138.6250   -20.3940    90.7190     6.4500     5.6320     5.4440    24.7770     2.2930 
  138.7500   -20.4050    93.7300     6.4040     5.4520     5.3740    24.7550     2.3010 
  138.8750   -20.4250    96.0360     6.6730     5.5190     5.7200    24.7210     2.2930 
  139.0000   -20.4730    94.6040     7.1290     5.7560     6.2450    24.6700     2.2740 
  139.1250   -20.5360    88.2710     7.5800     6.0270     6.7910    24.6310     2.2540 
  139.2500   -20.5970    82.3880     7.7760     6.2270     7.1010    24.6130     2.2430 
  139.3750   -20.6490    80.5770     7.6480     6.0980     7.0670    24.6080     2.2440 
  139.5000   -20.7060    83.7300     7.2550     5.7490     6.4980    24.6010     2.2540 
  139.6250   -20.7750    90.0390     6.7440     5.4330     5.6580    24.5870     2.2670 
  139.7500   -20.8430    93.5950     6.2890     5.1660     5.3420    24.5780     2.2710 
  139.8750   -20.9090    93.6620     5.9950     5.0000     5.4660    24.5740     2.2660 
  140.0000   -20.9750    93.7730     5.9440     5.0050     5.7990    24.5730     2.2600 
  140.1250   -21.0560    95.1340     6.2360     5.2560     6.2170    24.5690     2.2640 
  140.2500   -21.1950    93.8270     7.0740     5.9030     6.9910    24.5600     2.2970 
  140.3750   -21.3740    89.3540     8.4550     6.9530     8.5540    24.5390     2.3540 
  140.5000   -21.5670    85.2790    10.2930     8.3760    11.0400    24.5020     2.4220 
  140.6250   -21.7530    81.1870    12.2800    10.0550    13.8610    24.4590     2.4760 
  140.7500   -21.9460    74.7970    13.7800    11.4950    15.4210    24.3860     2.4870 
  140.8750   -22.1500    70.2180    14.3130    12.3640    15.1460    24.2710     2.4570 
  141.0000   -22.3780    70.0750    13.8010    12.4650    13.7640    24.1040     2.4010 
  141.1250   -22.6150    71.0880    12.6290    11.5940    12.2140    23.8760     2.3380 
  141.2500   -22.8360    68.7990    11.4790    10.5920    11.2420    23.7380     2.2850 
  141.3750   -23.0450    66.9190    10.6310     9.7040    10.7720    23.7270     2.2450 
  141.5000   -23.2320    70.3040    10.0250     9.0720    10.8000    23.8650     2.2200 
  141.6250   -23.3970    75.8240     9.6360     8.6950    11.0090    24.0620     2.2050 
  141.7500   -23.5180    76.8120     9.4700     8.5300    11.0150    24.1710     2.1960 
  141.8750   -23.6080    74.1870     9.4000     8.4600    10.7960    24.2570     2.1880 
  142.0000   -23.6480    71.6820     9.3700     8.4330    10.4710    24.3720     2.1780 
  142.1250   -23.6420    70.5470     9.3540     8.4190    10.3200    24.5060     2.1670 
  142.2500   -23.6070    68.5010     9.3540     8.4160    10.4320    24.5520     2.1600 
  142.3750   -23.5360    66.8520     9.3700     8.4250    10.8540    24.5390     2.1610 
  142.5000   -23.4370    67.1700     9.3950     8.4400    11.3800    24.4870     2.1700 
  142.6250   -23.3190    69.8830     9.4060     8.4460    11.7000    24.4110     2.1820 
  142.7500   -23.1550    71.9920     9.3710     8.4150    11.7150    24.3480     2.1920 
  142.8750   -22.9600    72.2000     9.2860     8.3450    11.5090    24.3010     2.1950 
  143.0000   -22.7560    71.3120     9.1600     8.2510    11.2220    24.2820     2.1900 
  143.1250   -22.5450    70.5810     9.0200     8.1580    10.9080    24.2750     2.1800 
  143.2500   -22.3120    70.2230     8.9040     8.1080    10.7300    24.2600     2.1690 
  143.3750   -22.0540    70.4060     8.8400     8.1270    10.8370    24.2370     2.1640 
  143.5000   -21.7920    70.3210     8.8450     8.1800    11.1260    24.2170     2.1650 
  143.6250   -21.5210    68.9900     8.9220     8.2590    11.3340    24.2090     2.1710 
  143.7500   -21.2390    68.1060     9.0680     8.3740    11.3730    24.2090     2.1780 
  143.8750   -20.9450    67.9590     9.2300     8.4280    11.3650    24.2090     2.1820 
  144.0000   -20.6140    67.1610     9.3430     8.4550    11.2990    24.2090     2.1820 
  144.1250   -20.2520    65.0740     9.3280     8.3910    11.1290    24.2090     2.1780 
  144.2500   -19.8530    66.9880     9.0880     8.1330    10.8210    24.2130     2.1770 
  144.3750   -19.4620    72.1950     8.6470     7.7130    10.2220    24.2230     2.1850 
  144.5000   -19.0540    77.7340     8.0670     7.1990     9.2430    24.2460     2.2030 
  144.6250   -18.6300    84.1770     7.4490     6.6420     7.9530    24.2990     2.2310 
  144.7500   -18.2470    91.3200     6.9130     6.1510     6.7640    24.3880     2.2620 
  144.8750   -17.8950    95.1710     6.5130     5.7780     6.0940    24.4780     2.2860 
  145.0000   -17.6070    96.6150     6.2580     5.5330     5.8780    24.5310     2.2970 
  145.1250   -17.3730    99.3630     6.1240     5.4000     5.9630    24.5710     2.2930 
  145.2500   -17.2040   102.5540     6.0770     5.3500     6.0670    24.6110     2.2800 
  145.3750   -17.0660   102.3660     6.0590     5.3280     6.0080    24.6350     2.2670 
  145.5000   -16.9730    99.5250     6.0410     5.3070     5.7230    24.6590     2.2620 
  145.6250   -16.9110    96.6340     6.0050     5.2730     5.5120    24.6940     2.2620 
  145.7500   -16.8770    94.4260     5.9270     5.2200     5.4160    24.7440     2.2640 
  145.8750   -16.8620    92.4250     5.8290     5.1560     5.4200    24.7660     2.2630 
  146.0000   -16.8470    90.9260     5.7380     5.1010     5.5560    24.7720     2.2600 
  146.1250   -16.8200    91.1280     5.7650     5.0910     5.7670    24.7760     2.2610 
  146.2500   -16.7840    94.7440     5.9880     5.1970     6.0430    24.7860     2.2740 
  146.3750   -16.7500    97.8230     6.4610     5.4360     6.4920    24.8050     2.3020 
  146.5000   -16.7310    96.4620     7.0930     5.7880     7.3210    24.8340     2.3380 
  146.6250   -16.7290    90.8540     7.5860     6.1850     8.6900    24.8550     2.3670 
  146.7500   -16.7170    85.5210     7.8290     6.4930    10.0400    24.8560     2.3750 
  146.8750   -16.6990    85.1150     7.7990     6.6190    10.0330    24.8490     2.3630 
