~V
VERS. 2.00: Ver 2.00
~W
STRT.M 66.0000:
STOP.M 262.0000:
STEP.M 0.1250:
NULL. -999.2500:
UWI. DF3009:
~C
DEPT.M :
GR.API :
RML.OHMM :
RI. :
RXO.OHMM :
CALI.CM :
DEN.GM/CC :
SP.MV :
~A
# ...
  189.7500    79.0820    40.0430    38.7800    35.0810    24.5480     2.3150   -31.5920 
  189.8750    79.9680    45.6880    44.4360    40.7350    24.6720     2.2980   -31.9090 
  190.0000    77.5100    51.4260    51.2140    48.8920    24.6440     2.2830   -32.1530 
  190.1250    73.7040    56.7190    58.1490    58.1690    24.4580     2.2730   -32.4110 
  190.2500    71.8380    61.2540    63.9550    71.6080    24.3990     2.2680   -32.6290 
  190.3750    71.0420    65.3460    67.6960    78.3850    24.5100     2.2650   -32.8250 
  190.5000    71.3020    67.1830    69.0070    76.1590    24.6880     2.2610   -32.9160 
  190.6250    72.1330    66.9420    68.0240    73.2900    24.6480     2.2580   -33.0780 
  190.7500    74.1880    65.9000    66.0600    70.1810    24.5380     2.2550   -33.1390 
  190.8750    75.1100    64.8960    63.9920    65.3510    24.4670     2.2550   -33.1220 
  191.0000    72.8310    64.4950    62.4460    59.7540    24.2220     2.2580   -33.1540 
  191.1250    68.8490    65.1130    61.9160    56.7660    24.1970     2.2640   -33.0430 
  191.2500    66.0970    66.6230    62.3280    56.2320    24.1930     2.2710   -32.9800 
  191.3750    66.1980    68.9160    63.5870    57.0890    24.0780     2.2770   -32.9310 
  191.5000    67.5370    71.8040    65.4980    59.1040    23.9560     2.2800   -32.8980 
  191.6250    68.5650    75.0530    67.8170    62.2550    23.7710     2.2800   -32.9310 
  191.7500    68.1430    78.3290    70.1910    66.0030    23.7530     2.2790   -32.9470 
  191.8750    66.2480    81.4810    72.4490    68.8890    23.7610     2.2770   -33.0580 
  192.0000    65.6910    84.5200    74.5650    71.7920    23.6670     2.2760   -33.1600 
  192.1250    67.7000    87.6850    76.6870    74.0680    23.6790     2.2780   -33.3040 
  192.2500    67.7560    91.2550    79.0440    76.5930    23.6950     2.2810   -33.5050 
  192.3750    65.5390    95.3860    81.7800    78.3670    23.8570     2.2830   -33.6200 
  192.5000    64.2880   100.0150    84.8900    82.5540    24.1150     2.2810   -33.7160 
  192.6250    64.4920   104.7780    88.1690    92.5060    24.1160     2.2730   -33.7710 
  192.7500    64.2780   109.0960    91.2140   105.4640    23.9450     2.2620   -33.7710 
  192.8750    63.6840   112.5500    93.7090   112.9430    23.8140     2.2540   -33.6790 
  193.0000    64.4180   114.9600    95.4750   114.6100    23.7170     2.2520   -33.6000 
  193.1250    66.8450   116.2690    96.3870   114.1790    23.7590     2.2560   -33.4910 
  193.2500    69.7880   116.8320    96.6840   113.5410    23.7690     2.2630   -33.2980 
  193.3750    71.9430   116.6920    96.4410   113.7470    24.0170     2.2660   -33.1450 
  193.5000    71.5840   115.7050    95.6380   115.4350    24.3250     2.2630   -32.9280 
  193.6250    70.1900   113.4830    94.0970   117.9530    24.5070     2.2550   -32.6800 
  193.7500    69.8240   110.2410    91.9690   118.4690    24.5430     2.2470   -32.4430 
  193.8750    70.0860   106.3350    89.4670   115.8930    24.5200     2.2410   -32.2200 
  194.0000    69.6590   102.2920    86.9040   111.0350    24.5660     2.2410   -31.9210 
  194.1250    68.9620    98.7800    84.6760   105.5050    24.5040     2.2470   -31.5730 
  194.2500    68.1070    96.1490    82.9480   102.9850    24.5200     2.2550   -31.2410 
  194.3750    66.1670    94.4910    81.6880   103.4260    24.4780     2.2620   -30.7710 
  194.5000    63.8510    93.4500    80.5530   104.5930    24.4270     2.2690   -30.3650 
  194.6250    63.0900    91.6690    78.4610   104.0350    24.4680     2.2890   -29.8250 
  194.7500    62.9840    87.2580    74.1490    98.2530    24.3970     2.3310   -29.2850 
  194.8750    61.2830    78.5470    66.5570    86.4750    24.3540     2.4000   -28.7540 
  195.0000    59.9160    65.3000    55.5700    73.4920    24.3340     2.4790   -28.1070 
  195.1250    63.0230    49.1200    42.5570    62.6170    24.2070     2.5350   -27.6030 
  195.2500    68.5260    34.1840    30.5420    49.6960    24.2160     2.5470   -27.1240 
  195.3750    74.9260    22.6420    21.3120    29.3320    24.2700     2.5200   -26.6950 
  195.5000    84.3190    15.0360    15.2780    15.4380    24.2350     2.4790   -26.3730 
  195.6250    96.0630    12.0110    12.1850    10.3920    24.1480     2.4480   -26.1730 
  195.7500   104.3940    10.8050    10.7280     8.9310    23.9360     2.4360   -26.0530 
  195.8750   105.3040    10.6830    10.3070     9.3400    23.7730     2.4380   -26.0790 
  196.0000   101.2560    11.0740    10.4700    10.6970    23.5330     2.4470   -26.2450 
  196.1250    97.2480    11.5330    10.8590    11.6280    23.4240     2.4520   -26.3640 
  196.2500    96.7120    11.8130    11.1850    11.6290    23.4530     2.4480   -26.5870 
  196.3750    97.8060    11.8920    11.3690    11.2890    23.5700     2.4380   -26.9010 
  196.5000    96.6740    11.8640    11.4460    11.1240    23.8350     2.4270   -27.2150 
  196.6250    92.8990    11.8720    11.4990    10.9930    23.8550     2.4200   -27.5050 
  196.7500    89.9790    11.9780    11.5750    11.4460    23.6880     2.4170   -27.7860 
  196.8750    89.3760    12.1520    11.6430    12.2410    23.5930     2.4120   -27.9660 
  197.0000    90.9310    12.3040    11.6310    12.3120    23.7700     2.4040   -28.0760 
  197.1250    91.7520    12.3010    11.4350    11.8660    23.9550     2.3980   -28.3200 
  197.2500    90.1440    12.1030    11.0540    11.4110    23.7700     2.4010   -28.5000 
  197.3750    90.0820    11.7420    10.5360    10.9850    23.5780     2.4160   -28.6670 
  197.5000    94.5150    11.3260     9.9870    10.3390    23.4970     2.4400   -28.8210 
  197.6250    99.6910    11.0460     9.5650     9.6800    23.4410     2.4650   -29.0150 
  197.7500   103.1050    11.0090     9.3500     9.1990    23.4730     2.4830   -29.3490 
  197.8750   104.1300    11.2320     9.3600     9.0740    23.4550     2.4890   -29.7190 
  198.0000   101.4060    11.6370     9.5530     9.5750    23.5690     2.4810   -30.2370 
  198.1250    93.0810    12.0610     9.8450    11.1460    23.5690     2.4610   -30.6500 
  198.2500    85.7190    12.3520    10.1210    13.0350    23.4560     2.4380   -30.9330 
  198.3750    81.8310    12.4820    10.3410    14.4870    23.3890     2.4200   -31.1740 
  198.5000    80.1880    12.5790    10.5490    15.5830    23.2820     2.4100   -31.1830 
  198.6250    81.7930    13.0630    10.9660    16.6530    23.3820     2.4120   -31.0420 
  198.7500    85.2340    14.4320    11.9050    18.0450    23.6250     2.4210   -30.6490 
  198.8750    86.8260    17.1730    13.7080    20.3870    23.8550     2.4380   -29.9350 
  199.0000    85.0310    21.4530    16.5550    24.4100    24.0980     2.4620   -28.9730 
  199.1250    81.6140    26.7390    20.2170    28.9300    24.1680     2.4970   -27.9530 
  199.2500    77.6970    31.2430    23.5280    34.6110    24.2600     2.5410   -26.8680 
  199.3750    74.9780    33.1470    25.1960    40.0810    24.2770     2.5870   -25.6770 
  199.5000    78.5050    31.2210    24.2130    44.3880    24.2090     2.6250   -24.6280 
  199.6250    84.1490    25.4840    20.3710    44.5160    24.2230     2.6400   -23.5720 
  199.7500    80.5200    18.8650    15.6700    34.6580    24.0790     2.6330   -22.6290 
  199.8750    68.0290    13.3980    11.5690    18.7310    23.9710     2.6080   -21.9190 
  200.0000    57.5470     9.8990     8.7150     8.0390    23.8680     2.5740   -21.3500 
  200.1250    55.8550     8.3890     7.2390     5.7730    23.8500     2.5420   -20.8710 
  200.2500    57.3280     7.9640     6.6150     5.3130    23.8290     2.5150   -20.5140 
  200.3750    60.1590     8.1330     6.5570     5.3580    23.7720     2.4920   -20.3350 
  200.5000    65.5880     8.5130     6.8110     5.3480    23.8400     2.4710   -20.1230 
  200.6250    73.3260     8.8020     7.1470     5.4060    23.8380     2.4520   -20.0240 
  200.7500    79.6430     8.8930     7.3950     5.5380    23.8480     2.4390   -19.8850 
  200.8750    82.9820     8.8220     7.5210     5.6810    23.8970     2.4320   -19.7830 
