~V
VERS. 2.00: Ver 2.00
~W
STRT.M 125.0000:
STOP.M 256.0000:
STEP.M 0.1250:
NULL. -999.2500:
UWI. DF3030:
~C
DEPT.M :
GR.API :
RML.OHMM :
RI. :
RXO.OHMM :
CALI.CM :
DEN.GM/CC :
SP.MV :
~A
# ...
  192.5000    66.6670    61.5070    59.8600    37.2300    23.5660     2.2410   -38.0680 
  192.6250    67.6110    56.4320    54.2520    30.4820    23.6550     2.1860   -38.0110 
  192.7500    68.5510    54.1340    51.4980    31.1470    23.8970     2.1260   -37.9150 
  192.8750    69.0240    52.3310    49.4770    36.2060    24.2110     2.0810   -37.8420 
  193.0000    70.3010    49.5490    46.7680    42.1530    24.5040     2.0670   -37.7140 
  193.1250    72.5790    45.4420    42.9400    44.3950    24.5650     2.0940   -37.6050 
  193.2500    72.9330    41.5470    39.1350    42.1600    24.4940     2.1420   -37.5640 
  193.3750    70.8070    39.4770    36.6750    32.7230    24.4230     2.1920   -37.4630 
  193.5000    68.4910    40.2780    36.6360    25.3250    24.4030     2.2260   -37.3960 
  193.6250    68.3610    44.7850    40.0100    27.7110    24.4510     2.2350   -37.2050 
  193.7500    70.1400    51.3410    45.9920    38.5320    24.5370     2.2300   -37.0120 
  193.8750    72.2530    58.6580    53.6030    52.8470    24.6270     2.2240   -36.8730 
  194.0000    72.7920    65.3320    61.4110    64.6800    24.7530     2.2220   -36.6580 
  194.1250    70.9570    69.7900    67.5290    71.4400    24.8620     2.2250   -36.5800 
  194.2500    69.3720    73.7540    71.3130    73.8730    24.9230     2.2290   -36.4500 
  194.3750    70.1450    75.6880    72.9870    74.8840    24.9400     2.2330   -36.4210 
  194.5000    73.0260    76.4040    73.3320    74.9900    24.9420     2.2370   -36.4320 
  194.6250    75.3750    76.7320    73.1290    75.0550    24.9440     2.2410   -36.5160 
  194.7500    74.4910    77.2590    72.9740    74.7960    24.9560     2.2470   -36.6820 
  194.8750    71.2300    78.1620    73.0610    74.5490    24.9830     2.2550   -36.8620 
  195.0000    69.4870    79.3570    73.3620    74.7720    25.0030     2.2620   -37.2190 
  195.1250    71.5640    80.2200    73.4350    73.8160    25.0100     2.2670   -37.5110 
  195.2500    73.9000    79.7410    72.5020    72.2030    25.0120     2.2670   -37.8260 
  195.3750    76.0080    76.8860    69.7220    70.7420    25.0160     2.2650   -38.0190 
  195.5000    78.2240    71.1620    64.6290    69.7410    25.0190     2.2630   -38.1710 
  195.6250    78.4990    63.1820    57.5720    68.6010    25.0200     2.2690   -38.0930 
  195.7500    77.0850    55.6040    50.6400    65.4880    25.0200     2.2820   -37.7840 
  195.8750    75.5830    50.7300    45.7620    57.9950    25.0120     2.2960   -37.3460 
  196.0000    75.3220    50.2510    44.4980    46.5050    24.9990     2.3020   -36.5290 
  196.1250    74.8100    55.8180    48.5490    42.3240    24.9860     2.2930   -35.3300 
  196.2500    74.8730    66.1490    57.0720    52.0370    24.9720     2.2740   -33.8410 
  196.3750    74.3750    79.7950    68.9400    75.9970    24.8880     2.2530   -32.1500 
  196.5000    69.6700    94.4950    82.1510   105.7500    24.7110     2.2350   -30.4260 
  196.6250    64.5330   106.9320    93.6730   115.0150    24.6010     2.2260   -28.7960 
  196.7500    64.2150   114.9810   101.3990   106.1600    24.5760     2.2290   -27.3130 
  196.8750    65.6050   117.6420   104.2020    97.9690    24.6350     2.2500   -25.8030 
  197.0000    63.6060   114.4050   101.5680    91.9530    24.8070     2.2970   -24.4690 
  197.1250    59.5580   103.7510    92.2500    89.0320    24.8600     2.3710   -23.4210 
  197.2500    59.7000    87.0420    77.6760    91.8590    24.7970     2.4570   -22.5310 
  197.3750    64.1760    66.6380    59.8850    91.8920    24.6250     2.5380   -21.8380 
  197.5000    70.3860    46.1750    42.3050    69.4110    24.4210     2.5980   -21.1360 
  197.6250    76.0450    30.4420    28.8670    45.3420    24.2230     2.6200   -20.5290 
  197.7500    83.3500    20.2020    19.8760    27.7640    24.0890     2.6090   -19.9040 
  197.8750    94.0380    14.9660    14.4800    16.2380    24.2550     2.5720   -19.4750 
  198.0000   102.9920    12.2540    11.5240     9.8710    24.6480     2.5190   -19.1410 
  198.1250   102.6070    11.2520    10.2290     8.7610    24.9280     2.4680   -18.9710 
  198.2500    97.3980    10.9960     9.7330     9.0420    25.1390     2.4300   -18.9420 
  198.3750    95.8950    11.1490     9.7420     9.4160    25.3270     2.4090   -19.0410 
  198.5000    99.5420    11.5570    10.0900     9.4750    25.4250     2.3990   -19.3180 
  198.6250   101.1760    12.1920    10.7030     9.5630    25.3230     2.3970   -19.6930 
  198.7500    98.5790    12.9670    11.4490    10.1560    25.0380     2.3990   -20.1840 
  198.8750    93.9190    13.7820    12.2230    11.5200    24.6650     2.4090   -20.5150 
  199.0000    89.9190    14.4790    12.8810    13.4600    24.3570     2.4310   -20.8800 
  199.1250    88.1180    14.8200    13.1920    15.0260    24.0980     2.4650   -21.2140 
  199.2500    89.0050    14.7560    13.0910    15.0040    23.9490     2.5000   -21.4290 
  199.3750    93.4080    14.3170    12.5940    13.9540    24.0150     2.5250   -21.6120 
  199.5000    99.0360    13.6260    11.8170    13.4010    24.2790     2.5300   -21.6190 
  199.6250   101.7420    12.8730    10.9540    12.6180    24.5440     2.5050   -21.4830 
  199.7500   100.9870    12.2670    10.2140    11.8600    24.7450     2.4600   -21.2860 
  199.8750    98.1870    11.9340     9.7190    10.9090    24.9560     2.4080   -21.1210 
  200.0000    96.8600    11.9230     9.5150    10.2240    25.1470     2.3700   -20.9660 
  200.1250    96.7470    12.2440     9.6310     9.8160    25.1300     2.3680   -20.7310 
  200.2500    96.3540    12.7530     9.9590     9.9800    24.9460     2.3970   -20.6120 
  200.3750    95.4850    13.3410    10.4260    11.0590    24.7020     2.4420   -20.4470 
  200.5000    95.7970    13.9070    10.9450    12.2340    24.5320     2.4860   -20.3610 
  200.6250    95.7230    14.3400    11.4030    11.7110    24.4640     2.5120   -20.3410 
  200.7500    94.2370    14.5930    11.7170    10.9750    24.4350     2.5290   -20.3000 
  200.8750    94.4950    14.6240    11.8280    11.3990    24.4470     2.5450   -20.3550 
  201.0000    99.3400    14.4120    11.7120    11.7700    24.5350     2.5660   -20.3490 
  201.1250   103.3470    13.9340    11.3550    11.5120    24.6890     2.5960   -20.3990 
  201.2500    99.8390    13.2720    10.8410    10.8710    24.8290     2.6290   -20.3460 
  201.3750    92.3270    12.4820    10.2240    10.9070    24.9140     2.6570   -20.2790 
  201.5000    88.5210    11.6340     9.5630    10.5840    24.9490     2.6660   -20.0870 
  201.6250    91.1720    10.8220     8.9370    10.1600    24.9610     2.6330   -19.8520 
  201.7500    93.9670    10.1280     8.4050     9.3360    24.9530     2.5620   -19.5740 
  201.8750    90.8780     9.6140     8.0110     8.3810    24.9980     2.4700   -19.1820 
  202.0000    80.9510     9.3170     7.7790     7.3170    25.3660     2.3840   -18.8480 
  202.1250    71.1170     9.2500     7.7240     6.7240    25.9330     2.3320   -18.4140 
  202.2500    67.7870     9.2890     7.7620     6.6570    25.8760     2.3160   -18.0420 
  202.3750    69.3610     9.3190     7.8140     6.7400    25.1710     2.3270   -17.6880 
  202.5000    73.6920     9.2410     7.8010     6.5210    24.4860     2.3510   -17.3830 
  202.6250    80.6800     8.9840     7.6510     6.1200    24.1150     2.3740   -17.1390 
  202.7500    89.1090     8.6140     7.3950     5.8610    23.9410     2.3900   -16.9160 
  202.8750    96.3560     8.2060     7.0830     5.7610    23.8720     2.4030   -16.7710 
  203.0000   100.6640     7.8380     6.7810     5.7060    23.8800     2.4110   -16.6320 
  203.1250   100.8320     7.5850     6.5570     5.7350    23.9520     2.4120   -16.5950 
  203.2500    98.2260     7.4660     6.4340     5.8090    24.0570     2.4070   -16.5950 
  203.3750    96.3040     7.4910     6.4190     5.9230    24.1670     2.3980   -16.6140 
  203.5000    94.7640     7.6530     6.5080     5.9160    24.3510     2.3900   -16.8030 
  203.6250    90.0530     7.9400     6.6960     5.9990    24.7160     2.3890   -16.9920 
