~V
VERS. 2.00: Ver 2.00
~W
STRT.M 62.0000:
STOP.M 282.0000:
STEP.M 0.1250:
NULL. -999.2500:
UWI. DF3054:
~C
DEPT.M :
DEN.GM/CC :
GR.API :
CALI.CM :
RXO.OHMM :
RI. :
RML.OHMM :
SP.MV :
~A
# ...
   73.2500  -999.2500    78.4520    22.3800     9.8720     8.5960     9.2120   -15.7750 
   73.3750  -999.2500    80.8760    22.3550     9.8670     8.6290     9.3160   -15.4640 
   73.5000  -999.2500    81.8190    22.3400     9.8820     8.6350     9.3870   -15.2780 
   73.6250  -999.2500    84.4330    22.3520     9.9190     8.6190     9.4170   -15.1770 
   73.7500  -999.2500    86.9260    22.3750     9.9290     8.5850     9.3920   -15.1980 
   73.8750  -999.2500    86.2930    22.4180     9.8200     8.5150     9.2990   -15.3380 
   74.0000  -999.2500    84.9180    22.4800     9.7240     8.3950     9.1520   -15.4590 
   74.1250  -999.2500    86.3310    22.4620     9.7990     8.2270     8.9980   -15.5580 
   74.2500  -999.2500    88.0350    22.3260     9.8900     8.0620     8.8940   -15.7850 
   74.3750  -999.2500    87.8520    22.2740     9.8010     7.9540     8.8840   -16.0160 
   74.5000  -999.2500    87.6280    22.4110     9.7500     7.9470     8.9950   -16.1300 
   74.6250  -999.2500    86.5500    22.5530    10.0290     8.0780     9.2550   -16.2800 
   74.7500  -999.2500    82.5270    22.5110    10.5060     8.2890     9.6070   -16.5230 
   74.8750  -999.2500    77.1270    22.3950    10.8670     8.5180     9.9800   -16.7660 
   75.0000  -999.2500    73.8410    22.3120    11.0600     8.7000    10.2840   -17.1370 
   75.1250  -999.2500    72.4150    22.2400    11.1280     8.7650    10.4030   -17.6320 
   75.2500  -999.2500    68.8070    22.1640    10.9680     8.7320    10.3420   -18.1000 
   75.3750  -999.2500    63.6380    22.1210    10.5870     8.6420    10.1460   -18.6130 
   75.5000  -999.2500    60.1390    22.0170    10.1410     8.5420     9.9050   -19.1090 
   75.6250  -999.2500    60.6470    21.8240     9.9130     8.4790     9.7420   -19.4450 
   75.7500  -999.2500    63.4730    21.6420     9.9010     8.4790     9.7240   -19.7000 
   75.8750  -999.2500    66.6940    21.6740    10.0400     8.5560     9.8530   -19.8490 
   76.0000  -999.2500    70.1280    22.0870    10.1580     8.6970    10.0670   -19.8140 
   76.1250  -999.2500    71.7130    22.7950    10.2240     8.8590    10.2520   -19.6900 
   76.2500  -999.2500    70.5050    23.3790    10.1460     8.9740    10.3230   -19.4110 
   76.3750  -999.2500    68.4510    23.5640    10.0370     8.9860    10.2600   -19.0370 
   76.5000  -999.2500    68.5350    23.3380    10.0880     8.8840    10.0990   -18.7270 
   76.6250  -999.2500    70.7490    23.0990    10.2530     8.7110     9.9240   -18.4550 
   76.7500  -999.2500    71.1500    22.9340    10.4370     8.5610     9.8150   -18.1400 
   76.8750  -999.2500    70.1760    22.8170    10.5310     8.4790     9.7970   -17.8850 
   77.0000  -999.2500    70.3120    22.7250    10.5180     8.4710     9.8490   -17.6870 
   77.1250  -999.2500    73.0880    22.6540    10.4120     8.4970     9.9120   -17.4870 
   77.2500  -999.2500    74.5120    22.5790    10.1620     8.4970     9.9320   -17.3280 
   77.3750  -999.2500    72.4560    22.5100     9.8940     8.4430     9.9010   -17.1530 
   77.5000  -999.2500    71.0680    22.4930     9.8090     8.3500     9.8530   -16.9960 
   77.6250  -999.2500    71.3820    22.5360     9.9230     8.2580     9.8430   -16.9020 
   77.7500  -999.2500    70.1260    22.6250    10.0590     8.2070     9.8840   -16.7580 
   77.8750  -999.2500    67.3260    22.7340    10.0700     8.2140     9.9570   -16.5530 
   78.0000  -999.2500    68.7790    22.8300    10.0310     8.2790    10.0290   -16.4250 
   78.1250  -999.2500    74.5210    22.9240    10.0930     8.3800    10.0680   -16.2800 
   78.2500  -999.2500    78.3360    23.0080    10.1750     8.4690    10.0610   -16.1840 
   78.3750  -999.2500    81.8370    23.1040    10.1680     8.5090     9.9970   -16.2490 
   78.5000  -999.2500    87.0810    23.2210    10.0610     8.4880     9.8710   -16.3250 
   78.6250  -999.2500    88.3400    23.3450    10.0080     8.4210     9.6940   -16.3990 
   78.7500  -999.2500    82.5210    23.4580    10.0140     8.3490     9.5230   -16.6130 
   78.8750  -999.2500    73.8170    23.5650    10.0610     8.3060     9.4210   -16.8530 
   79.0000  -999.2500    67.5830    23.6560    10.1140     8.3120     9.4390   -16.9820 
   79.1250  -999.2500    66.6520    23.6970    10.1990     8.3680     9.5990   -17.2270 
   79.2500  -999.2500    68.5010    23.7030    10.3390     8.4450     9.8240   -17.5530 
   79.3750  -999.2500    70.2730    23.7150    10.4880     8.5250    10.0460   -17.7720 
   79.5000  -999.2500    70.7560    23.7230    10.6080     8.5950    10.2120   -17.9890 
   79.6250  -999.2500    72.5720    23.7880    10.7070     8.6410    10.2910   -18.2760 
   79.7500  -999.2500    75.7000    23.8580    10.7820     8.6600    10.3130   -18.4890 
   79.8750  -999.2500    78.1090    23.8750    10.7800     8.6490    10.2910   -18.7370 
   80.0000  -999.2500    78.0240    23.8520    10.6590     8.6090    10.2260   -19.0220 
   80.1250  -999.2500    74.5190    23.8950    10.5020     8.5440    10.1110   -19.2300 
   80.2500  -999.2500    69.8630    24.0200    10.4400     8.4660     9.9740   -19.4280 
   80.3750  -999.2500    68.4080    24.1740    10.4620     8.3820     9.8610   -19.6010 
   80.5000  -999.2500    71.4540    24.2820    10.4640     8.3050     9.8130   -19.6870 
   80.6250  -999.2500    74.3860    24.3300    10.3190     8.2460     9.8510   -19.5770 
   80.7500  -999.2500    74.4930    24.3870    10.0520     8.1970     9.9150   -19.3780 
   80.8750  -999.2500    74.5180    24.4400     9.8860     8.1370     9.9350   -19.0930 
   81.0000  -999.2500    76.2200    24.4130     9.9570     8.0330     9.8470   -18.7810 
   81.1250  -999.2500    77.7000    24.3090    10.0950     7.8530     9.6090   -18.4170 
   81.2500  -999.2500    78.4750    24.2260     9.9400     7.6180     9.2860   -17.9860 
   81.3750  -999.2500    80.2320    24.1880     9.5850     7.3580     8.9480   -17.6000 
   81.5000  -999.2500    82.9790    24.0910     9.2070     7.1210     8.6680   -17.2110 
   81.6250  -999.2500    84.5060    23.9490     9.0410     6.9810     8.5260   -16.9570 
   81.7500  -999.2500    83.3250    23.8800     8.9790     6.9830     8.5510   -16.8880 
   81.8750  -999.2500    80.5200    24.0000     8.8370     7.1450     8.7680   -16.8850 
   82.0000  -999.2500    77.1390    24.1980     8.8630     7.4490     9.1710   -16.9420 
   82.1250  -999.2500    73.8410    24.3140     9.3630     7.8380     9.6910   -17.0550 
   82.2500  -999.2500    72.0010    24.2880     9.9960     8.1990    10.1530   -17.1470 
   82.3750  -999.2500    70.0200    24.1330    10.3350     8.4480    10.4150   -17.1940 
   82.5000  -999.2500    66.4170    23.9810    10.3890     8.5420    10.4170   -17.2780 
   82.6250  -999.2500    62.9500    23.9850    10.3310     8.4930    10.1920   -17.3410 
   82.7500  -999.2500    62.3000    24.0730    10.2390     8.4020     9.9310   -17.2880 
   82.8750  -999.2500    64.1010    24.1540    10.1910     8.3510     9.7720   -17.1130 
   83.0000  -999.2500    66.6470    24.1230    10.3110     8.3990     9.8030   -16.8210 
   83.1250  -999.2500    68.9190    23.9990    10.5710     8.5780    10.0500   -16.4510 
   83.2500  -999.2500    70.1550    23.9730    10.7720     8.8170    10.3680   -16.0260 
   83.3750  -999.2500    70.7780    24.0960    10.8650     9.0190    10.6000   -15.5360 
   83.5000  -999.2500    70.6540    24.2930    10.9060     9.0740    10.6000   -15.0300 
   83.6250  -999.2500    69.7010    24.4480    10.7390     8.8620    10.2460   -14.4510 
   83.7500  -999.2500    69.5810    24.5280     9.9230     8.4240     9.6310   -13.7210 
   83.8750  -999.2500    74.7190    24.5220     8.5830     7.8300     8.8620   -12.8410 
   84.0000  -999.2500    85.5030    24.5720     7.3570     7.1820     8.0580   -11.8090 
   84.1250  -999.2500    96.6040    24.6450     6.6570     6.5820     7.3450   -10.6350 
   84.2500  -999.2500   104.2760    24.7050     6.2750     6.0870     6.7900    -9.4440 
   84.3750  -999.2500   109.8230    24.8090     6.0550     5.7300     6.4380    -8.3080 
