~V
VERS. 2.00: Ver 2.00
~W
STRT.M 66.0000:
STOP.M 262.0000:
STEP.M 0.1250:
NULL. -999.2500:
UWI. DF3009:
~C
DEPT.M :
GR.API :
RML.OHMM :
RI. :
RXO.OHMM :
CALI.CM :
DEN.GM/CC :
SP.MV :
~A
   66.0000    56.3310   453.5160     1.2400     0.5000    25.2710  -999.2500    54.7060 
   66.1250    53.4300    67.3040     0.9200     0.5000    25.2220  -999.2500    53.0500 
   66.2500    52.6110    10.1900     0.5920     0.5000    25.1970  -999.2500    51.0220 
   66.3750    54.6910     2.4560     0.3340     0.5000    25.2820  -999.2500    48.2160 
   66.5000    56.6590     0.7720     0.1760     0.5000    25.2350  -999.2500    44.4760 
   66.6250    56.7800     0.3940     0.1170     0.5000    25.2140  -999.2500    39.7370 
   66.7500    58.0510     0.3540     0.1430     0.5000    25.1980  -999.2500    33.9140 
   66.8750    61.7380     0.5660     0.3080     0.5000    24.8070  -999.2500    27.1900 
   67.0000    66.7370     1.0750     0.7090     0.5000    24.0890  -999.2500    20.1660 
   67.1250    71.5390     2.0070     1.5180     0.5000    23.7020  -999.2500    13.2140 
   67.2500    75.4110     3.2660     2.7150     0.5000    23.5370  -999.2500     6.4640 
   67.3750    76.4470     4.6830     4.2020     0.5000    23.3750  -999.2500     0.3450 
   67.5000    74.8250     6.0040     5.7630     0.5000    23.4190  -999.2500    -5.0170 
   67.6250    73.8510     6.9990     7.0960     0.5000    23.4410  -999.2500    -9.3670 
   67.7500    75.8590     7.7780     8.0960     0.5000    23.3320  -999.2500   -12.5880 
   67.8750    80.7250     8.4620     8.7690     0.5000    23.2980  -999.2500   -14.9860 
   68.0000    84.4020     9.0800     9.1650     0.5000    23.2700  -999.2500   -16.8520 
   68.1250    82.1180     9.5500     9.3060     0.5000    23.0770  -999.2500   -18.1440 
   68.2500    79.2500     9.8390     9.2950     0.5000    23.0140  -999.2500   -19.1560 
   68.3750    80.1120     9.9620     9.1880     0.5000    23.1100  -999.2500   -19.9890 
   68.5000    82.8800     9.9870     9.0400     0.5000    23.0450  -999.2500   -20.5990 
   68.6250    83.2010    10.0260     8.9030     0.5000    23.0150  -999.2500   -21.1090 
   68.7500    82.0830    10.1640     8.8170     0.5000    23.0850  -999.2500   -21.5240 
   68.8750    81.1520    10.4250     8.8020     0.5000    23.0200  -999.2500   -21.8110 
   69.0000    80.3440    10.7740     8.8570     0.5000    22.8710  -999.2500   -22.1430 
   69.1250    79.7630    11.1090     8.9580     0.5000    22.8660  -999.2500   -22.5890 
   69.2500    79.3660    11.3190     9.0500     0.5000    22.8230  -999.2500   -22.9400 
   69.3750    79.6560    11.3530     9.0990     0.5000    22.7580  -999.2500   -23.2730 
   69.5000    80.2970    11.2260     9.0930     0.5000    22.8030  -999.2500   -23.6880 
   69.6250    79.4180    11.0140     9.0390     0.5000    22.7300  -999.2500   -24.0190 
   69.7500    76.4400    10.8260     8.9770     0.5000    22.7300  -999.2500   -24.4260 
   69.8750    73.8910    10.7090     8.9310     0.5000    22.8100  -999.2500   -24.9430 
   70.0000    74.3910    10.6680     8.9130     0.5000    22.7520  -999.2500   -25.3420 
   70.1250    76.5200    10.6820     8.9250     0.5000    22.8190  -999.2500   -25.6420 
   70.2500    77.4120    10.7030     8.9510     0.5000    22.8170  -999.2500   -26.0500 
   70.3750    76.7390    10.7080     8.9800     0.5000    22.8100  -999.2500   -26.4750 
   70.5000    76.5940    10.6920     9.0070     0.5000    22.9060  -999.2500   -26.8740 
   70.6250    78.4990    10.6650     9.0310     0.5000    22.9430  -999.2500   -27.3090 
   70.7500    79.0740    10.6490     9.0570     0.5000    23.1040  -999.2500   -27.6850 
   70.8750    77.9640    10.6550     9.0880     0.5000    23.1930  -999.2500   -28.0030 
   71.0000    76.1310    10.6740     9.1180     0.5000    23.1990  -999.2500   -28.3200 
   71.1250    73.0790    10.6610     9.1260     0.5000    23.1900  -999.2500   -28.5840 
   71.2500    69.6000    10.5760     9.0950     0.5000    23.1330  -999.2500   -28.7810 
   71.3750    69.2400    10.4090     9.0180     0.5000    23.3170  -999.2500   -28.9690 
   71.5000    73.1290    10.1930     8.9060     0.5000    23.4570  -999.2500   -29.0340 
   71.6250    76.9510    10.0150     8.7960     0.5000    23.4970  -999.2500   -29.1060 
   71.7500    78.4500     9.9560     8.7290     0.5000    23.4670  -999.2500   -29.1290 
   71.8750    80.2320    10.0520     8.7320     0.5000    23.3440  -999.2500   -29.0370 
   72.0000    84.9190    10.2650     8.7950     0.5000    23.3420  -999.2500   -28.9790 
   72.1250    87.7420    10.4520     8.8520     0.5000    23.2800  -999.2500   -28.8710 
   72.2500    82.8650    10.4250     8.8060     0.5000    23.3380  -999.2500   -28.6410 
   72.3750    74.2380    10.0690     8.5880     0.5000    23.3440  -999.2500   -28.4190 
   72.5000    70.9750     9.4040     8.1940     0.5000    23.3930  -999.2500   -28.1920 
   72.6250    76.4220     8.6510     7.7290     0.5000    23.4650  -999.2500   -27.8000 
   72.7500    82.0350     8.1650     7.3960     0.5000    23.4960  -999.2500   -27.5270 
   72.8750    86.6690     8.1440     7.3370     0.5000    23.6060  -999.2500   -27.3360 
   73.0000    91.8170     8.5970     7.5960     0.5000    23.6430  -999.2500   -27.0810 
   73.1250    92.4130     9.3460     8.1140     0.5000    23.7590  -999.2500   -27.0670 
   73.2500    88.2530    10.0100     8.6560     0.5000    23.7630  -999.2500   -27.2370 
   73.3750    85.3170    10.3270     9.0300     0.5000    23.8110  -999.2500   -27.3330 
   73.5000    87.2230    10.1990     9.1150     0.5000    23.8500  -999.2500   -27.4960 
   73.6250    89.5080     9.7330     8.8980     0.5000    23.7240  -999.2500   -27.8210 
   73.7500    87.6960     9.2660     8.5860     0.5000    23.5870  -999.2500   -28.0550 
   73.8750    84.2870     8.9940     8.3380     0.5000    23.3990  -999.2500   -28.3290 
   74.0000    83.5520     8.9870     8.2540     0.5000    23.3960  -999.2500   -28.6740 
   74.1250    85.5250     9.2230     8.3780     0.5000    23.3880  -999.2500   -28.8890 
   74.2500    84.8650     9.5420     8.6150     0.5000    23.5030  -999.2500   -29.1230 
   74.3750    80.3850     9.8300     8.8780     0.5000    23.6180  -999.2500   -29.4430 
   74.5000    74.6290    10.0080     9.0850     0.5000    23.6130  -999.2500   -29.7610 
   74.6250    70.2540    10.0060     9.1610     0.5000    23.7300  -999.2500   -30.1190 
   74.7500    67.8980     9.8580     9.1100     0.5000    23.7390  -999.2500   -30.4750 
   74.8750    67.7060     9.6020     8.9540     0.5000    23.8240  -999.2500   -30.7480 
   75.0000    69.6380     9.2970     8.7360     0.5000    23.8640  -999.2500   -31.0120 
   75.1250    69.6710     9.0370     8.5210     0.5000    23.8650  -999.2500   -31.1400 
   75.2500    68.1630     8.9380     8.3920     0.5000    23.9700  -999.2500   -31.0880 
   75.3750    67.6190     9.1280     8.4380     0.5000    24.0520  -999.2500   -31.0410 
   75.5000    69.6440     9.7030     8.7390     0.5000    24.2970  -999.2500   -30.8840 
   75.6250    71.6900    10.6660     9.3450     0.5000    24.3880  -999.2500   -30.4260 
   75.7500    71.3230    11.6740    10.0600     0.5000    24.4800  -999.2500   -29.9470 
   75.8750    70.4310    12.3370    10.6350     0.5000    24.4740  -999.2500   -29.3760 
   76.0000    70.7750    12.3200    10.8070     0.5000    24.4680  -999.2500   -28.5580 
   76.1250    73.5070    11.4480    10.3670     0.5000    24.5090  -999.2500   -27.7360 
   76.2500    79.3800    10.2060     9.5690     0.5000    24.3960  -999.2500   -26.9900 
   76.3750    86.1830     9.1090     8.7520     0.5000    24.3920  -999.2500   -26.1610 
   76.5000    91.3640     8.5810     8.2540     0.5000    24.3120  -999.2500   -25.4450 
   76.6250    93.1930     8.9060     8.3670     0.5000    24.3370  -999.2500   -24.9630 
   76.7500    92.5770     9.7860     8.9760     0.5000    24.3630  -999.2500   -24.4930 
   76.8750    90.8300    10.8520     9.8620     0.5000    24.4050  -999.2500   -24.1610 
   77.0000    88.5320    11.6630    10.6850     0.5000    24.4530  -999.2500   -24.0290 
   77.1250    85.6150    11.7100    10.9700     0.5000    24.2810  -999.2500   -23.9460 
