~V
VERS. 2.00: Ver 2.00
~W
STRT.M 64.0000:
STOP.M 268.0000:
STEP.M 0.1250:
NULL. -999.2500:
UWI. DF3002:
~C
DEPT.M :
GR.API :
RML.OHMM :
RI. :
RXO.OHMM :
DEN.GM/CC :
SP.MV :
~A
# ...
  218.5000    61.6170   127.5910   116.5740   123.8800     2.1990   -27.6000 
  218.6250    63.4500    93.4520    87.2860   119.4910     2.2040   -27.4150 
  218.7500    68.3410    62.7220    59.7610   105.4780     2.2270   -27.1270 
  218.8750    74.7840    41.0660    39.5970    89.8520     2.2650   -26.9070 
  219.0000    80.1380    28.8190    27.7650    70.1860     2.3120   -26.7210 
  219.1250    83.4710    24.6600    23.2880    38.3850     2.3570   -26.5270 
  219.2500    86.3580    24.6220    22.6220    22.6190     2.3930   -26.3980 
  219.3750    87.4530    26.4820    23.8950    22.2180     2.4170   -26.3230 
  219.5000    83.6390    28.2600    25.4620    29.9080     2.4270   -26.2390 
  219.6250    75.3200    28.0800    25.6270    44.3240     2.4160   -26.1350 
  219.7500    69.8580    25.9020    24.0250    52.6410     2.3890   -26.1380 
  219.8750    71.1570    22.8960    21.4010    38.1270     2.3550   -26.0820 
  220.0000    77.1690    20.7750    19.1860    23.6410     2.3260   -26.0070 
  220.1250    82.2800    21.4110    19.0620    20.6670     2.3120   -26.0220 
  220.2500    83.4050    24.8450    21.4440    24.4470     2.3100   -26.1170 
  220.3750    81.1540    30.6950    26.4130    33.8560     2.3120   -26.2250 
  220.5000    77.0560    37.8020    33.4960    47.0820     2.3080   -26.4220 
  220.6250    72.1550    45.0140    41.5220    56.4830     2.2940   -26.6920 
  220.7500    69.1700    51.2920    48.6720    59.1190     2.2730   -26.9410 
  220.8750    69.9760    56.6620    53.9190    57.9410     2.2530   -27.3410 
  221.0000    72.1110    60.2830    57.2220    58.3500     2.2370   -27.6730 
  221.1250    72.3770    62.9110    59.2930    60.5890     2.2260   -28.0470 
  221.2500    71.8060    65.5660    61.1740    63.5140     2.2180   -28.3630 
  221.3750    72.4800    68.5440    63.1390    66.1070     2.2110   -28.5190 
  221.5000    73.9320    71.7360    65.1050    67.9530     2.2040   -28.6680 
  221.6250    74.5890    74.6760    66.7190    69.6360     2.1980   -28.6510 
  221.7500    74.7820    76.8390    67.6960    71.1210     2.1930   -28.6280 
  221.8750    77.0430    77.8010    67.8250    70.7080     2.1890   -28.5230 
  222.0000    81.7310    77.3990    67.0790    68.0690     2.1860   -28.3320 
  222.1250    81.9970    75.8150    65.6500    67.7700     2.1850   -28.1050 
  222.2500    77.7450    74.1410    64.3340    66.8670     2.1840   -27.8140 
  222.3750    74.4750    73.7990    64.2630    64.2000     2.1780   -27.5130 
  222.5000    75.9470    77.1270    67.3060    61.3740     2.1670   -27.2090 
  222.6250    77.4190    88.3300    76.9540    64.2820     2.1570   -26.8550 
  222.7500    74.7150   107.1970    93.1810    72.4960     2.1700   -26.4160 
  222.8750    70.7530   130.3210   113.3150    86.6720     2.2280   -25.9670 
  223.0000    67.9610   149.6790   130.6910   106.7020     2.3420   -25.5000 
  223.1250    66.7870   150.7580   133.0490   122.9080     2.4680   -25.0150 
  223.2500    65.6600   128.5240   116.0090   135.1000     2.6890   -24.5090 
  223.3750    66.2480    89.7290    83.9390   136.0430     2.7170   -24.0340 
  223.5000    71.9100    51.7880    50.1920   117.5440     2.6620   -23.5600 
  223.6250    80.5950    28.6970    28.0100    90.5610     2.5670   -23.1490 
  223.7500    87.6950    16.2770    15.9900    48.2920     2.4700   -22.8970 
  223.8750    96.1940    10.3300    10.3440    18.4690     2.3990   -22.6230 
  224.0000   108.4380     8.3940     8.0890     9.0920     2.3550   -22.4610 
  224.1250   118.2130     8.3930     7.7110     8.3450     2.3370   -22.3010 
  224.2500   117.8830     9.0010     8.1120     9.2380     2.3360   -22.1500 
  224.3750   110.8470     9.7480     8.8740     9.7290     2.3450   -22.1180 
  224.5000   105.3980    10.3270     9.6670     9.5710     2.3570   -22.0340 
  224.6250   105.6550    10.5420    10.1970     9.5370     2.3720   -22.0370 
  224.7500   107.9980    10.4840    10.4300     9.7030     2.3880   -21.9570 
  224.8750   110.2270    10.2670    10.4290     9.7640     2.4060   -21.9240 
  225.0000   112.2080    10.0030    10.2880     9.5790     2.4230   -21.9480 
  225.1250   113.5270     9.7810    10.0890     9.4160     2.4350   -21.9240 
  225.2500   113.7740     9.6470     9.8940     9.3530     2.4390   -22.0370 
  225.3750   116.4270     9.6150     9.7260     9.2990     2.4340   -22.1400 
  225.5000   124.7300     9.6800     9.5950     9.2520     2.4270   -22.2170 
  225.6250   135.5360     9.8170     9.5060     9.3770     2.4220   -22.3300 
  225.7500   141.9560     9.9640     9.4390     9.5870     2.4200   -22.4880 
  225.8750   141.2810    10.0780     9.3760     9.6470     2.4210   -22.5550 
  226.0000   136.4850    10.1310     9.2960     9.5560     2.4210   -22.6200 
  226.1250   133.0090    10.1110     9.1880     9.4700     2.4200   -22.7480 
  226.2500   130.7100    10.0590     9.0710     9.4440     2.4180   -22.7570 
  226.3750   129.0760    10.0220     8.9810     9.4530     2.4160   -22.7660 
  226.5000   127.4770    10.0570     8.9610     9.5160     2.4140   -22.7970 
  226.6250   126.0070    10.2250     9.0700     9.6480     2.4090   -22.7950 
  226.7500   122.2060    10.5060     9.3000     9.8330     2.4020   -22.7290 
  226.8750   116.5160    10.8490     9.6190    10.0230     2.3930   -22.7420 
  227.0000   113.0360    11.1730     9.9660    10.3600     2.3890   -22.7360 
  227.1250   114.7200    11.3830    10.2590    10.8340     2.3920   -22.6870 
  227.2500   118.8310    11.4940    10.4750    11.2250     2.3990   -22.7360 
  227.3750   122.1600    11.5820    10.6510    11.3490     2.4040   -22.7160 
  227.5000   122.3420    11.7460    10.8510    10.7700     2.4020   -22.7840 
  227.6250   117.5360    12.0690    11.1400    10.6510     2.3900   -22.8870 
  227.7500   112.6520    12.4780    11.4790    10.7530     2.3750   -22.9950 
  227.8750   112.2450    12.8440    11.7730    11.7640     2.3600   -23.1950 
  228.0000   116.3100    13.0230    11.9050    12.3870     2.3520   -23.3580 
  228.1250   119.2030    12.8890    11.7550    12.1230     2.3510   -23.5790 
  228.2500   119.2730    12.5480    11.4030    11.5280     2.3560   -23.7850 
  228.3750   117.8740    12.1490    10.9690    11.2300     2.3660   -24.0460 
  228.5000   115.0500    11.7860    10.6060    10.9180     2.3760   -24.4200 
  228.6250   110.8270    11.7930    10.5270    11.1770     2.3840   -24.7910 
  228.7500   107.6290    12.4790    10.9210    12.3810     2.3860   -25.2410 
  228.8750   105.1700    14.6230    12.1940    14.6630     2.3790   -25.7510 
  229.0000   100.8720    19.0440    15.1190    19.1850     2.3620   -26.3000 
  229.1250    91.8120    28.2900    21.5630    26.6780     2.3360   -26.9410 
  229.2500    80.3640    42.6190    32.3750    41.9770     2.3030   -27.6430 
  229.3750    69.7200    61.3970    47.8990    69.9980     2.2720   -28.2810 
  229.5000    64.3840    83.1730    67.0080   107.4570     2.2490   -28.8450 
  229.6250    66.1540   105.0130    86.5560   133.5020     2.2390   -29.3970 
  229.7500    68.5250   122.8320   102.6670   134.7500     2.2390   -29.9010 
  229.8750    68.3790   134.5170   113.4020   129.1800     2.2430   -30.2760 
  230.0000    68.0610   140.4630   119.0240   123.2300     2.2450   -30.5660 
  230.1250    69.4150   142.3180   120.8420   124.7320     2.2430   -30.8000 
  230.2500    68.8900   142.2880   120.9190   130.9600     2.2420   -30.8840 
  230.3750    65.1800   140.8560   119.8530   136.6260     2.2440   -31.0180 
  230.5000    62.0330   138.4000   118.0380   133.6830     2.2470   -31.1160 
  230.6250    64.5840   135.5240   115.9660   121.8930     2.2500   -31.1810 
  230.7500    68.8250   132.8050   114.1050   111.0210     2.2510   -31.2770 
  230.8750    70.1370   130.2190   112.4880   107.2240     2.2490   -31.3090 
  231.0000    68.9350   127.3250   110.8000   112.5830     2.2480   -31.4450 
  231.1250    69.8390   123.2930   108.3280   113.7440     2.2480   -31.4850 
  231.2500    72.7180   117.8560   104.6740   108.9640     2.2500   -31.5950 
