~V
VERS. 2.00: Ver 2.00
~W
STRT.M 56.0000:
STOP.M 296.0000:
STEP.M 0.1250:
NULL. -999.2500:
UWI. DF301:
~C
DEPT.M :
DEN.GM/CC :
SP.MV :
AC.US/MT :
GR.API :
CALI.CM :
RXO.OHMM :
RI. :
RML.OHMM :
~A
# ...
  186.0000     2.5730    -4.2330   265.4040    48.9600    24.2970    23.6740    21.6850    23.1830 
  186.1250     2.5830    -4.2720   264.2340    49.3920    24.3660    23.0970    21.7610    23.2270 
  186.2500     2.6030    -4.4300   263.5860    49.8480    24.3080    23.2350    21.6950    23.1130 
  186.3750     2.6240    -4.5630   263.3720    52.1760    24.2890    22.9520    21.4920    22.8640 
  186.5000     2.6310    -4.7050   263.3360    56.5590    24.3010    22.1130    21.2160    22.5480 
  186.6250     2.6160    -4.8670   263.0720    58.9610    24.3050    21.4700    20.9690    22.2750 
  186.7500     2.5690    -4.9510   261.9970    55.7920    24.1940    21.6310    20.8840    22.2010 
  186.8750     2.5110    -5.0190   260.0340    51.2450    23.9900    22.2120    21.0190    22.3850 
  187.0000     2.4710    -5.0670   257.3370    48.6540    23.6980    22.8610    21.4120    22.8420 
  187.1250     2.4750    -5.0350   254.2660    48.5790    23.4050    23.5540    22.0400    23.5040 
  187.2500     2.5310    -4.9610   251.4080    49.5670    23.2580    24.4490    22.7750    24.1710 
  187.3750     2.5970    -4.8990   249.3960    49.1740    23.2300    25.7490    23.3410    24.5710 
  187.5000     2.6380    -4.7840   248.9070    47.6090    23.3060    26.6560    23.4890    24.5030 
  187.6250     2.6430    -4.6860   250.3980    46.9510    23.3730    26.7600    23.0800    23.8980 
  187.7500     2.6290    -4.6730   253.9200    49.3510    23.3130    25.0680    22.1080    22.8050 
  187.8750     2.6220    -4.6240   258.1150    53.8590    23.2350    22.2050    20.8930    21.5380 
  188.0000     2.6170    -4.6000   261.9150    57.3400    23.1080    20.0200    19.6660    20.3170 
  188.1250     2.6040    -4.6470   264.8700    57.2450    22.8970    19.8900    18.6030    19.3000 
  188.2500     2.5880    -4.6580   267.1990    57.3990    22.6160    20.5610    17.8550    18.6280 
  188.3750     2.5830    -4.6990   269.3220    60.3090    22.5200    19.9690    17.4160    18.2870 
  188.5000     2.5900    -4.7390   270.8600    62.2070    22.6050    18.4020    17.2960    18.2730 
  188.6250     2.5970    -4.7380   270.9870    60.7400    22.7790    17.4810    17.4710    18.5490 
  188.7500     2.6000    -4.7650   269.1320    59.5850    22.9480    18.1990    17.8880    19.0510 
  188.8750     2.5990    -4.7960   266.6230    60.1950    23.1580    19.9420    18.3780    19.6000 
  189.0000     2.5960    -4.8020   264.9150    58.9290    23.4930    21.5640    18.8250    20.0710 
  189.1250     2.5910    -4.8020   264.7000    55.8020    23.7810    21.7020    19.1520    20.4000 
  189.2500     2.5910    -4.7650   265.2760    55.4490    23.9510    20.6570    19.3660    20.6260 
  189.3750     2.6040    -4.7180   265.1150    56.8210    24.0290    20.0180    19.6070    20.9030 
  189.5000     2.6240    -4.6910   263.6690    55.4460    24.0820    21.0920    19.9800    21.3340 
  189.6250     2.6370    -4.6340   261.4670    51.7400    24.1710    23.4210    20.5010    21.9240 
  189.7500     2.6300    -4.5290   259.9240    51.5910    24.3060    25.0840    21.0800    22.5650 
  189.8750     2.6130    -4.4400   259.8840    54.9360    24.4190    25.5330    21.5670    23.1000 
  190.0000     2.5980    -4.3750   261.1400    56.0050    24.5170    24.8600    21.8750    23.4390 
  190.1250     2.5920    -4.2660   262.6780    52.9660    24.5680    23.6820    21.9670    23.5330 
  190.2500     2.5960    -4.1830   263.2170    51.3270    24.5630    23.0670    21.7560    23.2680 
  190.3750     2.6030    -4.0680   262.7480    53.5690    24.5460    22.9210    21.2020    22.6110 
  190.5000     2.6100    -3.9680   262.1280    55.5740    24.5370    22.8200    20.2690    21.5450 
  190.6250     2.6130    -3.9550   262.4260    55.3850    24.5410    21.7040    19.0480    20.1880 
  190.7500     2.6110    -3.9410   264.1320    55.7760    24.5180    19.2190    17.8070    18.8530 
  190.8750     2.6050    -3.9840   266.1170    58.2110    24.5240    17.1940    16.8620    17.8970 
  191.0000     2.5930    -4.0280   267.1850    60.2470    24.5650    16.6490    16.4210    17.5320 
  191.1250     2.5740    -4.0520   266.7080    59.6820    24.6260    17.4030    16.5660    17.7820 
  191.2500     2.5590    -4.1100   265.2360    57.6660    24.5900    18.3510    17.2290    18.4360 
  191.3750     2.5590    -4.1650   264.8860    54.8890    24.4810    19.3860    17.9190    18.9380 
  191.5000     2.5690    -4.1570   267.7280    52.0590    24.3460    20.3300    18.1320    18.8440 
  191.6250     2.5730    -4.1170   275.0580    52.0340    24.2340    19.8150    17.5200    17.9420 
  191.7500     2.5570    -4.0760   286.7520    55.5230    24.1510    16.3790    16.0730    16.3200 
  191.8750     2.5380    -3.9450   299.3410    59.1080    24.1270    12.7220    14.3950    14.5490 
  192.0000     2.5320    -3.7850   309.8090    60.6450    24.1460    10.8290    12.8920    13.0120 
  192.1250     2.5360    -3.6450   316.2700    60.7300    24.2170    10.3790    11.7640    11.9070 
  192.2500     2.5360    -3.5170   318.4310    61.0200    24.3490    10.5370    11.0860    11.2960 
  192.3750     2.5270    -3.4150   318.9440    60.7310    24.4880    10.7980    10.6870    10.9690 
  192.5000     2.5110    -3.3910   319.4850    60.1950    24.5700    10.9980    10.4510    10.7910 
  192.6250     2.4930    -3.3730   320.5220    59.2680    24.5910    10.8750    10.2930    10.6800 
  192.7500     2.4810    -3.3540   321.0270    58.1470    24.5620    10.4770    10.2010    10.6330 
  192.8750     2.4800    -3.4280   319.9370    56.8680    24.5570    10.3590    10.2040    10.6810 
  193.0000     2.4880    -3.4980   317.0730    56.8340    24.5230    10.9560    10.3280    10.8510 
  193.1250     2.4960    -3.6000   313.1450    58.4730    24.4220    11.8380    10.5680    11.1400 
  193.2500     2.5030    -3.6640   309.2370    59.6080    24.1800    11.8850    11.2220    11.8740 
  193.3750     2.5140    -3.7190   305.6990    58.1870    24.2090    12.2590    11.6260    12.3120 
  193.5000     2.5270    -3.7640   302.1480    55.9210    24.3200    13.6380    11.9970    12.7180 
  193.6250     2.5380    -3.7550   298.3790    52.9760    24.3830    14.9760    12.2960    13.0550 
  193.7500     2.5370    -3.8060   295.1490    51.1990    24.3740    15.0200    12.4790    13.2800 
  193.8750     2.5340    -3.8390   293.4220    50.4570    24.3290    13.9400    12.5500    13.4040 
  194.0000     2.5370    -3.9150   293.3850    50.2380    24.1940    13.1750    12.5280    13.4530 
  194.1250     2.5490    -3.9810   294.2440    51.4650    24.0520    13.2130    12.4680    13.4780 
  194.2500     2.5670    -4.0360   294.5670    53.2790    24.1010    13.7210    12.4510    13.5620 
  194.3750     2.5780    -4.1460   293.6400    54.6380    24.2870    14.3090    12.5450    13.7650 
  194.5000     2.5720    -4.2510   291.5520    55.9320    24.4200    14.6180    12.7980    14.1280 
  194.6250     2.5500    -4.3820   288.7760    57.6950    24.4640    14.7820    13.2290    14.6560 
  194.7500     2.5290    -4.5180   285.8300    60.5430    24.4450    15.3440    13.8300    15.3180 
  194.8750     2.5260    -4.6570   283.2020    63.5280    24.4280    16.3190    14.4820    15.9770 
  195.0000     2.5400    -4.8350   281.2800    64.8100    24.3770    17.2900    15.0570    16.4970 
  195.1250     2.5590    -5.0480   280.3360    61.7370    24.2760    17.8710    15.4240    16.7720 
  195.2500     2.5630    -5.2550   280.4350    56.1100    24.0860    17.5230    15.4740    16.7340 
  195.3750     2.5510    -5.4360   280.9290    53.6200    23.9290    16.9430    15.3070    16.5130 
  195.5000     2.5320    -5.5930   281.3370    55.5240    23.9010    16.5650    15.0290    16.2280 
  195.6250     2.5210    -5.7790   281.6250    59.2860    23.9840    16.4480    14.7440    15.9700 
  195.7500     2.5260    -5.9500   282.5930    61.3690    24.0920    16.4700    14.5030    15.7650 
  195.8750     2.5380    -6.1500   285.4730    63.1150    24.1500    16.1600    14.2680    15.5570 
