~V
VERS. 2.00: Ver 2.00
~W
STRT.M 60.0000:
STOP.M 280.0000:
STEP.M 0.1250:
NULL. -999.2500:
UWI. DF3041:
~C
DEPT.M :
SP.MV :
GR.API :
RML.OHMM :
RI. :
RXO.OHMM :
CALI.CM :
DEN.GM/CC :
~A
# ...
  262.5000   -11.0290    73.5810    17.4900    15.9800    17.6550    23.3200     2.5110 
  262.6250   -11.0820    77.1300    17.9670    16.4440    17.9930    23.3260     2.5080 
  262.7500   -11.1140    79.5880    18.3290    16.7950    18.6490    23.3020     2.5040 
  262.8750   -11.1470    78.2060    18.5390    16.9990    18.9350    23.2900     2.5010 
  263.0000   -11.1940    75.7860    18.6190    17.0770    18.6330    23.2860     2.4990 
  263.1250   -11.2270    75.4680    18.6290    17.0860    18.4930    23.2750     2.4990 
  263.2500   -11.3280    74.5330    18.6520    17.1090    18.7630    23.2830     2.5000 
  263.3750   -11.3780    72.1170    18.7240    17.1780    19.1610    23.2770     2.5020 
  263.5000   -11.3710    71.5730    18.8360    17.2880    19.4300    23.2290     2.5030 
  263.6250   -11.4360    73.8190    18.9420    17.3900    19.4880    23.2420     2.5000 
  263.7500   -11.5390    75.0440    18.9980    17.4450    19.6860    23.2530     2.4930 
  263.8750   -11.5860    75.2290    19.0100    17.4560    20.3420    23.2580     2.4850 
  264.0000   -11.5600    75.8050    19.0310    17.4770    21.0650    23.2580     2.4820 
  264.1250   -11.5360    75.2260    19.1540    17.5960    21.1980    23.2690     2.4850 
  264.2500   -11.4840    72.8680    19.4010    17.8360    21.1820    23.2840     2.4910 
  264.3750   -11.5140    70.2520    19.7370    18.1620    21.3990    23.2840     2.4980 
  264.5000   -11.6030    69.6050    20.0850    18.5000    21.9070    23.2620     2.4990 
  264.6250   -11.5370    71.5860    20.3490    18.7560    22.2130    23.2470     2.4970 
  264.7500   -11.4170    72.2940    20.5060    18.9090    22.2010    23.2420     2.4960 
  264.8750   -11.3880    71.0120    20.5790    18.9790    21.8370    23.2100     2.4970 
  265.0000   -11.4810    69.9570    20.6150    19.0150    22.3190    23.1070     2.5040 
  265.1250   -11.6240    72.9770    20.6740    19.0720    23.0060    22.9290     2.5160 
  265.2500   -11.6610    76.8580    20.7930    19.1880    22.7530    22.7980     2.5290 
  265.3750   -11.6100    77.9980    20.9900    19.3790    21.9010    22.7900     2.5410 
  265.5000   -11.6270    77.0400    21.2550    19.6360    21.5580    22.8590     2.5490 
  265.6250   -11.8320    77.2300    21.5430    19.9160    21.5240    22.9650     2.5520 
  265.7500   -12.0180    78.6200    21.7740    20.1400    21.6650    23.0540     2.5500 
  265.8750   -12.0900    80.1000    21.8790    20.2420    21.7180    23.0980     2.5440 
  266.0000   -12.1460    81.0510    21.8260    20.1910    21.2850    23.1460     2.5290 
  266.1250   -12.2330    80.5570    21.6190    19.9890    20.4490    23.2380     2.5060 
  266.2500   -12.2920    78.6690    21.3840    19.7610    19.9200    23.3240     2.4780 
  266.3750   -12.3380    75.8620    21.2650    19.6450    19.8270    23.3190     2.4570 
  266.5000   -12.3840    73.0260    21.3960    19.7730    20.3650    23.2460     2.4590 
  266.6250   -12.4250    71.2470    21.8580    20.2220    21.3180    23.1970     2.4850 
  266.7500   -12.4910    70.5680    22.4700    20.8160    22.2830    23.1350     2.5270 
  266.8750   -12.5750    71.5710    23.0120    21.3420    22.7490    22.9990     2.5650 
  267.0000   -12.6040    73.1680    23.2720    21.5940    22.5620    22.7810     2.5820 
  267.1250   -12.6080    75.5900    23.1030    21.4310    22.1180    22.6850     2.5790 
  267.2500   -12.7410    77.4630    22.6830    21.0230    22.2280    22.6640     2.5670 
  267.3750   -12.9700    76.7910    22.2000    20.5540    22.5020    22.6690     2.5580 
  267.5000   -13.1230    74.2520    21.7970    20.1620    22.2850    22.6790     2.5540 
  267.6250   -13.1290    73.8880    21.5440    19.9170    22.2730    22.7010     2.5500 
  267.7500   -13.1680    76.6600    21.3860    19.7630    23.0150    22.7210     2.5420 
  267.8750   -13.3410    78.4010    21.2680    19.6490    23.8920    22.7370     2.5300 
  268.0000   -13.6050    76.8970    21.1670    19.5500    24.1730    22.7600     2.5210 
  268.1250   -13.8370    73.9850    21.0940    19.4800    23.6020    22.7990     2.5180 
  268.2500   -13.9890    72.4250    21.0640    19.4500    22.3940    22.8690     2.5210 
  268.3750   -14.0590    72.2460    21.0740    19.4600    20.8440    22.9370     2.5250 
  268.5000   -14.1540    72.5250    21.1030    19.4880    19.1590    22.9980     2.5250 
  268.6250   -14.3800    73.0620    21.1140    19.4990    18.2730    23.0410     2.5230 
  268.7500   -14.6300    73.7330    21.0860    19.4720    18.1170    23.0630     2.5190 
  268.8750   -14.7700    73.3080    21.0200    19.4080    19.1340    22.9750     2.5170 
  269.0000   -14.8500    71.3000    20.9330    19.3240    20.7590    22.9080     2.5210 
  269.1250   -15.0240    69.4860    20.8620    19.2540    22.0860    22.9170     2.5280 
  269.2500   -15.2130    70.0410    20.8410    19.2340    22.2030    22.9720     2.5360 
  269.3750   -15.4020    72.6000    20.8920    19.2830    21.9900    23.0470     2.5410 
  269.5000   -15.6430    74.8960    21.0030    19.3920    21.0770    23.1260     2.5390 
  269.6250   -15.9300    74.8960    21.1280    19.5120    19.8280    23.2100     2.5320 
  269.7500   -16.1960    74.8960    21.1970    19.5790    19.7270    23.2510     2.5210 
  269.8750   -16.4660    74.8960    21.1690    19.5530    20.8150    23.2500     2.5080 
  270.0000   -16.7600    74.8960    21.0470    19.4340    22.3630    23.1950     2.4970 
  270.1250   -17.0940    74.8960    20.8860    19.2770    22.6230    23.0880     2.4930 
  270.2500   -17.5570    74.8960    20.7980    19.1930    21.8050    22.9640     2.4960 
  270.3750   -18.1110    74.8960    20.8650    19.2580    21.2380    22.9030     2.5080 
  270.5000   -18.6400    74.8960    21.1070    19.4920    21.5260    22.9800     2.5230 
  270.6250   -19.1020    74.8960    21.4800    19.8540    22.5520    23.2020     2.5350 
  270.7500   -19.6410    74.8960    21.8600    20.2240    23.6570    23.4270     2.5420 
  270.8750   -20.3440    74.8960    22.1720    20.5260    24.2810    23.5270     2.5420 
  271.0000   -21.0940    74.8960    22.3900    20.7370    24.3890    23.6220     2.5340 
  271.1250   -21.6810    74.8960    22.5160    20.8610    24.8630    23.3670     2.5230 
  271.2500   -22.0670    74.8960    22.5790    20.9220    28.1980    22.9330     2.5120 
  271.3750   -22.3340    74.8960    22.5670    20.9090    32.3190    22.5330     2.5090 
  271.5000   -22.5040    74.8960    22.4620    20.8080    34.8980    22.3440     2.5180 
  271.6250   -22.4470    74.8960    22.2720    20.6240    33.7700    22.2820     2.5340 
  271.7500   -22.0820    74.8960    22.0620    20.4190    28.1790    21.9650     2.5510 
  271.8750   -21.4200    74.8960    21.8800    20.2430    21.3100    21.1730     2.5570 
  272.0000   -20.5990    74.8960    21.7550    20.1210    17.6580    20.3700     2.5460 
  272.1250   -19.7710    74.8960    21.6910    20.0590    15.7180    19.8290     2.5260 
  272.2500   -18.8600    74.8960    21.6550    20.0240    14.0590    19.2410     2.5060 
  272.3750   -17.7700    74.8960    21.6200    19.9900    13.2630    18.7010     2.4930 
  272.5000   -16.5650    74.8960    21.5670    19.9390    12.9290    18.5080     2.4870 
  272.6250   -15.3460    74.8960    21.4930    19.8670    12.6080    18.6260     2.4840 
  272.7500   -14.1940    74.8960    21.4250    19.8010    12.6330    18.8320     2.4800 
  272.8750   -13.1560    74.8960    21.3860    19.7630    12.8720    19.0930     2.4750 
  273.0000   -12.2250    74.8960    21.3870    19.7640    13.0190    19.3160     2.4690 
  273.1250   -11.3490    74.8960    21.4190    19.7950    12.4970    19.3360     2.4660 
  273.2500   -10.6080    74.8960    21.4530    19.8280    12.2450    19.3190     2.4660 
  273.3750   -10.1040    74.8960    21.4740    19.8490    12.5140    19.1130     2.4700 
  273.5000    -9.8270    74.8960    21.4810    19.8550    13.1300    18.3990     2.4750 
  273.6250    -9.7120    74.8960    21.4820    19.8560    13.4190    17.6870     2.4820 
