~V
VERS. 2.00: Ver 2.00
~W
STRT.M 60.0000:
STOP.M 264.0000:
STEP.M 0.1250:
NULL. -999.2500:
UWI. DF303:
~C
DEPT.M :
DEN.GM/CC :
SP.MV :
AC.US/MT :
GR.API :
CALI.CM :
RXO.OHMM :
RI. :
RML.OHMM :
~A
# ...
  120.0000     2.3160   -21.7160   437.0700    88.6930    25.0500     5.5530     4.7000     4.8220 
  120.1250     2.3220   -21.1930   435.2770    93.2390    24.9200     5.6300     4.6190     4.7810 
  120.2500     2.3360   -20.7800   435.5660   103.7240    24.8880     5.6500     4.5520     4.7190 
  120.3750     2.3530   -20.4670   438.0520   109.3910    24.9850     5.5340     4.4670     4.6040 
  120.5000     2.3660   -20.2640   441.8330   102.7750    25.0640     5.3040     4.3670     4.4650 
  120.6250     2.3740   -20.1850   445.2050    92.6080    25.0820     5.0260     4.2790     4.3630 
  120.7500     2.3730   -20.1640   447.1490    89.6650    25.0750     5.0140     4.2120     4.3170 
  120.8750     2.3620   -20.1610   447.9290    89.2570    25.0270     5.0820     4.1580     4.3010 
  121.0000     2.3500   -20.2150   448.5730    89.0560    24.8980     5.0940     4.0970     4.2720 
  121.1250     2.3530   -20.3720   449.9100    93.8330    24.7030     5.0200     4.0110     4.1840 
  121.2500     2.3710   -20.6060   451.3830    99.5990    24.5990     4.8840     3.9160     4.0600 
  121.3750     2.3930   -20.9310   452.3040   101.3180    24.5180     4.8070     3.8520     3.9720 
  121.5000     2.4060   -21.3620   452.5090    98.3870    24.4180     4.8620     3.8780     4.0130 
  121.6250     2.3990   -21.8870   451.1010    93.0410    24.3440     5.0450     4.0760     4.3020 
  121.7500     2.3730   -22.5060   445.3850    85.6340    24.2840     5.3400     4.4360     4.8200 
  121.8750     2.3410   -23.2300   432.9080    77.2750    24.1650     5.7920     4.9170     5.5080 
  122.0000     2.3100   -23.9850   415.8400    71.8910    23.9130     6.4240     5.4380     6.2440 
  122.1250     2.2800   -24.7170   403.4590    72.8100    23.7010     7.0210     5.8710     6.8300 
  122.2500     2.2520   -25.4490   401.5720    76.4510    23.5060     7.3210     6.1580     7.1860 
  122.3750     2.2340   -26.1580   407.9680    78.5000    23.4770     7.3270     6.3210     7.3650 
  122.5000     2.2350   -26.7730   415.8860    77.9080    23.6880     7.4900     6.4220     7.4920 
  122.6250     2.2500   -27.2490   419.3690    75.7520    24.0780     8.0840     6.5200     7.6720 
  122.7500     2.2600   -27.5930   418.9450    72.3120    24.4120     8.7150     6.6240     7.8940 
  122.8750     2.2580   -27.7780   416.5880    68.3010    24.5810     9.0110     6.7210     8.0970 
  123.0000     2.2470   -27.8280   413.7450    64.2700    24.6240     9.0770     6.8270     8.2600 
  123.1250     2.2410   -27.7610   410.7300    61.9340    24.6310     9.2500     7.0440     8.4910 
  123.2500     2.2490   -27.5690   405.8870    61.8810    24.6420    10.1140     7.5020     8.9880 
  123.3750     2.2740   -27.2620   394.9880    62.7630    24.7080    12.9130     8.3390     9.9450 
  123.5000     2.3140   -26.8710   373.4990    62.8220    24.8760    18.9600     9.6750    11.5230 
  123.6250     2.3780   -26.4710   340.3310    61.3080    25.0940    27.2080    11.6340    13.9000 
  123.7500     2.4630   -26.1050   304.9960    60.3240    25.1830    33.4120    13.8880    16.6870 
  123.8750     2.5570   -25.8210   276.0040    60.5390    25.1980    36.2180    15.8260    19.0770 
  124.0000     2.6310   -25.6750   259.6980    62.0100    25.1960    36.7930    16.6000    19.8530 
  124.1250     2.6400   -25.6840   264.2290    65.1890    25.1690    34.7500    15.5030    18.0440 
  124.2500     2.5750   -25.8370   288.4710    68.6250    25.0420    27.0130    13.3800    15.0140 
  124.3750     2.4600   -26.1260   327.0730    70.4290    24.7500    17.0910    11.0900    12.0370 
  124.5000     2.3440   -26.5230   368.4140    69.9220    24.4040    10.6010     9.1940     9.8010 
  124.6250     2.2760   -26.9470   398.1320    68.9880    24.2960     8.6340     7.9790     8.5610 
  124.7500     2.2490   -27.3580   413.8850    68.3930    24.3430     8.4070     7.3030     8.0190 
  124.8750     2.2420   -27.7610   419.5430    68.1230    24.3760     8.5660     7.0510     7.9790 
  125.0000     2.2370   -28.1090   420.8260    68.4220    24.3080     8.6560     7.0810     8.2210 
  125.1250     2.2300   -28.3730   421.8310    68.7260    24.1760     8.5760     7.2430     8.5140 
  125.2500     2.2200   -28.5750   423.5310    69.9960    24.0870     8.4480     7.3990     8.6990 
  125.3750     2.2070   -28.7230   425.3500    72.0720    24.0570     8.3410     7.5050     8.7650 
  125.5000     2.1950   -28.8290   426.7820    73.5960    24.0520     8.2910     7.5650     8.7630 
  125.6250     2.1860   -28.9050   427.6620    73.0310    24.0540     8.3460     7.5990     8.7610 
  125.7500     2.1850   -28.9780   427.8650    70.4730    24.0540     8.4000     7.6360     8.8020 
  125.8750     2.1940   -29.0190   426.7420    66.8400    24.0550     8.4750     7.6880     8.8940 
  126.0000     2.2050   -29.0300   423.7860    63.3520    24.0510     8.6540     7.7510     9.0230 
  126.1250     2.2160   -29.0630   419.6740    63.9290    24.0360     8.8520     7.8000     9.1450 
  126.2500     2.2260   -29.1000   416.7400    66.7220    24.0100     8.9650     7.8060     9.2050 
  126.3750     2.2360   -29.1090   416.5050    66.7590    24.0270     9.0510     7.7520     9.1670 
  126.5000     2.2400   -29.1030   418.9480    63.1830    24.1610     9.1940     7.6620     9.0550 
  126.6250     2.2260   -29.1020   422.6870    62.7960    24.4200     9.3250     7.6450     9.0250 
  126.7500     2.2010   -29.0790   424.5890    64.8340    24.6660     9.4020     7.8340     9.2660 
  126.8750     2.1920   -29.0330   418.7720    63.3760    24.8570     9.4220     8.3320     9.9260 
  127.0000     2.2270   -28.9870   396.8050    57.2760    24.9630     9.3560     9.1720    11.0640 
  127.1250     2.3210   -28.9060   351.7360    53.8790    24.8980     9.0930    10.2510    12.5720 
  127.2500     2.4370   -28.8100   299.1240    56.5310    24.6720     8.7240    11.1740    13.8710 
  127.3750     2.5310   -28.7280   261.5060    60.8240    24.4200     8.5190    11.5440    14.2980 
  127.5000     2.5620   -28.6580   257.3270    64.5950    24.2040     8.6240    11.1720    13.5370 
  127.6250     2.5010   -28.5880   292.5350    70.0460    23.8860     8.8740    10.2090    11.9480 
  127.7500     2.3940   -28.5180   343.4520    75.2350    23.5430     8.8900     9.1710    10.4230 
  127.8750     2.2910   -28.4610   390.8220    74.9060    23.3580     8.6970     8.3270     9.3320 
  128.0000     2.2200   -28.4020   422.5540    68.1420    23.3090     8.5130     7.7740     8.7390 
  128.1250     2.1890   -28.2830   434.5480    63.8240    23.3090     8.4910     7.5270     8.5860 
  128.2500     2.1740   -28.0910   436.5980    66.1500    23.3090     8.5010     7.4510     8.6360 
  128.3750     2.1650   -27.8160   435.2030    69.6270    23.3090     8.3950     7.4600     8.7540 
  128.5000     2.1610   -27.4680   433.4970    67.9840    23.3090     8.2700     7.4770     8.8380 
  128.6250     2.1690   -27.0210   432.7520    63.4140    23.3180     8.2660     7.4140     8.7580 
  128.7500     2.1860   -26.4530   433.3110    62.2140    23.3810     8.2880     7.2100     8.4310 
  128.8750     2.2060   -25.7650   435.2890    64.9790    23.5290     8.2440     6.8540     7.8470 
  129.0000     2.2260   -24.9860   438.2370    70.6010    23.6540     8.0650     6.4340     7.1640 
  129.1250     2.2530   -24.1390   439.5800    75.5540    23.7350     7.6500     6.1770     6.7400 
  129.2500     2.3010   -23.2620   433.7550    77.9420    23.8780     7.1770     6.2690     6.8230 
  129.3750     2.3740   -22.4130   414.2470    77.1430    24.2100     7.5400     6.8190     7.5390 
  129.5000     2.4610   -21.6250   378.6830    74.9980    24.6860    10.0030     7.7940     8.8630 
  129.6250     2.5370   -20.9180   334.9020    73.6480    24.8260    14.2680     8.8660    10.3850 
  129.7500     2.5810   -20.3340   303.1290    76.7110    24.7510    17.3480     9.3720    11.0870 
  129.8750     2.5830   -19.8920   298.4710    88.0540    24.6620    16.7010     8.9050    10.2800 
