~V
VERS. 2.00: Ver 2.00
~W
STRT.M 56.0000:
STOP.M 296.0000:
STEP.M 0.1250:
NULL. -999.2500:
UWI. DF301:
~C
DEPT.M :
DEN.GM/CC :
SP.MV :
AC.US/MT :
GR.API :
CALI.CM :
RXO.OHMM :
RI. :
RML.OHMM :
~A
# ...
  216.0000     2.3260    -6.5820   431.6380    34.6170    25.3540     5.7680     5.9410     7.1630 
  216.1250     2.2950    -6.4580   429.4770    36.3050    26.0950     5.7350     5.8570     7.0960 
  216.2500     2.2130    -6.3360   427.1350    36.9820    28.1380     5.7190     5.8070     7.0650 
  216.3750     2.0870    -6.2570   422.6060    37.5240    30.9100     5.6530     5.7870     7.0540 
  216.5000     1.9580    -6.2220   416.4570    39.0370    32.6570     5.5780     5.7910     7.0460 
  216.6250     1.8870    -6.2120   412.7330    41.0330    32.3020     5.6480     5.8010     7.0260 
  216.7500     1.9090    -6.2010   417.7630    40.8010    30.5260     5.9320     5.7930     6.9770 
  216.8750     1.9520    -6.2120   430.2960    38.0040    28.3580     6.1790     5.7580     6.9020 
  217.0000     1.9360    -6.1990   444.2890    35.2490    27.2510     6.0930     5.6980     6.8040 
  217.1250     1.8290    -6.1410   451.1030    34.9590    27.5820     5.7360     5.6250     6.6950 
  217.2500     1.6780    -6.0860   442.8740    35.9700    28.5210     5.4500     5.5560     6.5850 
  217.3750     1.5680    -5.9890   425.3930    36.9660    28.6030     5.3090     5.5030     6.4890 
  217.5000     1.5340    -5.8720   407.1830    37.8090    27.6590     5.2060     5.4790     6.4310 
  217.6250     1.5740    -5.7920   395.8450    38.7420    25.9260     5.1690     5.5060     6.4490 
  217.7500     1.6790    -5.7710   396.3960    41.5510    23.9290     5.2620     5.6380     6.6170 
  217.8750     1.8180    -5.8010   404.0400    45.8420    22.8080     5.3880     5.8940     6.9400 
  218.0000     1.9770    -5.8370   412.1030    52.1200    22.5530     5.6870     6.2720     7.3890 
  218.1250     2.1370    -5.8820   414.1210    60.1350    22.8280     6.4280     6.7210     7.8730 
  218.2500     2.2610    -5.9400   407.3420    67.5490    23.3480     7.4430     7.0960     8.2120 
  218.3750     2.3270    -6.0470   398.0100    73.6730    23.9310     7.9640     7.2540     8.2910 
  218.5000     2.3340    -6.1200   391.8820    78.4440    24.5210     7.7420     7.1350     8.0900 
  218.6250     2.3020    -6.1470   392.0640    82.2320    25.1970     7.2250     6.7980     7.6940 
  218.7500     2.2610    -6.2040   397.9430    83.3100    25.8430     6.9040     6.3750     7.2510 
  218.8750     2.2270    -6.2380   404.5530    81.8530    25.8850     6.7220     6.0040     6.8910 
  219.0000     2.2010    -6.3400   408.8060    80.9490    25.8910     6.6060     5.7430     6.6670 
  219.1250     2.1940    -6.4700   409.4550    82.5130    25.9730     6.6240     5.6300     6.6150 
  219.2500     2.2190    -6.6060   406.6080    84.9870    25.7630     6.9070     5.7550     6.8460 
  219.3750     2.2600    -6.7710   401.8110    85.7450    25.2310     7.3160     6.1680     7.4160 
  219.5000     2.3020    -6.9750   395.5790    85.4880    24.7050     7.9580     6.9380     8.3820 
  219.6250     2.3380    -7.2330   388.2470    84.4850    24.4130     9.4420     8.0800     9.6950 
  219.7500     2.3640    -7.4580   380.4910    80.4220    24.3020    12.4730     9.4880    11.1190 
  219.8750     2.3870    -7.6760   374.0960    75.4690    24.2020    15.4110    10.7970    12.2750 
  220.0000     2.4140    -7.8800   371.1690    75.1710    24.1150    15.9510    11.7150    12.9510 
  220.1250     2.4410    -8.0930   373.1770    80.7010    24.0440    13.8790    12.1760    13.1790 
  220.2500     2.4410    -8.3020   380.0630    85.1010    24.0890    12.1460    12.3460    13.2320 
  220.3750     2.4130    -8.4680   388.2490    85.6630    24.2040    12.9390    12.5540    13.4630 
  220.5000     2.3790    -8.6160   395.0980    84.2940    24.2550    15.8120    12.9680    13.9880 
  220.6250     2.3510    -8.7340   399.2130    82.5290    24.2110    18.2350    13.5830    14.6830 
  220.7500     2.3210    -8.8730   400.3600    82.2550    24.1320    17.1260    14.1070    15.1160 
  220.8750     2.2820    -8.9760   400.2080    82.3350    24.0950    15.2200    14.1490    14.9920 
  221.0000     2.2530    -9.0600   400.1060    82.0960    24.0650    15.1000    13.5430    14.3050 
  221.1250     2.2560    -9.0630   400.9390    82.4800    24.0170    15.3980    12.4550    13.2520 
  221.2500     2.2940    -8.9990   402.5230    84.5070    24.0560    13.2880    11.3250    12.1750 
  221.3750     2.3430    -8.9660   403.4100    86.2440    24.1740    10.5990    10.5640    11.4850 
  221.5000     2.3760    -8.9190   402.4830    85.6100    24.2690     9.8300    10.3960    11.5190 
  221.6250     2.3770    -8.8560   399.6210    85.4420    24.2960    11.4090    10.9610    12.4570 
  221.7500     2.3490    -8.7140   395.6600    85.4330    24.2800    14.5590    12.4840    14.3730 
  221.8750     2.3310    -8.5720   391.3290    81.0330    24.2700    18.1350    14.7290    16.7710 
  222.0000     2.3440    -8.4640   386.1390    74.3460    24.2770    21.3250    17.2160    19.0010 
  222.1250     2.3810    -8.3780   379.5410    69.4300    24.3010    22.7940    19.0770    20.2880 
  222.2500     2.4150    -8.3470   372.7180    68.0780    24.3390    21.4940    19.2360    19.9250 
  222.3750     2.4260    -8.2740   368.7870    69.1720    24.3610    18.7600    18.0660    18.4660 
  222.5000     2.4170    -8.2310   369.8280    73.8050    24.3750    16.4860    16.3770    16.6810 
  222.6250     2.3970    -8.2230   375.5860    78.7640    24.3950    15.0300    14.9560    15.3310 
  222.7500     2.3730    -8.2890   383.4010    77.8830    24.3750    14.1460    14.4470    15.0970 
  222.8750     2.3490    -8.4070   389.8270    74.4050    24.3140    15.2530    14.9520    16.0120 
  223.0000     2.3240    -8.5200   393.8610    71.0330    24.2100    20.2990    16.5210    18.0150 
  223.1250     2.2980    -8.6170   395.9700    68.2990    24.1160    27.2750    19.0090    20.7950 
  223.2500     2.2790    -8.7430   397.0950    67.0580    23.9880    29.1470    21.8880    23.6510 
  223.3750     2.2710    -8.8600   397.8950    69.4220    23.8730    27.4910    24.2170    25.7590 
  223.5000     2.2670    -8.9810   398.2580    73.6000    23.8250    26.3780    25.4510    26.7630 
  223.6250     2.2560    -9.0570   397.6790    74.7960    23.9110    26.6310    25.6670    26.8570 
  223.7500     2.2440    -9.1230   395.1220    72.4990    24.0060    26.5530    25.4800    26.6860 
  223.8750     2.2480    -9.1670   390.7990    70.1820    24.1030    26.8920    25.5970    26.9240 
  224.0000     2.2680    -9.2150   386.0420    70.0140    24.1650    28.8760    26.2600    27.8010 
  224.1250     2.2860    -9.2700   383.1170    70.0490    24.1270    32.3020    27.4460    29.2530 
  224.2500     2.2780    -9.3950   384.5050    67.0720    23.9800    35.1070    28.9770    31.0320 
  224.3750     2.2540    -9.5260   389.2790    63.6660    23.8150    35.4380    30.5130    32.7640 
  224.5000     2.2330    -9.6610   394.9920    63.0910    23.6310    33.4090    31.8810    34.2790 
  224.6250     2.2280    -9.8070   397.4980    65.2100    23.3620    29.7770    33.0560    35.5590 
  224.7500     2.2450    -9.8860   390.3800    66.3830    22.9840    26.3190    34.1050    36.6430 
  224.8750     2.2830    -9.9750   373.1670    63.4640    22.5000    25.7970    35.0780    37.5420 
  225.0000     2.3440   -10.0830   350.1410    58.0840    22.2990    29.3030    35.8570    38.0980 
  225.1250     2.4130   -10.1430   330.5080    54.4560    22.4740    34.4880    36.2340    38.1040 
  225.2500     2.4390   -10.0980   326.8970    55.2660    23.0120    36.8560    35.9500    37.3540 
  225.3750     2.4040   -10.0880   339.3460    57.6040    23.6180    35.7470    35.1700    36.1110 
  225.5000     2.3350   -10.0690   360.8030    58.9310    24.2600    33.8080    34.1290    34.6600 
  225.6250     2.2770    -9.9620   380.6160    58.9040    24.8250    32.6510    33.0730    33.2730 
  225.7500     2.2570    -9.8940   389.4960    59.3210    25.0070    32.3940    32.1580    32.1060 
  225.8750     2.2550    -9.8360   389.6480    60.3100    24.9450    32.0350    31.2820    31.0040 
