~V
VERS. 2.00: Ver 2.00
~W
STRT.M 120.0000:
STOP.M 272.0000:
STEP.M 0.1250:
NULL. -999.2500:
UWI. DF3038:
~C
DEPT.M :
GR.API :
RML.OHMM :
RI. :
RXO.OHMM :
CALI.CM :
DEN.GM/CC :
SP.MV :
~A
# ...
  176.2500    67.9250   183.7640   150.7750   128.0310    24.2490     2.2820   -20.7110 
  176.3750    67.9360   200.1000   165.0270   161.4590    24.2700     2.2750   -20.5580 
  176.5000    67.6490   209.7130   174.4750   179.9450    24.5190     2.2660   -20.3140 
  176.6250    68.4820   204.3860   172.2670   176.6700    24.7810     2.2570   -20.1370 
  176.7500    70.2180   184.8920   158.3440   179.3470    24.8610     2.2540   -20.0150 
  176.8750    72.3200   156.1280   135.9160   175.9700    24.8420     2.2600   -19.9200 
  177.0000    75.6490   126.0710   111.0410   152.6160    24.7900     2.2750   -19.8620 
  177.1250    78.6770   102.5950    90.4370    93.9130    24.9030     2.2940   -19.7240 
  177.2500    78.7060    87.0030    76.1660    57.1020    24.9420     2.3120   -19.6950 
  177.3750    75.7950    78.4440    67.9670    48.5060    24.9490     2.3230   -19.6750 
  177.5000    73.1660    75.1830    64.5210    51.2590    24.9510     2.3270   -19.8260 
  177.6250    74.3900    75.6900    64.5700    57.0050    24.9200     2.3230   -19.9190 
  177.7500    76.7680    77.6560    66.0740    61.5780    24.7960     2.3170   -20.0670 
  177.8750    78.2280    79.9730    68.0210    64.4620    24.5970     2.3110   -20.2290 
  178.0000    78.4180    82.0670    69.8170    64.5330    24.3920     2.3050   -20.4060 
  178.1250    77.3340    83.9410    71.3200    63.2700    24.2640     2.3010   -20.6150 
  178.2500    76.0460    86.0840    72.8630    62.2850    24.2190     2.2970   -20.7410 
  178.3750    75.3560    88.9280    74.7790    62.9160    24.2550     2.2940   -20.8310 
  178.5000    75.9390    92.7260    77.2850    65.3330    24.3650     2.2940   -20.8390 
  178.6250    76.3560    97.6020    80.5150    70.3430    24.5400     2.2940   -20.8070 
  178.7500    75.7680   103.0890    84.2030    75.0740    24.7150     2.2910   -20.7110 
  178.8750    75.5900   108.7320    88.0930    80.4870    24.8880     2.2820   -20.6150 
  179.0000    75.3630   113.9880    91.8690    87.1180    25.0340     2.2640   -20.4910 
  179.1250    73.2050   118.0740    95.0510    92.1600    25.0870     2.2420   -20.5060 
  179.2500    71.9680   120.6880    97.3550    96.1520    25.1020     2.2240   -20.5340 
  179.3750    74.7930   121.7240    98.6030    97.7690    25.1100     2.2150   -20.6210 
  179.5000    80.2560   121.4950    98.8870    97.2590    25.1220     2.2180   -20.6680 
  179.6250    81.9820   120.7610    98.6090    95.3610    25.0920     2.2310   -20.8100 
  179.7500    79.7750   120.4510    98.4410    93.4370    25.0460     2.2480   -20.9460 
  179.8750    76.8920   120.7250    98.5470    90.7640    25.0200     2.2650   -21.1320 
  180.0000    77.1520   120.7850    98.4310    88.2110    25.1010     2.2790   -21.2970 
  180.1250    79.6440   118.2410    96.4130    88.2500    25.1550     2.2890   -21.3840 
  180.2500    79.0960   111.4260    91.2360    89.5000    25.1780     2.2980   -21.5320 
  180.3750    75.1020   100.0560    82.5630    89.4960    25.1780     2.3070   -21.6110 
  180.5000    73.5740    86.0350    71.6400    87.1520    25.1790     2.3180   -21.7970 
  180.6250    78.3990    73.5830    61.4820    79.8080    25.1930     2.3300   -21.8610 
  180.7500    82.2660    66.3110    55.0340    62.4190    25.2250     2.3380   -21.9680 
  180.8750    82.0940    66.6280    54.4680    42.1550    25.2560     2.3360   -22.0290 
  181.0000    79.8300    76.1840    61.4500    35.6860    25.2770     2.3230   -22.1020 
  181.1250    76.6310    96.9280    78.0160    53.3980    25.3000     2.3010   -22.1570 
  181.2500    70.3530   124.7310   100.9830    88.0000    25.3180     2.2770   -22.1060 
  181.3750    62.5440   153.9860   125.7830   129.1070    25.3210     2.2560   -22.1040 
  181.5000    58.9080   176.7970   145.8110   165.5500    25.3020     2.2420   -22.0230 
  181.6250    60.3260   182.9390   152.5260   194.3990    25.2790     2.2400   -22.0150 
  181.7500    64.1070   173.7640   146.5870   187.5930    25.2520     2.2470   -21.9530 
  181.8750    68.7840   155.6130   132.5880   151.6350    25.2120     2.2600   -21.8490 
  182.0000    74.8590   136.4170   116.7250   116.5930    25.1840     2.2740   -21.7240 
  182.1250    79.5230   121.9240   103.9970    98.3760    25.1780     2.2850   -21.6360 
  182.2500    79.0770   112.5070    95.3450    90.5300    25.1780     2.2920   -21.5590 
  182.3750    77.0630   107.3640    90.3610    84.4740    25.1780     2.2940   -21.4880 
  182.5000    78.5310   105.2040    88.0990    78.5990    25.1780     2.2940   -21.3820 
  182.6250    82.1380   104.7100    87.5780    75.2950    25.1780     2.2900   -21.2880 
  182.7500    82.7310   104.3170    87.4410    76.6830    25.1780     2.2850   -21.1720 
  182.8750    81.4840   103.3060    87.0020    80.8900    25.1780     2.2800   -21.1240 
  183.0000    82.3830   101.5090    85.9670    83.7760    25.1780     2.2780   -21.0830 
  183.1250    82.7500    99.4020    84.5160    84.3160    25.1760     2.2790   -21.0590 
  183.2500    80.8090    98.0710    83.4490    80.9940    25.1580     2.2840   -21.1470 
  183.3750    79.5870    98.6700    83.7060    76.1080    25.1110     2.2930   -21.2080 
  183.5000    80.5750   102.3810    86.3160    74.3010    25.0660     2.3050   -21.3940 
  183.6250    79.0930   111.0080    92.8340    78.2570    25.0950     2.3140   -21.4950 
  183.7500    74.1280   124.3020   103.1480    86.8860    25.1770     2.3160   -21.6780 
  183.8750    70.7940   141.6260   116.7900   101.4000    25.2380     2.3080   -21.7930 
  184.0000    70.3970   161.1130   132.2940   129.1930    25.2690     2.2910   -21.9130 
  184.1250    69.6530   179.0980   146.7740   153.4260    25.2980     2.2720   -21.9220 
  184.2500    68.4990   192.1590   157.4780   178.1470    25.3160     2.2570   -21.8310 
  184.3750    69.7090   198.4160   162.8410   200.0390    25.3130     2.2500   -21.7160 
  184.5000    72.4040   198.1600   162.9330   188.4770    25.2960     2.2520   -21.5470 
  184.6250    71.1630   193.5810   159.2750   162.7910    25.3090     2.2610   -21.3960 
  184.7500    68.1840   188.8170   155.2140   152.0470    25.3190     2.2710   -21.2080 
  184.8750    68.5020   186.1630   152.7530   148.9830    25.3230     2.2800   -21.0710 
  185.0000    72.2050   186.9450   153.1430   146.6250    25.3210     2.2840   -20.9610 
  185.1250    73.9890   192.3480   157.5230   147.7860    25.3190     2.2840   -21.0050 
  185.2500    72.6140   201.2270   165.0000   159.3910    25.3230     2.2790   -21.0740 
  185.3750    71.3710   212.1950   174.4540   174.6300    25.3320     2.2700   -21.2250 
  185.5000    69.5550   223.1110   184.1550   183.8530    25.3360     2.2600   -21.3400 
  185.6250    66.5770   230.3090   191.2100   202.5190    25.3380     2.2520   -21.5240 
  185.7500    64.2710   231.0740   193.3300   238.7700    25.3400     2.2500   -21.6450 
  185.8750    62.8440   223.4160   188.7270   225.5110    25.3380     2.2530   -21.7010 
  186.0000    62.2950   207.1790   176.9430   173.7710    25.3380     2.2600   -21.6690 
  186.1250    64.2180   184.6470   159.2110   155.5790    25.3380     2.2700   -21.6000 
  186.2500    68.1060   162.7200   140.9520   155.3920    25.2980     2.2800   -21.4590 
  186.3750    70.5250   147.0000   126.9780   140.8730    25.1700     2.2900   -21.3170 
  186.5000    70.5910   141.6030   121.2970   107.4400    24.9690     2.2960   -21.1750 
  186.6250    70.1320   150.9760   128.3470    94.1900    24.9150     2.2960   -20.8910 
  186.7500    69.6570   172.8510   146.5250   118.3560    24.8890     2.2890   -20.7810 
  186.8750    69.1830   204.1220   173.2570   175.9910    24.7740     2.2770   -20.6900 
  187.0000    67.8200   238.4880   203.1730   249.2900    24.7810     2.2640   -20.7050 
  187.1250    66.3200   264.9050   227.0200   293.1340    24.9200     2.2550   -20.6880 
  187.2500    65.9040   276.0590   238.4980   270.8970    25.0670     2.2490   -20.7570 
  187.3750    68.0870   270.5070   236.0070   236.0090    25.1050     2.2470   -20.7610 
