~V
VERS. 2.00: Ver 2.00
~W
STRT.M 56.0000:
STOP.M 263.0000:
STEP.M 0.1250:
NULL. -999.2500:
UWI. DF3034:
~C
DEPT.M :
DEN.GM/CC :
GR.API :
RML.OHMM :
RI. :
RXO.OHMM :
CALI.CM :
SP.MV :
~A
# ...
  168.5000     2.2810    99.5620    11.5590     9.4250    10.5820    24.5620   -15.0570 
  168.6250     2.2840   100.4460    11.5410     9.4710    11.2440    24.5590   -15.3520 
  168.7500     2.2930    98.0070    11.4180     9.4100    11.3700    24.5600   -15.6400 
  168.8750     2.3030    96.1480    11.3340     9.3370    11.1290    24.5670   -15.9790 
  169.0000     2.3090    97.2620    11.4490     9.3770    11.1420    24.5820   -16.3820 
  169.1250     2.3070   100.4740    11.9730     9.6920    11.6430    24.6010   -16.8530 
  169.2500     2.2980   103.2950    12.8370    10.3150    12.9030    24.6280   -17.3740 
  169.3750     2.2870   103.2510    13.9960    11.2760    15.1560    24.6570   -17.9530 
  169.5000     2.2800    98.5760    15.5590    12.6150    18.4920    24.6730   -18.6030 
  169.6250     2.2780    92.9530    17.8760    14.5990    22.2800    24.6760   -19.2760 
  169.7500     2.2770    91.7060    21.7070    17.5640    26.0200    24.6760   -20.0320 
  169.8750     2.2700    92.7600    27.8760    22.1460    31.3830    24.6770   -20.7960 
  170.0000     2.2530    90.3660    37.2010    29.0630    40.8070    24.6660   -21.5880 
  170.1250     2.2290    83.2440    50.6630    39.2010    58.7130    24.5720   -22.3540 
  170.2500     2.2080    78.3890    65.6010    51.5330    84.4800    24.4680   -23.1410 
  170.3750     2.1970    78.1220    81.2780    64.4500   114.0510    24.5220   -23.8830 
  170.5000     2.1980    77.9560    94.8840    75.7350   135.5420    24.6010   -24.5910 
  170.6250     2.2080    75.6350   102.9640    82.8140   139.4800    24.3060   -25.2410 
  170.7500     2.2200    74.9220   106.2420    86.2080   126.2510    24.0710   -25.8540 
  170.8750     2.2280    77.0630   107.3160    87.7080   111.9230    23.9820   -26.4220 
  171.0000     2.2310    78.2220   109.6160    89.8440   104.1560    23.9730   -26.9350 
  171.1250     2.2280    74.2940   116.5500    95.3930   101.8250    23.9730   -27.4150 
  171.2500     2.2240    69.9750   128.0750   104.6040   107.8790    23.9730   -27.8350 
  171.3750     2.2180    69.0510   142.6160   116.4570   119.4060    23.9730   -28.2230 
  171.5000     2.2120    70.0600   156.8100   128.5520   131.6680    23.9730   -28.5090 
  171.6250     2.2080    70.1280   164.8400   136.6660   137.7420    23.9750   -28.8090 
  171.7500     2.2070    67.7410   164.0710   138.5100   135.0050    23.9790   -28.9950 
  171.8750     2.2120    65.8090   155.1110   133.8990   130.2570    23.9730   -29.1630 
  172.0000     2.2230    67.0790   142.1860   125.2330   127.0900    23.9290   -29.2600 
  172.1250     2.2360    70.2570   131.7870   117.1890   121.3610    23.9030   -29.3410 
  172.2500     2.2450    72.3530   127.8260   113.9040   107.4770    23.8890   -29.3790 
  172.3750     2.2470    71.9150   131.9780   117.5600    97.8500    23.8770   -29.3940 
  172.5000     2.2430    70.6350   144.4760   128.6420   100.2940    23.8680   -29.4620 
  172.6250     2.2340    70.4770   164.0140   146.1930   124.1110    23.8610   -29.4980 
  172.7500     2.2260    71.2580   184.3010   164.9990   147.6940    23.8510   -29.5870 
  172.8750     2.2220    71.6470   199.8160   179.9880   163.5090    23.8410   -29.6660 
  173.0000     2.2260    69.7590   204.8490   186.5790   168.8590    23.8360   -29.7850 
  173.1250     2.2400    68.3110   198.2620   181.2640   175.6640    23.8370   -29.8860 
  173.2500     2.2610    69.1950   185.4540   168.7130   168.7310    23.8420   -30.0260 
  173.3750     2.2820    71.2890   174.3150   154.3420   154.7290    23.8620   -30.1530 
  173.5000     2.2920    73.2350   169.8770   143.4880   141.2460    23.8960   -30.2920 
  173.6250     2.2840    73.0150   167.3040   141.2380   131.0890    23.9810   -30.3530 
  173.7500     2.2630    70.5480   174.2540   147.3190   128.1460    24.1420   -30.4530 
  173.8750     2.2370    67.0230   187.9250   159.8080   136.9110    24.4130   -30.5310 
  174.0000     2.2170    65.5970   202.9080   174.3800   154.3910    24.6580   -30.5910 
  174.1250     2.2110    67.2300   210.0270   183.5370   168.1190    24.7360   -30.6010 
  174.2500     2.2180    68.4010   204.1370   182.3980   173.4450    24.7230   -30.5880 
  174.3750     2.2340    68.2720   185.2850   169.8860   166.9700    24.6920   -30.6110 
  174.5000     2.2510    67.5260   159.3500   149.4250   151.5390    24.6780   -30.6150 
  174.6250     2.2640    67.9940   135.3860   127.7430   124.9170    24.6890   -30.7080 
  174.7500     2.2680    70.2800   118.3680   110.7140    95.6000    24.7190   -30.7590 
  174.8750     2.2630    73.1840   109.4960   100.6990    77.0160    24.7590   -30.8590 
  175.0000     2.2500    73.7760   108.7900    98.4450    71.0670    24.7980   -30.9510 
  175.1250     2.2310    71.4680   117.7220   105.5450    78.3900    24.8240   -31.1060 
  175.2500     2.2130    69.1930   135.5530   120.9900    85.7430    24.8470   -31.2410 
  175.3750     2.1980    66.6690   163.0710   145.0050    96.5950    24.8870   -31.3610 
  175.5000     2.1880    63.7450   200.5470   177.2280   109.8380    24.9300   -31.4700 
  175.6250     2.1810    60.4250   247.5560   216.5730   140.9570    24.9730   -31.5510 
  175.7500     2.1740    57.9940   297.7050   257.6410   165.4880    24.9930   -31.5760 
  175.8750     2.1680    56.9280   343.8680   294.9290   188.7660    24.9990   -31.5340 
  176.0000     2.1640    58.3010   378.1550   322.7250   213.8170    24.9990   -31.4570 
  176.1250     2.1640    60.9960   391.3210   334.3520   221.5270    24.9980   -31.3450 
  176.2500     2.1680    61.6930   385.9480   331.6800   217.2160    24.9990   -31.2290 
  176.3750     2.1760    62.2280   366.6050   317.7090   205.5920    25.0010   -31.0900 
  176.5000     2.1860    65.1730   339.5940   296.9090   192.1120    25.0050   -31.0000 
  176.6250     2.1980    68.3880   310.3960   273.4910   185.1810    25.0070   -30.8910 
  176.7500     2.2100    70.0040   282.3500   250.5980   179.2220    25.0130   -30.8590 
  176.8750     2.2180    69.6140   256.1490   229.0580   169.4670    25.0370   -30.8230 
  177.0000     2.2220    67.6580   231.8290   208.9750   159.1780    25.0990   -30.8410 
  177.1250     2.2230    65.6340   210.2550   190.9210   150.6840    25.1630   -30.8500 
  177.2500     2.2260    65.4100   192.4300   175.6710   144.1250    25.1990   -30.8720 
  177.3750     2.2310    66.5990   180.0320   164.7410   142.6320    25.1580   -30.9110 
  177.5000     2.2360    66.7800   174.6100   159.7120   139.4990    25.0520   -30.9140 
  177.6250     2.2380    67.2220   178.2680   162.8350   130.1790    24.9770   -30.8900 
  177.7500     2.2350    68.0560   188.4640   172.2570   122.7850    24.9050   -30.8410 
  177.8750     2.2300    66.1450   201.5320   185.0090   121.8850    24.8480   -30.8240 
  178.0000     2.2270    60.8900   211.7410   196.1000   124.8380    24.7880   -30.7680 
  178.1250     2.2280    59.4570   210.6220   197.8300   126.9690    24.7190   -30.6840 
  178.2500     2.2320    63.4340   196.5330   187.8200   135.7010    24.6750   -30.5570 
  178.3750     2.2380    67.0680   172.5500   167.6800   143.6690    24.7400   -30.3980 
  178.5000     2.2460    67.1810   145.8590   143.0410   139.3510    24.7700   -30.1880 
  178.6250     2.2560    67.1890   124.7080   121.5510   105.3360    24.7170   -30.0280 
  178.7500     2.2670    70.3190   111.6970   107.0920    71.2930    24.6850   -29.8030 
  178.8750     2.2770    73.3710   107.3170   100.8700    59.0730    24.6700   -29.5650 
  179.0000     2.2840    74.1760   111.6520   103.2000    67.9070    24.6660   -29.3150 
  179.1250     2.2830    73.8300   127.0560   116.0540    94.2410    24.6660   -29.0940 
  179.2500     2.2720    73.9650   153.1820   138.4630   117.7720    24.6660   -28.8850 
  179.3750     2.2520    72.8920   190.0710   169.7970   139.7370    24.6670   -28.6900 
  179.5000     2.2290    69.6630   235.0500   207.0660   167.3300    24.6700   -28.5460 
  179.6250     2.2050    67.0640   280.5070   243.0800   202.1390    24.6880   -28.3080 
