~V
VERS. 2.00: Ver 2.00
~W
STRT.M 64.0000:
STOP.M 262.0000:
STEP.M 0.1250:
NULL. -999.2500:
UWI. DF3019:
~C
DEPT.M :
GR.API :
RML.OHMM :
RI. :
RXO.OHMM :
CALI.CM :
DEN.GM/CC :
SP.MV :
~A
# ...
  154.0000    81.9790    86.3080    74.6390    77.9640    23.9110     2.2380   -24.8700 
  154.1250    79.8860    94.0770    81.6050    82.8220    23.9150     2.2260   -24.7220 
  154.2500    78.0020   101.1640    87.7030    88.0430    23.9130     2.2240   -24.5740 
  154.3750    76.3020   108.5680    93.7930    94.8770    23.9090     2.2290   -24.4760 
  154.5000    75.2620   116.8200   100.4080   102.6330    23.9110     2.2360   -24.3510 
  154.6250    76.0440   125.7070   107.5350   111.2350    23.9090     2.2410   -24.2120 
  154.7500    78.2770   134.0090   114.3670   119.8450    23.9130     2.2410   -24.1460 
  154.8750    79.4170   140.3580   119.9120   130.5880    23.9160     2.2400   -24.0490 
  155.0000    79.6830   143.4850   123.2070   140.6230    23.9150     2.2390   -24.0700 
  155.1250    81.2070   141.8450   123.1660   139.2330    23.9170     2.2390   -24.1190 
  155.2500    83.2470   136.7280   120.2860   130.4980    23.9160     2.2430   -24.1370 
  155.3750    83.6480   128.7870   114.8870   116.5530    23.9150     2.2490   -24.2150 
  155.5000    80.7240   119.5320   107.2610   102.1830    23.9020     2.2600   -24.3510 
  155.6250    76.8020   108.5640    97.4480    92.0220    23.8540     2.2750   -24.4990 
  155.7500    75.7610    97.9780    86.4850    86.3820    23.7920     2.2930   -24.6620 
  155.8750    78.2380    88.0690    75.4680    82.4700    23.7500     2.3080   -24.9120 
  156.0000    81.5150    76.7720    65.6330    70.6500    23.7450     2.3170   -25.0590 
  156.1250    80.6360    68.0640    58.2970    54.7500    23.7690     2.3180   -25.1440 
  156.2500    78.8550    62.3530    53.3330    46.9600    23.8020     2.3120   -25.3520 
  156.3750    80.9290    59.2690    50.5540    48.3510    23.8150     2.3050   -25.4400 
  156.5000    86.0100    58.6370    49.8480    51.8500    23.8160     2.3000   -25.4680 
  156.6250    87.6730    61.1830    51.8150    54.3710    23.8140     2.2970   -25.5460 
  156.7500    85.2900    67.0390    56.5560    56.5180    23.8080     2.2930   -25.5260 
  156.8750    81.1360    76.6510    64.4650    59.8030    23.8020     2.2860   -25.5240 
  157.0000    77.3040    90.0180    75.5830    71.3560    23.8250     2.2800   -25.5650 
  157.1250    74.4280   106.7490    89.5980   103.0830    23.8580     2.2800   -25.6420 
  157.2500    73.5850   124.8690   104.7700   131.7950    23.8830     2.2870   -25.6720 
  157.3750    74.8920   143.1100   119.9560   137.3410    23.8850     2.2970   -25.7160 
  157.5000    76.5250   160.6290   134.4600   124.2490    23.8740     2.3030   -25.8090 
  157.6250    75.0500   176.4400   147.6910   115.6320    23.8670     2.2980   -25.9030 
  157.7500    72.0420   189.2270   158.8910   126.9310    23.9420     2.2870   -26.0020 
  157.8750    71.4770   196.3430   166.1350   156.7330    24.1350     2.2780   -26.0690 
  158.0000    72.7810   194.8180   166.9730   181.9510    24.3700     2.2760   -26.0780 
  158.1250    72.1840   182.0300   158.7470   169.1030    24.4400     2.2800   -26.0660 
  158.2500    70.8960   162.8570   144.5700   129.8890    24.3020     2.2820   -26.0230 
  158.3750    71.3650   142.4150   128.1930    86.1080    24.1680     2.2760   -25.9670 
  158.5000    72.5960   124.6860   113.1220    64.2360    24.2790     2.2640   -25.8890 
  158.6250    72.0230   111.4180   101.4700    63.5900    24.5380     2.2510   -25.7410 
  158.7500    70.6890   100.6390    92.1040    72.5750    24.6510     2.2440   -25.6540 
  158.8750    70.4650    90.8700    83.8110    79.2730    24.6490     2.2470   -25.5530 
  159.0000    71.5240    81.5810    75.9600    76.8210    24.6190     2.2610   -25.4860 
  159.1250    73.7260    74.0270    69.3650    71.6420    24.6030     2.2830   -25.4810 
  159.2500    75.9930    70.0510    65.6150    61.3800    24.5930     2.3030   -25.4590 
  159.3750    78.0830    71.6790    66.6790    50.4460    24.5880     2.3110   -25.4400 
  159.5000    77.8130    80.5280    74.3450    51.5740    24.5860     2.3000   -25.4550 
  159.6250    72.7440    98.5500    90.8320    72.9680    24.5760     2.2740   -25.4910 
  159.7500    67.3040   123.2250   113.9040   112.8230    24.5480     2.2460   -25.4650 
  159.8750    65.3390   151.5030   140.5740   173.4270    24.5090     2.2290   -25.4020 
  160.0000    66.0650   178.8520   166.2940   226.5980    24.4560     2.2270   -25.3460 
  160.1250    65.9910   198.8730   184.7320   218.7780    24.3830     2.2360   -25.2170 
  160.2500    66.0970   209.5080   193.9910   177.0710    24.2390     2.2420   -25.0500 
  160.3750    67.1990   211.0540   194.5010   152.0830    24.0670     2.2400   -24.9600 
  160.5000    67.7920   205.5680   188.3620   151.4620    24.0080     2.2300   -24.7230 
  160.6250    67.4450   195.1550   177.6430   165.2570    24.1860     2.2190   -24.5860 
  160.7500    67.8820   183.1580   165.4370   175.7860    24.4160     2.2120   -24.4270 
  160.8750    69.7580   171.8890   153.7910   150.8540    24.5330     2.2120   -24.2780 
  161.0000    72.5880   164.3350   144.8170   108.6040    24.5440     2.2180   -24.1680 
  161.1250    74.8170   163.6990   141.8160    98.3260    24.5280     2.2240   -24.0470 
  161.2500    73.6520   171.0580   146.2360    97.7360    24.5200     2.2260   -24.0270 
  161.3750    68.5450   186.3730   159.8820   101.7230    24.5180     2.2240   -23.9980 
  161.5000    63.4540   211.5300   184.1010    99.6400    24.5180     2.2170   -24.1190 
  161.6250    62.9620   244.2610   220.2980   110.8770    24.4980     2.2110   -24.2100 
  161.7500    65.0560   282.1550   262.9320   134.1300    24.4490     2.2090   -24.4640 
  161.8750    66.6330   323.5490   304.9670   164.6120    24.3930     2.2100   -24.7030 
  162.0000    66.0670   358.9240   337.3650   182.6450    24.3650     2.2100   -25.0470 
  162.1250    63.0170   372.0740   348.8000   175.6550    24.3390     2.2050   -25.4370 
  162.2500    61.3910   364.7920   341.0370   162.0520    24.2850     2.1990   -25.8550 
  162.3750    64.6210   344.0980   320.2660   149.5050    24.2260     2.1950   -26.3600 
  162.5000    69.8750   319.8060   295.4210   145.6070    24.1980     2.1960   -26.7430 
  162.6250    69.2450   300.9370   275.1550   132.1340    24.2240     2.2030   -27.2470 
  162.7500    63.8230   291.0360   263.2270   127.5690    24.2970     2.2080   -27.6530 
  162.8750    60.0360   292.2700   261.7170   144.1570    24.3930     2.2050   -28.0950 
  163.0000    60.5120   306.7070   272.3510   176.4500    24.4820     2.1900   -28.4770 
  163.1250    61.6050   339.4930   299.3040   209.0270    24.6020     2.1680   -28.8020 
  163.2500    60.4890   389.5110   341.0070   235.5940    24.7180     2.1510   -29.1080 
  163.3750    58.4780   455.0690   395.5630   264.3560    24.7510     2.1450   -29.2730 
  163.5000    56.3590   529.8900   457.4680   279.3380    24.7010     2.1500   -29.5080 
  163.6250    55.9980   600.0160   515.3650   276.2170    24.6370     2.1600   -29.4690 
  163.7500    57.2240   650.3160   557.5160   273.8130    24.6110     2.1690   -29.3950 
  163.8750    58.1400   670.9210   576.4060   283.9630    24.6080     2.1730   -29.2120 
  164.0000    57.7420   660.7510   571.1250   296.8430    24.6120     2.1750   -29.0140 
  164.1250    56.4940   626.0580   546.0140   299.6390    24.6160     2.1780   -28.7320 
  164.2500    56.3470   583.2840   513.8360   292.5840    24.6100     2.1820   -28.4130 
  164.3750    57.1490   538.3660   480.0910   285.1630    24.6060     2.1860   -28.0980 
  164.5000    58.4100   491.2130   445.1320   279.4580    24.6040     2.1880   -27.7380 
  164.6250    60.2640   435.6300   403.6510   269.0060    24.6030     2.1860   -27.4790 
  164.7500    61.2750   369.6660   352.0440   255.5720    24.6040     2.1840   -27.2380 
  164.8750    61.1540   296.0770   290.4810   242.6160    24.5900     2.1850   -27.0560 
  165.0000    60.9130   225.1890   224.6060   220.6470    24.5480     2.1940   -26.8290 
  165.1250    60.7500   167.5750   165.5830   173.9960    24.4780     2.2120   -26.6760 
