~V
VERS. 2.00: Ver 2.00
~W
STRT.M 120.0000:
STOP.M 271.0000:
STEP.M 0.1250:
NULL. -999.2500:
UWI. DF3037:
~C
DEPT.M :
GR.API :
RML.OHMM :
RI. :
RXO.OHMM :
CALI.CM :
SP.MV :
DEN.GM/CC :
AC.US/MT :
~A
# ...
  260.0000    68.3270    13.6260    12.8420    20.4130    24.4380    -9.9900     2.4880   275.2980 
  260.1250    67.3850    13.8050    13.1210    19.3710    24.4560    -9.9570     2.4690   274.7420 
  260.2500    67.3850    14.0560    13.4360    18.8230    24.4580    -9.9080     2.4420   273.8970 
  260.3750    67.3850    14.4180    13.7620    18.5320    24.4420    -9.8640     2.4210   273.6190 
  260.5000    67.3850    14.8870    14.0820    18.5000    24.4070    -9.8380     2.4180   273.7600 
  260.6250    67.3850    15.3860    14.3920    18.3700    24.3760    -9.8240     2.4340   273.7440 
  260.7500    67.3850    15.8180    14.6940    18.5740    24.2940    -9.8440     2.4610   273.3260 
  260.8750    67.3850    16.1670    14.9900    18.8220    24.1200    -9.8130     2.4860   272.4350 
  261.0000    67.3850    16.4110    15.2830    18.9960    23.9450    -9.8130     2.5010   270.5980 
  261.1250    67.3850    16.5280    15.5740    19.3330    23.8280    -9.8070     2.5100   267.4710 
  261.2500    67.3850    16.6020    15.8600    19.5440    23.7430    -9.8710     2.5190   263.4660 
  261.3750    67.3850    16.7080    16.1290    20.0040    23.6510    -9.9170     2.5320   259.8880 
  261.5000    67.3850    16.8730    16.3670    18.8970    23.5920    -9.9540     2.5440   258.9250 
  261.6250    67.3850    17.1710    16.5460    20.2500    23.5410    -9.9660     2.5480   261.1810 
  261.7500    67.3850    17.4780    16.6650    21.3220    23.4590    -9.9380     2.5400   266.0330 
  261.8750    67.3850    17.6320    16.7320    21.3720    23.3700    -9.9340     2.5230   271.7420 
  262.0000    67.3850    17.6650    16.7650    20.6830    23.3710    -9.8990     2.5090   275.8720 
  262.1250    67.3850    17.6910    16.7910    20.3470    23.4830    -9.9020     2.5030   277.4900 
  262.2500    67.3850    17.7340    16.8340    20.7760    23.6270    -9.8560     2.5060   276.7140 
  262.3750    67.3850    17.8110    16.9110    21.4160    23.7460    -9.8190     2.5100   274.1520 
  262.5000    67.3850    17.9340    17.0340    22.3760    23.8490    -9.7950     2.5070   270.6680 
  262.6250    67.3850    18.1310    17.2310    21.3440    23.9330    -9.7720     2.4950   267.0590 
  262.7500    67.3850    18.4090    17.5090    19.0380    24.0040    -9.7550     2.4770   263.3450 
  262.8750    67.3850    18.7660    17.8660    17.8960    24.0660    -9.7660     2.4580   259.2040 
  263.0000    67.3850    19.1730    18.2730    17.9490    24.1480    -9.8070     2.4490   254.3340 
  263.1250    67.3850    19.5560    18.6560    18.3530    24.1630    -9.8160     2.4530   249.4180 
  263.2500    67.3850    19.8290    18.9290    18.6880    24.1430    -9.8410     2.4730   245.7370 
  263.3750    67.3850    19.9280    19.0280    18.7070    24.0810    -9.8790     2.5050   244.7500 
  263.5000    67.3850    19.8320    18.9320    18.2560    23.9960    -9.9050     2.5390   247.7190 
  263.6250    67.3850    19.5530    18.6530    17.5900    23.9060    -9.9380     2.5640   253.1390 
  263.7500    67.3850    19.2040    18.3040    17.3740    23.8370    -9.9230     2.5750   259.1490 
  263.8750    67.3850    18.8720    17.9720    17.7480    23.8210    -9.9490     2.5700   264.0040 
  264.0000    67.3850    18.6330    17.7330    18.7030    23.8370    -9.9660     2.5590   266.5700 
  264.1250    67.3850    18.5550    17.6550    19.2810    23.8690   -10.0390     2.5470   267.5220 
  264.2500    67.3850    18.6120    17.7120    18.9820    23.9000   -10.0480     2.5380   267.4770 
  264.3750    67.3850    18.7600    17.8600    18.6260    23.9110   -10.0530     2.5370   266.8050 
  264.5000    67.3850    18.9320    18.0320    19.1750    23.9000   -10.0630     2.5420   265.4560 
  264.6250    67.3850    19.0560    18.1560    20.3880    23.8640   -10.1110     2.5520   263.5400 
  264.7500    67.3850    19.1040    18.2040    21.3910    23.7960   -10.1490     2.5650   261.2640 
  264.8750    67.3850    19.0840    18.1840    22.0650    23.7710   -10.1870     2.5710   258.9920 
  265.0000    67.3850    19.0320    18.1320    23.7000    23.7500   -10.2470     2.5670   257.1680 
  265.1250    67.3850    18.9890    18.0890    23.5030    23.7880   -10.2540     2.5570   255.8620 
  265.2500    67.3850    18.9760    18.0760    23.4380    23.8300   -10.3050     2.5470   254.9620 
  265.3750    67.3850    18.9860    18.0860    22.1750    23.9250   -10.3640     2.5460   254.4470 
  265.5000    67.3850    19.0080    18.1080    20.5810    23.9920   -10.3260     2.5520   254.7900 
  265.6250    67.3850    19.0260    18.1260    19.2760    24.0060   -10.2800     2.5580   256.3990 
  265.7500    67.3850    19.0370    18.1370    18.7270    23.9920   -10.2800     2.5570   259.3310 
  265.8750    67.3850    19.0420    18.1420    18.3540    23.9630   -10.2340     2.5470   262.8960 
  266.0000    67.3850    19.0430    18.1430    18.2000    23.9430   -10.1610     2.5360   265.5310 
  266.1250    67.3850    19.0440    18.1440    18.8660    23.9200   -10.0100     2.5330   266.1850 
  266.2500    67.3850    19.0440    18.1440    20.0930    23.8910    -9.7280     2.5410   264.6360 
  266.3750    67.3850    19.0440    18.1440    21.9960    23.8370    -9.3580     2.5570   261.3920 
  266.5000    67.3850    19.0440    18.1440    24.6110    23.8060    -9.0620     2.5700   257.2880 
  266.6250    67.3850    19.0440    18.1440    24.8770    23.8100    -8.6810     2.5720   253.3720 
  266.7500    67.3850    19.0440    18.1440    23.7620    23.8020    -8.2810     2.5610   250.3170 
  266.8750    67.3850    19.0440    18.1440    22.5450    23.7950    -7.8720     2.5460   248.7190 
  267.0000    67.3850    19.0440    18.1440    22.0010    23.8160    -7.5240     2.5350   249.2530 
  267.1250    67.3850    19.0440    18.1440    22.1860    23.8310    -7.2990     2.5350   251.4440 
  267.2500    67.3850    19.0440    18.1440    21.9780    23.8330    -7.1310     2.5440   254.5940 
  267.3750    67.3850    19.0440    18.1440    21.1030    23.8190    -7.0540     2.5520   257.6760 
  267.5000    67.3850    19.0440    18.1440    20.5880    23.7910    -7.0120     2.5470   259.2580 
  267.6250    67.3850    19.0440    18.1440    20.7120    23.7790    -7.0410     2.5250   258.6920 
  267.7500    67.3850    19.0440    18.1440    21.3670    23.7740    -7.0610     2.4930   255.8840 
  267.8750    67.3850    19.0440    18.1440    22.3750    23.7690    -7.0990     2.4680   251.4860 
  268.0000    67.3850    19.0440    18.1440    23.4430    23.7490    -7.1580     2.4610   247.0860 
  268.1250    67.3850    19.0440    18.1440    23.8210    23.6530    -7.1170     2.4750   244.3580 
  268.2500    67.3850    19.0440    18.1440    21.6430    23.4410    -7.1760     2.5020   243.9460 
  268.3750    67.3850    19.0440    18.1440    18.4980    23.1330    -7.2130     2.5270   245.4670 
  268.5000    67.3850    19.0440    18.1440    16.5580    22.8070    -7.2130     2.5430   247.7760 
  268.6250    67.3850    19.0440    18.1440    16.4600    22.6590    -7.2300     2.5500   249.5890 
  268.7500    67.3850    19.0440    18.1440    17.1110    22.6200    -7.3080     2.5480   250.5340 
  268.8750    67.3850    19.0440    18.1440    16.4640    22.6010    -7.3210     2.5360   250.8060 
  269.0000    67.3850    19.0440    18.1440    15.2750    22.5450    -7.2800     2.5150   250.8120 
  269.1250    67.3850    19.0440    18.1440    14.4120    22.3780    -7.2620     2.4860   250.7940 
  269.2500    67.3850    19.0440    18.1440    13.7040    21.8450    -7.2130     2.4510   250.7710 
  269.3750    67.3850    19.0440    18.1440    11.6220    20.5730    -7.1730     2.4160   250.7380 
  269.5000    67.3850    19.0440    18.1440     8.2630    18.7240    -7.2310     2.3860   250.6670 
  269.6250    67.3850    19.0440    18.1440     6.2580    17.3250    -7.2100     2.3630   250.5550 
  269.7500    67.3850    19.0440    18.1440     5.6200    16.8440    -7.1430     2.3500   250.4330 
  269.8750    67.3850    19.0440    18.1440     5.2940    16.5780    -7.1810     2.3460   250.3540 
