~V
VERS. 2.00: Ver 2.00
~W
STRT.M 115.0000:
STOP.M 288.0000:
STEP.M 0.1250:
NULL. -999.2500:
UWI. DF3049:
~C
DEPT.M :
GR.API :
CALI.CM :
RXO.OHMM :
RI. :
RML.OHMM :
SP.MV :
DEN.GM/CC :
AC.US/MT :
~A
# ...
  225.0000    63.4710    24.7740    47.6550    71.9730    80.3590   -25.8580     2.3020   253.0610 
  225.1250    63.8670    24.7740    47.6300    73.2690    82.4140   -25.8150     2.2930   296.5230 
  225.2500    63.9350    24.7740    51.4680    72.3130    81.7000   -25.7940     2.2790   336.5190 
  225.3750    64.4950    24.7750    53.8830    69.9300    79.1790   -25.7950     2.2780   360.4670 
  225.5000    64.4240    24.7770    51.6170    67.1830    76.1820   -25.7970     2.2880   370.7170 
  225.6250    65.3920    24.7820    46.8250    65.0940    73.9990   -25.7630     2.2940   374.3810 
  225.7500    66.3710    24.7840    44.7450    64.5760    73.7910   -25.7180     2.2850   376.4360 
  225.8750    64.6290    24.7850    48.1820    65.5180    75.4660   -25.6580     2.2710   378.0750 
  226.0000    61.8630    24.7850    55.4710    67.5890    78.6460   -25.5650     2.2580   378.6460 
  226.1250    63.1340    24.7850    61.9340    70.2290    82.6110   -25.4480     2.2530   378.8130 
  226.2500    68.4180    24.7850    64.3550    72.7060    86.3640   -25.3060     2.2680   384.9190 
  226.3750    69.3950    24.7860    65.0760    74.5070    89.1630   -25.1180     2.2980   400.5530 
  226.5000    64.3460    24.7900    67.0180    75.4750    90.7620   -24.9000     2.3280   420.7140 
  226.6250    58.5670    24.8000    69.9250    75.6210    91.1680   -24.6670     2.3570   436.1220 
  226.7500    59.4000    24.8030    67.6420    74.7060    90.0070   -24.3600     2.3920   442.2660 
  226.8750    64.0510    24.7920    61.7690    72.8350    87.3630   -23.9990     2.4290   444.6090 
  227.0000    67.2960    24.7600    56.3050    70.4510    83.8110   -23.5950     2.4570   441.9740 
  227.1250    67.3510    24.7150    52.4930    68.5230    80.6850   -23.1210     2.4760   428.0500 
  227.2500    66.1770    24.6460    49.5480    68.5820    80.0450   -22.5400     2.5040   397.6570 
  227.3750    65.7530    24.5580    49.5820    71.1790    82.6880   -21.8670     2.5570   359.2790 
  227.5000    65.6480    24.4790    57.0780    76.2040    88.6580   -21.1300     2.6290   321.5490 
  227.6250    65.7850    24.3700    77.6240    81.7570    95.8410   -20.2890     2.6900   291.2010 
  227.7500    67.3580    24.2880   102.3050    80.8670    95.1960   -19.4500     2.7040   276.2840 
  227.8750    69.7880    24.2580   102.8980    68.5800    79.9790   -18.6430     2.6800   278.4710 
  228.0000    71.0860    24.2550    75.1960    48.5200    55.5040   -17.8550     2.6330   297.1680 
  228.1250    69.1550    24.2520    44.6880    29.7480    33.2950   -17.1530     2.5670   326.6730 
  228.2500    66.4090    24.2290    25.8480    18.0170    19.6670   -16.5890     2.4940   355.8940 
  228.3750    71.8770    24.1840    13.6690    11.3560    11.9640   -16.1670     2.4490   374.8750 
  228.5000    85.3880    24.1260     7.4290     7.8870     8.0790   -15.9030     2.4510   380.9120 
  228.6250    95.2320    24.0700     6.2560     6.2590     6.5030   -15.8040     2.4820   378.0860 
  228.7500    91.5280    24.1390     6.9030     5.8360     6.4270   -15.7840     2.5050   374.0560 
  228.8750    86.9930    24.3460     7.5690     6.0340     6.9990   -15.8190     2.5050   372.7040 
  229.0000    93.5060    24.5530     7.8930     6.5580     7.7630   -15.8900     2.4910   373.3570 
  229.1250   107.1980    24.6370     7.9230     7.1010     8.3200   -15.9740     2.4780   374.5760 
  229.2500   114.5570    24.6230     7.7330     7.3820     8.3930   -16.0550     2.4800   375.7370 
  229.3750   116.5650    24.5860     7.4720     7.4110     8.1640   -16.1220     2.4910   376.8830 
  229.5000   117.8000    24.5220     7.1030     7.2960     7.8370   -16.1770     2.4990   377.8670 
  229.6250   120.6410    24.4610     6.6510     7.1400     7.5550   -16.2290     2.4930   378.3600 
  229.7500   122.3140    24.4730     6.4030     7.0230     7.4050   -16.2840     2.4790   378.3310 
  229.8750   121.9430    24.5270     6.5780     6.9620     7.3760   -16.3710     2.4710   378.3970 
  230.0000   121.3570    24.6490     6.9730     6.9440     7.4440   -16.4880     2.4690   378.8910 
  230.1250   121.2560    24.8830     7.3340     6.9440     7.5730   -16.6380     2.4700   379.7050 
  230.2500   124.7430    25.3330     7.5610     6.9490     7.7240   -16.8120     2.4720   380.1900 
  230.3750   130.5690    25.6720     7.6380     6.9640     7.8660   -16.9900     2.4720   379.7350 
  230.5000   137.9570    25.8100     7.6150     7.0070     7.9950   -17.1590     2.4630   378.1730 
  230.6250   144.8270    25.5880     7.6280     7.0920     8.1230   -17.3270     2.4430   375.9560 
  230.7500   144.2330    25.0350     7.8330     7.2330     8.2790   -17.4890     2.4250   374.2170 
  230.8750   135.2700    24.6290     8.1320     7.4080     8.4730   -17.6270     2.4210   373.6760 
  231.0000   121.9280    24.8420     8.4330     7.5930     8.6950   -17.7330     2.4300   374.1720 
  231.1250   111.7250    25.4280     8.5750     7.7610     8.9210   -17.7770     2.4420   374.9300 
  231.2500   111.2110    25.7040     8.4970     7.8730     9.1070   -17.7690     2.4560   375.0980 
  231.3750   117.4850    25.7400     8.3930     7.9160     9.2350   -17.7210     2.4730   374.6760 
  231.5000   121.1380    25.7140     8.3250     7.8850     9.3000   -17.6230     2.4890   373.8460 
  231.6250   115.0730    25.6900     8.2290     7.7840     9.3070   -17.4770     2.4960   372.4990 
  231.7500   108.5350    25.6850     8.1340     7.6030     9.2280   -17.3210     2.4920   370.3270 
  231.8750   111.7330    25.7110     8.0630     7.3350     9.0280   -17.1560     2.4840   368.1920 
  232.0000   119.8680    25.7630     8.0550     6.9900     8.6890   -17.0070     2.4800   367.3290 
  232.1250   122.1660    25.8160     8.1180     6.6520     8.3110   -16.9020     2.4780   367.5460 
  232.2500   117.8050    25.6890     8.1560     6.5680     8.2660   -16.8540     2.4710   364.2200 
  232.3750   110.9480    25.5220     8.1920     6.9980     9.0220   -16.8620     2.4630   352.7930 
  232.5000    99.6090    25.3890     8.8870     8.3510    11.2090   -16.9460     2.4670   334.2830 
  232.6250    85.4760    25.2670    12.1850    11.3390    15.6820   -17.1530     2.4850   317.1300 
  232.7500    76.2130    25.2640    24.8650    17.9600    24.5610   -17.4090     2.4950   315.3450 
  232.8750    72.6890    25.2790    55.3100    29.8130    39.4270   -17.7200     2.4710   329.5190 
  233.0000    72.9290    25.2790    98.5160    48.1060    62.0900   -18.0740     2.4190   351.5320 
  233.1250    75.3400    25.2620   132.0520    70.5940    90.8820   -18.4340     2.3630   370.4910 
  233.2500    76.8450    25.2370   131.1450    88.6970   113.9330   -18.8000     2.3250   378.9130 
  233.3750    73.4780    25.2170   115.4490    97.5850   122.3420   -19.1570     2.3050   380.3760 
  233.5000    68.6680    25.1790   101.3790    99.3740   120.3390   -19.4710     2.2980   379.1360 
  233.6250    69.5670    25.1290    96.5170    98.0960   115.5760   -19.6980     2.3010   377.9660 
  233.7500    73.1080    25.0920    98.0240    96.0340   111.5950   -19.8770     2.3040   377.6910 
  233.8750    70.8090    25.1370    98.7770    93.4810   107.8880   -20.0050     2.3020   377.5030 
  234.0000    65.4080    25.2000    97.4490    89.7490   103.1180   -20.0870     2.2960   376.8920 
  234.1250    63.4620    25.0130    94.1060    84.1890    96.2090   -20.1500     2.2920   376.0640 
  234.2500    69.6690    24.6780    85.4400    76.3210    86.5600   -20.1820     2.2980   375.6870 
  234.3750    79.4920    24.4410    73.8950    67.0930    75.4560   -20.2140     2.3110   375.7360 
  234.5000    86.6280    24.3270    63.6910    57.5220    64.1840   -20.2520     2.3230   375.8000 
  234.6250    86.4160    24.2800    55.7610    48.7430    54.0150   -20.2840     2.3320   375.6980 
  234.7500    83.3150    24.2610    46.8930    42.1570    46.4400   -20.3280     2.3360   375.7390 
  234.8750    84.6950    24.2210    36.9740    38.1210    41.7820   -20.3950     2.3380   376.3990 
