~V
VERS. 2.00: Ver 2.00
~W
STRT.M 57.0000:
STOP.M 272.0000:
STEP.M 0.1250:
NULL. -999.2500:
UWI. DF3050:
~C
DEPT.M :
SP.MV :
GR.API :
CALI.CM :
RXO.OHMM :
RI. :
RML.OHMM :
DEN.GM/CC :
~A
# ...
  135.7500   -22.2650    89.7340    24.2110     5.3400     6.0940     7.2450     2.2710 
  135.8750   -22.0150    89.2010    24.0760     5.8380     5.9260     7.0190     2.2530 
  136.0000   -21.7510    88.7640    23.9780     6.3750     5.7580     6.7470     2.2420 
  136.1250   -21.5090    89.6070    23.9730     6.7730     5.5520     6.3890     2.2470 
  136.2500   -21.3650    93.0200    24.0010     6.2770     5.3080     5.9780     2.2680 
  136.3750   -21.3040    96.6040    24.1500     5.3260     5.0590     5.5760     2.2940 
  136.5000   -21.2710    97.6410    24.1380     4.4190     4.8470     5.2580     2.3130 
  136.6250   -21.2590    97.1780    24.1300     4.2570     4.7050     5.0760     2.3210 
  136.7500   -21.3060    98.1500    24.1930     4.7070     4.6570     5.0460     2.3190 
  136.8750   -21.3990    98.8870    24.3520     4.9330     4.6690     5.0850     2.3150 
  137.0000   -21.5240    98.7750    24.4960     5.0180     4.7140     5.1560     2.3060 
  137.1250   -21.6920    98.6440    24.5850     5.0340     4.7920     5.2520     2.2890 
  137.2500   -21.8850    97.8680    24.6370     4.9940     4.8920     5.3500     2.2700 
  137.3750   -22.0970    96.0630    24.7300     4.8030     4.9890     5.4250     2.2620 
  137.5000   -22.3180    96.2500    24.7220     5.0040     5.0740     5.4920     2.2660 
  137.6250   -22.5270    99.8350    24.4490     5.4120     5.1580     5.5730     2.2750 
  137.7500   -22.7160    99.8620    24.2050     5.1750     5.2260     5.6440     2.2790 
  137.8750   -22.8990    93.0620    24.4100     4.8570     5.2390     5.6690     2.2760 
  138.0000   -23.0690    85.8580    24.6760     4.9330     5.1850     5.5990     2.2760 
  138.1250   -23.2170    85.7090    24.7460     4.8200     5.0520     5.4220     2.2830 
  138.2500   -23.3520    90.7580    24.5320     4.3770     4.8360     5.1390     2.2940 
  138.3750   -23.4790    93.9430    24.5110     4.0920     4.6000     4.8330     2.3000 
  138.5000   -23.6010    96.3890    24.4830     4.1310     4.3860     4.5780     2.3030 
  138.6250   -23.7410   100.5420    24.3010     4.0180     4.2200     4.4010     2.3120 
  138.7500   -23.9180   102.2230    24.4040     3.6700     4.1410     4.3380     2.3260 
  138.8750   -24.1070    99.7300    24.4230     3.5330     4.1500     4.4280     2.3310 
  139.0000   -24.3280    96.3040    24.2960     3.7250     4.2540     4.6610     2.3210 
  139.1250   -24.5770    93.5560    24.1370     4.3440     4.4560     5.0310     2.3010 
  139.2500   -24.8350    90.1990    23.7940     4.8910     4.7800     5.5750     2.2820 
  139.3750   -25.0890    85.1400    23.6230     5.3850     5.2110     6.2970     2.2700 
  139.5000   -25.3530    80.6500    23.7910     5.5620     5.7590     7.1830     2.2590 
  139.6250   -25.6080    78.8050    24.0980     5.8040     6.4200     8.2090     2.2480 
  139.7500   -25.8150    80.2670    24.3660     6.7150     7.1830     9.3360     2.2420 
  139.8750   -25.9920    82.0830    24.3620     8.2170     7.9680    10.4160     2.2450 
  140.0000   -26.1460    81.7800    24.3780     9.3090     8.6890    11.3280     2.2540 
  140.1250   -26.2670    80.3540    24.1200     9.6920     9.2560    11.9950     2.2590 
  140.2500   -26.3490    78.7630    24.3680    10.0410     9.6340    12.3930     2.2470 
  140.3750   -26.4220    74.8620    24.3540    10.0770     9.9050    12.6890     2.2270 
  140.5000   -26.4820    70.3210    24.3870     9.9830    10.1430    13.0180     2.2120 
  140.6250   -26.5230    69.5940    24.3590    10.2630    10.4150    13.4810     2.2050 
  140.7500   -26.5810    72.9910    24.1950    11.6310    10.7640    14.0460     2.2040 
  140.8750   -26.6540    75.6220    23.9870    18.4290    11.1160    14.5670     2.2070 
  141.0000   -26.7130    74.8400    24.1600    31.3810    11.3630    14.8630     2.2110 
  141.1250   -26.7730    72.3130    24.4700    42.9370    11.4000    14.7900     2.2110 
  141.2500   -26.8750    71.6440    24.4320    38.2930    11.1640    14.2870     2.2010 
  141.3750   -26.9800    72.4110    24.0040    25.8380    10.7630    13.5740     2.1850 
  141.5000   -27.0630    73.4050    23.6690    14.0760    10.3180    12.8540     2.1730 
  141.6250   -27.1450    74.9450    23.7890     9.5840     9.9290    12.3080     2.1720 
  141.7500   -27.2170    76.9790    23.7330     8.9230     9.6910    12.0460     2.1790 
  141.8750   -27.2670    76.3470    23.8860     9.0800     9.5890    11.9950     2.1870 
  142.0000   -27.3130    71.0540    24.1130     9.6360     9.5970    12.0670     2.1950 
  142.1250   -27.3400    66.0950    24.3870    10.0100     9.6560    12.1600     2.2050 
  142.2500   -27.2930    67.1660    24.3020     9.9490     9.7040    12.1640     2.2110 
  142.3750   -27.2090    71.7500    24.2350     9.7310     9.7170    12.1010     2.2040 
  142.5000   -27.1110    76.1820    24.3630     9.3430     9.7200    12.0140     2.1860 
  142.6250   -26.9680    77.6840    24.3900     9.0630     9.7310    11.9490     2.1670 
  142.7500   -26.7880    73.7930    24.1010     9.0960     9.7770    11.9650     2.1560 
  142.8750   -26.5900    70.0460    24.0810     9.3800     9.8520    12.0550     2.1520 
  143.0000   -26.3870    70.7570    24.0870     9.5860     9.9390    12.1940     2.1530 
  143.1250   -26.1690    75.1140    24.0960     9.6770    10.0190    12.3320     2.1590 
  143.2500   -25.9480    77.5580    23.8780     9.7850    10.0720    12.4390     2.1720 
  143.3750   -25.7270    77.5470    23.6830    10.0930    10.0870    12.4810     2.1820 
  143.5000   -25.5150    76.8630    23.3800    10.5680    10.0620    12.4540     2.1860 
  143.6250   -25.3330    75.4210    23.3510    10.5050    10.0050    12.3860     2.1840 
  143.7500   -25.1690    73.6500    23.7570     9.8350     9.9170    12.2800     2.1840 
  143.8750   -25.0160    72.5010    24.2680     9.5480     9.8180    12.1780     2.1870 
  144.0000   -24.8730    72.0180    24.4630     9.5310     9.7540    12.1530     2.1880 
  144.1250   -24.7600    72.0330    24.4410     9.5340     9.7820    12.2940     2.1810 
  144.2500   -24.6790    72.7900    24.4720     9.6210     9.9700    12.6860     2.1680 
  144.3750   -24.6070    74.3220    24.4810     9.6780    10.3350    13.3610     2.1620 
  144.5000   -24.5400    74.9700    24.4870     9.7390    10.9130    14.3340     2.1650 
  144.6250   -24.4790    73.2120    24.4470    10.5430    11.6690    15.4650     2.1720 
  144.7500   -24.4140    70.3820    24.1440    12.2260    12.4390    16.4380     2.1760 
  144.8750   -24.3630    68.0930    23.9440    14.6070    13.0050    17.0010     2.1720 
  145.0000   -24.3130    66.9650    23.9240    16.2880    13.2110    16.9730     2.1640 
  145.1250   -24.2410    67.5680    24.0340    16.5030    12.9500    16.2830     2.1590 
  145.2500   -24.1510    70.7050    23.9760    15.8610    12.2400    15.0750     2.1680 
  145.3750   -24.0740    74.3920    23.9180    13.8320    11.3680    13.7550     2.1810 
  145.5000   -23.9960    76.7030    23.9240    10.6320    10.5000    12.5580     2.1890 
  145.6250   -23.9060    78.1690    24.0190     8.0140     9.7640    11.6700     2.1880 
  145.7500   -23.7980    78.8710    24.0250     7.8560     9.2570    11.1670     2.1840 
  145.8750   -23.6470    78.5930    23.9720     8.5020     8.9180    10.8600     2.1780 
  146.0000   -23.4820    78.6830    23.9160     8.7190     8.6560    10.5930     2.1680 
  146.1250   -23.3020    80.0930    23.9260     8.2420     8.4080    10.2710     2.1580 
  146.2500   -23.0870    81.4450    24.0210     7.9100     8.1200     9.7870     2.1640 
  146.3750   -22.8200    83.6420    24.0230     7.5140     7.7840     9.1890     2.1840 
  146.5000   -22.5260    85.6100    23.9490     7.1910     7.4580     8.6380     2.2040 
  146.6250   -22.2160    86.6630    23.9030     7.1750     7.2550     8.3520     2.2100 
  146.7500   -21.8930    86.4020    23.8860     7.2420     7.3640     8.6510     2.1970 
  146.8750   -21.5880    84.0270    23.8680     7.0380     7.8460     9.5590     2.1820 
