~V
VERS. 2.00: Ver 2.00
~W
STRT.M 64.0000:
STOP.M 278.0000:
STEP.M 0.1250:
NULL. -999.2500:
UWI. DF3056:
~C
DEPT.M :
SP.MV :
GR.API :
CALI.CM :
RXO.OHMM :
RI. :
RML.OHMM :
DEN.GM/CC :
~A
# ...
  221.5000   -30.5980    61.8640    24.4430    66.4680    76.8100    84.3130     2.1830 
  221.6250   -30.5350    60.7130    24.4910    68.0040    77.9510    85.7610     2.1880 
  221.7500   -30.5120    61.9980    24.6000    71.1940    79.5840    87.7670     2.1910 
  221.8750   -30.5400    61.8010    24.5970    77.6920    81.2070    89.5960     2.1880 
  222.0000   -30.6160    59.5020    24.5550    85.7940    82.0900    90.4750     2.1790 
  222.1250   -30.7460    59.6540    24.4550    87.3630    81.3080    89.3970     2.1730 
  222.2500   -30.9150    62.2590    24.4510    83.2190    78.6600    86.2280     2.1760 
  222.3750   -31.0840    62.7310    24.5190    81.8150    74.4960    81.4660     2.1830 
  222.5000   -31.2260    59.7580    24.5250    84.1730    69.5540    76.0370     2.1910 
  222.6250   -31.3560    58.7330    24.4960    76.1490    64.8530    71.0700     2.2140 
  222.7500   -31.4820    63.2940    24.4710    61.8540    61.3060    67.5260     2.2660 
  222.8750   -31.5950    70.3890    24.4320    50.0550    59.4540    65.9500     2.3370 
  223.0000   -31.6770    72.9980    24.4520    47.9130    59.4370    66.2990     2.3880 
  223.1250   -31.7090    67.5410    24.4650    53.8310    60.9340    68.2340     2.3780 
  223.2500   -31.6990    62.5210    24.4570    59.8490    63.0780    70.7990     2.3280 
  223.3750   -31.6610    61.9040    24.5670    63.5950    65.3640    73.3250     2.2730 
  223.5000   -31.6350    63.3660    24.7260    66.2450    67.0590    75.1720     2.2360 
  223.6250   -31.6030    63.6210    24.7400    69.3140    67.7110    75.8520     2.2150 
  223.7500   -31.5490    62.8510    24.7420    70.2350    67.5880    75.6020     2.2000 
  223.8750   -31.4550    61.4470    24.7630    70.3850    67.0060    74.8580     2.1920 
  224.0000   -31.3300    58.7470    24.9560    69.3780    66.3670    74.1360     2.1990 
  224.1250   -31.1760    56.8200    25.0050    66.6840    66.0910    73.7390     2.2180 
  224.2500   -31.0190    55.5950    25.0230    67.3390    65.8990    73.2880     2.2290 
  224.3750   -30.8710    54.1210    25.0240    70.6790    65.2890    72.3020     2.2240 
  224.5000   -30.7140    53.2040    25.0210    74.0060    63.9920    70.4830     2.2180 
  224.6250   -30.5370    53.7540    25.0020    71.5230    61.6920    67.5260     2.2310 
  224.7500   -30.3660    55.9830    24.9530    66.8480    58.3980    63.7270     2.2530 
  224.8750   -30.2270    59.9790    24.9230    60.7900    54.5740    59.4640     2.2640 
  225.0000   -30.1040    64.9120    24.8850    55.7540    50.7610    55.2780     2.2600 
  225.1250   -30.0260    64.9750    24.7670    51.9710    47.5330    51.8630     2.2620 
  225.2500   -29.9820    62.2840    24.7520    48.2730    45.1110    49.4380     2.2810 
  225.3750   -29.9510    63.4450    24.7660    46.7510    43.6060    48.1270     2.3060 
  225.5000   -29.9200    68.1570    24.8190    44.9990    43.0410    47.9570     2.3210 
  225.6250   -29.9040    68.7960    24.8240    43.5100    43.4670    48.9360     2.3150 
  225.7500   -29.8750    64.2740    24.8020    43.7050    44.6190    50.7330     2.2920 
  225.8750   -29.8270    60.4980    24.8260    46.8890    46.3850    53.2530     2.2730 
  226.0000   -29.7680    60.1440    24.7680    48.3400    48.6280    56.4100     2.2720 
  226.1250   -29.6510    60.7980    24.8540    47.4530    51.4070    60.1360     2.2850 
  226.2500   -29.4750    61.0280    25.0290    50.1370    54.6590    64.2750     2.2840 
  226.3750   -29.2590    60.5370    25.0300    57.5480    58.1320    68.6260     2.2610 
  226.5000   -29.0120    60.6950    24.9670    65.4770    61.6330    72.9700     2.2290 
  226.6250   -28.7220    61.8770    25.1720    71.0190    64.9510    77.1220     2.2050 
  226.7500   -28.4320    61.4510    25.0390    70.2310    67.9170    80.7990     2.1870 
  226.8750   -28.1330    58.4630    24.7990    70.3640    70.2410    83.5550     2.1690 
  227.0000   -27.8340    55.1860    24.5790    70.8750    71.6290    85.1620     2.1570 
  227.1250   -27.5450    55.3150    24.8880    73.5110    71.9040    85.5270     2.1580 
  227.2500   -27.2460    58.4850    24.9540    77.8560    71.4260    85.1210     2.1680 
  227.3750   -26.9190    62.6110    24.9510    81.9850    70.5700    84.1900     2.1810 
  227.5000   -26.5840    64.6570    24.7770    79.8810    69.6020    83.0920     2.2050 
  227.6250   -26.2710    63.5920    24.7800    71.8700    68.7480    82.3140     2.2500 
  227.7500   -25.9520    62.5320    24.8740    63.9340    68.2800    82.1050     2.3150 
  227.8750   -25.6380    63.1650    24.8760    66.2350    68.2480    82.3850     2.3710 
  228.0000   -25.3330    63.4860    24.7740    69.7820    68.5750    82.9820     2.4000 
  228.1250   -25.0390    62.6510    24.4740    67.7180    69.0210    83.5200     2.3980 
  228.2500   -24.7780    63.8050    24.4470    60.8330    69.2800    83.7040     2.3750 
  228.3750   -24.5770    65.0770    24.7180    59.4510    69.2600    83.4310     2.3480 
  228.5000   -24.3760    63.8810    25.0100    65.0780    68.8620    82.7070     2.3280 
  228.6250   -24.1880    61.6900    25.0270    69.4410    68.2350    81.7220     2.3190 
  228.7500   -24.0160    60.6370    25.0310    70.5460    67.7940    81.0470     2.3180 
  228.8750   -23.8480    60.6550    25.0200    68.1660    67.9520    81.2420     2.3100 
  229.0000   -23.6440    61.9430    24.8070    64.9210    69.1390    82.6150     2.2910 
  229.1250   -23.3920    63.9810    24.7910    69.7800    72.3220    86.1700     2.2700 
  229.2500   -23.1220    64.3160    24.7720    77.2240    77.9080    92.1640     2.2670 
  229.3750   -22.7970    61.5710    24.9400    81.6450    86.3740   100.8470     2.2900 
  229.5000   -22.4600    56.6500    25.0200    84.6020    97.4620   111.4150     2.3430 
  229.6250   -22.0650    53.2380    25.0110    94.1240   107.7150   119.5350     2.4300 
  229.7500   -21.6460    51.6800    24.8730   113.7640   110.2890   118.4000     2.5530 
  229.8750   -21.2130    51.4080    24.7000   201.3300   100.1090   104.5110     2.6650 
  230.0000   -20.7950    52.2460    24.4530   280.9420    79.5100    81.6420     2.7180 
  230.1250   -20.4080    54.9910    24.4770   244.7540    56.4100    57.6990     2.6970 
  230.2500   -20.0390    58.0320    24.4590   127.4600    37.3270    38.2340     2.6350 
  230.3750   -19.7150    59.8530    24.3610    53.2880    23.8680    24.6130     2.5730 
  230.5000   -19.4530    61.3250    24.1570    20.6120    15.3390    16.1020     2.5170 
  230.6250   -19.2210    63.6380    23.9200     8.9190    10.8800    11.7580     2.4700 
  230.7500   -19.0230    63.3420    23.9050     7.6270     8.5960     9.5870     2.4460 
  230.8750   -18.8700    60.1970    23.8370     6.8330     7.4910     8.6980     2.4410 
  231.0000   -18.7760    56.6340    23.7830     6.8820     7.0150     8.4620     2.4400 
  231.1250   -18.7360    55.3920    23.8700     7.7430     6.9290     8.5150     2.4330 
  231.2500   -18.7330    57.3030    23.8730     8.2090     7.0100     8.6280     2.4240 
  231.3750   -18.7530    64.4820    23.8090     8.1080     7.1420     8.7240     2.4200 
  231.5000   -18.7700    75.3860    23.7730     7.4950     7.2890     8.8270     2.4190 
  231.6250   -18.8180    83.0300    23.8660     6.4320     7.4970     9.0550     2.4230 
  231.7500   -18.8860    84.0460    24.2110     6.5970     7.7710     9.3860     2.4380 
  231.8750   -18.9850    84.8660    24.3840     7.7210     8.0770     9.7690     2.4600 
  232.0000   -19.0870    90.9470    24.5030     8.0580     8.3710    10.1430     2.4810 
  232.1250   -19.2010    98.8990    24.4230     7.3930     8.5820    10.4320     2.4910 
  232.2500   -19.3100   103.9570    24.4500     7.0820     8.6720    10.5950     2.4860 
  232.3750   -19.4220   106.1600    24.4880     7.3180     8.6430    10.6350     2.4680 
  232.5000   -19.5500   108.9120    24.5950     7.5990     8.5350    10.5980     2.4460 
  232.6250   -19.7060   113.7410    24.6130     7.7960     8.4410    10.6080     2.4320 
