~V
VERS. 2.00: Ver 2.00
~W
STRT.M 62.0000:
STOP.M 265.0000:
STEP.M 0.1250:
NULL. -999.2500:
UWI. DF3071:
~C
DEPT.M :
GR.API :
CALI.CM :
RXO.OHMM :
RI. :
RML.OHMM :
DEN.GM/CC :
SP.MV :
~A
# ...
   84.5000    88.4640    21.6690     6.0140     5.5070     6.8620  -999.2500   -15.8960 
   84.6250    89.2350    21.8350     5.5960     5.3350     6.6650  -999.2500   -15.2430 
   84.7500    89.8510    22.0570     5.3960     5.2650     6.6130  -999.2500   -14.6920 
   84.8750    88.9500    22.1900     5.3480     5.3110     6.7250  -999.2500   -14.3060 
   85.0000    87.4290    22.2270     5.3090     5.4830     6.9990  -999.2500   -14.1180 
   85.1250    86.9940    22.2470     5.3000     5.7610     7.3720  -999.2500   -14.1260 
   85.2500    87.9460    22.2350     5.3770     6.0320     7.6740  -999.2500   -14.1650 
   85.3750    88.4640    22.1220     5.5240     6.1730     7.7470  -999.2500   -14.1530 
   85.5000    87.8310    21.9190     5.6280     6.0790     7.5010  -999.2500   -13.9970 
   85.6250    89.2030    21.7500     5.5040     5.7030     6.9400  -999.2500   -13.7140 
   85.7500    93.9270    21.7110     5.2510     5.2040     6.2840  -999.2500   -13.3860 
   85.8750    99.5630    21.7690     5.0310     4.7190     5.7090  -999.2500   -12.9990 
   86.0000   102.9990    21.8270     4.9300     4.3470     5.3320  -999.2500   -12.5480 
   86.1250   105.8200    21.8130     4.9310     4.1720     5.2280  -999.2500   -12.0710 
   86.2500   106.7720    21.7380     4.9560     4.1610     5.3180  -999.2500   -11.6280 
   86.3750   103.8880    21.6520     5.0250     4.2780     5.5340  -999.2500   -11.2660 
   86.5000   100.6700    21.6190     5.1650     4.4680     5.8080  -999.2500   -11.0310 
   86.6250   100.9760    21.6270     5.3710     4.6830     6.0890  -999.2500   -10.9290 
   86.7500   101.8650    21.5310     5.5160     4.8920     6.3580  -999.2500   -10.7830 
   86.8750   101.0620    21.2700     5.5560     5.0900     6.6190  -999.2500   -10.6470 
   87.0000   100.0200    20.8930     5.5630     5.2760     6.8640  -999.2500   -10.4880 
   87.1250    99.5810    20.5060     5.5970     5.4230     7.0440  -999.2500   -10.3480 
   87.2500    97.0790    20.2100     5.5860     5.4860     7.0930  -999.2500   -10.1790 
   87.3750    94.4690    20.0980     5.4890     5.4150     6.9550  -999.2500   -10.0300 
   87.5000    94.8380    20.3240     5.3930     5.1920     6.6300  -999.2500    -9.8970 
   87.6250    98.9050    21.0630     5.3760     4.8540     6.1910  -999.2500    -9.8490 
   87.7500   102.3680    22.0340     5.2960     4.5270     5.8060  -999.2500    -9.9610 
   87.8750   104.2570    22.8290     5.1540     4.3070     5.6110  -999.2500   -10.2440 
   88.0000   105.4710    23.1940     5.1210     4.2710     5.7090  -999.2500   -10.7090 
   88.1250   105.1870    23.2100     5.4140     4.5180     6.2130  -999.2500   -11.3840 
   88.2500   100.8400    23.1310     5.9140     5.0290     7.0350  -999.2500   -12.2120 
   88.3750    93.8420    22.9670     6.4290     5.7670     8.0500  -999.2500   -13.1210 
   88.5000    87.6940    22.6940     6.7830     6.6140     9.0410  -999.2500   -14.0510 
   88.6250    83.3410    22.3600     6.9010     7.3290     9.6950  -999.2500   -14.9750 
   88.7500    79.1780    22.0590     6.9030     7.7300     9.9120  -999.2500   -15.8360 
   88.8750    74.3470    21.8400     6.9120     7.7850     9.7510  -999.2500   -16.5900 
   89.0000    70.5460    21.7400     6.9780     7.6050     9.3970  -999.2500   -17.2180 
   89.1250    67.9020    21.7660     7.0600     7.3610     9.0840  -999.2500   -17.6170 
   89.2500    67.2330    21.8190     7.1420     7.1920     8.9310  -999.2500   -17.8790 
   89.3750    69.9090    21.8790     7.2420     7.1240     8.9220  -999.2500   -17.9790 
   89.5000    73.8350    21.9760     7.3250     7.1060     8.9410  -999.2500   -17.9630 
   89.6250    75.1630    22.0460     7.2970     6.9950     8.7970  -999.2500   -17.7090 
   89.7500    75.2670    22.0070     7.1750     6.7130     8.4260  -999.2500   -17.3020 
   89.8750    77.8200    21.9160     6.9430     6.2830     7.8800  -999.2500   -16.6930 
   90.0000    83.3080    21.8840     6.5090     5.8050     7.3080  -999.2500   -15.8960 
   90.1250    91.5890    21.9630     5.8820     5.4280     6.9090  -999.2500   -14.8430 
   90.2500   101.0550    22.0880     5.4370     5.2160     6.7400  -999.2500   -13.4500 
   90.3750   107.4650    22.1970     5.3740     5.1590     6.7590  -999.2500   -12.6470 
   90.5000   105.7000    22.2320     5.5290     5.1920     6.8490  -999.2500   -11.9570 
   90.6250    98.1200    22.1420     5.5620     5.2040     6.8460  -999.2500   -11.3750 
   90.7500    93.0660    22.0130     5.4130     5.1150     6.6850  -999.2500   -10.9510 
   90.8750    93.6920    21.9530     5.2160     4.9230     6.4030  -999.2500   -10.7130 
   91.0000    97.7190    22.0280     5.0410     4.6890     6.1010  -999.2500   -10.6290 
   91.1250   100.5840    22.1860     4.9710     4.5080     5.9170  -999.2500   -10.6570 
   91.2500   100.4980    22.3360     5.0170     4.4330     5.9030  -999.2500   -10.7800 
   91.3750    97.9040    22.4630     5.1440     4.4920     6.0750  -999.2500   -11.0780 
   91.5000    95.6230    22.5320     5.2870     4.6940     6.4200  -999.2500   -11.5950 
   91.6250    94.9840    22.5080     5.4560     5.0480     6.9320  -999.2500   -12.4320 
   91.7500    91.8980    22.4380     5.7320     5.4980     7.5300  -999.2500   -13.4600 
   91.8750    85.3620    22.3140     6.1570     5.9880     8.1330  -999.2500   -14.5590 
   92.0000    77.7950    22.0860     6.5900     6.4450     8.6410  -999.2500   -15.6340 
   92.1250    71.7180    21.8160     6.7760     6.7650     8.9260  -999.2500   -16.6170 
   92.2500    67.6250    21.6290     6.7540     6.9180     8.9850  -999.2500   -17.4830 
   92.3750    65.9380    21.4890     6.6680     6.9120     8.8650  -999.2500   -18.1520 
   92.5000    67.7200    21.3280     6.5840     6.8100     8.6810  -999.2500   -18.5870 
   92.6250    69.5390    21.1800     6.4890     6.7480     8.6280  -999.2500   -18.6920 
   92.7500    69.5350    21.0670     6.4030     6.8510     8.8360  -999.2500   -18.5770 
   92.8750    68.5460    20.9490     6.3640     7.1680     9.3360  -999.2500   -18.3200 
   93.0000    67.7300    20.7810     6.4670     7.6640    10.0300  -999.2500   -17.9360 
   93.1250    67.1510    20.5470     6.9220     8.1710    10.6270  -999.2500   -17.4540 
   93.2500    66.7180    20.3040     7.6260     8.4150    10.8160  -999.2500   -16.8320 
   93.3750    66.8440    20.1560     8.0300     8.2200    10.4530  -999.2500   -16.1140 
   93.5000    69.2140    20.1950     7.7950     7.6150     9.6170  -999.2500   -15.2720 
   93.6250    75.2600    20.3910     7.1870     6.8010     8.5710  -999.2500   -14.3780 
   93.7500    80.9690    20.6130     6.6820     6.0430     7.6390  -999.2500   -13.4840 
   93.8750    85.0020    20.9220     6.3780     5.4660     6.9630  -999.2500   -12.6750 
   94.0000    88.3840    21.4690     6.2950     5.1140     6.5770  -999.2500   -11.9970 
   94.1250    90.0020    22.2460     6.3040     4.9990     6.4820  -999.2500   -11.5190 
   94.2500    87.5540    22.9560     6.3140     5.0470     6.5840  -999.2500   -11.2360 
   94.3750    82.8790    23.4480     6.3910     5.2320     6.8420  -999.2500   -11.1440 
   94.5000    80.2390    23.7080     6.6120     5.5260     7.2010  -999.2500   -11.2390 
   94.6250    79.5660    23.7140     6.8560     5.8730     7.5650  -999.2500   -11.4120 
   94.7500    79.9930    23.5460     7.0560     6.1810     7.8180  -999.2500   -11.5610 
   94.8750    81.6220    23.3290     7.2450     6.3710     7.8840  -999.2500   -11.5700 
   95.0000    82.7170    23.1900     7.3810     6.3960     7.7440  -999.2500   -11.4670 
   95.1250    82.9310    23.1760     7.2080     6.2340     7.4220  -999.2500   -11.2290 
   95.2500    84.0500    23.2380     6.8470     5.9620     7.0300  -999.2500   -10.9370 
   95.3750    86.1560    23.3360     6.5380     5.6450     6.6480  -999.2500   -10.6050 
   95.5000    88.3760    23.4490     6.4010     5.3430     6.3430  -999.2500   -10.2460 
   95.6250    87.8190    23.5730     6.2960     5.1240     6.1890  -999.2500    -9.9760 
