~V
VERS. 2.00: Ver 2.00
~W
STRT.M 64.0000:
STOP.M 268.0000:
STEP.M 0.1250:
NULL. -999.2500:
UWI. DF3073:
~C
DEPT.M :
SP.MV :
GR.API :
CALI.CM :
RXO.OHMM :
RI. :
RML.OHMM :
DEN.GM/CC :
~A
# ...
  244.0000   -19.1110    93.3680    24.2120    12.8870    12.9410    12.7050     2.3910 
  244.1250   -19.0500    91.1850    23.7270    11.5640    12.1910    11.9080     2.4070 
  244.2500   -19.0110    88.7390    23.7800    12.0780    11.4370    11.1400     2.4130 
  244.3750   -18.9530    86.1210    24.0990    12.9700    10.7980    10.5400     2.3980 
  244.5000   -18.9160    84.2450    24.5490    11.7790    10.3200    10.1370     2.3680 
  244.6250   -18.9250    81.0690    24.8230     9.6540    10.0460     9.9450     2.3320 
  244.7500   -18.9770    76.5090    25.0650     8.7920     9.8970     9.8860     2.3010 
  244.8750   -19.0340    71.8410    25.0840     9.4030     9.8140     9.8940     2.2860 
  245.0000   -19.1050    70.1350    25.0290     9.7990     9.7490     9.9000     2.2860 
  245.1250   -19.1860    72.7070    24.9220     9.7090     9.6460     9.8680     2.2930 
  245.2500   -19.2580    74.1040    24.9100     9.6030     9.4750     9.7500     2.2990 
  245.3750   -19.3390    73.1790    24.8370     9.4270     9.2370     9.5700     2.3030 
  245.5000   -19.4040    70.2970    24.6640     9.0730     8.9700     9.3690     2.3120 
  245.6250   -19.4410    67.2930    24.6480     8.5520     8.7190     9.1930     2.3240 
  245.7500   -19.4280    65.6410    24.6350     8.4180     8.5190     9.0700     2.3280 
  245.8750   -19.4030    66.2030    24.6160     8.5220     8.3870     9.0130     2.3180 
  246.0000   -19.3860    68.3910    24.6140     8.3610     8.3360     9.0530     2.3050 
  246.1250   -19.3630    69.0920    24.6360     8.0970     8.3710     9.1740     2.2970 
  246.2500   -19.2940    69.5220    24.6120     8.1720     8.4540     9.3360     2.2960 
  246.3750   -19.1980    72.3680    24.6130     8.3820     8.5560     9.5070     2.3040 
  246.5000   -19.0930    75.0110    24.6020     8.5630     8.6480     9.6440     2.3210 
  246.6250   -18.9740    75.9880    24.6260     8.8110     8.6790     9.7050     2.3360 
  246.7500   -18.8580    77.5540    24.6250     9.1990     8.6400     9.6840     2.3360 
  246.8750   -18.7010    77.9180    24.6020     9.2340     8.5440     9.5980     2.3210 
  247.0000   -18.5140    74.9360    24.6050     8.7960     8.4250     9.4870     2.3120 
  247.1250   -18.2730    69.9610    24.6010     8.4230     8.3220     9.3820     2.3150 
  247.2500   -18.0290    68.6120    24.6060     8.4160     8.2660     9.3200     2.3210 
  247.3750   -17.8170    70.3580    24.5980     8.6270     8.2630     9.3000     2.3220 
  247.5000   -17.6110    70.7690    24.6190     8.7980     8.3160     9.3270     2.3270 
  247.6250   -17.4160    69.4510    24.5500     8.7160     8.4280     9.3820     2.3400 
  247.7500   -17.1900    69.8730    24.4320     9.1010     8.5770     9.4480     2.3530 
  247.8750   -16.9460    72.1810    24.2730    10.6190     8.7480     9.5220     2.3570 
  248.0000   -16.6650    73.1320    24.5520    11.3360     8.9260     9.5990     2.3550 
  248.1250   -16.3680    72.6460    24.6500    10.4570     9.1230     9.7200     2.3490 
  248.2500   -16.0980    74.6370    24.6340     9.4400     9.3370     9.8720     2.3350 
  248.3750   -15.8190    77.1040    24.6250    10.4580     9.5350    10.0280     2.3270 
  248.5000   -15.5550    75.9350    24.6220    11.6890     9.6670    10.1460     2.3460 
  248.6250   -15.2560    70.4910    24.6620    11.7900     9.6620    10.1620     2.3910 
  248.7500   -14.9270    64.2610    24.5500    10.9730     9.4910    10.0220     2.4420 
  248.8750   -14.6160    59.7580    24.3870    10.3710     9.1490     9.7130     2.4670 
  249.0000   -14.3170    58.8980    24.2660     9.0500     8.6610     9.2810     2.4630 
  249.1250   -14.0730    62.3760    24.1490     7.5560     8.1230     8.8030     2.4400 
  249.2500   -13.8680    66.6490    24.1430     6.6270     7.6360     8.3810     2.4140 
  249.3750   -13.6960    67.8750    24.0970     6.6950     7.2650     8.0890     2.4020 
  249.5000   -13.5600    66.4140    24.1040     7.3280     7.0300     7.9220     2.4040 
  249.6250   -13.4730    65.8740    24.0890     7.9820     6.9440     7.8940     2.4120 
  249.7500   -13.4080    66.0250    24.0900     8.2890     6.9580     7.9500     2.4170 
  249.8750   -13.3470    64.0410    24.0920     8.1140     7.0410     8.0540     2.4120 
  250.0000   -13.3040    61.0180    24.0850     7.7640     7.1610     8.1530     2.4000 
  250.1250   -13.2780    64.1060    24.0930     7.6580     7.2780     8.2130     2.3860 
  250.2500   -13.2370    70.0940    24.0840     7.6520     7.3750     8.2460     2.3760 
  250.3750   -13.2100    70.9940    24.0820     7.6790     7.4620     8.2610     2.3760 
  250.5000   -13.1940    67.1660    24.1030     7.7170     7.5420     8.2740     2.3820 
  250.6250   -13.1350    65.0300    24.0760     8.0010     7.6050     8.2900     2.3900 
  250.7500   -13.0850    65.5390    24.0410     8.3380     7.6400     8.2820     2.4050 
  250.8750   -13.0160    66.0160    23.9210     8.2580     7.6390     8.2550     2.4340 
  251.0000   -12.9320    66.1900    23.8880     7.8050     7.6040     8.2280     2.4630 
  251.1250   -12.8770    65.2860    23.8840     7.6320     7.5420     8.1850     2.4720 
  251.2500   -12.8650    62.8500    23.8190     7.5190     7.4720     8.1500     2.4530 
  251.3750   -12.8760    61.8150    23.4950     7.4550     7.4040     8.1080     2.4300 
  251.5000   -12.8650    64.1370    23.2280     7.4170     7.3400     8.0610     2.4270 
  251.6250   -12.8630    65.5530    22.8270     7.4630     7.2790     8.0160     2.4360 
  251.7500   -12.8340    63.8920    22.5270     7.6850     7.2150     7.9560     2.4370 
  251.8750   -12.7830    61.4610    22.3940     8.0910     7.1430     7.8930     2.4240 
  252.0000   -12.7670    61.0300    22.5560     8.2720     7.0580     7.8250     2.4100 
  252.1250   -12.7540    61.6280    23.4840     8.0160     6.9690     7.7510     2.3980 
  252.2500   -12.7580    60.6480    23.9970     7.5780     6.8830     7.6970     2.3880 
  252.3750   -12.7760    59.1360    24.0850     7.3020     6.8060     7.6600     2.3850 
  252.5000   -12.7730    58.5380    24.0750     7.1510     6.7400     7.6450     2.3840 
  252.6250   -12.7700    59.4720    24.0900     7.1270     6.6910     7.6410     2.3810 
  252.7500   -12.7550    61.3670    24.0890     7.1050     6.6500     7.6450     2.3720 
  252.8750   -12.7490    63.3050    24.0870     7.0380     6.6230     7.6360     2.3630 
  253.0000   -12.7550    63.7720    24.0940     6.9600     6.6080     7.6110     2.3580 
  253.1250   -12.8120    63.4740    24.0880     6.9140     6.6000     7.5990     2.3560 
  253.2500   -12.9080    64.6180    24.0960     6.9220     6.5970     7.5780     2.3600 
  253.3750   -12.9850    65.8100    24.0860     6.9800     6.5990     7.5420     2.3710 
  253.5000   -13.0420    64.3200    24.0570     7.0310     6.6050     7.5040     2.3830 
  253.6250   -13.0430    62.9150    23.9300     7.0370     6.6140     7.4690     2.3950 
  253.7500   -13.0270    64.3280    23.9460     7.0810     6.6230     7.4610     2.4100 
  253.8750   -13.0330    67.1120    23.9680     7.2150     6.6330     7.4720     2.4240 
  254.0000   -13.0970    69.1480    23.9820     7.3180     6.6440     7.4820     2.4310 
  254.1250   -13.2000    69.0500    23.9120     7.2610     6.6540     7.4750     2.4310 
  254.2500   -13.2430    68.5140    23.9280     7.1730     6.6580     7.4620     2.4290 
  254.3750   -13.2400    68.3120    23.9580     7.3680     6.6570     7.4600     2.4180 
  254.5000   -13.1820    68.5080    23.8870     8.0620     6.6560     7.4620     2.4030 
  254.6250   -13.1100    67.2380    23.9580     8.1690     6.6680     7.4530     2.3960 
  254.7500   -13.1150    65.1280    23.9280     7.8090     6.7000     7.4480     2.4080 
  254.8750   -13.1970    65.1780    23.9030     7.5850     6.7600     7.4760     2.4300 
  255.0000   -13.2800    67.2950    23.9470     7.7210     6.8530     7.5280     2.4390 
  255.1250   -13.2830    69.0360    23.9100     7.7850     6.9780     7.6210     2.4300 
