~V
VERS. 2.00: Ver 2.00
~W
STRT.M 65.0000:
STOP.M 252.0000:
STEP.M 0.1250:
NULL. -999.2500:
UWI. DF3012:
~C
DEPT.M :
GR.API :
RML.OHMM :
RI. :
RXO.OHMM :
CALI.CM :
DEN.GM/CC :
SP.MV :
~A
# ...
  200.0000    77.3340    62.6200    53.8550    65.3720    24.8810     2.2450   -26.6970 
  200.1250    73.7080    64.5160    55.6450    68.2270    24.8680     2.2400   -27.0110 
  200.2500    69.4780    64.5000    55.8870    73.3450    24.8680     2.2420   -27.2770 
  200.3750    68.5340    61.9270    54.1230    75.4430    24.8760     2.2490   -27.4960 
  200.5000    70.7640    56.9720    50.4120    74.0890    24.8780     2.2590   -27.7040 
  200.6250    73.6650    50.9490    45.5890    67.4640    24.8680     2.2690   -28.0150 
  200.7500    76.1070    45.9970    41.3300    53.9250    24.8640     2.2770   -28.3170 
  200.8750    78.3010    43.4760    38.8420    42.2530    24.8760     2.2840   -28.6060 
  201.0000    80.1740    44.1050    38.9180    39.2160    24.9110     2.2870   -29.0400 
  201.1250    82.3230    48.4990    42.3560    45.4230    24.9680     2.2860   -29.4540 
  201.2500    82.9120    55.5450    48.4050    55.7170    25.0180     2.2820   -29.8920 
  201.3750    79.9840    64.1830    56.2670    67.3920    25.0520     2.2730   -30.3890 
  201.5000    74.5030    73.0080    64.7290    80.7610    25.0660     2.2620   -30.7980 
  201.6250    70.1180    80.3460    72.2290    93.1600    25.0660     2.2500   -31.1680 
  201.7500    70.0340    85.8800    78.1790    98.1170    25.0660     2.2410   -31.5030 
  201.8750    74.0540    90.2340    82.8930    95.5490    25.0660     2.2360   -31.7930 
  202.0000    78.0920    94.4660    87.1800    94.3870    25.0660     2.2330   -32.0010 
  202.1250    77.2190    99.2990    91.7050   100.0320    25.0670     2.2300   -32.1640 
  202.2500    72.9800   104.1780    96.2160   109.4780    25.0790     2.2230   -32.3090 
  202.3750    68.9160   107.9930    99.8890   119.1730    25.1070     2.2110   -32.3850 
  202.5000    66.2810   109.7050   101.8620   124.8470    25.1200     2.1980   -32.4830 
  202.6250    65.8210   108.7390   101.5540   124.0290    25.0930     2.1900   -32.5360 
  202.7500    66.6440   106.5180   100.0460   117.3580    25.0350     2.1910   -32.5870 
  202.8750    67.6430   104.3510    98.4350   107.9990    24.9910     2.1990   -32.6600 
  203.0000    67.4790   103.0350    97.5190   102.1120    24.9740     2.2060   -32.6540 
  203.1250    69.6560   102.5530    97.4890   103.8570    24.9710     2.2070   -32.7070 
  203.2500    73.8560   102.0100    97.6210   109.9710    24.9790     2.2020   -32.7300 
  203.3750    75.1330   100.8310    97.3060   114.6200    24.9990     2.1940   -32.7620 
  203.5000    72.9600    98.9060    96.3020   110.8100    25.0390     2.1900   -32.8490 
  203.6250    72.6480    96.4570    94.9870   100.0750    25.0590     2.1910   -32.8860 
  203.7500    74.4610    95.0610    94.3390    93.3310    25.0660     2.1980   -32.9470 
  203.8750    73.5360    95.5680    95.1860    93.5790    25.0660     2.2060   -33.0310 
  204.0000    70.4670    99.9130    97.9910    97.9810    25.0660     2.2140   -33.1910 
  204.1250    70.0380   107.5360   102.9480   104.0230    25.0630     2.2200   -33.2440 
  204.2500    71.5480   118.7340   109.0960   112.6130    25.0480     2.2240   -33.3220 
  204.3750    71.9970   131.2820   115.6570   123.3700    25.0130     2.2230   -33.4270 
  204.5000    70.4690   139.1220   121.9600   133.1350    24.9860     2.2200   -33.3680 
  204.6250    69.3290   144.7350   127.4830   139.0960    24.9780     2.2150   -33.3950 
  204.7500    68.9520   149.4820   132.2510   142.5710    24.9780     2.2090   -33.4560 
  204.8750    67.7560   153.4070   136.2810   144.3770    24.9780     2.2040   -33.4030 
  205.0000    66.1510   156.3890   139.5050   146.1020    24.9780     2.2000   -33.3310 
  205.1250    66.4370   157.8730   141.5140   150.1950    24.9780     2.1970   -33.2550 
  205.2500    68.8660   157.7460   142.2090   152.6900    24.9780     2.1940   -33.1570 
  205.3750    70.1520   155.9140   141.4650   148.7730    24.9780     2.1930   -33.0140 
  205.5000    69.6420   152.4880   139.3070   139.5620    24.9660     2.1940   -32.9470 
  205.6250    68.2240   147.5530   135.7370   133.3630    24.9300     2.1960   -32.8260 
  205.7500    64.6420   141.7900   131.3370   131.9220    24.8790     2.1980   -32.6230 
  205.8750    61.1680   135.8030   126.6350   131.6230    24.8370     2.2000   -32.5120 
  206.0000    62.1850   130.3670   122.3090   128.3490    24.7880     2.2000   -32.3790 
  206.1250    67.8370   126.5910   119.3370   120.0720    24.6890     2.1990   -32.2800 
  206.2500    71.6890   124.7420   118.0180   112.4920    24.6120     2.1970   -32.1900 
  206.3750    71.2430   124.7430   118.3460   109.9000    24.5790     2.1960   -32.0860 
  206.5000    69.4530   126.0990   119.9260   112.6460    24.5710     2.2000   -32.0490 
  206.6250    68.9460   127.9620   122.0330   117.6050    24.5470     2.2100   -32.0590 
  206.7500    68.3440   129.2100   123.6260   118.6290    24.5040     2.2210   -32.0770 
  206.8750    67.2310   129.0600   123.9410   113.6890    24.4930     2.2290   -32.1000 
  207.0000    66.9510   127.1200   122.5450   107.6180    24.5020     2.2280   -32.1110 
  207.1250    69.3430   123.3310   119.2880   107.2520    24.4980     2.2210   -32.0950 
  207.2500    72.6290   118.6820   115.0650   109.2920    24.4760     2.2100   -32.1260 
  207.3750    73.8240   114.0010   110.6330   106.6310    24.4640     2.2020   -32.2160 
  207.5000    73.1610   110.0140   106.6910   100.3280    24.4940     2.1960   -32.1650 
  207.6250    71.4230   107.3330   103.8630    98.7230    24.5670     2.1930   -32.1240 
  207.7500    70.7880   105.7000   102.0240   101.1420    24.6870     2.1930   -32.1230 
  207.8750    71.4340   104.7190   100.8960   103.1000    24.8000     2.1970   -32.0300 
  208.0000    71.0120   103.9010   100.0860   103.2690    24.8560     2.2060   -32.0130 
  208.1250    68.7170   102.8700    99.2620   104.9470    24.8730     2.2200   -31.9960 
  208.2500    68.2330   101.7520    98.4540   106.3070    24.8810     2.2320   -31.9000 
  208.3750    71.8330   100.9220    97.9570   103.8150    24.8740     2.2380   -31.7810 
  208.5000    76.9970   100.6410    98.0010    98.4350    24.8610     2.2360   -31.7080 
  208.6250    77.7850   100.6850    98.4250    94.9080    24.8260     2.2280   -31.6330 
  208.7500    75.7670   100.1690    98.4230    94.8590    24.7690     2.2190   -31.5150 
  208.8750    73.6140    98.2330    97.1550    96.6090    24.7440     2.2150   -31.4440 
  209.0000    72.9300    94.3800    94.0450    97.7170    24.7870     2.2140   -31.3170 
  209.1250    71.4160    88.6660    88.9230    93.6250    24.8390     2.2170   -31.2320 
  209.2500    70.0160    82.4450    82.9740    83.3350    24.7940     2.2240   -31.2010 
  209.3750    69.6380    76.8090    77.2350    71.2530    24.5870     2.2320   -31.1430 
  209.5000    69.0600    72.4710    72.4960    63.3410    24.2430     2.2430   -31.1770 
  209.6250    68.4740    69.8370    69.2850    62.1820    23.9640     2.2520   -31.1460 
  209.7500    68.6300    68.4330    67.2600    64.2590    23.9000     2.2580   -31.1740 
  209.8750    70.2830    68.1030    66.2600    66.2040    24.0890     2.2570   -31.2790 
  210.0000    71.7120    68.9910    66.3580    65.8500    24.3600     2.2500   -31.3480 
  210.1250    71.1590    72.0320    68.3190    64.0990    24.5120     2.2380   -31.4330 
  210.2500    69.1030    77.8360    72.6770    64.1130    24.5480     2.2240   -31.5580 
  210.3750    67.6420    87.1790    80.1370    69.3000    24.5800     2.2110   -31.7240 
  210.5000    69.4840   100.5080    91.1100    82.2140    24.7240     2.2010   -31.7690 
  210.6250    71.1050   118.1910   105.8750   104.5720    24.9550     2.1960   -31.8880 
  210.7500    69.3890   138.4120   122.7530   130.2590    25.1240     2.1950   -32.0070 
  210.8750    66.1340   159.3740   140.1150   151.2120    25.1190     2.1980   -31.9660 
  211.0000    64.0870   178.8650   156.0730   165.8040    25.0120     2.1990   -32.0070 
  211.1250    63.9130   193.5640   167.9890   178.8860    24.8150     2.1990   -31.9850 
