~V
VERS. 2.00: Ver 2.00
~W
STRT.M 66.0000:
STOP.M 262.0000:
STEP.M 0.1250:
NULL. -999.2500:
UWI. DF3009:
~C
DEPT.M :
GR.API :
RML.OHMM :
RI. :
RXO.OHMM :
CALI.CM :
DEN.GM/CC :
SP.MV :
~A
# ...
  167.2500    71.6430   132.0720   113.5590   106.8840    23.5860     2.3000   -27.5570 
  167.3750    72.3920   147.2630   124.3670   114.1780    24.0470     2.2770   -27.5950 
  167.5000    70.6640   168.8870   139.7940   126.2900    24.7520     2.2340   -27.7400 
  167.6250    67.6980   198.5970   160.5490   152.3350    24.9840     2.1860   -27.7890 
  167.7500    66.6390   233.7790   184.5270   188.0250    24.7750     2.1480   -27.8320 
  167.8750    65.1000   270.0720   208.8130   215.7290    24.6020     2.1280   -27.8880 
  168.0000    61.9770   300.0260   228.8720   228.6290    24.5730     2.1250   -27.9720 
  168.1250    62.2670   310.6540   236.9740   238.4220    24.8130     2.1280   -27.9240 
  168.2500    67.6240   297.7190   230.5560   241.1150    24.9060     2.1260   -27.8990 
  168.3750    72.7940   262.7960   209.8900   236.3470    24.8020     2.1170   -27.9160 
  168.5000    73.1770   215.3250   179.5120   223.0570    24.6340     2.1100   -27.9050 
  168.6250    71.3370   169.4350   147.0900   187.4140    24.4480     2.1230   -27.9710 
  168.7500    70.4360   133.6680   119.5410   138.0580    24.2040     2.1600   -27.9480 
  168.8750    70.4570   109.6160    99.5430    96.0640    23.7510     2.2160   -28.0760 
  169.0000    71.4120    96.0800    87.4740    71.7730    23.5400     2.2730   -28.1010 
  169.1250    73.4750    92.7060    83.8630    65.2390    23.4670     2.3040   -28.1740 
  169.2500    74.2270    97.0510    86.9320    67.0530    23.5500     2.2990   -28.3200 
  169.3750    72.1290   108.9410    96.4760    75.5800    23.8970     2.2640   -28.3840 
  169.5000    67.8970   128.2400   112.1390    89.8330    24.2950     2.2130   -28.4970 
  169.6250    63.5520   154.6560   133.2120   112.8570    24.7040     2.1630   -28.4960 
  169.7500    61.2680   183.6350   155.7460   150.9220    24.7560     2.1280   -28.5920 
  169.8750    61.7570   210.0430   175.6960   189.1890    24.7950     2.1150   -28.6240 
  170.0000    63.5650   228.0390   188.8990   209.6790    24.7130     2.1230   -28.6250 
  170.1250    64.2620   230.6300   190.6500   209.7800    24.4800     2.1480   -28.7120 
  170.2500    63.6220   219.7480   182.5950   201.6950    24.2140     2.1790   -28.7410 
  170.3750    63.4660   199.6600   167.5810   194.1950    23.9530     2.2100   -28.7840 
  170.5000    63.7010   176.6880   149.8670   185.5180    23.9610     2.2360   -28.8570 
  170.6250    65.4730   157.5910   134.3380   168.5870    24.3200     2.2460   -28.9310 
  170.7500    68.8280   145.4200   123.7910   128.2580    24.5990     2.2400   -28.9760 
  170.8750    70.2430   141.4020   119.5690    91.2120    24.7490     2.2210   -28.9760 
  171.0000    67.8820   145.6000   121.9450    82.4270    24.5600     2.1970   -28.9980 
  171.1250    65.5410   157.7870   130.8330    96.6680    24.4490     2.1790   -28.9470 
  171.2500    65.3370   173.5410   142.8010   108.0550    24.3040     2.1710   -28.8150 
  171.3750    64.0370   188.1310   154.3360   120.6700    24.3250     2.1740   -28.7370 
  171.5000    59.6030   196.0300   161.3600   125.4260    24.3670     2.1840   -28.5340 
  171.6250    59.0790   190.9950   159.1530   122.1900    24.6680     2.1930   -28.4180 
  171.7500    62.8340   175.4660   148.9440   124.3330    25.0480     2.2000   -28.2930 
  171.8750    66.5600   154.7560   133.9630   122.4900    25.1080     2.2060   -28.1630 
  172.0000    67.5670   136.1690   118.9640   130.1660    24.8940     2.2150   -28.1550 
  172.1250    67.4580   126.4900   109.5820   115.0380    24.6880     2.2280   -28.0670 
  172.2500    65.3100   127.1530   107.9850    91.6530    24.6560     2.2430   -28.1340 
  172.3750    61.5840   137.4800   115.0310    81.4260    24.8120     2.2510   -28.1550 
  172.5000    59.5190   157.0000   130.0030    94.6850    24.8980     2.2490   -28.2590 
  172.6250    60.2850   180.3100   150.5940   119.5340    25.0590     2.2310   -28.3070 
  172.7500    59.3020   202.4940   170.9790   140.8160    25.2090     2.2050   -28.3140 
  172.8750    55.9980   221.5330   186.5270   172.6370    25.4060     2.1770   -28.3810 
  173.0000    53.4260   233.1860   194.3450   219.1590    25.6540     2.1570   -28.2710 
  173.1250    52.2900   232.9880   193.5680   253.5130    25.5150     2.1510   -28.2470 
  173.2500    52.7640   226.3740   188.1110   226.4950    25.2830     2.1560   -28.2200 
  173.3750    57.2500   215.6850   179.7450   194.3160    25.0590     2.1680   -28.1190 
  173.5000    62.8020   200.7880   168.6100   193.1820    25.1210     2.1840   -27.9780 
  173.6250    62.5930   180.3360   153.7410   197.8460    25.2860     2.2020   -27.9250 
  173.7500    58.5040   157.1970   136.6930   185.9540    25.1580     2.2240   -27.8110 
  173.8750    57.0580   135.5200   120.0760   145.7120    25.0370     2.2470   -27.7190 
  174.0000    60.3420   119.5000   107.0290    99.5600    24.8960     2.2680   -27.6790 
  174.1250    64.9290   113.2230   101.1840    78.0120    25.0560     2.2760   -27.5730 
  174.2500    67.6000   115.5500   102.2970    77.7850    24.8930     2.2720   -27.4170 
  174.3750    66.9970   124.8410   109.3370    92.6670    24.7490     2.2590   -27.3160 
  174.5000    63.3280   137.9990   119.9040   117.8510    24.7180     2.2420   -27.2580 
  174.6250    59.1480   149.7230   129.9780   133.4640    24.8320     2.2260   -27.1010 
  174.7500    56.6120   154.9090   135.5370   142.8760    25.0190     2.2100   -27.0690 
  174.8750    56.8610   150.9800   134.1440   142.5670    24.9140     2.1970   -26.9180 
  175.0000    59.9950   137.9230   125.3630   135.7860    24.7360     2.1880   -26.8250 
  175.1250    63.1280   119.4890   110.3810   118.3540    24.5620     2.1910   -26.7420 
  175.2500    63.0560   100.3600    93.3130    94.2950    24.4050     2.2070   -26.5720 
  175.3750    61.7640    83.4900    76.5940    73.6200    24.3250     2.2320   -26.4970 
  175.5000    62.0640    69.8130    61.8340    54.6960    24.3490     2.2590   -26.3240 
  175.6250    64.9180    56.1290    50.4050    44.9870    24.5480     2.2800   -26.2540 
  175.7500    69.4650    46.3210    42.0520    40.0410    24.5740     2.2950   -26.1200 
  175.8750    74.8660    40.2460    36.6910    34.2830    24.5700     2.3040   -26.0450 
  176.0000    79.4860    37.7550    34.1970    27.3410    24.5010     2.3100   -25.9890 
  176.1250    80.8020    39.0560    34.7890    30.1520    24.2900     2.3090   -25.8560 
  176.2500    80.3910    42.8550    37.5250    33.3970    24.2970     2.3010   -25.8640 
  176.3750    79.7770    47.9420    41.5340    36.6390    24.4580     2.2860   -25.7980 
  176.5000    78.7180    52.6330    45.5200    41.8330    24.8030     2.2700   -25.7570 
  176.6250    74.9640    54.5850    47.5770    49.1750    24.8170     2.2610   -25.7380 
  176.7500    71.7270    53.2190    47.0130    52.9740    24.6840     2.2600   -25.6870 
  176.8750    73.2270    49.2120    44.2000    51.8310    24.6060     2.2670   -25.6620 
  177.0000    80.5240    44.4270    40.5360    44.2970    24.4750     2.2800   -25.6960 
  177.1250    86.5080    41.5990    38.1610    35.3970    24.6160     2.2960   -25.7350 
  177.2500    85.8630    42.1040    38.3050    32.2160    24.6510     2.3060   -25.7320 
  177.3750    81.4940    46.2470    41.3850    34.7730    24.6450     2.3070   -25.7750 
  177.5000    77.1260    53.2340    46.9710    39.2350    24.5380     2.2990   -25.8540 
  177.6250    75.7310    60.9320    53.5610    49.0700    24.4660     2.2820   -25.9280 
  177.7500    75.5390    66.2900    58.5550    65.2180    24.5390     2.2630   -26.0340 
  177.8750    74.7760    67.2330    60.0100    75.8470    24.5530     2.2490   -26.1920 
  178.0000    73.7560    63.2440    57.2090    74.6760    24.5930     2.2440   -26.2330 
  178.1250    75.3730    55.4880    50.8370    63.9250    24.4890     2.2540   -26.4010 
  178.2500    79.8980    47.2370    43.6750    46.1660    24.4120     2.2720   -26.5750 
  178.3750    83.0820    40.3190    37.3890    31.7490    24.3960     2.2940   -26.7300 
