~V
VERS. 2.00: Ver 2.00
~W
STRT.M 61.0000:
STOP.M 276.0000:
STEP.M 0.1250:
NULL. -999.2500:
UWI. DF3051:
~C
DEPT.M :
SP.MV :
GR.API :
CALI.CM :
RXO.OHMM :
RI. :
RML.OHMM :
DEN.GM/CC :
~A
# ...
  117.2500   -22.2500    86.1040    25.4070     6.5940     5.4550     7.2640     2.2660 
  117.3750   -22.5020    85.1140    25.2810     6.6790     5.5860     7.4440     2.2690 
  117.5000   -22.6810    86.7460    25.1630     6.6580     5.6980     7.5760     2.2640 
  117.6250   -22.6990    86.9230    25.0570     6.5760     5.7510     7.6140     2.2550 
  117.7500   -22.6380    86.3500    25.0220     6.4500     5.7240     7.5440     2.2510 
  117.8750   -22.6340    86.8950    25.1050     6.2700     5.6090     7.3590     2.2600 
  118.0000   -22.6230    87.4280    25.3020     6.0870     5.4250     7.0810     2.2770 
  118.1250   -22.5640    89.4100    25.5830     5.9680     5.2090     6.7640     2.2920 
  118.2500   -22.4670    92.9170    25.8810     5.8760     5.0150     6.4900     2.2980 
  118.3750   -22.3680    96.1960    26.1240     5.8050     4.8690     6.2950     2.2960 
  118.5000   -22.2970    97.8130    26.2280     5.8130     4.7790     6.1830     2.2910 
  118.6250   -22.2890    96.1050    26.1300     5.9290     4.7470     6.1560     2.2900 
  118.7500   -22.3100    93.0050    25.9420     6.0410     4.7620     6.2030     2.2970 
  118.8750   -22.3470    91.1220    25.7770     6.0890     4.8330     6.3440     2.3090 
  119.0000   -22.3700    93.7200    25.6860     6.1530     4.9730     6.6000     2.3100 
  119.1250   -22.3030    96.0310    25.6320     6.3920     5.1930     6.9730     2.2880 
  119.2500   -22.1340    92.0870    25.5590     6.7340     5.4420     7.3630     2.2540 
  119.3750   -21.8860    85.1600    25.4780     6.9630     5.6430     7.6310     2.2300 
  119.5000   -21.5830    82.6140    25.4350     6.8900     5.7040     7.6320     2.2300 
  119.6250   -21.2490    87.3400    25.5020     6.4920     5.5370     7.2490     2.2550 
  119.7500   -20.9390    93.3510    25.6890     6.0220     5.2290     6.6730     2.2930 
  119.8750   -20.6520    95.9440    25.9580     5.6350     4.8890     6.1210     2.3360 
  120.0000   -20.3900    94.8500    26.2150     5.4110     4.6200     5.7630     2.3750 
  120.1250   -20.2690    95.0800    26.3430     5.5050     4.5050     5.7080     2.3960 
  120.2500   -20.3190    96.6980    26.3590     5.8980     4.5210     5.8690     2.3960 
  120.3750   -20.5230    95.0530    26.3260     6.3690     4.6340     6.1510     2.3810 
  120.5000   -20.8700    89.9340    26.2850     6.6160     4.7990     6.4540     2.3620 
  120.6250   -21.3690    86.6170    26.2150     6.5370     4.9790     6.7230     2.3440 
  120.7500   -21.9460    84.2790    26.0870     6.4140     5.1640     6.9860     2.3230 
  120.8750   -22.5770    78.7140    25.9040     6.4320     5.3680     7.2870     2.2940 
  121.0000   -23.2340    73.2820    25.7000     6.6510     5.6070     7.6510     2.2590 
  121.1250   -23.7860    70.6210    25.5380     7.0290     5.8770     8.0450     2.2340 
  121.2500   -24.1890    71.6480    25.4480     7.3510     6.1140     8.3510     2.2270 
  121.3750   -24.4310    76.8800    25.4220     7.4410     6.2460     8.4530     2.2320 
  121.5000   -24.4860    82.4380    25.4340     7.2800     6.2210     8.2910     2.2390 
  121.6250   -24.3500    83.0050    25.4560     6.9840     6.0250     7.8670     2.2480 
  121.7500   -24.1000    80.5120    25.4790     6.7030     5.7500     7.3300     2.2660 
  121.8750   -23.7670    80.5250    25.5080     6.4800     5.4640     6.7990     2.2940 
  122.0000   -23.3810    84.3060    25.5430     6.3210     5.2210     6.3700     2.3250 
  122.1250   -23.0460    87.7910    25.6090     6.1790     5.0660     6.1280     2.3490 
  122.2500   -22.8370    90.2760    25.7340     6.0020     4.9940     6.0540     2.3630 
  122.3750   -22.7110    91.1690    25.8910     5.8490     4.9970     6.1140     2.3660 
  122.5000   -22.5860    91.1220    25.9800     5.8230     5.0510     6.2380     2.3570 
  122.6250   -22.3580    90.2770    25.9350     5.8980     5.1120     6.3340     2.3360 
  122.7500   -22.0030    89.8380    25.8800     5.8890     5.1350     6.3470     2.3200 
  122.8750   -21.5510    92.0840    25.9350     5.7360     5.0990     6.2630     2.3180 
  123.0000   -21.0670    96.1030    26.1100     5.5310     5.0010     6.0940     2.3330 
  123.1250   -20.6010    96.5840    26.3020     5.4410     4.8510     5.8650     2.3610 
  123.2500   -20.1410    94.5020    26.4120     5.4630     4.6860     5.6300     2.3890 
  123.3750   -19.7480    91.8870    26.4150     5.4700     4.5280     5.4170     2.4100 
  123.5000   -19.5050    89.7220    26.3140     5.3720     4.3920     5.2300     2.4140 
  123.6250   -19.5060    89.3110    26.1250     5.2660     4.2930     5.0720     2.4000 
  123.7500   -19.7260    88.5610    25.9160     5.2750     4.2350     4.9490     2.3790 
  123.8750   -20.0970    86.2890    25.7460     5.3870     4.2450     4.9270     2.3600 
  124.0000   -20.5330    82.0400    25.6390     5.6060     4.3900     5.1450     2.3510 
  124.1250   -20.9600    79.0120    25.5710     6.1030     4.8220     5.8630     2.3630 
  124.2500   -21.3420    76.9550    25.5310     7.1800     5.6010     7.1320     2.4020 
  124.3750   -21.6710    74.0160    25.5740     9.4930     6.7460     8.9240     2.4660 
  124.5000   -21.9900    70.6640    25.7300    13.6020     8.1260    10.9570     2.5270 
  124.6250   -22.3110    68.6320    25.8900    16.9390     9.2480    12.3250     2.5310 
  124.7500   -22.6140    68.9170    25.8850    15.9100     9.5980    12.3070     2.4750 
  124.8750   -22.9060    69.9920    25.7050    11.7180     9.1110    11.0690     2.3950 
  125.0000   -23.1940    71.0550    25.4800     8.4080     8.2030     9.4980     2.3310 
  125.1250   -23.4900    72.0900    25.3560     7.6640     7.4410     8.4930     2.3010 
  125.2500   -23.8120    70.3910    25.3220     7.8370     7.0880     8.2430     2.2880 
  125.3750   -24.1700    65.5390    25.3320     8.6580     7.2060     8.7080     2.2820 
  125.5000   -24.5260    60.2670    25.3670    10.9820     7.7460     9.7350     2.2770 
  125.6250   -24.8120    58.8330    25.4140    15.3350     8.5660    11.0390     2.2670 
  125.7500   -25.0310    58.8210    25.4190    18.0520     9.3480    12.1470     2.2540 
  125.8750   -25.2180    59.9050    25.3460    16.5610     9.8520    12.7330     2.2480 
  126.0000   -25.3970    62.1590    25.2140    12.6610     9.9450    12.6760     2.2470 
  126.1250   -25.5550    62.3650    25.0980    10.3950     9.6110    12.0340     2.2430 
  126.2500   -25.6640    60.1490    25.0360     9.7650     9.1050    11.2150     2.2300 
  126.3750   -25.6940    58.2060    25.0200     9.7230     8.6430    10.5400     2.2170 
  126.5000   -25.6130    58.6150    25.0440     9.8880     8.4140    10.2650     2.2170 
  126.6250   -25.3540    59.4920    25.1270    10.7780     8.6330    10.6760     2.2500 
  126.7500   -24.9510    59.4620    25.2840    13.1820     9.3560    11.8140     2.3160 
  126.8750   -24.4620    58.8100    25.5330    17.8370    10.6950    13.7930     2.4100 
  127.0000   -24.0030    58.8570    25.8590    24.4000    12.7900    16.7310     2.5120 
  127.1250   -23.6790    59.8960    26.1700    30.9700    15.9120    20.8740     2.5960 
  127.2500   -23.4610    61.3330    26.3680    36.8980    19.7960    25.8520     2.6480 
  127.3750   -23.3170    62.3740    26.4350    43.3870    23.8320    30.8670     2.6670 
  127.5000   -23.2450    63.7740    26.4150    49.4410    26.8070    34.2360     2.6580 
  127.6250   -23.3280    65.8740    26.3350    48.1420    26.8210    33.2630     2.6220 
  127.7500   -23.5910    66.2000    26.1890    38.2930    24.0980    28.6690     2.5590 
  127.8750   -24.0270    64.6570    25.9360    25.5080    19.8860    22.6670     2.4690 
  128.0000   -24.5700    63.9990    25.5950    16.1470    15.6630    17.2970     2.3690 
  128.1250   -25.1730    63.6030    25.3460    12.0540    12.4830    13.6820     2.2930 
  128.2500   -25.7920    61.7160    25.3840    10.3450    10.3560    11.5050     2.2530 
  128.3750   -26.3950    59.4900    25.6390     9.6190     9.1290    10.4630     2.2360 
