~V
VERS. 2.00: Ver 2.00
~W
STRT.M 85.0000:
STOP.M 235.0000:
STEP.M 0.1250:
NULL. -999.2500:
UWI. DF305:
~C
DEPT.M :
DEN.GM/CC :
SP.MV :
AC.US/MT :
GR.API :
CALI.CM :
RXO.OHMM :
RI. :
RML.OHMM :
~A
# ...
  205.0000     2.3630   -20.9720   396.9080    67.6130    24.0870    22.7010    20.2880    23.8060 
  205.1250     2.3630   -20.8270   383.5530    64.3260    24.0870    24.0140    20.9190    24.8240 
  205.2500     2.3530   -20.6820   371.3740    61.7080    24.0870    25.4680    21.0060    25.1310 
  205.3750     2.3450   -20.5370   367.4250    63.8130    24.0870    26.1470    20.0780    24.0330 
  205.5000     2.3430   -20.3860   373.8170    69.1420    24.0870    24.4480    18.1360    21.5100 
  205.6250     2.3480   -20.2090   385.3470    74.6320    24.0740    19.6430    15.6720    18.2860 
  205.7500     2.3580   -20.0200   393.6220    79.4360    24.0420    14.8670    13.4030    15.3950 
  205.8750     2.3750   -19.8130   396.1910    82.6980    24.0020    11.9650    11.6440    13.2560 
  206.0000     2.4000   -19.5990   393.7750    83.0010    23.9690    10.7570    10.4650    11.9290 
  206.1250     2.4220   -19.4000   385.8990    82.6500    23.9320    10.3830     9.8650    11.3620 
  206.2500     2.4410   -19.1910   372.7110    81.5960    23.9100    10.1930     9.6140    11.2100 
  206.3750     2.4580   -18.9770   355.3870    77.3050    23.8940     9.8840     9.5730    11.2640 
  206.5000     2.4720   -18.7640   337.3430    76.5440    23.8600     9.3200     9.6200    11.3560 
  206.6250     2.4710   -18.5530   323.4660    82.2860    23.7850     8.9140     9.6610    11.3610 
  206.7500     2.4580   -18.3550   315.4560    83.5080    23.7250     8.9080     9.6420    11.2500 
  206.8750     2.4440   -18.1700   313.1740    74.7740    23.6820     9.0340     9.5390    11.0240 
  207.0000     2.4390   -18.0070   315.0620    64.4590    23.6350     8.8130     9.3590    10.7120 
  207.1250     2.4460   -17.8780   318.1740    65.2050    23.6110     8.1080     9.1450    10.3930 
  207.2500     2.4580   -17.7880   318.8480    70.0770    23.5650     7.4040     8.9620    10.1520 
  207.3750     2.4720   -17.7300   315.6290    71.9660    23.4490     6.9950     8.8470    10.0320 
  207.5000     2.4870   -17.7020   310.0300    69.7990    23.3300     6.9240     8.8060    10.0350 
  207.6250     2.4950   -17.7100   306.4850    65.9500    23.4910     7.1370     8.8110    10.1370 
  207.7500     2.4890   -17.7270   307.2160    67.7990    23.6950     7.3380     8.8050    10.2510 
  207.8750     2.4710   -17.7570   310.7850    76.2060    23.5900     7.4880     8.7610    10.3240 
  208.0000     2.4490   -17.7880   314.0790    83.6010    23.4170     7.7220     8.6830    10.3320 
  208.1250     2.4240   -17.8180   314.9400    81.6350    23.4810     8.0350     8.5910    10.2730 
  208.2500     2.3930   -17.8550   314.9660    74.5070    23.7390     8.3030     8.5000    10.1700 
  208.3750     2.3650   -17.9000   316.2400    69.3290    23.9260     8.3560     8.4010    10.0300 
  208.5000     2.3600   -17.9520   319.7530    70.0350    23.8940     8.1250     8.2790     9.8570 
  208.6250     2.3910   -18.0070   324.2180    77.7560    23.5900     7.7750     8.1220     9.6600 
  208.7500     2.4330   -18.0650   326.4950    84.7720    23.2690     7.4700     7.9550     9.4710 
  208.8750     2.4610   -18.1230   325.0680    82.8560    23.0070     7.2610     7.8070     9.3260 
  209.0000     2.4630   -18.1960   320.8510    74.6260    22.8650     7.1650     7.7090     9.2610 
  209.1250     2.4550   -18.2530   316.4800    71.1050    22.8100     7.2060     7.6940     9.3250 
  209.2500     2.4590   -18.2850   313.3730    72.9710    22.7900     7.4460     7.7570     9.5080 
  209.3750     2.4790   -18.2980   310.9490    74.7350    22.7990     7.8000     7.8910     9.7900 
  209.5000     2.5050   -18.3000   308.4730    74.0250    22.8400     8.3360     8.0870    10.1420 
  209.6250     2.5270   -18.2950   305.7200    73.6460    22.9390     9.1010     8.3620    10.5690 
  209.7500     2.5440   -18.3030   302.2260    77.0510    23.0460     9.7860     8.7250    11.0850 
  209.8750     2.5590   -18.3060   297.1700    80.6640    23.1670    10.2470     9.1920    11.7130 
  210.0000     2.5690   -18.2940   290.7850    78.5950    23.2470    10.8070     9.7570    12.4580 
  210.1250     2.5690   -18.2800   285.3140    70.9900    23.2990    11.8720    10.3700    13.2880 
  210.2500     2.5590   -18.2730   282.2330    68.0510    23.3260    12.6430    10.9230    14.0680 
  210.3750     2.5480   -18.2690   281.0500    72.3090    23.3360    12.2090    11.3220    14.6630 
  210.5000     2.5440   -18.2700   280.6170    75.7670    23.3330    10.8480    11.5240    14.9920 
  210.6250     2.5440   -18.2910   280.7230    74.7600    23.3270    10.1680    11.5390    15.0350 
  210.7500     2.5490   -18.3090   281.6360    72.7260    23.3400    10.3600    11.4880    14.9530 
  210.8750     2.5650   -18.3320   283.0760    72.2510    23.4000    10.8710    11.4740    14.9020 
  211.0000     2.5910   -18.3490   283.9380    71.1980    23.5270    11.0990    11.5770    14.9990 
  211.1250     2.6090   -18.3550   282.3840    68.8150    23.6050    10.9660    11.8460    15.2960 
  211.2500     2.6080   -18.3490   278.5200    67.9180    23.6680    11.3160    12.2190    15.6930 
  211.3750     2.5960   -18.3240   274.0050    67.9460    23.7320    11.8510    12.6250    16.1080 
  211.5000     2.5830   -18.2820   271.3830    68.2020    23.8150    12.3690    12.9810    16.4540 
  211.6250     2.5750   -18.1900   272.1630    68.5150    23.9100    12.7970    13.1840    16.6160 
  211.7500     2.5690   -18.0500   274.2370    68.9530    24.0110    12.8610    13.2270    16.5870 
  211.8750     2.5620   -17.8590   276.1870    68.7030    24.0820    12.8670    13.1300    16.3900 
  212.0000     2.5510   -17.6230   278.3900    67.3660    24.1120    13.1880    12.9260    16.0590 
  212.1250     2.5330   -17.3390   282.5180    65.8380    24.1340    13.0870    12.6300    15.6080 
  212.2500     2.5140   -17.0160   288.1460    65.1430    24.1650    11.9900    12.2860    15.0900 
  212.3750     2.5040   -16.6880   293.6940    64.3820    24.1960    10.5440    11.9210    14.5490 
  212.5000     2.5090   -16.3660   297.7120    63.6200    24.2390     9.5320    11.5700    14.0430 
  212.6250     2.5230   -16.0750   299.1750    65.0000    24.2560     9.3040    11.2900    13.6710 
  212.7500     2.5370   -15.8260   298.3040    68.5490    24.2620     9.4830    11.1130    13.4670 
  212.8750     2.5550   -15.6280   294.7680    72.5400    24.2610     9.9080    11.0520    13.4310 
  213.0000     2.5760   -15.4880   288.3540    74.0700    24.2610    10.0890    11.0940    13.5250 
  213.1250     2.5860   -15.4300   280.1170    72.9140    24.2610     9.7230    11.2150    13.7080 
  213.2500     2.5800   -15.4270   273.6240    70.7040    24.2610     8.9900    11.3570    13.9110 
  213.3750     2.5650   -15.4560   272.0900    69.3620    24.2610     8.4320    11.4860    14.0940 
  213.5000     2.5490   -15.4940   276.6730    71.2170    24.2610     8.5050    11.5770    14.2270 
  213.6250     2.5370   -15.5340   285.5180    74.0130    24.2610     9.9490    11.6180    14.2930 
  213.7500     2.5290   -15.5790   293.3120    74.9840    24.2610    12.5480    11.6260    14.3100 
  213.8750     2.5290   -15.6340   296.4220    73.3790    24.2610    15.5000    11.6150    14.2840 
  214.0000     2.5350   -15.6950   293.6970    72.1720    24.2610    17.8290    11.5950    14.2190 
  214.1250     2.5380   -15.7500   286.4610    75.4190    24.2610    19.2180    11.5880    14.1200 
  214.2500     2.5350   -15.8080   278.3700    79.7980    24.2610    18.5690    11.6150    14.0430 
  214.3750     2.5290   -15.8570   271.3320    79.9470    24.2610    15.8340    11.7080    14.0680 
  214.5000     2.5250   -15.9030   267.0240    75.7980    24.2610    12.8360    11.8910    14.2640 
  214.6250     2.5290   -15.9380   268.2600    73.2930    24.2610    11.3790    12.1840    14.6720 
  214.7500     2.5320   -15.9580   274.3350    75.6700    24.2380    11.3550    12.5190    15.1560 
  214.8750     2.5300   -15.9680   282.5950    79.8910    24.1330    12.3300    12.8070    15.5460 
