~V
VERS. 2.00: Ver 2.00
~W
STRT.M 70.0000:
STOP.M 278.0000:
STEP.M 0.1250:
NULL. -999.2500:
UWI. DF3060:
~C
DEPT.M :
SP.MV :
GR.API :
RML.OHMM :
RI. :
RXO.OHMM :
CALI.CM :
DEN.GM/CC :
~A
# ...
   92.5000  -999.2500    71.6630     7.4430     6.1200     9.3370    22.5790  -999.2500 
   92.6250  -999.2500    68.5420     7.5950     6.1980     9.9470    22.7930  -999.2500 
   92.7500  -999.2500    65.4170     7.7890     6.3260    10.1980    22.9550  -999.2500 
   92.8750  -999.2500    65.1480     7.9650     6.4630    10.0190    23.0890  -999.2500 
   93.0000  -999.2500    66.4920     8.0750     6.5640     9.6550    23.1600  -999.2500 
   93.1250  -999.2500    66.3840     8.0780     6.5850     9.2850    23.1770  -999.2500 
   93.2500  -999.2500    64.6530     8.0090     6.5390     9.0800    23.1840  -999.2500 
   93.3750  -999.2500    63.1540     7.9080     6.4530     8.8900    23.1990  -999.2500 
   93.5000  -999.2500    63.3970     7.8210     6.3640     8.7670    23.2340  -999.2500 
   93.6250  -999.2500    65.0510     7.7940     6.3100     8.8640    23.3070  -999.2500 
   93.7500  -999.2500    66.1190     7.8370     6.3040     9.0230    23.4080  -999.2500 
   93.8750  -999.2500    64.5850     7.9460     6.3440     9.2810    23.5030  -999.2500 
   94.0000  -999.2500    62.0300     8.0970     6.4200     9.6600    23.6000  -999.2500 
   94.1250  -999.2500    62.3620     8.2430     6.5110    10.0390    23.7370  -999.2500 
   94.2500  -999.2500    64.0930     8.3480     6.5920    10.2360    23.9080  -999.2500 
   94.3750  -999.2500    65.4080     8.3960     6.6430    10.0700    24.0880  -999.2500 
   94.5000  -999.2500    65.7470     8.3960     6.6480     9.6090    24.1790  -999.2500 
   94.6250  -999.2500    67.0050     8.3580     6.5990     9.0400    24.0730  -999.2500 
   94.7500  -999.2500    68.9280     8.2990     6.5140     8.4450    23.8720  -999.2500 
   94.8750  -999.2500    70.6320     8.2230     6.4130     7.9380    23.6770  -999.2500 
   95.0000  -999.2500    70.8240     8.1420     6.3180     7.6100    23.5370  -999.2500 
   95.1250  -999.2500    68.2550     8.0920     6.2550     7.4070    23.3640  -999.2500 
   95.2500  -999.2500    66.3180     8.1070     6.2370     7.1470    23.0660  -999.2500 
   95.3750  -999.2500    68.2200     8.1980     6.2660     6.8390    22.6270  -999.2500 
   95.5000  -999.2500    72.7580     8.3330     6.3230     6.6470    22.1560  -999.2500 
   95.6250  -999.2500    75.2380     8.4180     6.3590     6.6480    21.8840  -999.2500 
   95.7500  -999.2500    74.7620     8.3580     6.3150     6.6830    21.7940  -999.2500 
   95.8750  -999.2500    73.8750     8.1010     6.1520     6.7010    21.7800  -999.2500 
   96.0000  -999.2500    75.1680     7.6790     5.8780     6.6160    21.7720  -999.2500 
   96.1250  -999.2500    78.1170     7.2330     5.5720     6.3200    21.7490  -999.2500 
   96.2500  -999.2500    79.7110     6.9570     5.3550     5.9800    21.7020  -999.2500 
   96.3750  -999.2500    78.7990     6.9600     5.3090     5.7930    21.6290  -999.2500 
   96.5000  -999.2500    75.9280     7.2450     5.4510     5.9890    21.5610  -999.2500 
   96.6250  -999.2500    71.3890     7.6800     5.7250     6.8620    21.6330  -999.2500 
   96.7500  -999.2500    66.3260     8.0000     5.9640     7.9150    21.8760  -999.2500 
   96.8750  -999.2500    63.6910     8.0310     6.0400     8.3280    22.2870  -999.2500 
   97.0000  -999.2500    64.6760     7.7360     5.9000     7.8540    22.6980  -999.2500 
   97.1250  -999.2500    66.9980     7.2540     5.5930     6.9630    22.9460  -999.2500 
   97.2500  -999.2500    69.1160     6.8690     5.3010     6.2280    23.0230  -999.2500 
   97.3750  -999.2500    69.7030     6.7380     5.1500     5.9920    23.0360  -999.2500 
   97.5000  -999.2500    68.0610     6.8820     5.1920     6.3190    23.0360  -999.2500 
   97.6250  -999.2500    65.8090     7.2050     5.4170     7.0990    23.0360  -999.2500 
   97.7500  -999.2500    65.7700     7.5270     5.7140     7.5410    23.0360  -999.2500 
   97.8750  -999.2500    66.7690     7.7660     6.0100     7.6420    23.0360  -999.2500 
   98.0000  -999.2500    66.5920     7.9220     6.2690     7.6020    23.0360  -999.2500 
   98.1250  -999.2500    65.4230     8.0740     6.4960     7.6170    23.0380  -999.2500 
   98.2500  -999.2500    64.2390     8.2790     6.7160     7.6840    23.0450  -999.2500 
   98.3750  -999.2500    64.3670     8.4960     6.9090     7.7580    23.0590  -999.2500 
   98.5000  -999.2500    65.8770     8.5980     7.0040     7.7910    23.0880  -999.2500 
   98.6250  -999.2500    66.7300     8.3640     6.8560     7.5770    23.1370  -999.2500 
   98.7500  -999.2500    67.0960     7.7710     6.4350     6.9920    23.1850  -999.2500 
   98.8750  -999.2500    69.1420     6.8950     5.7770     6.0030    23.2350  -999.2500 
   99.0000  -999.2500    75.0260     5.9160     4.9950     4.6830    23.2970  -999.2500 
   99.1250  -999.2500    83.9010     5.0790     4.2660     3.4300    23.3330  -999.2500 
   99.2500  -999.2500    93.1200     4.5260     3.7220     2.7220    23.3090  -999.2500 
   99.3750  -999.2500   100.4130     4.3120     3.4240     2.6070    23.2700  -999.2500 
   99.5000  -999.2500   103.7140     4.4260     3.3810     2.7570    23.2460  -999.2500 
   99.6250  -999.2500   102.7780     4.8190     3.5730     2.8950    23.2250  -999.2500 
   99.7500  -999.2500   100.9180     5.2980     3.8560     2.9260    23.1910  -999.2500 
   99.8750  -999.2500   100.2540     5.6900     4.1030     2.9780    23.1630  -999.2500 
  100.0000  -999.2500   100.0610     5.8300     4.1930     3.1320    23.1450  -999.2500 
  100.1250  -999.2500    98.0390     5.5430     4.0040     3.4060    23.1240  -999.2500 
  100.2500  -999.2500    96.1940     4.8910     3.5930     3.6710    23.0880  -999.2500 
  100.3750  -999.2500    96.2680     4.0230     3.0600     3.8250    23.0430  -999.2500 
  100.5000  -999.2500    97.1160     3.2430     2.5720     3.9350    23.0060  -999.2500 
  100.6250  -999.2500    96.1340     3.1220     2.4640     4.3480    22.9540  -999.2500 
  100.7500  -999.2500    93.1980     4.2100     3.0960     5.8520    22.8540  -999.2500 
  100.8750  -999.2500    88.7130     6.9320     4.8820     8.9370    22.6950  -999.2500 
  101.0000  -999.2500    82.7630    11.3400     8.0650    13.7400    22.5080  -999.2500 
  101.1250  -999.2500    76.4470    16.8410    12.4720    20.1220    22.3080  -999.2500 
  101.2500  -999.2500    70.8110    21.3090    16.7550    25.3890    22.1850  -999.2500 
  101.3750  -999.2500    66.4010    23.3450    19.4030    26.8800    22.1290  -999.2500 
  101.5000  -999.2500    64.0760    21.8580    19.2440    23.7860    22.0940  -999.2500 
  101.6250  -999.2500    64.9530    17.4950    16.2410    17.3430    22.0160  -999.2500 
  101.7500  -999.2500    67.0140    12.8890    12.6080    11.6800    21.9060  -999.2500 
  101.8750  -999.2500    67.9780     9.4550     9.6080     8.4080    21.8340  -999.2500 
  102.0000  -999.2500    66.9900     7.7570     7.6270     7.2050    21.8840  -999.2500 
  102.1250  -999.2500    64.9720     7.3150     6.6750     6.9660    22.0580  -999.2500 
  102.2500  -999.2500    65.0770     7.4240     6.3270     6.9520    22.2510  -999.2500 
  102.3750  -999.2500    67.5020     7.7480     6.3400     6.9800    22.3890  -999.2500 
  102.5000  -999.2500    69.8080     8.0390     6.4950     6.9260    22.5370  -999.2500 
  102.6250  -999.2500    69.7300     8.1300     6.6100     6.8120    22.7760  -999.2500 
  102.7500  -999.2500    67.9460     8.0460     6.6170     6.6750    23.0250  -999.2500 
  102.8750  -999.2500    66.6650     7.8480     6.5280     6.5170    23.1770  -999.2500 
  103.0000  -999.2500    66.6910     7.6130     6.3880     6.3780    23.2290  -999.2500 
  103.1250  -999.2500    68.2740     7.4200     6.2590     6.3690    23.2400  -999.2500 
  103.2500  -999.2500    70.1140     7.3220     6.1900     6.4730    23.2550  -999.2500 
  103.3750  -999.2500    69.8090     7.3480     6.2070     6.7060    23.2910  -999.2500 
  103.5000  -999.2500    67.5300     7.4990     6.3140     7.0320    23.3650  -999.2500 
  103.6250  -999.2500    65.0630     7.7540     6.4940     7.2430    23.4740  -999.2500 
