~V
VERS. 2.00: Ver 2.00
~W
STRT.M 90.0000:
STOP.M 264.0000:
STEP.M 0.1250:
NULL. -999.2500:
UWI. DF3021:
~C
DEPT.M :
AC.US/MT :
DEN.GM/CC :
GR.API :
CALI.CM :
RXO.OHMM :
RI. :
RML.OHMM :
SP.MV :
~A
# ...
  180.0000   423.4660     2.2280    55.6740    28.2740     6.0330     5.4500     5.7560   -16.3050 
  180.1250   421.6450     2.2260    54.0050    28.2970     6.1430     5.5150     5.9570   -16.2350 
  180.2500   415.9470     2.2440    49.5120    28.6770     5.9400     5.5690     6.1090   -16.1560 
  180.3750   410.3410     2.2680    45.7150    28.6870     5.6890     5.5850     6.1710   -16.1040 
  180.5000   407.8280     2.2910    44.6160    27.7720     5.5110     5.5550     6.1510   -16.1160 
  180.6250   408.5220     2.3030    44.7310    26.9020     5.3770     5.4930     6.0960   -16.1650 
  180.7500   409.9920     2.3040    44.9490    27.3400     5.2690     5.4250     6.0510   -16.2290 
  180.8750   411.5760     2.3080    45.0950    28.7020     5.2190     5.3610     6.0230   -16.3110 
  181.0000   413.0460     2.3260    44.0510    29.8490     5.2170     5.3000     6.0000   -16.4150 
  181.1250   413.0140     2.3540    41.7350    30.2510     5.2090     5.2440     5.9800   -16.5100 
  181.2500   410.9210     2.3750    42.1630    30.2990     5.1610     5.1960     5.9720   -16.6410 
  181.3750   407.5900     2.3880    46.4590    30.2210     5.1290     5.1660     5.9960   -16.8180 
  181.5000   403.8560     2.4010    50.3790    29.7680     5.1630     5.1630     6.0640   -17.0250 
  181.6250   398.7720     2.4160    50.9340    29.2600     5.2710     5.2000     6.1870   -17.3190 
  181.7500   392.0990     2.4230    51.5500    28.9760     5.3930     5.2760     6.3570   -17.6900 
  181.8750   386.3060     2.4200    55.0240    29.0390     5.4990     5.3960     6.5780   -18.1290 
  182.0000   385.3890     2.4100    61.0970    29.1780     5.6270     5.5680     6.8650   -18.6420 
  182.1250   391.7230     2.4040    70.0570    28.7630     5.8600     5.8160     7.2630   -19.2910 
  182.2500   399.9080     2.4020    78.8690    27.8280     6.2530     6.1390     7.7740   -20.0260 
  182.3750   404.3500     2.4010    83.3500    26.9570     6.8600     6.5290     8.3790   -20.8030 
  182.5000   402.7800     2.3990    82.1140    26.3190     7.7030     6.9500     9.0190   -21.5820 
  182.6250   398.2870     2.4030    80.5420    25.6340     8.6760     7.3260     9.5710   -22.3870 
  182.7500   396.7080     2.4060    84.0910    24.7000     9.5150     7.6000     9.9620   -23.1830 
  182.8750   399.7920     2.4010    89.9830    24.2780    10.0590     7.7510    10.1800   -23.9100 
  183.0000   405.8410     2.3890    92.1090    24.2150    10.2470     7.7940    10.2720   -24.6070 
  183.1250   411.5470     2.3790    90.1430    24.2040    10.4270     7.7600    10.3000   -25.2490 
  183.2500   415.1800     2.3760    88.1400    24.1880    10.7110     7.6940    10.3120   -25.8060 
  183.3750   417.2910     2.3740    87.7590    24.1790    11.0100     7.6080    10.2960   -26.3080 
  183.5000   419.8280     2.3700    89.1280    24.1600    10.8460     7.5030    10.2220   -26.7970 
  183.6250   424.6610     2.3750    92.6150    24.1210    10.1660     7.3950    10.0980   -27.1940 
  183.7500   429.6640     2.3920    95.4570    24.0230     9.4650     7.3360    10.0340   -27.5320 
  183.8750   430.8670     2.4100    94.6630    23.8360     9.1470     7.3920    10.1610   -27.8660 
  184.0000   425.5520     2.4210    92.0470    23.6290     9.2870     7.6260    10.5830   -28.1450 
  184.1250   414.5050     2.4280    93.7130    23.6040     9.8310     8.0860    11.3440   -28.3390 
  184.2500   403.4870     2.4360    96.5860    23.6090    11.2470     8.6680    12.2360   -28.4660 
  184.3750   396.3710     2.4390    95.3760    23.6040    13.4050     9.2420    13.0220   -28.5100 
  184.5000   394.6750     2.4350    90.4440    23.6270    15.1960     9.6610    13.4780   -28.4200 
  184.6250   398.0480     2.4250    87.8240    23.6420    15.1470     9.7890    13.4470   -28.1960 
  184.7500   403.4530     2.4120    88.7400    23.6680    13.9020     9.6820    13.1030   -27.8560 
  184.8750   409.1940     2.3980    89.7800    23.6720    12.7580     9.4080    12.6060   -27.3870 
  185.0000   414.3770     2.3880    91.2500    23.6200    12.2520     9.0270    12.0550   -26.7790 
  185.1250   418.7520     2.3910    93.4380    23.4350    11.5520     8.5460    11.4300   -26.0130 
  185.2500   423.1480     2.4020    95.8680    23.1550    10.4100     7.9850    10.6820   -25.1470 
  185.3750   428.2140     2.4190    96.4180    22.9760     9.1330     7.3720     9.8190   -24.2170 
  185.5000   432.8310     2.4400    90.0780    23.1710     8.0310     6.7830     8.9530   -23.2590 
  185.6250   432.1150     2.4600    76.9110    23.6100     7.0850     6.3480     8.3140   -22.3470 
  185.7500   423.9720     2.4720    68.9780    23.9380     6.4630     6.1220     8.0120   -21.5030 
  185.8750   411.0970     2.4720    71.1890    23.8290     6.2940     6.1020     8.0390   -20.7490 
  186.0000   399.7680     2.4610    77.0820    23.2870     6.5460     6.2220     8.2640   -20.0930 
  186.1250   396.1420     2.4450    78.0100    22.9150     7.0420     6.3630     8.4540   -19.5350 
  186.2500   398.2370     2.4340    74.7800    22.9220     7.2930     6.4060     8.4210   -19.0440 
  186.3750   401.9710     2.4310    68.2560    23.7050     6.9060     6.3250     8.1480   -18.6080 
  186.5000   403.7250     2.4280    59.4600    25.3800     6.1600     6.1740     7.7660   -18.2570 
  186.6250   401.7320     2.4100    53.2880    27.1200     5.7020     6.0620     7.5000   -17.9480 
  186.7500   397.9430     2.3830    52.2410    27.5560     5.7450     6.0570     7.4600   -17.6900 
  186.8750   394.0610     2.3600    55.4380    26.9140     6.2020     6.1660     7.6370   -17.4370 
  187.0000   390.3520     2.3580    61.1370    25.9400     6.7700     6.3420     7.9240   -17.2140 
  187.1250   385.4700     2.3770    66.8440    25.1790     6.9830     6.4810     8.1280   -17.0540 
  187.2500   379.8040     2.3980    70.0130    24.7110     6.8290     6.5030     8.1200   -16.9430 
  187.3750   376.0200     2.4140    68.0490    24.3200     6.5060     6.3970     7.8890   -16.8630 
  187.5000   376.9870     2.4270    65.5290    24.1630     6.1470     6.2150     7.5350   -16.7930 
  187.6250   383.1720     2.4360    70.7300    24.1450     5.9290     6.0710     7.2530   -16.7870 
  187.7500   389.4280     2.4360    79.8020    24.2600     5.9140     6.0570     7.1950   -16.7870 
  187.8750   391.2100     2.4290    85.8260    24.3640     6.2280     6.2250     7.4310   -16.8150 
  188.0000   386.6760     2.4250    86.0910    24.3800     7.0710     6.5850     7.9550   -16.8670 
  188.1250   377.8570     2.4250    84.4810    24.2600     8.2750     7.0960     8.6690   -16.9150 
  188.2500   370.1690     2.4250    81.9900    24.2030     9.2130     7.5890     9.3040   -16.9760 
  188.3750   366.4170     2.4190    82.1750    24.1940     9.5610     7.8940     9.6200   -17.0190 
  188.5000   367.0420     2.4080    88.4400    24.2080     9.5460     7.8930     9.4810   -17.0370 
  188.6250   371.3510     2.4000    93.5840    24.2110     9.1990     7.5650     8.9040   -16.9960 
  188.7500   377.1470     2.4010    92.1210    24.2000     8.4690     7.1070     8.2010   -16.9150 
  188.8750   382.9110     2.4090    86.7140    24.1870     7.4570     6.6670     7.5910   -16.8480 
  189.0000   387.5080     2.4130    84.6060    24.1830     6.7060     6.3390     7.1950   -16.7930 
  189.1250   390.4990     2.4060    86.4380    24.1850     6.7150     6.1650     7.0430   -16.7750 
  189.2500   392.5750     2.3950    88.1540    24.1860     6.9020     6.0890     7.0090   -16.8300 
  189.3750   394.0140     2.3920    89.4780    24.1860     6.9460     6.0610     7.0010   -16.9580 
  189.5000   395.1020     2.4000    89.9190    24.1860     6.8220     6.0390     6.9570   -17.0800 
  189.6250   396.6100     2.4080    91.0340    24.1830     6.6970     6.0070     6.8780   -17.2320 
  189.7500   398.6360     2.4030    92.2400    24.1730     6.5450     6.0100     6.8540   -17.5680 
  189.8750   399.8940     2.3870    92.0350    24.1490     6.5830     6.1170     6.9930   -17.9540 
