~V
VERS. 2.00: Ver 2.00
~W
STRT.M 54.0000:
STOP.M 250.0000:
STEP.M 0.1250:
NULL. -999.2500:
UWI. DF3016:
~C
DEPT.M :
GR.API :
RML.OHMM :
RI. :
RXO.OHMM :
CALI.CM :
DEN.GM/CC :
SP.MV :
~A
# ...
  222.7500    72.9480    25.3370    23.3370    23.4660    24.2940     2.2970   -16.8180 
  222.8750    73.1700    24.0190    22.1710    21.4750    24.1580     2.2880   -16.6500 
  223.0000    74.3390    23.0830    21.3800    19.8840    23.9670     2.2880   -16.5470 
  223.1250    74.0150    22.5390    20.9440    18.1970    23.8660     2.2930   -16.4900 
  223.2500    72.7850    22.2620    20.7330    17.5800    23.8340     2.3020   -16.4950 
  223.3750    73.4760    22.1520    20.6510    17.8030    23.8320     2.3120   -16.4990 
  223.5000    75.4510    22.0910    20.5920    18.5170    23.8320     2.3200   -16.5100 
  223.6250    75.7530    21.9780    20.4520    18.8110    23.8320     2.3240   -16.5530 
  223.7500    75.9060    21.8050    20.2200    18.7660    23.8320     2.3250   -16.6110 
  223.8750    74.9910    21.6270    19.9360    18.7310    23.8370     2.3230   -16.6870 
  224.0000    73.1580    21.5320    19.6810    18.7910    23.8460     2.3200   -16.7420 
  224.1250    72.5860    21.6430    19.5730    18.5000    23.8570     2.3170   -16.8230 
  224.2500    73.1390    21.9840    19.6630    18.7410    23.8490     2.3140   -16.8850 
  224.3750    73.7160    22.5660    19.9770    19.7420    23.8530     2.3160   -16.9750 
  224.5000    74.1650    23.3740    20.5160    20.8650    23.8590     2.3250   -17.0840 
  224.6250    75.2440    24.4100    21.2950    21.7630    23.8510     2.3380   -17.1810 
  224.7500    73.3770    25.5860    22.2410    22.4490    23.8380     2.3500   -17.2790 
  224.8750    69.6390    26.8340    23.3050    23.6700    23.8360     2.3490   -17.3540 
  225.0000    67.8190    28.0840    24.4250    25.4430    23.8580     2.3360   -17.4500 
  225.1250    68.1370    29.2500    25.5190    26.7590    23.9200     2.3180   -17.4760 
  225.2500    69.8010    30.2540    26.4920    28.7310    23.9820     2.3020   -17.4830 
  225.3750    73.0500    30.9700    27.2210    31.0470    23.9850     2.2970   -17.4360 
  225.5000    76.9230    31.2040    27.5320    31.5590    23.9150     2.3030   -17.3640 
  225.6250    78.1600    30.5870    27.0980    29.7600    23.8020     2.3180   -17.2670 
  225.7500    76.9890    29.1300    25.9150    28.3860    23.6850     2.3380   -17.1390 
  225.8750    77.7730    26.9660    24.0760    26.8330    23.5780     2.3580   -16.9880 
  226.0000    81.7750    24.4140    21.8460    24.2810    23.4940     2.3730   -16.7910 
  226.1250    85.7320    21.9310    19.6080    19.5430    23.4830     2.3790   -16.6000 
  226.2500    86.6620    19.8740    17.6950    15.2720    23.5940     2.3730   -16.4030 
  226.3750    86.0120    18.4280    16.2900    13.9580    23.7790     2.3560   -16.2290 
  226.5000    86.5840    17.6610    15.4750    13.9550    23.9450     2.3410   -16.0640 
  226.6250    88.1230    17.6630    15.3560    13.6210    23.9870     2.3350   -15.8970 
  226.7500    88.7780    18.2420    15.7850    14.1700    23.9560     2.3420   -15.7900 
  226.8750    87.2800    19.2810    16.6780    16.6380    23.9080     2.3570   -15.7240 
  227.0000    82.4510    20.6280    17.9150    19.6770    23.8790     2.3680   -15.7530 
  227.1250    76.8020    22.0770    19.3320    22.9210    23.8920     2.3670   -15.8170 
  227.2500    72.5380    23.3540    20.6640    23.7600    23.8660     2.3540   -15.9390 
  227.3750    69.5270    24.2680    21.7100    24.6580    23.7840     2.3340   -16.0570 
  227.5000    67.2640    24.7660    22.3640    25.2480    23.6170     2.3160   -16.1680 
  227.6250    67.2460    24.9790    22.6570    25.7790    23.4360     2.3040   -16.2990 
  227.7500    69.0950    25.2560    22.8720    25.5370    23.3520     2.2960   -16.4060 
  227.8750    71.8900    25.8070    23.1990    24.9960    23.4320     2.2890   -16.4860 
  228.0000    73.9660    26.6570    23.7110    24.6780    23.6550     2.2820   -16.4790 
  228.1250    73.5980    27.5870    24.3010    26.8730    23.8970     2.2780   -16.4570 
  228.2500    70.8680    28.1990    24.7010    31.0650    24.0130     2.2800   -16.3540 
  228.3750    67.9060    28.2050    24.6860    32.6900    24.0180     2.2880   -16.2430 
  228.5000    67.9100    27.5110    24.1520    30.1920    23.9820     2.2960   -16.1130 
  228.6250    69.8100    26.2270    23.1510    27.0270    23.9300     2.2990   -15.9650 
  228.7500    69.6360    24.8650    22.0550    24.8600    23.9080     2.2940   -15.8020 
  228.8750    67.9720    23.8850    21.2110    23.9930    23.9140     2.2860   -15.6390 
  229.0000    67.0890    23.7430    20.9760    22.8610    23.9470     2.2810   -15.4910 
  229.1250    67.7430    25.0360    21.8580    22.9020    24.0000     2.2890   -15.3410 
  229.2500    68.5340    27.6110    23.8280    23.9170    24.0460     2.3180   -15.2250 
  229.3750    68.9110    31.0100    26.6300    26.9780    24.0920     2.3770   -15.1180 
  229.5000    68.8490    34.3100    29.5900    32.1330    24.1280     2.4500   -15.0150 
  229.6250    68.5610    36.0070    31.4720    40.2550    24.1280     2.5090   -14.9220 
  229.7500    69.2040    35.5130    31.5670    52.6110    24.1430     2.5300   -14.8040 
  229.8750    71.1580    33.0290    29.8440    61.0110    24.1640     2.4960   -14.6820 
  230.0000    74.2930    29.5500    27.0320    44.6990    24.1740     2.4380   -14.5510 
  230.1250    77.0470    26.4810    24.2950    26.6150    24.1640     2.3840   -14.4060 
  230.2500    76.9620    24.5490    22.3720    20.8990    24.1400     2.3510   -14.2550 
  230.3750    76.0940    23.8210    21.4150    20.4050    24.1120     2.3450   -14.1220 
  230.5000    78.6720    24.0270    21.2900    21.0230    24.0890     2.3560   -14.0320 
  230.6250    83.8640    24.7700    21.7540    20.1530    24.0710     2.3740   -13.9500 
  230.7500    83.0020    25.5100    22.3460    18.2240    24.0780     2.3930   -13.9500 
  230.8750    76.7410    25.9610    22.7890    17.8370    24.0960     2.4040   -14.0180 
  231.0000    71.7450    26.0080    22.9330    19.6510    24.1050     2.4090   -14.1420 
  231.1250    71.3760    25.7200    22.7690    22.9960    24.0920     2.4110   -14.3170 
  231.2500    71.8690    25.4780    22.5660    25.7590    24.0660     2.4130   -14.5390 
  231.3750    71.3500    25.6840    22.6270    25.4880    24.0580     2.4100   -14.7780 
  231.5000    70.8380    26.7100    23.2620    23.9380    24.1000     2.3960   -15.0390 
  231.6250    70.5840    28.9240    24.8240    25.6480    24.1620     2.3680   -15.3200 
  231.7500    70.5950    31.9900    27.1360    29.8430    24.2100     2.3310   -15.5520 
  231.8750    71.3860    35.4310    29.8840    36.0480    24.2350     2.2970   -15.7380 
  232.0000    71.5550    38.5990    32.5570    41.8360    24.2380     2.2780   -15.9120 
  232.1250    71.3920    40.6720    34.4490    46.4070    24.2320     2.2750   -16.0580 
  232.2500    72.6770    41.5490    35.3640    47.7320    24.1970     2.2870   -16.1710 
  232.3750    75.5020    41.4850    35.4310    46.9520    24.0360     2.3070   -16.2430 
  232.5000    79.0580    41.0010    35.0330    44.1870    23.9390     2.3250   -16.2660 
  232.6250    82.5650    40.6670    34.6230    40.6230    24.0110     2.3340   -16.2570 
  232.7500    84.8310    40.6760    34.4310    40.0530    24.0910     2.3310   -16.2260 
  232.8750    85.1170    40.8980    34.4140    42.9330    24.1400     2.3180   -16.1680 
  233.0000    84.1760    41.0260    34.3740    45.9520    24.1560     2.3060   -16.0400 
  233.1250    83.2730    40.6060    33.9810    50.2550    24.1550     2.3050   -15.9100 
  233.2500    81.3790    39.5350    33.0810    50.6040    24.0110     2.3200   -15.6830 
  233.3750    78.6870    37.8020    31.6190    48.8700    23.8010     2.3520   -15.4330 
  233.5000    78.0410    35.4590    29.6640    45.3330    23.7150     2.3900   -15.1240 
  233.6250    79.9340    32.7010    27.3940    36.8010    23.9270     2.4200   -14.8090 
  233.7500    81.6640    29.6810    25.1100    31.1600    24.0050     2.4320   -14.4530 
  233.8750    81.3930    26.5450    22.9300    28.2610    23.9830     2.4270   -14.0840 
