~V
VERS. 2.00: Ver 2.00
~W
STRT.M 61.0000:
STOP.M 279.0000:
STEP.M 0.1250:
NULL. -999.2500:
UWI. DF3040:
~C
DEPT.M :
GR.API :
CALI.CM :
RXO.OHMM :
RI. :
RML.OHMM :
DEN.GM/CC :
SP.MV :
~A
# ...
  106.0000    70.4220    22.7900     9.3660     6.5420     8.0170  -999.2500   -20.7100 
  106.1250    68.0040    22.7320     9.3400     6.8150     8.5390  -999.2500   -20.7380 
  106.2500    65.2950    22.5800     9.2890     7.4230     9.4890  -999.2500   -20.7250 
  106.3750    63.6110    22.5670     9.3510     8.4020    10.8880  -999.2500   -20.6010 
  106.5000    61.3370    22.6350     9.6270     9.7240    12.6350  -999.2500   -20.4350 
  106.6250    58.5560    23.0500    10.3960    11.2100    14.4200  -999.2500   -20.3270 
  106.7500    56.4140    23.4630    15.2880    12.3280    15.7980  -999.2500   -20.3010 
  106.8750    56.2640    23.7160    25.8760    12.9800    16.4700  -999.2500   -20.3440 
  107.0000    58.5520    23.8110    34.3020    12.9450    16.1500  -999.2500   -20.4170 
  107.1250    60.4270    23.7710    32.1960    12.1580    14.7670  -999.2500   -20.4610 
  107.2500    58.5660    23.6800    26.3930    11.0200    13.0310  -999.2500   -20.4660 
  107.3750    56.2490    23.0720    19.8590     9.8510    11.4430  -999.2500   -20.4930 
  107.5000    58.2990    22.5100    13.8240     8.8740    10.2610  -999.2500   -20.6060 
  107.6250    63.8410    22.2570    11.7230     8.2450     9.6430  -999.2500   -20.8040 
  107.7500    68.7810    22.1030    11.4560     7.9340     9.4270  -999.2500   -20.9840 
  107.8750    72.4600    21.9600    11.5580     7.8980     9.4930  -999.2500   -21.0860 
  108.0000    73.9400    21.8880    11.3230     8.0740     9.6910  -999.2500   -21.0760 
  108.1250    72.5160    21.8960    10.8680     8.3910     9.9050  -999.2500   -20.9860 
  108.2500    69.9000    21.8460    11.1970     8.7290    10.0540  -999.2500   -20.9140 
  108.3750    67.6520    21.7360    12.0520     9.0090    10.0660  -999.2500   -20.8880 
  108.5000    63.4990    21.8090    12.1290     9.1660     9.9660  -999.2500   -20.8800 
  108.6250    59.0310    22.0520    11.1740     9.1380     9.7380  -999.2500   -20.7840 
  108.7500    59.2650    22.1610    10.2580     8.9200     9.3930  -999.2500   -20.5690 
  108.8750    63.3900    22.2480     9.6050     8.5310     8.9380  -999.2500   -20.2950 
  109.0000    67.4840    22.5120     9.0790     8.0150     8.4150  -999.2500   -20.0690 
  109.1250    72.1480    22.7030     8.4320     7.4570     7.8900  -999.2500   -19.9680 
  109.2500    79.6800    23.0690     7.6340     6.9780     7.4400  -999.2500   -19.9770 
  109.3750    84.8920    23.3490     7.2940     6.6220     7.1290  -999.2500   -20.0190 
  109.5000    81.4940    23.3860     7.3520     6.4240     6.9880     2.3310   -20.0080 
  109.6250    73.5860    23.2090     8.0580     6.4480     7.0810     2.3310   -19.9880 
  109.7500    70.6640    23.1480     8.5810     6.6570     7.3590     2.3200   -20.0990 
  109.8750    71.4950    23.1290     8.9340     6.9990     7.7590     2.2920   -20.3620 
  110.0000    72.6910    23.1180     9.3890     7.4130     8.2260     2.2690   -20.7030 
  110.1250    72.4970    23.0840     9.3590     7.8240     8.6840     2.2680   -21.0130 
  110.2500    70.6950    23.0040     9.5670     8.1450     9.1100     2.2860   -21.2130 
  110.3750    68.1580    22.9410    10.2460     8.3690     9.4670     2.3100   -21.3260 
  110.5000    66.7750    22.8210    10.6600     8.4620     9.7190     2.3190   -21.4350 
  110.6250    68.7230    22.7290    10.3800     8.4060     9.8000     2.3020   -21.5940 
  110.7500    71.5910    22.5840    10.1100     8.2700     9.7760     2.2830   -21.7740 
  110.8750    75.4380    22.4770    10.5420     8.1960     9.8270     2.2920   -21.9170 
  111.0000    80.7740    22.0970    11.0550     8.3430    10.1880     2.3370   -21.9720 
  111.1250    83.1090    21.7900    11.2170     8.9220    11.1790     2.3780   -21.9520 
  111.2500    79.5410    21.7470    11.8220     9.9390    12.7540     2.3800   -21.9660 
  111.3750    72.1790    21.8500    12.4180    11.3570    14.7580     2.3600   -22.0580 
  111.5000    64.1550    22.2410    13.9780    13.0040    16.8440     2.3690   -22.2410 
  111.6250    58.1660    22.7590    23.2870    14.4110    18.3620     2.4390   -22.4970 
  111.7500    55.1460    23.3980    40.6140    15.0130    18.8380     2.5180   -22.7220 
  111.8750    55.3000    23.5870    51.3480    14.5530    18.0270     2.5500   -22.8800 
  112.0000    57.5580    23.3370    41.9640    13.2510    16.2290     2.5150   -22.9910 
  112.1250    60.0550    22.9720    23.7680    11.5860    14.0320     2.4240   -23.1530 
  112.2500    61.5310    22.8200    14.0510    10.1110    12.1770     2.3280   -23.3600 
  112.3750    62.3490    22.7970    11.8620     9.0170    10.9690     2.2550   -23.5440 
  112.5000    63.9900    22.5660    10.9910     8.3550    10.4460     2.2170   -23.6310 
  112.6250    66.3590    22.5400    10.2600     8.1370    10.5100     2.2070   -23.5810 
  112.7500    67.6020    22.5980     9.8290     8.2030    10.8260     2.2060   -23.4700 
  112.8750    67.2290    22.6750     9.8400     8.4330    11.2100     2.2080   -23.3400 
  113.0000    66.1910    22.6270    10.3540     8.6890    11.5110     2.2100   -23.2650 
  113.1250    66.2590    22.4820    11.0130     8.8990    11.6680     2.2130   -23.2430 
  113.2500    65.8110    22.3900    10.8550     9.0710    11.7690     2.2190   -23.2200 
  113.3750    62.5910    22.0060    10.0820     9.1760    11.8130     2.2290   -23.2110 
  113.5000    58.3080    21.3530     9.5910     9.2210    11.8050     2.2410   -23.2040 
  113.6250    61.2980    20.8480     9.6410     9.1780    11.6990     2.2480   -23.2200 
  113.7500    68.6630    20.3380     9.6400     9.0610    11.5030     2.2480   -23.2290 
  113.8750    72.1440    19.9260     9.4490     8.8790    11.2390     2.2480   -23.2380 
  114.0000    69.5080    19.6330     8.7860     8.6600    10.9300     2.2510   -23.2350 
  114.1250    66.5490    19.4890     8.1840     8.4250    10.6220     2.2540   -23.1860 
  114.2500    68.2360    19.4500     7.7880     8.2220    10.3090     2.2500   -23.1280 
  114.3750    73.4460    19.4530     7.8560     8.0720    10.0300     2.2390   -23.0790 
  114.5000    77.6970    19.4870     8.2030     7.9890     9.8080     2.2290   -23.0640 
  114.6250    75.0650    19.5290     8.8460     7.9870     9.6530     2.2290   -23.0820 
  114.7500    70.0570    19.6770     9.1780     8.0570     9.5500     2.2300   -23.1220 
  114.8750    68.2590    19.7980     9.3670     8.1800     9.4740     2.2220   -23.1850 
  115.0000    68.5320    20.1020     9.6220     8.3330     9.4320     2.2040   -23.2230 
  115.1250    65.8380    20.3730     9.9350     8.4770     9.3810     2.1920   -23.1920 
  115.2500    61.9870    20.6910    10.3830     8.5670     9.3420     2.1940   -23.1310 
  115.3750    60.4600    21.1340    11.1490     8.6110     9.2860     2.2060   -23.0890 
  115.5000    62.1880    21.9950    12.0060     8.6040     9.1950     2.2150   -23.0580 
  115.6250    66.7290    22.4260    12.6140     8.5000     9.0430     2.2080   -23.0200 
  115.7500    70.4800    22.7210    12.6790     8.3150     8.8260     2.1940   -22.9420 
  115.8750    71.0840    22.8040    12.0080     8.0780     8.5730     2.1800   -22.7820 
  116.0000    71.2770    22.6510    11.2430     7.8270     8.2970     2.1700   -22.5940 
  116.1250    75.4750    22.4390    11.0460     7.5880     8.0440     2.1690   -22.4820 
  116.2500    79.9410    22.5350    10.7530     7.4110     7.8760     2.1850   -22.4480 
  116.3750    78.7120    22.6760     9.4610     7.3260     7.8230     2.2150   -22.4100 
  116.5000    73.4530    22.8110     8.2400     7.3480     7.9020     2.2450   -22.3260 
  116.6250    68.7760    22.7550     8.5710     7.5020     8.0900     2.2590   -22.1690 
  116.7500    65.7530    22.6110     9.6270     7.7250     8.3060     2.2600   -22.0030 
  116.8750    63.5950    22.4410    10.3650     7.9610     8.5060     2.2510   -21.8590 
  117.0000    62.2770    22.3780    10.7620     8.1800     8.6680     2.2380   -21.7220 
  117.1250    64.0180    22.3750    10.4630     8.3340     8.7610     2.2350   -21.5650 
