~V
VERS. 2.00: Ver 2.00
~W
STRT.M 60.0000:
STOP.M 250.0000:
STEP.M 0.1250:
NULL. -999.2500:
UWI. DF3018:
~C
DEPT.M :
DEN.GM/CC :
GR.API :
RML.OHMM :
RI. :
RXO.OHMM :
CALI.CM :
SP.MV :
~A
# ...
  183.7500     2.2210    63.5670   227.7160   218.8970   196.4710    24.7680   -28.9640 
  183.8750     2.2090    63.1470   229.1940   222.5530   221.2100    24.7170   -28.3810 
  184.0000     2.2040    60.7650   206.4100   204.0160   219.8120    24.6460   -27.7280 
  184.1250     2.2100    60.3010   167.5080   168.6110   197.9060    24.5510   -27.1130 
  184.2500     2.2240    62.1270   131.2990   132.4500   156.3070    24.4900   -26.5170 
  184.3750     2.2440    64.9700   104.4890   103.4360   106.5780    24.4850   -25.9520 
  184.5000     2.2630    67.9670    86.9800    83.4710    72.1170    24.5650   -25.4030 
  184.6250     2.2750    68.5910    77.5750    72.2150    59.4760    24.6290   -24.9310 
  184.7500     2.2800    66.9300    73.2640    66.4460    55.0880    24.6290   -24.4290 
  184.8750     2.2820    66.4770    73.2230    65.1850    53.1410    24.6070   -23.9360 
  185.0000     2.2820    69.4500    77.3010    68.1940    52.7900    24.6230   -23.4370 
  185.1250     2.2820    72.1720    86.9760    76.6670    56.8730    24.6370   -22.9720 
  185.2500     2.2760    70.5950   102.6700    90.4120    67.7300    24.6080   -22.5040 
  185.3750     2.2640    66.8990   125.0230   109.3540    84.9600    24.6060   -22.0630 
  185.5000     2.2480    63.8910   152.9880   132.0830   108.6520    24.6430   -21.6550 
  185.6250     2.2430    62.4210   181.9200   154.5970   139.3100    24.6710   -21.2130 
  185.7500     2.2590    60.5720   203.6520   171.1770   172.5980    24.6690   -20.8010 
  185.8750     2.3000    58.6150   211.0800   177.0650   194.1830    24.6210   -20.3750 
  186.0000     2.3510    57.8540   200.9700   169.9270   195.2210    24.5090   -19.9650 
  186.1250     2.3880    57.1220   175.0400   149.9870   178.4970    24.4250   -19.4590 
  186.2500     2.3980    53.9160   144.3890   124.8970   157.8610    24.3740   -18.9120 
  186.3750     2.3910    50.8240   115.5870   100.1290   131.4810    24.3320   -18.2820 
  186.5000     2.3900    52.2790    91.7070    78.8750   103.4630    24.3170   -17.6270 
  186.6250     2.4220    59.0900    72.1450    62.1980    75.6700    24.4400   -16.9520 
  186.7500     2.4750    64.1040    55.2010    48.4080    56.5290    24.4890   -16.2870 
  186.8750     2.5190    65.1110    40.0130    36.7730    48.4930    24.4050   -15.6590 
  187.0000     2.5220    66.1540    27.0010    27.1370    48.2150    24.2310   -15.1240 
  187.1250     2.4700    68.1680    20.1900    20.0550    36.9250    24.0440   -14.6730 
  187.2500     2.3960    67.3030    15.5400    15.1470    20.1920    23.9150   -14.3100 
  187.3750     2.3310    63.3450    12.7090    12.0640    11.4070    23.8950   -14.0330 
  187.5000     2.2990    58.8310    11.2660    10.3540     9.0060    24.0540   -13.8370 
  187.6250     2.3110    54.6710    10.9120     9.7350     8.8680    24.1870   -13.6670 
  187.7500     2.3520    50.6610    11.0880     9.7060     8.7270    24.2470   -13.5740 
  187.8750     2.4040    49.5560    11.4840    10.0010     8.8730    24.2610   -13.4950 
  188.0000     2.4510    51.5780    11.8640    10.3920     9.6070    24.2720   -13.4460 
  188.1250     2.4790    53.1840    12.0750    10.6990    10.2860    24.3120   -13.4510 
  188.2500     2.4940    53.2790    12.1370    10.8790    10.4070    24.3700   -13.4950 
  188.3750     2.5030    53.8470    12.0960    10.9370    10.5660    24.4240   -13.5440 
  188.5000     2.5130    55.5770    11.9750    10.8830    11.2250    24.4260   -13.5990 
  188.6250     2.5200    55.9910    11.7560    10.6970    12.4260    24.3840   -13.7280 
  188.7500     2.5200    55.9450    11.4600    10.4020    12.9490    24.3880   -13.8550 
  188.8750     2.5130    56.4940    11.1580    10.0440    11.8480    24.4050   -14.0090 
  189.0000     2.5040    56.1610    10.9700     9.7170    10.5900    24.4130   -14.1360 
  189.1250     2.5040    53.5410    11.0360     9.5430    10.1290    24.4170   -14.2560 
  189.2500     2.5190    52.1210    11.3020     9.5100    10.2260    24.4010   -14.3340 
  189.3750     2.5520    53.6100    11.5890     9.5110    10.3750    24.3910   -14.3840 
  189.5000     2.5960    55.5760    11.6050     9.3690    10.5070    24.3830   -14.4040 
  189.6250     2.6390    57.7070    11.0260     8.8550    11.4770    24.3710   -14.3250 
  189.7500     2.6580    60.7990     9.8480     7.9940    11.9980    24.3510   -14.1970 
  189.8750     2.6370    61.6270     8.2990     6.9260    11.0070    24.3180   -14.0270 
  190.0000     2.5760    58.9600     6.7390     5.8660     8.8570    24.2660   -13.8550 
  190.1250     2.4880    56.8850     5.5600     5.0530     6.7700    24.2400   -13.6750 
  190.2500     2.3980    59.1460     5.1960     4.5730     5.9190    24.2420   -13.5620 
  190.3750     2.3250    63.1680     5.2690     4.4870     5.7970    24.2900   -13.5640 
  190.5000     2.2810    67.9030     5.8020     4.8340     6.1660    24.4220   -13.6540 
  190.6250     2.2870    76.3430     6.8390     5.6940     7.0970    24.6300   -13.9130 
  190.7500     2.3350    85.4970     8.1810     6.9090     8.7820    24.7900   -14.2520 
  190.8750     2.4120    91.0500     9.6000     8.2950    11.2180    24.7830   -14.6730 
  191.0000     2.4900    91.5950    10.8020     9.5790    13.8050    24.6570   -15.1120 
  191.1250     2.5350    90.7420    11.4080    10.3800    15.1560    24.5990   -15.6190 
  191.2500     2.5440    91.2750    11.4240    10.6160    14.9650    24.6270   -16.1070 
  191.3750     2.5270    92.6140    11.0230    10.3790    13.9480    24.6980   -16.5680 
  191.5000     2.5000    94.7860    10.5010     9.9040    12.6860    24.7560   -17.0100 
  191.6250     2.4720    97.3990    10.1740     9.4690    11.9160    24.7630   -17.4360 
  191.7500     2.4480    99.0400    10.1310     9.2220    11.4040    24.7580   -17.8160 
  191.8750     2.4280    98.0290    10.3290     9.1740    11.1690    24.7350   -18.1960 
  192.0000     2.4160    95.4490    10.6530     9.2640    11.1000    24.6880   -18.5550 
  192.1250     2.4120    95.2760    10.9520     9.3960    11.4250    24.6240   -18.8430 
  192.2500     2.4140    97.5920    11.1460     9.4930    12.3610    24.5390   -19.0800 
  192.3750     2.4150    98.9600    11.2600     9.5540    13.0770    24.4760   -19.2570 
  192.5000     2.4150    97.6660    11.3900     9.6350    12.1840    24.4670   -19.3730 
  192.6250     2.4160    95.5960    11.6830     9.8350    11.5520    24.4700   -19.3560 
  192.7500     2.4200    93.8160    12.1720    10.1810    11.9870    24.4570   -19.2960 
  192.8750     2.4320    92.3440    12.8090    10.6440    13.1730    24.4290   -19.1450 
  193.0000     2.4510    91.5530    13.4670    11.1330    14.4400    24.4430   -18.9210 
  193.1250     2.4740    93.5620    13.9150    11.4700    14.8580    24.5340   -18.6430 
  193.2500     2.4970    98.0820    14.0080    11.5320    14.3690    24.6290   -18.3230 
  193.3750     2.5120   103.8250    13.6870    11.2610    13.9890    24.6680   -17.9570 
  193.5000     2.5140   107.8530    13.0070    10.6860    13.3250    24.6730   -17.5350 
  193.6250     2.4960   107.1380    12.1260     9.9190    12.8410    24.7130   -17.0940 
  193.7500     2.4640   104.3460    11.3270     9.1840    11.6650    24.9070   -16.6080 
  193.8750     2.4280   101.3560    10.8170     8.6450    10.1450    25.3000   -16.1030 
  194.0000     2.4010    97.8350    10.7180     8.4130     8.8730    25.6060   -15.6010 
  194.1250     2.3970    94.8690    11.0840     8.5650     8.3400    25.4110   -15.0360 
  194.2500     2.4110    93.2150    11.6760     8.9550     8.6720    24.9940   -14.4230 
  194.3750     2.4340    92.1160    12.2390     9.4100     9.4990    24.7090   -13.7630 
  194.5000     2.4510    91.8050    12.5140     9.7280    10.2910    24.5610   -13.0980 
  194.6250     2.4540    92.7850    12.2710     9.6960    10.3830    24.4520   -12.3990 
  194.7500     2.4480    90.1400    11.6520     9.3510     9.7800    24.3140   -11.7680 
  194.8750     2.4440    80.1510    10.8730     8.8170     8.8190    24.1360   -11.1450 
