~V
VERS. 2.00: Ver 2.00
~W
STRT.M 64.0000:
STOP.M 264.0000:
STEP.M 0.1250:
NULL. -999.2500:
UWI. DF3031:
~C
DEPT.M :
DEN.GM/CC :
AC.US/MT :
GR.API :
CALI.CM :
RXO.OHMM :
RI. :
RML.OHMM :
SP.MV :
~A
# ...
  154.0000     2.5310   278.0820    69.8290    25.8950    13.1330    13.4080    16.2590   -12.5170 
  154.1250     2.4890   283.4530    78.1120    25.8240    12.7860    13.4430    16.2890   -12.5980 
  154.2500     2.4390   291.2940    84.1880    25.7240    12.3030    13.4950    16.3500   -12.7220 
  154.3750     2.3880   301.2510    86.3250    25.5450    12.0800    13.5560    16.4320   -12.8850 
  154.5000     2.3430   312.4140    88.9360    25.3100    12.2940    13.5940    16.4870   -13.0700 
  154.6250     2.3140   323.4310    92.3010    25.1310    12.6340    13.5550    16.4420   -13.2520 
  154.7500     2.3040   333.2560    93.1040    25.0390    12.6720    13.4310    16.2990   -13.4290 
  154.8750     2.3110   341.4990    92.3490    24.9940    12.4040    13.2450    16.0970   -13.5910 
  155.0000     2.3240   348.2600    92.7240    24.9710    12.1060    13.0430    15.9050   -13.7360 
  155.1250     2.3280   353.7670    95.9240    24.9720    12.1160    12.8950    15.8040   -13.8700 
  155.2500     2.3210   358.4730    99.0820    24.9570    12.4170    12.8260    15.7980   -13.9720 
  155.3750     2.3100   362.2770    98.4900    24.9280    12.8290    12.8500    15.8960   -14.0440 
  155.5000     2.3020   364.8330    93.9780    24.9010    13.2580    13.0080    16.1760   -14.1020 
  155.6250     2.3020   365.5540    89.8500    24.8930    13.8460    13.4810    16.9560   -14.1420 
  155.7500     2.3020   364.8060    86.8630    24.9100    14.6430    14.4300    18.5060   -14.1770 
  155.8750     2.2950   363.1230    82.2730    24.9620    15.8800    16.0480    21.0810   -14.2060 
  156.0000     2.2830   361.2210    76.6930    25.0550    18.5550    18.4660    24.7550   -14.2260 
  156.1250     2.2740   359.8010    73.2760    25.1980    24.4310    21.6440    29.1830   -14.2330 
  156.2500     2.2700   359.0150    72.3630    25.3780    30.7870    24.7680    33.0690   -14.2280 
  156.3750     2.2690   358.7390    73.2090    25.5530    33.0130    26.8030    35.0410   -14.2210 
  156.5000     2.2730   358.7610    77.8910    25.6590    29.9080    26.9860    34.3490   -14.2080 
  156.6250     2.2840   359.0050    83.2080    25.6660    24.9900    25.3040    31.3940   -14.1830 
  156.7500     2.2920   359.5620    84.8430    25.6320    21.1800    23.0580    28.0790   -14.1500 
  156.8750     2.2920   360.6760    84.1160    25.5630    18.5940    21.0500    25.4470   -14.1130 
  157.0000     2.2810   362.5500    84.0280    25.4600    17.2150    19.6490    23.8520   -14.0760 
  157.1250     2.2670   365.2840    85.1610    25.3920    17.0000    18.9360    23.2280   -14.0480 
  157.2500     2.2650   368.4250    85.1330    25.3900    17.1660    18.6190    23.0460   -14.0430 
  157.3750     2.2830   371.5330    84.6710    25.4100    17.2650    18.5350    23.0330   -14.0530 
  157.5000     2.3130   374.2210    83.5410    25.3990    17.1540    18.5930    23.0680   -14.0730 
  157.6250     2.3320   376.1890    82.4410    25.3690    16.9530    18.8340    23.2470   -14.1200 
  157.7500     2.3320   377.6080    84.0080    25.3560    17.0470    19.3880    23.8660   -14.1750 
  157.8750     2.3200   378.6850    86.8910    25.3500    17.7510    20.5060    25.3180   -14.2380 
  158.0000     2.3060   379.6850    85.8080    25.3500    19.1170    22.4180    27.8590   -14.3140 
  158.1250     2.2930   380.9280    80.5530    25.4220    21.3250    25.1700    31.3220   -14.3900 
  158.2500     2.2800   382.4880    77.0890    25.5590    24.7640    27.9490    34.4670   -14.4520 
  158.3750     2.2730   384.1290    75.7480    25.6940    29.0550    29.6570    35.8880   -14.5050 
  158.5000     2.2750   385.2520    74.4310    25.7870    30.7250    29.3670    34.6380   -14.5410 
  158.6250     2.2900   384.7220    75.9510    25.8640    26.0040    26.9040    30.8690   -14.5490 
  158.7500     2.3050   382.1890    82.5900    25.9400    19.2040    23.7510    26.5810   -14.5490 
  158.8750     2.3140   377.8430    90.2330    25.9790    15.0250    20.8860    22.9640   -14.5400 
  159.0000     2.3170   372.5390    93.9940    25.9810    14.2920    18.7660    20.4940   -14.5230 
  159.1250     2.3180   367.6490    92.7260    25.9790    15.0610    17.6090    19.3530   -14.5090 
  159.2500     2.3270   364.0770    91.5510    25.9790    15.0670    17.2300    19.2170   -14.4990 
  159.3750     2.3390   362.0760    92.2030    25.9790    14.2610    17.5980    20.0370   -14.5000 
  159.5000     2.3470   361.5520    92.2390    25.9770    14.0810    18.7350    21.8650   -14.5270 
  159.6250     2.3420   362.6630    89.1060    25.9760    16.7790    20.8780    24.9970   -14.5920 
  159.7500     2.3300   365.3390    87.0170    25.9780    22.5850    23.9530    29.2320   -14.6910 
  159.8750     2.3210   369.6920    89.4850    25.9790    29.0430    27.8710    34.3370   -14.8290 
  160.0000     2.3270   375.4590    91.7730    25.9790    30.4920    30.5430    37.6950   -14.9990 
  160.1250     2.3460   381.8590    93.1070    25.9790    29.6640    33.3660    41.2090   -15.2030 
  160.2500     2.3540   387.7760    90.3120    25.9790    23.4780    38.5230    47.6880   -15.4510 
  160.3750     2.3360   392.6690    82.8290    25.9790    18.0400    44.7800    55.7570   -15.7290 
  160.5000     2.3020   396.4810    75.5040    25.9790    19.1210    53.1840    66.6920   -16.0270 
  160.6250     2.2700   399.2830    74.5520    25.9790    33.0760    65.1300    82.0840   -16.3490 
  160.7500     2.2520   401.2350    77.7550    25.9790    56.7060    79.5850   100.5160   -16.6110 
  160.8750     2.2450   402.0290    79.8780    25.9790    75.8340    94.2000   118.8160   -16.7710 
  161.0000     2.2520   401.3230    78.1390    25.9800    79.5550   105.4280   132.0780   -17.0590 
  161.1250     2.2800   398.9900    72.6630    25.9780    71.8180   109.2490   134.9990   -17.3780 
  161.2500     2.3190   396.0890    69.1710    25.9610    64.2240   106.9060   130.1090   -17.6850 
  161.3750     2.3490   393.6980    71.2510    25.9550    59.4700   100.5390   120.7900   -17.9790 
  161.5000     2.3550   392.6810    77.1430    25.9990    57.8790    92.4120   110.0280   -18.2600 
  161.6250     2.3400   393.4570    81.3410    26.0790    57.1450    84.6540   100.4550   -18.5140 
  161.7500     2.3250   395.0790    81.2930    26.1300    54.8430    78.8850    93.7850   -18.7340 
  161.8750     2.3160   396.6550    81.1500    26.1390    51.2390    76.2290    91.1980   -18.9310 
  162.0000     2.3100   397.5940    81.0560    26.1340    48.4670    77.5210    93.4720   -19.1050 
  162.1250     2.2980   397.9060    77.6400    26.1340    50.6800    84.0880   101.8480   -19.2580 
  162.2500     2.2740   398.3330    73.6940    26.1510    59.6430    94.9890   114.9470   -19.3930 
  162.3750     2.2450   399.3620    71.4900    26.1960    73.6620   108.8180   130.9160   -19.5020 
  162.5000     2.2230   400.9290    72.5530    26.2540    86.4040   122.7160   146.1580   -19.5920 
  162.6250     2.2250   402.1650    74.3200    26.2870    90.2630   131.6740   154.4210   -19.6790 
  162.7500     2.2450   402.0820    73.0530    26.2940    86.7140   133.4430   153.6600   -19.7620 
  162.8750     2.2660   400.2330    70.8310    26.2910    80.0130   128.4050   145.3590   -19.8340 
  163.0000     2.2730   396.9070    70.6860    26.2890    73.8740   119.2560   133.4830   -19.8960 
  163.1250     2.2610   393.0910    73.1050    26.2890    69.8360   109.5150   122.3110   -19.9520 
  163.2500     2.2470   389.9590    72.8940    26.2900    66.6570   101.7710   114.1550   -20.0130 
  163.3750     2.2360   387.9460    71.4190    26.2890    64.2960    97.2360   110.0290   -20.0800 
  163.5000     2.2210   386.8420    71.7090    26.2850    63.7370    96.6610   110.5760   -20.1740 
  163.6250     2.2010   385.9640    73.0000    26.2840    66.3740   101.5710   117.3750   -20.2800 
  163.7500     2.1870   384.6900    72.5400    26.2870    72.8050   111.8510   130.1520   -20.3990 
  163.8750     2.1820   382.9860    69.9810    26.2900    84.8400   127.5610   148.9280   -20.5480 
