~V
VERS. 2.00: Ver 2.00
~W
STRT.M 90.0000:
STOP.M 264.0000:
STEP.M 0.1250:
NULL. -999.2500:
UWI. DF3021:
~C
DEPT.M :
AC.US/MT :
DEN.GM/CC :
GR.API :
CALI.CM :
RXO.OHMM :
RI. :
RML.OHMM :
SP.MV :
~A
# ...
  190.0000   398.6680     2.3710    88.7650    24.1420     6.9630     6.3900     7.3720   -18.3370 
  190.1250   394.6370     2.3710    83.3110    24.1090     7.7090     6.8840     8.0350   -18.7510 
  190.2500   390.6700     2.3800    81.6130    24.0510     8.8480     7.5340     8.8660   -19.1660 
  190.3750   388.7820     2.3890    84.7230    23.9060    10.3260     8.2640     9.7410   -19.5580 
  190.5000   388.9460     2.3920    88.7070    23.7200    11.3320     8.9770    10.5310   -19.9470 
  190.6250   388.7860     2.3940    88.0100    23.7170    11.2270     9.6010    11.1530   -20.2920 
  190.7500   385.9430     2.3970    87.5240    23.8520    10.5920    10.1920    11.7190   -20.6060 
  190.8750   380.2920     2.3940    91.0240    23.9270    10.4230    10.8440    12.3740   -20.9110 
  191.0000   374.1930     2.3830    93.8070    23.9310    10.5820    11.6420    13.2370   -21.2040 
  191.1250   372.0340     2.3690    90.4190    23.9320    11.1580    12.6680    14.4010   -21.4350 
  191.2500   374.6660     2.3530    85.0560    23.9520    12.2440    13.8560    15.7620   -21.6460 
  191.3750   380.0230     2.3320    81.7650    23.9790    14.2710    15.0930    17.1680   -21.8470 
  191.5000   385.0320     2.3030    79.5960    23.9730    17.2320    16.2120    18.4130   -22.0640 
  191.6250   387.8740     2.2770    76.2080    23.9280    19.8170    17.0090    19.2580   -22.2860 
  191.7500   389.6870     2.2620    74.4270    23.8950    20.5950    17.5010    19.7280   -22.5180 
  191.8750   391.5260     2.2540    72.5010    23.8040    19.8720    17.8440    20.0160   -22.7590 
  192.0000   393.5980     2.2420    70.2760    23.6400    18.9330    18.3430    20.5180   -23.0210 
  192.1250   395.3240     2.2240    68.0760    23.4680    18.7540    19.5510    21.9650   -23.3630 
  192.2500   396.5630     2.2110    66.9510    23.3030    20.4790    21.8690    24.8430   -23.7290 
  192.3750   397.9630     2.2120    67.1480    23.1670    25.7780    25.8010    29.6750   -24.1040 
  192.5000   400.1930     2.2220    66.9430    23.0210    36.0620    31.8290    36.8890   -24.5040 
  192.6250   402.4040     2.2290    65.2110    22.9660    50.0490    40.4120    46.8770   -24.9310 
  192.7500   402.5510     2.2270    62.2440    23.0870    62.4960    50.2000    58.0970   -25.3210 
  192.8750   400.2580     2.2210    59.9410    23.2300    69.8960    59.3420    68.3770   -25.6980 
  193.0000   397.6700     2.2170    60.6600    23.3290    71.8840    66.1180    75.6050   -26.0350 
  193.1250   397.8520     2.2140    63.2320    23.4280    70.1870    69.7810    78.9560   -26.3230 
  193.2500   399.1430     2.2120    66.1080    23.5450    70.5500    71.9460    80.6840   -26.5960 
  193.3750   397.3970     2.2170    68.2810    23.6590    74.0750    73.8410    82.3990   -26.8280 
  193.5000   390.3250     2.2330    68.7030    23.7300    79.1450    76.2320    84.9790   -26.9800 
  193.6250   381.5600     2.2490    66.7510    23.7520    84.2030    79.4670    88.7370   -27.0670 
  193.7500   378.0660     2.2510    63.6040    23.7720    88.1260    83.2100    93.1200   -27.1570 
  193.8750   381.6710     2.2360    61.0660    23.7910    90.4720    87.1370    97.6160   -27.2200 
  194.0000   388.8480     2.2160    59.5520    23.7790    91.5540    91.0570   101.8860   -27.2850 
  194.1250   393.7340     2.2030    60.7510    23.7830    92.5980    95.1060   106.0050   -27.3080 
  194.2500   394.6680     2.1980    64.3410    23.8520    94.4950    99.6560   110.5070   -27.3130 
  194.3750   393.2280     2.1950    66.5790    23.9790    99.6380   105.1050   115.9230   -27.3310 
  194.5000   392.1610     2.1910    65.2690    24.0700   111.7810   111.6910   122.5750   -27.3460 
  194.6250   394.4590     2.1910    61.9770    24.1070   129.0530   119.3230   130.3900   -27.4010 
  194.7500   399.5400     2.1930    60.1160    24.1560   139.3100   126.8770   138.1330   -27.4650 
  194.8750   404.7150     2.1920    59.9280    24.2170   140.3590   132.9600   144.2070   -27.5480 
  195.0000   407.1430     2.1870    60.5360    24.2620   140.2080   136.1220   146.8750   -27.6570 
  195.1250   406.0900     2.1800    61.6450    24.3090   143.5350   134.8620   144.3350   -27.7810 
  195.2500   404.4530     2.1770    62.5100    24.3750   139.5250   130.3250   138.0500   -27.9070 
  195.3750   404.0210     2.1770    64.0880    24.4140   125.1950   124.0030   129.9540   -28.0200 
  195.5000   404.9030     2.1770    65.5810    24.4090   108.2600   117.6430   122.1600   -28.1390 
  195.6250   406.0370     2.1760    64.4740    24.3680   100.4320   113.0380   116.6570   -28.2550 
  195.7500   406.6380     2.1750    62.6510    24.3370   100.3810   110.7330   113.8100   -28.3500 
  195.8750   406.7740     2.1750    63.1130    24.3000   104.0020   110.7660   113.5080   -28.4530 
  196.0000   406.6780     2.1790    64.3730    24.2730   108.4900   112.6950   115.1930   -28.5300 
  196.1250   406.3170     2.1810    61.9350    24.2630   112.1070   115.8820   118.1400   -28.5830 
  196.2500   405.7680     2.1780    65.9170    24.2760   115.1760   119.3270   121.3000   -28.6300 
  196.3750   405.3520     2.1700    79.8540    24.3110   118.8300   122.4700   124.1060   -28.6780 
  196.5000   405.2960     2.1640    89.4550    24.3390   123.1170   124.9160   126.1980   -28.7490 
  196.6250   405.3450     2.1660    79.1480    24.3460   125.7420   126.2520   127.2260   -28.8300 
  196.7500   405.1290     2.1710    66.5780    24.3120   127.1710   126.5850   127.3220   -28.8870 
  196.8750   404.7120     2.1720    65.3110    24.1780   127.9670   126.1110   126.6710   -28.9250 
  197.0000   404.2840     2.1690    69.3840    23.9020   127.9690   125.2720   125.6910   -28.9630 
  197.1250   403.8820     2.1650    68.6790    23.6350   127.5350   124.8360   125.1100   -28.9930 
  197.2500   403.6680     2.1650    67.0160    23.5230   126.8020   125.4280   125.5250   -29.0210 
  197.3750   404.0710     2.1670    65.9940    23.4900   126.9490   127.2900   127.4180   -29.0480 
  197.5000   405.3570     2.1680    65.3480    23.4710   131.2430   130.3850   130.7600   -29.0730 
  197.6250   407.2820     2.1730    65.0280    23.5100   137.2060   134.0850   134.7940   -29.0360 
  197.7500   409.1650     2.1830    64.7150    23.6010   141.1010   136.8510   138.0070   -29.0180 
  197.8750   410.8360     2.1890    63.3460    23.6480   141.4540   137.3110   139.0780   -28.9950 
  198.0000   412.4840     2.1880    61.4150    23.5840   139.6250   134.6640   137.1840   -28.9510 
  198.1250   414.2920     2.1830    59.1410    23.4990   133.6210   128.6800   131.9690   -28.9600 
  198.2500   416.1310     2.1790    56.8760    23.4600   124.3160   121.0380   124.9550   -28.9660 
  198.3750   417.9840     2.1760    55.9790    23.4810   117.0970   113.0640   117.4110   -28.9540 
  198.5000   419.9310     2.1740    58.6610    23.6200   114.7780   105.8630   110.4650   -28.9570 
  198.6250   421.3450     2.1750    63.3860    23.9060   112.5360   100.4560   105.2110   -29.0330 
  198.7500   420.9030     2.1750    65.2710    24.1980   106.8130    96.9100   101.8180   -29.1000 
  198.8750   417.8080     2.1710    63.9810    24.3830    98.2740    95.1700   100.2750   -29.1760 
  199.0000   412.8640     2.1660    63.3740    24.4590    92.2190    94.9240   100.2820   -29.2860 
  199.1250   408.6540     2.1700    67.5100    24.4310    93.7040    95.7190   101.3910   -29.3700 
  199.2500   407.0290     2.1770    70.2740    24.3620    98.5880    96.7310   102.7620   -29.4570 
  199.3750   407.9190     2.1810    68.2320    24.2750   101.5160    97.4690   103.8880   -29.5390 
  199.5000   410.0150     2.1800    63.7670    24.2400   100.7510    97.6700   104.4700   -29.5970 
  199.6250   411.9560     2.1770    61.4980    24.2090   100.3140    97.1570   104.2670   -29.6150 
  199.7500   413.6130     2.1760    60.8400    24.1510   101.5770    95.8370   103.1550   -29.6490 
  199.8750   415.4640     2.1750    60.5020    24.0670   103.2120    93.2990   100.7140   -29.6550 
