~V
VERS. 2.00: Ver 2.00
~W
STRT.M 125.0000:
STOP.M 247.0000:
STEP.M 0.1250:
NULL. -999.2500:
UWI. DF3017:
~C
DEPT.M :
DEN.GM/CC :
GR.API :
RML.OHMM :
RI. :
RXO.OHMM :
CALI.CM :
SP.MV :
~A
# ...
  170.0000     2.2410    67.3700    72.3770    64.5400    74.1400    24.7300   -18.5000 
  170.1250     2.2470    66.1720    69.9660    61.8060    69.9220    24.7990   -18.4330 
  170.2500     2.2530    67.4350    66.6020    58.4430    65.7200    24.8650   -18.3170 
  170.3750     2.2590    70.8500    62.8490    54.9250    62.8190    24.9210   -18.1910 
  170.5000     2.2650    74.6640    59.3260    51.7320    60.4640    24.9190   -18.0480 
  170.6250     2.2750    77.7340    56.7040    49.3850    53.6260    24.8530   -17.8850 
  170.7500     2.2860    79.5570    55.1830    48.0020    47.2480    24.8070   -17.7120 
  170.8750     2.2940    78.0870    54.9060    47.6910    47.4410    24.7900   -17.5120 
  171.0000     2.2960    73.1650    55.9100    48.4830    51.8290    24.7330   -17.2970 
  171.1250     2.2890    69.2980    58.2910    50.4730    51.8420    24.6630   -17.0460 
  171.2500     2.2790    69.6910    61.5530    53.2600    49.7820    24.5670   -16.8120 
  171.3750     2.2690    71.0700    65.2340    56.4680    52.2340    24.4810   -16.5790 
  171.5000     2.2600    69.9890    68.7690    59.6170    61.0760    24.4420   -16.3700 
  171.6250     2.2560    69.2180    71.4790    62.1060    68.4220    24.5780   -16.1450 
  171.7500     2.2550    71.7700    73.2120    63.7360    69.2860    24.6110   -15.9480 
  171.8750     2.2560    73.7990    74.0840    64.5410    67.7130    24.6930   -15.8200 
  172.0000     2.2580    72.1160    74.4970    64.8080    67.5670    24.6500   -15.7780 
  172.1250     2.2600    68.0060    75.0590    65.0220    63.4940    24.6500   -15.8070 
  172.2500     2.2620    65.3980    76.1680    65.5960    64.8800    24.6500   -15.8780 
  172.3750     2.2630    65.0050    77.9530    66.7040    64.5130    24.6500   -16.0000 
  172.5000     2.2630    65.3530    80.4170    68.3960    64.2980    24.6500   -16.1560 
  172.6250     2.2630    66.3910    83.6120    70.7540    67.1060    24.6500   -16.3730 
  172.7500     2.2630    69.1860    87.3700    73.6420    72.3120    24.6500   -16.6080 
  172.8750     2.2640    74.5420    91.6330    77.0180    77.3690    24.6500   -16.8430 
  173.0000     2.2630    77.6570    96.3380    80.8320    81.2160    24.6500   -17.0040 
  173.1250     2.2600    73.1890   101.4370    85.0470    84.4420    24.6500   -17.0970 
  173.2500     2.2560    68.0740   106.7290    89.4670    88.2290    24.6500   -17.1290 
  173.3750     2.2520    67.8940   112.0840    93.9570    92.4450    24.6500   -17.1020 
  173.5000     2.2510    70.4470   117.4050    98.4060    96.0400    24.6500   -17.0350 
  173.6250     2.2530    72.0190   122.5210   102.6660   100.6830    24.6500   -16.9510 
  173.7500     2.2560    72.4470   127.1060   106.5220   104.0010    24.6500   -16.8640 
  173.8750     2.2600    73.4580   130.4760   109.5160   105.9910    24.6500   -16.7950 
  174.0000     2.2620    74.6630   131.6400   110.9580   107.9690    24.6500   -16.8150 
  174.1250     2.2610    74.4550   129.1300   109.7470   111.0160    24.6130   -16.9200 
  174.2500     2.2570    73.1730   123.6790   106.2740   111.3230    24.5000   -17.0780 
  174.3750     2.2530    71.2410   116.9290   101.5890   108.0280    24.5580   -17.2900 
  174.5000     2.2500    71.2220   111.1360    97.3430    97.4430    24.5930   -17.5110 
  174.6250     2.2490    73.4460   108.2200    95.2480    70.1400    24.6000   -17.7670 
  174.7500     2.2480    74.3580   107.2370    94.8570    45.6880    24.6030   -18.0050 
  174.8750     2.2440    72.9710   105.9710    94.5710    40.4520    24.6180   -18.2110 
  175.0000     2.2390    70.2850   102.0410    92.2120    53.3170    24.7120   -18.3720 
  175.1250     2.2350    70.0790    93.0560    85.5430    80.6790    24.7280   -18.5090 
  175.2500     2.2390    70.9560    81.2080    75.6630    97.9710    24.7370   -18.6030 
  175.3750     2.2510    70.7020    69.1600    64.7030    82.7530    24.7510   -18.6200 
  175.5000     2.2710    70.7690    58.8420    55.1400    52.9240    24.8490   -18.5970 
  175.6250     2.2960    73.3850    53.1500    49.4110    38.4660    24.8850   -18.5180 
  175.7500     2.3170    77.6980    51.8590    47.6440    34.4840    24.9400   -18.4200 
  175.8750     2.3300    80.0040    54.5640    49.6770    37.8310    25.0220   -18.3140 
  176.0000     2.3310    77.3090    60.4760    54.9070    45.2700    25.0630   -18.1880 
  176.1250     2.3180    71.5430    68.3830    62.3700    52.3800    25.0890   -18.0570 
  176.2500     2.2950    67.2010    75.9660    69.9010    57.4270    25.1260   -17.9350 
  176.3750     2.2680    66.0440    81.4270    75.7780    68.2320    25.1320   -17.8410 
  176.5000     2.2440    67.5640    83.6530    78.8090    73.9780    25.1330   -17.7730 
  176.6250     2.2340    70.3630    82.3780    78.4700    67.4010    25.1380   -17.7380 
  176.7500     2.2400    72.3170    79.5170    76.3300    56.3440    25.1670   -17.7090 
  176.8750     2.2580    72.4260    76.4140    73.5980    51.4640    25.1950   -17.6480 
  177.0000     2.2790    71.0140    73.7900    71.0530    49.7920    25.2000   -17.5840 
  177.1250     2.2920    69.3280    71.5670    68.7950    51.9520    25.2000   -17.5030 
  177.2500     2.2930    69.2860    69.0830    66.3320    54.3230    25.2000   -17.4250 
  177.3750     2.2880    71.2080    66.0830    63.4050    55.6510    25.2000   -17.3800 
  177.5000     2.2860    72.3890    62.9840    60.3320    56.8310    25.2000   -17.3460 
  177.6250     2.2920    71.8660    61.2490    58.3950    54.8650    25.1990   -17.3460 
  177.7500     2.3020    72.7920    62.2130    58.9050    50.4830    25.1910   -17.3610 
  177.8750     2.3100    74.9730    66.9520    62.9830    47.8740    25.1440   -17.4500 
  178.0000     2.3090    74.9000    75.9280    71.1730    49.2890    25.0700   -17.5840 
  178.1250     2.2990    72.7200    89.1150    83.4940    63.9410    25.0050   -17.7920 
  178.2500     2.2870    72.8840   104.0920    97.5330    83.8500    24.9600   -17.9930 
  178.3750     2.2780    74.9120   118.6810   111.1300    97.2120    24.8850   -18.1120 
  178.5000     2.2740    74.9960   131.0680   122.5320   100.9510    24.8140   -18.1030 
  178.6250     2.2710    72.0450   140.4490   130.9530   107.1330    24.8020   -17.8950 
  178.7500     2.2670    68.7370   148.7470   138.1580   115.8190    24.8000   -17.5810 
  178.8750     2.2590    65.9880   157.5810   145.6310   127.7590    24.8000   -17.1430 
  179.0000     2.2460    64.4840   167.3190   153.8210   141.2520    24.8000   -16.6200 
  179.1250     2.2320    64.9520   176.3440   161.5250   153.8760    24.7990   -15.9800 
  179.2500     2.2190    66.5090   182.5780   167.0940   166.1900    24.7910   -15.3010 
  179.3750     2.2100    67.7240   184.9530   169.7050   182.5490    24.7470   -14.6040 
  179.5000     2.2090    68.4650   183.9240   169.7470   197.2140    24.6810   -13.9650 
  179.6250     2.2160    69.2760   181.5700   168.9630   184.1490    24.6690   -13.3910 
  179.7500     2.2270    69.4880   180.8190   169.8350   157.2380    24.6650   -12.8570 
  179.8750     2.2380    69.5170   183.0430   173.6980   145.9090    24.6550   -12.3320 
  180.0000     2.2470    69.9610   187.8080   180.3090   152.4800    24.5970   -11.7920 
  180.1250     2.2510    69.6070   192.0270   186.9830   160.6110    24.5220   -11.2340 
  180.2500     2.2490    69.4400   191.1140   189.2330   163.3170    24.4680   -10.6750 
  180.3750     2.2430    70.7250   181.3600   183.1670   160.2820    24.4200   -10.1030 
  180.5000     2.2350    71.8980   161.9010   167.1660   156.4590    24.3890    -9.5580 
  180.6250     2.2290    70.2960   136.6360   143.3290   160.8840    24.3150    -9.0260 
  180.7500     2.2310    67.7260   114.0700   119.7650   152.7490    24.2420    -8.5720 
  180.8750     2.2390    65.6000    98.9020   102.5410   120.1780    24.2060    -8.1970 
  181.0000     2.2490    63.2650    93.3660    96.0390    81.2040    24.2000    -7.9220 
  181.1250     2.2510    62.3970   101.4390   106.6300    80.2570    24.1900    -7.7710 
