~V
VERS. 2.00: Ver 2.00
~W
STRT.M 55.0000:
STOP.M 272.0000:
STEP.M 0.1250:
NULL. -999.2500:
UWI. DF3078:
~C
DEPT.M :
GR.API :
CALI.CM :
RXO.OHMM :
RI. :
RML.OHMM :
DEN.GM/CC :
SP.MV :
~A
# ...
  111.2500    70.6320    23.8080     9.2820     7.6160     9.3990  -999.2500   -12.1050 
  111.3750    68.2470    23.7100     9.1960     7.3310     9.2190  -999.2500   -12.1740 
  111.5000    66.3810    23.4750     9.1750     7.2740     9.3270  -999.2500   -12.2430 
  111.6250    64.7810    23.2400     9.1150     7.3700     9.5560  -999.2500   -12.3190 
  111.7500    62.1180    23.0970     9.0760     7.4800     9.7230  -999.2500   -12.3980 
  111.8750    63.5200    23.0060     9.0600     7.5370     9.7620  -999.2500   -12.4870 
  112.0000    71.2900    22.9510     8.9830     7.5240     9.6890  -999.2500   -12.5720 
  112.1250    75.8860    22.9980     8.8600     7.4720     9.5810  -999.2500   -12.6270 
  112.2500    71.3490    23.0750     8.7690     7.4330     9.5160  -999.2500   -12.6510 
  112.3750    63.3450    23.0730     8.7640     7.4320     9.5190  -999.2500   -12.6620 
  112.5000    60.8670    23.0250     8.8120     7.4670     9.5770  -999.2500   -12.6390 
  112.6250    64.0250    22.9780     8.8570     7.5290     9.6670  -999.2500   -12.5950 
  112.7500    66.8990    22.9630     8.9310     7.5940     9.7550  -999.2500   -12.5450 
  112.8750    67.4860    23.0100     9.0230     7.6500     9.8180  -999.2500   -12.4710 
  113.0000    68.3040    23.0700     9.0820     7.6820     9.8380  -999.2500   -12.4070 
  113.1250    71.3250    23.0900     9.0820     7.6660     9.7860  -999.2500   -12.3330 
  113.2500    74.6660    23.0980     9.0350     7.6030     9.6770  -999.2500   -12.2700 
  113.3750    76.0570    23.1210     9.0040     7.5020     9.5390  -999.2500   -12.2170 
  113.5000    74.2240    23.1850     9.0160     7.3910     9.4130  -999.2500   -12.1940 
  113.6250    71.7270    23.2910     9.0700     7.3120     9.3540  -999.2500   -12.1860 
  113.7500    70.4010    23.3940     9.2640     7.2900     9.3750  -999.2500   -12.1940 
  113.8750    68.0590    23.4830     9.5620     7.3300     9.4670  -999.2500   -12.2290 
  114.0000    65.6710    23.5280     9.8390     7.4170     9.6030  -999.2500   -12.2610 
  114.1250    65.4590    23.5430    10.0230     7.5240     9.7380  -999.2500   -12.3270 
  114.2500    67.6730    23.5800    10.1490     7.6080     9.8220  -999.2500   -12.4070 
  114.3750    70.5220    23.6490    10.1990     7.6330     9.8120  -999.2500   -12.4790 
  114.5000    72.7140    23.6890    10.1490     7.5700     9.6830  -999.2500   -12.5360 
  114.6250    72.7790    23.7020     9.9260     7.4120     9.4420  -999.2500   -12.5740 
  114.7500    70.7310    23.7520     9.5220     7.2060     9.1640  -999.2500   -12.6030 
  114.8750    68.7400    23.7690     9.0340     6.9960     8.9110  -999.2500   -12.6090 
  115.0000    67.8120    23.7430     8.6970     6.8220     8.7320  -999.2500   -12.6450 
  115.1250    67.2850    23.7930     8.8040     6.7240     8.6630  -999.2500   -12.6960 
  115.2500    69.2530    23.8520     8.9940     6.6960     8.6740  -999.2500   -12.7520 
  115.3750    73.3390    23.8170     9.0010     6.7250     8.7370  -999.2500   -12.8540 
  115.5000    74.3830    23.6660     8.8870     6.7950     8.8270  -999.2500   -12.9620 
  115.6250    69.1310    23.5580     9.0970     6.8910     8.9320  -999.2500   -13.0810 
  115.7500    65.5270    23.5340     9.6460     6.9940     9.0470  -999.2500   -13.1820 
  115.8750    67.5290    23.5360    10.2900     7.0950     9.1710  -999.2500   -13.2640 
  116.0000    71.4370    23.5190    10.8310     7.1870     9.2960  -999.2500   -13.2740 
  116.1250    72.6370    23.4740    11.1490     7.2540     9.3950  -999.2500   -13.1990 
  116.2500    72.0520    23.4310    11.3440     7.2810     9.4280  -999.2500   -13.0690 
  116.3750    71.7430    23.4220    11.4390     7.2510     9.3530  -999.2500   -12.8530 
  116.5000    72.8150    23.4410    11.3800     7.1470     9.1430  -999.2500   -12.5780 
  116.6250    76.2980    23.4650    11.1100     6.9590     8.7970  -999.2500   -12.2270 
  116.7500    78.8560    23.4450    10.5780     6.7210     8.4060  -999.2500   -11.8490 
  116.8750    78.7990    23.3950     9.8120     6.4750     8.0570  -999.2500   -11.4850 
  117.0000    78.0380    23.3250     9.1280     6.2640     7.8180  -999.2500   -11.1450 
  117.1250    79.6960    23.2560     8.9360     6.1390     7.7320  -999.2500   -10.8520 
  117.2500    81.7820    23.2260     9.2610     6.0980     7.7520  -999.2500   -10.5800 
  117.3750    83.9640    23.2170     9.6190     6.1330     7.8420  -999.2500   -10.3270 
  117.5000    85.5240    23.2110     9.7300     6.2290     7.9730  -999.2500   -10.0830 
  117.6250    83.3230    23.2010     9.7940     6.3660     8.1180  -999.2500    -9.8390 
  117.7500    80.7500    23.1880     9.8880     6.5080     8.2430  -999.2500    -9.5680 
  117.8750    82.3550    23.1650     9.9690     6.6240     8.3220  -999.2500    -9.2000 
  118.0000    86.9850    23.1130    10.0430     6.6900     8.3250  -999.2500    -8.7470 
  118.1250    88.6440    23.0090     9.9200     6.6550     8.1920  -999.2500    -8.1440 
  118.2500    88.5700    22.9200     9.4740     6.4950     7.9020  -999.2500    -7.4180 
  118.3750    90.3250    22.8760     8.7660     6.2000     7.4580     2.2480    -6.6000 
  118.5000    95.0400    22.9720     8.1700     5.8070     6.9290     2.2480    -5.6910 
  118.6250   103.4590    23.2990     7.4800     5.4000     6.4430     2.2970    -4.7350 
  118.7500   110.4870    23.6920     6.5680     5.0670     6.0950     2.3300    -3.7940 
  118.8750   110.2580    23.8690     5.7660     4.8490     5.9130     2.3300    -2.9590 
  119.0000   103.1300    23.8830     5.5580     4.7430     5.8630     2.3120    -2.2200 
  119.1250    97.2530    23.8410     5.8280     4.6990     5.8590     2.3090    -1.6300 
  119.2500    96.9410    23.8100     5.9720     4.6400     5.8030     2.3260    -1.1900 
  119.3750   101.1020    23.8050     5.8180     4.5390     5.6700     2.3460    -0.8810 
  119.5000   107.1730    23.8290     5.4340     4.4080     5.4960     2.3560    -0.7260 
  119.6250   110.5310    23.8320     5.0560     4.3000     5.3770     2.3550    -0.7110 
  119.7500   110.4330    23.8050     4.9160     4.2620     5.3760     2.3510    -0.7720 
  119.8750   109.7010    23.7650     5.0740     4.3110     5.4940     2.3480    -0.8600 
  120.0000   110.3670    23.7480     5.3150     4.4260     5.6850     2.3470    -0.9760 
  120.1250   110.6210    23.7570     5.4440     4.5790     5.9020     2.3430    -1.1250 
  120.2500   107.4500    23.7440     5.5220     4.7540     6.1430     2.3330    -1.2660 
  120.3750   101.9650    23.6970     5.6510     4.9810     6.4620     2.3180    -1.4200 
  120.5000    97.2640    23.6260     5.9060     5.3000     6.9070     2.3140    -1.5490 
  120.6250    97.2720    23.4920     6.3560     5.7310     7.4640     2.3460    -1.6470 
  120.7500    98.4130    23.3580     6.9390     6.1800     7.9810     2.4030    -1.7290 
  120.8750    95.8800    23.2760     7.4700     6.5120     8.2860     2.4490    -1.8030 
  121.0000    91.8490    23.2230     7.5230     6.5990     8.2510     2.4500    -1.8730 
  121.1250    92.2210    23.1700     6.9420     6.3640     7.8530     2.4010    -1.9230 
  121.2500    97.1490    23.2480     6.1470     5.9670     7.3290     2.3440    -1.9890 
  121.3750   102.2730    23.3320     5.6870     5.5430     6.8480     2.3070    -2.0310 
  121.5000   104.1990    23.3090     5.5270     5.1810     6.4840     2.2870    -2.0740 
  121.6250   104.0380    23.1960     5.4380     4.9190     6.2390     2.2750    -2.1110 
  121.7500   104.4430    23.0890     5.4070     4.7290     6.0500     2.2730    -2.1470 
  121.8750   106.6400    22.9810     5.3740     4.5900     5.9050     2.2890    -2.1840 
  122.0000   108.7250    22.8730     5.3080     4.4970     5.8220     2.3100    -2.2020 
  122.1250   107.7180    22.7620     5.2880     4.4720     5.8670     2.3110    -2.2260 
  122.2500   104.6330    22.6730     5.4710     4.5320     6.0640     2.3000    -2.2570 
  122.3750   102.0850    22.5980     6.0010     4.7040     6.4180     2.2940    -2.2870 
