~V
VERS. 2.00: Ver 2.00
~W
STRT.M 64.0000:
STOP.M 257.0000:
STEP.M 0.1250:
NULL. -999.2500:
UWI. DF3069:
~C
DEPT.M :
GR.API :
CALI.CM :
RXO.OHMM :
RI. :
RML.OHMM :
DEN.GM/CC :
SP.MV :
~A
# ...
  142.7500    86.8660    23.0840     8.1890     6.9080     7.4730     2.3730   -30.9670 
  142.8750    83.4360    22.9460     8.4470     6.9560     7.4310     2.3850   -30.9770 
  143.0000    82.8720    22.9500     9.8880     7.1890     7.6730     2.4050   -31.0060 
  143.1250    86.9520    23.1290     9.7920     7.7670     8.4570     2.4040   -31.0080 
  143.2500    88.4590    23.1900     8.9280     8.6560     9.6900     2.3870   -30.9760 
  143.3750    83.3290    23.2500     9.2620     9.7960    11.1540     2.3900   -30.9250 
  143.5000    74.8400    23.4920    13.9940    10.9620    12.5140     2.4400   -30.8600 
  143.6250    69.3790    23.6020    21.6830    11.6200    13.1620     2.5170   -30.8070 
  143.7500    67.8050    23.6630    25.9120    11.5200    12.9000     2.5660   -30.7990 
  143.8750    70.6420    23.6150    21.7940    10.7440    11.8550     2.5640   -30.8230 
  144.0000    76.5990    23.5730    14.0500     9.6790    10.4450     2.5160   -30.8660 
  144.1250    80.2350    23.4170     9.4820     8.7990     9.3210     2.4470   -30.9360 
  144.2500    79.8290    23.4750     8.2380     8.4310     9.0200     2.3960   -31.0090 
  144.3750    78.7400    23.3860     8.4070     8.7780     9.8080     2.3840   -31.0690 
  144.5000    78.7810    23.5270    10.9590     9.9210    11.6140     2.4180   -31.1040 
  144.6250    75.7950    23.3130    17.4850    11.9950    14.3410     2.4870   -31.1040 
  144.7500    70.0910    23.2820    25.3270    14.7320    17.5380     2.5560   -31.1130 
  144.8750    66.5680    23.2930    30.6990    17.7200    20.6700     2.6050   -31.1590 
  145.0000    64.7440    23.2940    32.3870    20.3520    23.1610     2.6320   -31.2440 
  145.1250    61.9430    23.2770    31.4040    21.9180    24.4730     2.6470   -31.3430 
  145.2500    60.8790    23.2440    30.1860    22.4930    24.8420     2.6550   -31.4360 
  145.3750    62.4890    23.2820    29.5720    22.3660    24.6430     2.6510   -31.5060 
  145.5000    63.8630    23.2930    28.6280    21.9780    24.3530     2.6370   -31.5490 
  145.6250    62.6650    23.2920    26.5790    21.6910    24.3260     2.6280   -31.5600 
  145.7500    60.4460    23.3320    24.1550    21.5610    24.5130     2.6280   -31.5520 
  145.8750    58.6790    23.3920    23.0750    21.6050    24.9020     2.6320   -31.5490 
  146.0000    58.2330    23.5760    24.5720    21.8650    25.5100     2.6310   -31.5550 
  146.1250    59.5320    23.6580    27.7660    22.3080    26.2050     2.6250   -31.5890 
  146.2500    60.9800    23.7760    29.0570    22.8350    26.8880     2.6150   -31.6440 
  146.3750    61.8830    23.7500    27.6980    23.4320    27.5740     2.6020   -31.7030 
  146.5000    62.8460    23.6810    25.9390    24.0850    28.2470     2.5960   -31.7200 
  146.6250    62.3200    23.8910    26.2300    24.6720    28.7840     2.6090   -31.7150 
  146.7500    59.8180    23.9230    28.6990    25.1190    29.1200     2.6300   -31.6830 
  146.8750    57.8990    23.9620    31.2540    25.3730    29.2500     2.6430   -31.6470 
  147.0000    57.9510    23.9240    32.4310    25.3820    29.1150     2.6440   -31.6280 
  147.1250    59.4860    23.9170    31.4500    25.0120    28.5770     2.6390   -31.6180 
  147.2500    60.7760    23.9110    29.2840    24.2600    27.6420     2.6340   -31.6250 
  147.3750    61.2110    23.8850    26.7190    23.1680    26.3390     2.6260   -31.6280 
  147.5000    60.7800    23.9210    24.9930    21.8290    24.7750     2.6190   -31.6280 
  147.6250    59.5440    23.9000    24.9380    20.4120    23.1390     2.6180   -31.6120 
  147.7500    57.4750    23.8440    24.2870    19.0450    21.5460     2.6160   -31.5860 
  147.8750    56.0010    23.7800    22.1450    17.8360    20.1210     2.6000   -31.5420 
  148.0000    57.3310    23.7460    18.8880    16.9020    19.0570     2.5690   -31.4760 
  148.1250    61.3760    23.8850    16.8560    16.3730    18.5190     2.5370   -31.4330 
  148.2500    63.3340    23.9280    16.5120    16.1820    18.3930     2.5210   -31.4120 
  148.3750    61.6780    23.9500    17.2240    16.2710    18.5940     2.5220   -31.4360 
  148.5000    58.6030    23.9750    18.3430    16.5660    19.0020     2.5320   -31.5070 
  148.6250    55.6680    23.9390    18.9980    16.9150    19.4350     2.5460   -31.5490 
  148.7500    52.6070    23.9520    20.3310    17.2050    19.7710     2.5600   -31.5310 
  148.8750    50.2960    23.9490    21.0080    17.3920    19.9720     2.5710   -31.4760 
  149.0000    51.8130    23.9490    20.1620    17.4400    19.9990     2.5730   -31.4030 
  149.1250    57.2690    23.9370    19.7300    17.3440    19.9040     2.5680   -31.3070 
  149.2500    61.3670    23.9640    20.3580    17.1990    19.7900     2.5640   -31.2350 
  149.3750    62.3490    24.0380    20.9210    16.9950    19.6330     2.5640   -31.1910 
  149.5000    62.1440    24.0070    21.9170    16.6790    19.3630     2.5620   -31.1650 
  149.6250    62.1570    23.9480    22.8460    16.2410    18.9430     2.5600   -31.1390 
  149.7500    61.0380    23.9460    22.0140    15.7230    18.4180     2.5630   -31.0980 
  149.8750    59.5590    23.9910    19.2560    15.1630    17.8340     2.5660   -31.0470 
  150.0000    59.6360    24.0460    17.0760    14.6420    17.3120     2.5550   -30.9880 
  150.1250    59.6600    23.9410    16.2090    14.2490    16.9450     2.5390   -30.9060 
  150.2500    56.8810    23.9180    15.2020    13.9850    16.7390     2.5430   -30.8020 
  150.3750    51.8410    23.9530    14.3990    13.8360    16.6630     2.5670   -30.7260 
  150.5000    48.3470    23.8930    14.8100    13.7790    16.6840     2.5930   -30.6950 
  150.6250    49.6920    23.9610    16.0320    13.7200    16.6890     2.6120   -30.7130 
  150.7500    51.5070    23.9380    16.4780    13.6080    16.6140     2.6250   -30.7380 
  150.8750    51.5830    23.9400    15.9870    13.4470    16.4690     2.6240   -30.7440 
  151.0000    52.2040    23.9740    15.0700    13.2440    16.2450     2.6020   -30.7380 
  151.1250    54.8220    23.9410    14.2990    13.0140    15.9800     2.5730   -30.7260 
  151.2500    56.7650    23.9460    14.0010    12.8240    15.7740     2.5610   -30.7200 
  151.3750    56.5060    23.9550    13.9650    12.7070    15.6650     2.5620   -30.6860 
  151.5000    57.2200    23.9690    14.0990    12.6730    15.6570     2.5680   -30.6530 
  151.6250    58.1380    23.9640    14.5310    12.7340    15.7730     2.5740   -30.6740 
  151.7500    56.4440    23.9210    14.3920    12.8680    15.9880     2.5850   -30.7780 
  151.8750    54.7410    23.9080    14.2430    13.0550    16.2630     2.5980   -30.9320 
  152.0000    55.7450    23.8600    14.8190    13.2770    16.5950     2.6080   -31.0860 
  152.1250    58.3680    23.8950    15.7280    13.5170    16.9700     2.6010   -31.2050 
  152.2500    58.3140    23.8920    15.7940    13.7370    17.3020     2.5800   -31.2660 
  152.3750    55.6630    23.7400    15.4710    13.9010    17.5300     2.5540   -31.2990 
  152.5000    53.3740    23.7390    15.4230    13.9800    17.6050     2.5350   -31.3240 
  152.6250    53.9960    23.6700    15.8570    13.9420    17.4760     2.5330   -31.3650 
  152.7500    56.4180    23.6400    15.8670    13.8000    17.2210     2.5470   -31.4150 
  152.8750    58.4460    23.6280    15.6750    13.5840    16.8850     2.5710   -31.4610 
  153.0000    60.2490    23.6100    15.3780    13.3470    16.5450     2.5870   -31.4940 
  153.1250    61.8490    23.5840    14.9350    13.1680    16.3310     2.5840   -31.4990 
  153.2500    61.4080    23.4610    14.3510    13.0770    16.2730     2.5720   -31.4850 
  153.3750    58.5390    23.3370    14.3990    13.0950    16.3810     2.5680   -31.4490 
  153.5000    57.0350    23.3170    14.8450    13.2270    16.6280     2.5780   -31.3970 
  153.6250    59.0070    23.3200    15.0370    13.4240    16.9310     2.5920   -31.3360 
  153.7500    60.3340    23.3450    15.3920    13.5870    17.1260     2.5980   -31.2690 
  153.8750    60.4860    23.3590    16.3520    13.6860    17.1830     2.5940   -31.1560 
