~V
VERS. 2.00: Ver 2.00
~W
STRT.M 125.0000:
STOP.M 247.0000:
STEP.M 0.1250:
NULL. -999.2500:
UWI. DF3017:
~C
DEPT.M :
DEN.GM/CC :
GR.API :
RML.OHMM :
RI. :
RXO.OHMM :
CALI.CM :
SP.MV :
~A
  125.0000     2.2190    66.3460     8.8290     8.1840     8.8490    23.4670   -23.6690 
  125.1250     2.2180    65.4740     8.7570     8.0880     8.5000    23.5440   -23.6300 
  125.2500     2.2140    67.5050     8.6880     7.9860     8.0270    23.5910   -23.5780 
  125.3750     2.2060    69.9850     8.6390     7.9070     7.5880    23.5990   -23.5260 
  125.5000     2.1960    69.9800     8.6280     7.8730     7.2720    23.6000   -23.4920 
  125.6250     2.1880    68.6530     8.6720     7.9040     7.1320    23.6010   -23.4040 
  125.7500     2.1850    67.7660     8.7540     7.9810     7.1680    23.6070   -23.3210 
  125.8750     2.1870    67.2870     8.8510     8.0840     7.2830    23.6450   -23.2300 
  126.0000     2.1930    67.4120     8.9430     8.1880     7.5210    23.6670   -23.1750 
  126.1250     2.1990    69.0000     9.0160     8.2700     7.6770    23.6890   -23.1120 
  126.2500     2.2060    70.0120     9.0770     8.3260     7.7740    23.7360   -23.0620 
  126.3750     2.2120    69.4440     9.1280     8.3510     7.8020    23.7880   -22.9980 
  126.5000     2.2210    68.9570     9.1590     8.3430     7.7510    24.0810   -22.9060 
  126.6250     2.2290    68.7310     9.1430     8.2890     7.7360    24.1750   -22.8130 
  126.7500     2.2340    67.2460     9.0800     8.2040     7.7680    24.1910   -22.6990 
  126.8750     2.2350    66.5370     8.9950     8.1090     7.8200    24.1550   -22.6030 
  127.0000     2.2340    69.1680     8.9330     8.0410     7.8610    24.1330   -22.4670 
  127.1250     2.2360    73.2010     8.9440     8.0460     7.9240    24.1060   -22.3890 
  127.2500     2.2440    75.5480     9.0260     8.1240     8.0050    24.0370   -22.2930 
  127.3750     2.2570    77.1130     9.1520     8.2560     7.9350    23.9860   -22.2060 
  127.5000     2.2720    80.4240     9.2760     8.4030     7.7290    23.8740   -22.1430 
  127.6250     2.2830    84.0990     9.3440     8.5110     7.9210    23.7850   -22.1070 
  127.7500     2.2870    85.9840     9.3430     8.5490     8.1760    23.6950   -22.0890 
  127.8750     2.2830    86.0970     9.2880     8.5130     8.2470    23.5830   -22.0520 
  128.0000     2.2730    85.1420     9.2140     8.4240     8.0040    23.5400   -22.0210 
  128.1250     2.2580    82.4110     9.1690     8.3180     7.7740    23.5330   -21.9850 
  128.2500     2.2450    78.1020     9.1710     8.2370     7.6920    23.5320   -21.9790 
  128.3750     2.2340    75.0510     9.2130     8.1970     7.6630    23.5250   -21.9770 
  128.5000     2.2280    73.4860     9.2770     8.1970     7.7280    23.4770   -21.9540 
  128.6250     2.2280    73.0070     9.3410     8.2300     8.0190    23.4690   -21.9480 
  128.7500     2.2310    74.1720     9.4100     8.2880     8.4290    23.4670   -21.9090 
  128.8750     2.2360    75.6380     9.5040     8.3770     8.7170    23.4630   -21.8920 
  129.0000     2.2410    74.0210     9.6490     8.5060     8.7750    23.3800   -21.8570 
  129.1250     2.2470    69.7210     9.8650     8.6800     8.6920    23.4210   -21.8580 
  129.2500     2.2570    66.9100    10.1280     8.8800     8.7790    23.4580   -21.8320 
  129.3750     2.2690    65.9460    10.4040     9.0850     9.2350    23.4730   -21.8200 
  129.5000     2.2820    65.8220    10.6500     9.2720     9.8950    23.4750   -21.8020 
  129.6250     2.2890    67.5070    10.8100     9.4100    10.0100    23.4740   -21.8090 
  129.7500     2.2880    69.8100    10.8860     9.5030     9.9330    23.4750   -21.8540 
  129.8750     2.2830    70.2120    10.8990     9.5650    10.3980    23.4740   -21.8840 
  130.0000     2.2750    68.9320    10.8860     9.6200    11.1060    23.4710   -21.9120 
  130.1250     2.2710    70.2830    10.8920     9.6920    10.5620    23.4700   -21.8780 
  130.2500     2.2690    74.7890    10.9130     9.7710    10.1440    23.4700   -21.8380 
  130.3750     2.2680    79.3730    10.9010     9.8150    10.0420    23.4690   -21.7350 
  130.5000     2.2660    80.3780    10.7760     9.7600     9.9300    23.4700   -21.6060 
  130.6250     2.2630    77.8490    10.4310     9.5140     9.5230    23.5050   -21.3550 
  130.7500     2.2590    74.6950     9.8840     9.0870     9.0230    23.5810   -21.0660 
  130.8750     2.2560    72.7190     9.2180     8.5380     8.5340    23.6750   -20.7500 
  131.0000     2.2560    73.3670     8.5810     7.9840     8.1410    23.7600   -20.4280 
  131.1250     2.2570    76.8700     8.1700     7.5820     7.5310    23.8580   -20.0910 
  131.2500     2.2550    79.7000     8.0200     7.3840     6.8840    23.8670   -19.7600 
  131.3750     2.2490    78.4480     8.0750     7.3650     6.6980    23.7340   -19.4340 
  131.5000     2.2410    75.9700     8.1990     7.4320     7.1010    23.6070   -19.0610 
  131.6250     2.2330    75.7590     8.2070     7.4380     7.4630    23.5890   -18.6860 
  131.7500     2.2300    78.1210     8.0190     7.2950     7.5740    23.7000   -18.2680 
  131.8750     2.2340    82.2960     7.6660     6.9990     7.3480    23.9060   -17.8590 
  132.0000     2.2440    88.5770     7.2540     6.6160     6.7590    24.1270   -17.4620 
  132.1250     2.2610    95.1160     6.9220     6.2570     5.8910    24.1990   -17.1360 
  132.2500     2.2810    96.3730     6.7110     5.9880     5.6590    24.1960   -16.7910 
  132.3750     2.3000    93.5360     6.5980     5.8190     5.9380    24.1810   -16.5330 
  132.5000     2.3130    90.8560     6.5400     5.7300     6.2810    24.1600   -16.3330 
  132.6250     2.3150    90.8450     6.5360     5.7230     6.2870    24.1170   -16.2780 
  132.7500     2.3100    89.7130     6.6290     5.8060     6.3120    24.0980   -16.2930 
  132.8750     2.3050    85.7460     6.8770     6.0090     6.4360    24.0880   -16.3630 
  133.0000     2.3110    82.5530     7.2750     6.3240     6.7430    24.0720   -16.4550 
  133.1250     2.3350    84.3530     7.6910     6.6580     7.4560    24.0450   -16.5500 
  133.2500     2.3680    87.7980     7.9130     6.8530     8.4020    24.0330   -16.6810 
  133.3750     2.3930    88.6740     7.8230     6.8130     9.2890    24.0110   -16.7850 
  133.5000     2.3980    87.0770     7.4830     6.5710    10.6840    23.9950   -16.9370 
  133.6250     2.3800    87.4960     7.2310     6.3650     8.6180    24.0670   -17.0670 
  133.7500     2.3650    91.3270     7.4470     6.4960     7.5410    24.1860   -17.2450 
  133.8750     2.3720    95.9660     8.2990     7.1270     8.0390    24.2410   -17.4190 
  134.0000     2.4080    96.7330     9.6960     8.2290    10.5110    24.2450   -17.6210 
  134.1250     2.4560    90.1540    11.2320     9.5390    15.1530    24.2030   -17.7920 
  134.2500     2.4770    81.3750    12.2870    10.5490    21.3990    24.0850   -17.9410 
  134.3750     2.4500    75.4120    12.4310    10.8680    24.1100    23.9140   -18.0220 
  134.5000     2.3820    72.6410    11.6060    10.3630    18.3890    23.8160   -18.0050 
  134.6250     2.3040    72.1980    10.2000     9.2390    11.7260    23.8260   -17.8760 
  134.7500     2.2520    76.2910     8.8830     8.0530     9.0130    23.9280   -17.6510 
  134.8750     2.2370    83.6630     7.9110     7.0770     7.9170    24.0960   -17.3770 
  135.0000     2.2530    91.5810     7.3050     6.3960     7.1260    24.2600   -17.0590 
  135.1250     2.2840    97.3380     7.0040     6.0120     6.4640    24.3250   -16.7600 
  135.2500     2.3090   100.8790     6.8540     5.8020     6.2800    24.3370   -16.4550 
  135.3750     2.3240   101.2550     6.7940     5.7060     6.2220    24.3370   -16.2050 
  135.5000     2.3320    98.9840     6.7940     5.6830     6.0130    24.3370   -16.0580 
  135.6250     2.3390    96.3950     6.8450     5.7150     5.8360    24.3370   -16.0420 
  135.7500     2.3460    94.5930     6.9180     5.7730     5.7060    24.3370   -16.0550 
  135.8750     2.3480    94.4740     6.9870     5.8380     5.7490    24.3370   -16.1150 
  136.0000     2.3390    96.8870     7.0210     5.8880     5.9100    24.3370   -16.1680 
  136.1250     2.3210    99.0860     6.9810     5.8910     6.0800    24.3460   -16.2320 
