~V
VERS. 2.00: Ver 2.00
~W
STRT.M 60.0000:
STOP.M 264.0000:
STEP.M 0.1250:
NULL. -999.2500:
UWI. DF303:
~C
DEPT.M :
DEN.GM/CC :
SP.MV :
AC.US/MT :
GR.API :
CALI.CM :
RXO.OHMM :
RI. :
RML.OHMM :
~A
# ...
   90.0000     2.2020   -30.8540   422.6910    74.8240    24.6210     7.6920     7.1640     8.6410 
   90.1250     2.1970   -30.9850   416.2650    71.2510    24.7440     7.7590     7.1290     8.5590 
   90.2500     2.2030   -31.1710   412.8310    66.9560    24.8100     7.6590     7.0870     8.4640 
   90.3750     2.2150   -31.4210   413.1840    66.3930    24.8270     7.5290     7.0470     8.3840 
   90.5000     2.2210   -31.7320   416.1750    68.6560    24.8250     7.5220     7.0170     8.3400 
   90.6250     2.2220   -32.0690   420.2520    68.5100    24.8260     7.6970     7.0040     8.3410 
   90.7500     2.2310   -32.4250   424.1060    68.0740    24.8260     7.9250     6.9980     8.3500 
   90.8750     2.2410   -32.8030   427.0630    69.1930    24.8110     8.1130     6.9880     8.3390 
   91.0000     2.2400   -33.1470   428.7070    69.2690    24.7650     8.2160     6.9690     8.2960 
   91.1250     2.2220   -33.4450   429.2620    66.6510    24.6780     8.2290     6.9400     8.2330 
   91.2500     2.2050   -33.7330   429.9220    64.5900    24.6420     8.2110     6.9130     8.1770 
   91.3750     2.1980   -33.9660   431.1450    63.8490    24.6340     8.1970     6.8950     8.1380 
   91.5000     2.1980   -34.1300   432.4970    62.7610    24.6350     8.1890     6.8880     8.1170 
   91.6250     2.1940   -34.2230   433.1140    60.3980    24.6350     8.2100     6.8880     8.1060 
   91.7500     2.1850   -34.2390   433.1670    58.7070    24.6350     8.2560     6.8890     8.0910 
   91.8750     2.1790   -34.2060   433.3830    59.3320    24.6350     8.3030     6.8830     8.0670 
   92.0000     2.1840   -34.1300   434.2980    61.0360    24.6350     8.3480     6.8710     8.0320 
   92.1250     2.1920   -34.0060   435.8810    60.6420    24.6180     8.3460     6.8540     7.9900 
   92.2500     2.1930   -33.8150   437.5560    58.5860    24.5800     8.3010     6.8390     7.9480 
   92.3750     2.1860   -33.5420   439.0740    58.1820    24.5420     8.2180     6.8330     7.9200 
   92.5000     2.1770   -33.2150   440.4480    60.6950    24.5210     8.1070     6.8430     7.9220 
   92.6250     2.1770   -32.8710   441.8920    63.6430    24.5020     7.9790     6.8720     7.9640 
   92.7500     2.1850   -32.5160   443.5000    65.8940    24.4550     7.8940     6.8940     8.0110 
   92.8750     2.1950   -32.1330   444.6940    68.1420    24.3640     7.8650     6.8770     8.0080 
   93.0000     2.2040   -31.7750   444.3650    70.7320    24.2020     7.8660     6.7900     7.9020 
   93.1250     2.2110   -31.4490   441.9040    71.7230    24.1350     7.7660     6.6130     7.6600 
   93.2500     2.2200   -31.1560   439.0790    71.9270    24.1250     7.5010     6.3950     7.3570 
   93.3750     2.2330   -30.9640   436.9810    70.1850    24.1380     7.2230     6.1900     7.0830 
   93.5000     2.2450   -30.8780   435.5290    66.3750    24.1870     7.1460     6.0630     6.9340 
   93.6250     2.2450   -30.8750   437.2320    62.1250    24.2940     7.3310     6.0950     7.0190 
   93.7500     2.2340   -30.9540   445.6850    60.9470    24.4030     7.5740     6.2940     7.3330 
   93.8750     2.2180   -31.1120   458.1900    63.2180    24.4490     7.9540     6.6400     7.8410 
   94.0000     2.2070   -31.2750   464.6720    65.9180    24.4590     8.9030     7.0650     8.4460 
   94.1250     2.2030   -31.4040   454.9060    65.5350    24.4640    10.9110     7.4350     8.9530 
   94.2500     2.2030   -31.5280   434.6080    64.4200    24.4670    12.4150     7.6390     9.1970 
   94.3750     2.2080   -31.6240   412.7070    64.8500    24.4660    11.7990     7.6370     9.1310 
   94.5000     2.2160   -31.6830   397.7420    65.8510    24.4630     9.7330     7.4700     8.8360 
   94.6250     2.2250   -31.7080   396.8980    66.0210    24.4710     8.6330     7.2300     8.4770 
   94.7500     2.2320   -31.6930   404.9660    66.6490    24.4930     8.4420     7.0240     8.2080 
   94.8750     2.2350   -31.6590   414.6660    68.4410    24.5120     8.5630     6.8990     8.0840 
   95.0000     2.2370   -31.6590   421.3110    70.6680    24.5150     8.6100     6.8650     8.1020 
   95.1250     2.2360   -31.6830   424.3550    72.7200    24.4880     8.5570     6.9110     8.2290 
   95.2500     2.2370   -31.7230   425.6590    73.4360    24.4870     8.5370     6.9900     8.3980 
   95.3750     2.2410   -31.7760   426.2340    72.2210    24.5460     8.5770     7.0780     8.5680 
   95.5000     2.2470   -31.8300   426.6560    71.5810    24.6060     8.6300     7.1550     8.7070 
   95.6250     2.2470   -31.8860   426.9920    73.5040    24.6350     8.6770     7.1990     8.7770 
   95.7500     2.2440   -31.9640   427.3430    74.5450    24.6350     8.6880     7.2030     8.7730 
   95.8750     2.2430   -32.0420   428.1440    72.7090    24.6350     8.6600     7.1670     8.7030 
   96.0000     2.2470   -32.0800   429.7020    67.5450    24.6350     8.6190     7.0980     8.5950 
   96.1250     2.2450   -32.1210   431.4030    67.2880    24.6350     8.5730     7.0160     8.4880 
   96.2500     2.2360   -32.1650   432.1730    74.4000    24.6350     8.5230     6.9430     8.4110 
   96.3750     2.2280   -32.1870   431.7720    81.0990    24.6350     8.4590     6.8930     8.3690 
   96.5000     2.2280   -32.2020   430.6430    78.7200    24.6350     8.3940     6.8740     8.3650 
   96.6250     2.2300   -32.2260   429.2720    68.6600    24.6350     8.4040     6.8890     8.4010 
   96.7500     2.2280   -32.2450   428.0150    61.5560    24.6350     8.4700     6.9230     8.4590 
   96.8750     2.2240   -32.2310   427.3900    59.5930    24.6350     8.5390     6.9620     8.5190 
   97.0000     2.2220   -32.2200   427.9140    59.9160    24.6350     8.5790     6.9900     8.5560 
   97.1250     2.2260   -32.2000   429.3760    63.0310    24.6350     8.6160     6.9930     8.5460 
   97.2500     2.2330   -32.1560   430.5410    67.5580    24.6350     8.6300     6.9770     8.5020 
   97.3750     2.2420   -32.0940   430.9990    71.6640    24.6350     8.5910     6.9530     8.4480 
   97.5000     2.2480   -32.0070   431.2420    73.4680    24.6350     8.4960     6.9380     8.4090 
   97.6250     2.2470   -31.8690   431.8390    73.0030    24.6350     8.4210     6.9410     8.3970 
   97.7500     2.2390   -31.6990   432.1380    71.4070    24.6350     8.4040     6.9380     8.3750 
   97.8750     2.2250   -31.5100   431.3170    70.9270    24.6350     8.4380     6.8960     8.2990 
   98.0000     2.2130   -31.2810   429.8430    71.8080    24.6350     8.4540     6.7890     8.1400 
   98.1250     2.2150   -31.0150   430.4090    76.5350    24.6340     8.2490     6.6230     7.9080 
   98.2500     2.2350   -30.7200   434.5310    84.3730    24.6230     7.7170     6.4540     7.6780 
   98.3750     2.2640   -30.4150   440.9650    87.1050    24.5930     7.1190     6.3260     7.5120 
   98.5000     2.2820   -30.1340   446.3670    79.2770    24.5500     7.0700     6.2610     7.4350 
   98.6250     2.2750   -29.8790   447.5610    67.7380    24.5770     7.6190     6.2430     7.4200 
   98.7500     2.2640   -29.6160   446.0750    65.1120    24.5680     8.0870     6.2170     7.3810 
   98.8750     2.2650   -29.3750   444.1460    70.3850    24.4730     8.0070     6.1480     7.2650 
   99.0000     2.2760   -29.1700   442.8110    73.2580    24.3250     7.4720     6.0340     7.0710 
   99.1250     2.2770   -29.0250   441.7230    72.4080    24.3220     6.9440     5.9200     6.8810 
   99.2500     2.2600   -28.9200   440.6130    72.2330    24.4490     6.7880     5.8750     6.8030 
   99.3750     2.2320   -28.8290   439.4920    73.6310    24.5940     7.0210     5.9330     6.8890 
   99.5000     2.2010   -28.6880   437.8580    75.2070    24.6250     7.3820     6.0810     7.1160 
   99.6250     2.1820   -28.4470   435.0380    75.1020    24.6620     7.7690     6.2440     7.3640 
   99.7500     2.1820   -28.1240   432.2590    75.2890    24.7760     8.1810     6.3010     7.4500 
   99.8750     2.1970   -27.6960   431.5240    77.1920    25.0250     8.1470     6.1720     7.2490 
