~V
VERS. 2.00: Ver 2.00
~W
STRT.M 120.0000:
STOP.M 272.0000:
STEP.M 0.1250:
NULL. -999.2500:
UWI. DF3038:
~C
DEPT.M :
GR.API :
RML.OHMM :
RI. :
RXO.OHMM :
CALI.CM :
DEN.GM/CC :
SP.MV :
~A
# ...
  221.2500    65.8240   137.3490   124.3160   123.0720    25.0140     2.2030   -20.8940 
  221.3750    66.1070   139.1000   126.0350   118.4820    25.0350     2.2120   -20.5430 
  221.5000    65.9660   141.7080   128.5060   116.9250    25.0760     2.2170   -19.9850 
  221.6250    66.7940   143.5680   130.4240   122.4230    25.1060     2.2120   -19.4490 
  221.7500    66.5200   142.5990   130.0340   126.2420    25.1070     2.2040   -18.7490 
  221.8750    65.1820   137.2660   125.9720   128.0620    25.0670     2.2050   -18.0710 
  222.0000    64.1830   127.4220   117.9470   127.2400    25.0210     2.2260   -17.3840 
  222.1250    65.4810   114.7770   107.0680   120.6790    24.9680     2.2630   -16.8950 
  222.2500    69.3250   103.0300    96.4360   102.7270    24.8960     2.2970   -16.6000 
  222.3750    73.4530    94.4860    88.2040    82.6540    24.8840     2.3130   -16.5160 
  222.5000    74.4420    90.1190    83.5320    71.7420    25.0500     2.3050   -16.7070 
  222.6250    70.0550    90.2730    83.0260    74.9380    25.1500     2.2820   -17.0290 
  222.7500    65.7830    93.2720    85.2840    85.1330    25.1320     2.2610   -17.6560 
  222.8750    64.4150    98.0740    89.3620    97.9700    24.9490     2.2500   -18.3750 
  223.0000    64.7410   103.8130    94.4170   104.3200    24.7290     2.2500   -19.1730 
  223.1250    66.4730   109.9320    99.8510    95.9070    24.6170     2.2640   -19.7940 
  223.2500    68.2550   115.9890   105.1770    90.3910    24.6750     2.2890   -20.3020 
  223.3750    68.7240   121.4850   109.9380   101.8190    24.6520     2.3150   -20.6590 
  223.5000    67.3630   125.5340   113.4160   120.0570    24.6160     2.3250   -20.9310 
  223.6250    68.8180   126.3990   114.2040   138.3290    24.5900     2.3050   -21.0300 
  223.7500    73.7460   123.6250   111.9380   159.6940    24.6500     2.2670   -20.9820 
  223.8750    77.8830   117.2730   106.6190   148.8900    24.6640     2.2270   -20.8250 
  224.0000    78.6200   108.3360    98.9820   116.8030    24.5290     2.2000   -20.5890 
  224.1250    75.4560    98.6440    90.4810    99.0530    24.6360     2.1890   -20.3110 
  224.2500    72.4880    90.5280    83.1860    92.5630    24.5720     2.1890   -19.9820 
  224.3750    70.9880    86.1260    78.9930    83.2030    24.4380     2.2010   -19.5790 
  224.5000    71.1280    87.5550    79.7870    70.4490    24.3040     2.2040   -19.1360 
  224.6250    73.7950    96.8200    87.5110    68.4360    24.1180     2.2770   -18.7320 
  224.7500    77.2130   110.3420    99.2910    84.1320    23.9580     2.3550   -18.2210 
  224.8750    78.6020   122.2990   110.1640   112.6390    23.8170     2.4380   -17.7690 
  225.0000    76.0040   124.8760   113.2990   146.4870    23.7420     2.5020   -17.2260 
  225.1250    72.2180   108.8850   100.5970   155.4160    23.8350     2.5270   -16.7740 
  225.2500    70.2440    80.0150    76.0360   146.0050    23.9450     2.4990   -16.3500 
  225.3750    68.5640    49.9130    48.7040   117.3090    23.9410     2.4350   -16.0490 
  225.5000    67.7440    27.7520    27.5250    52.5010    23.7720     2.3570   -15.8160 
  225.6250    71.9590    16.0310    16.1490    19.4520    23.4510     2.2890   -15.6530 
  225.7500    81.5940    10.2490    10.4610     8.2930    23.2460     2.2530   -15.6390 
  225.8750    92.7450     8.2080     7.9660     5.6190    23.2740     2.2530   -15.5890 
  226.0000    99.0990     7.7890     7.1740     5.3270    23.6000     2.2790   -15.6210 
  226.1250    96.7400     8.3010     7.4210     6.0980    24.1700     2.3110   -15.6540 
  226.2500    89.7230     9.0840     8.1050     7.3470    24.6650     2.3270   -15.7490 
  226.3750    84.8820     9.8250     8.9220     8.4410    24.8830     2.3240   -15.8660 
  226.5000    88.3630    10.3380     9.6340     8.8750    24.9150     2.3110   -16.0170 
  226.6250    99.9580    10.5380    10.0630     8.9540    24.9540     2.3010   -16.1820 
  226.7500   110.3480    10.5600    10.2630     9.1020    25.0170     2.3070   -16.3960 
  226.8750   114.0550    10.5210    10.3170     9.4490    24.9700     2.3250   -16.6730 
  227.0000   114.4930    10.5060    10.3050     9.9060    24.9070     2.3470   -17.0490 
  227.1250   116.3400    10.5570    10.2650    10.2330    24.8840     2.3680   -17.4260 
  227.2500   119.0400    10.6500    10.2000    10.2030    24.8720     2.3810   -17.7930 
  227.3750   120.2280    10.7590    10.1020    10.1310    24.8620     2.3880   -18.1200 
  227.5000   118.5640    10.8660     9.9750    10.1400    24.8570     2.3900   -18.4220 
  227.6250   116.6330    10.9630     9.8360    10.1290    24.8550     2.3880   -18.6650 
  227.7500   116.2200    11.0490     9.7120    10.0960    24.8550     2.3850   -18.8280 
  227.8750   118.6570    11.1240     9.6190    10.0660    24.8550     2.3830   -18.9820 
  228.0000   123.1330    11.1830     9.5610     9.9150    24.8590     2.3850   -19.0510 
  228.1250   125.3650    11.2250     9.5400     9.7380    24.8710     2.3920   -19.1760 
  228.2500   125.3620    11.2560     9.5450     9.7130    24.8870     2.3960   -19.1850 
  228.3750   122.2110    11.2840     9.5700     9.8260    24.8900     2.3930   -19.2220 
  228.5000   116.5390    11.3180     9.6150     9.9410    24.8780     2.3820   -19.1610 
  228.6250   112.1300    11.3740     9.6900    10.0080    24.8470     2.3680   -19.1560 
  228.7500   111.5870    11.4580     9.7990    10.1690    24.7990     2.3670   -19.1300 
  228.8750   113.0450    11.5650     9.9370    10.3780    24.7140     2.3800   -19.0260 
  229.0000   110.5270    11.6710    10.0830    10.4910    24.6260     2.4030   -18.8740 
  229.1250   105.9810    11.7280    10.1860    10.5260    24.6570     2.4230   -18.6080 
  229.2500   106.9440    11.7080    10.2100    10.5490    24.7230     2.4270   -18.3920 
  229.3750   110.6150    11.6130    10.1440    10.4550    24.7020     2.4170   -18.1520 
  229.5000   111.7700    11.4860    10.0110    10.4080    24.4670     2.4030   -17.9640 
  229.6250   109.7170    11.3970     9.8650    10.2570    24.3920     2.3920   -17.7830 
  229.7500   111.1900    11.3820     9.7530     9.9740    24.1660     2.3880   -17.6220 
  229.8750   115.5260    11.4210     9.6790     9.6650    24.0590     2.3870   -17.5080 
  230.0000   117.8550    11.4500     9.6140     9.6000    24.0550     2.3860   -17.4450 
  230.1250   116.1520    11.3740     9.5050     9.8920    24.1620     2.3830   -17.4840 
  230.2500   113.5700    11.2120     9.3440    10.3850    23.9640     2.3830   -17.6040 
  230.3750   113.0540    11.0030     9.1960    10.9480    23.7630     2.3900   -17.7930 
  230.5000   113.0120    11.0460     9.2460    11.7940    23.6700     2.4040   -18.0500 
  230.6250   112.0480    12.2060    10.0800    13.2320    23.7580     2.4220   -18.3370 
  230.7500   110.9030    15.5330    12.4820    16.7190    23.9260     2.4360   -18.7360 
  230.8750   106.2240    22.4380    17.6280    24.6760    23.9350     2.4380   -19.1640 
  231.0000    94.9870    34.5500    26.7340    38.8480    23.8880     2.4250   -19.6850 
  231.1250    81.9670    52.9970    41.1180    68.5500    23.7670     2.3950   -20.2230 
  231.2500    74.1700    75.0620    58.9080   102.8470    23.7670     2.3550   -20.7110 
  231.3750    70.5880    96.8660    77.5230   122.2160    23.7750     2.3160   -21.1670 
  231.5000    68.9050   115.7740    93.8280   129.9030    23.8030     2.2870   -21.4980 
  231.6250    69.2870   128.2940   104.8780   134.7650    23.8870     2.2700   -21.8610 
  231.7500    69.5220   135.8860   111.7520   140.3700    24.0090     2.2650   -22.0990 
  231.8750    69.0820   140.6260   115.9870   141.9420    24.0990     2.2650   -22.3330 
  232.0000    70.0500   143.9250   118.7720   139.5920    24.0710     2.2670   -22.4500 
  232.1250    71.6350   145.7550   120.3580   141.6510    23.9040     2.2670   -22.5280 
  232.2500    70.2980   146.0370   120.8960   141.6910    23.9570     2.2670   -22.5630 
  232.3750    67.9210   144.7300   120.3820   138.0320    24.1150     2.2660   -22.5800 
