~V
VERS. 2.00: Ver 2.00
~W
STRT.M 120.0000:
STOP.M 278.0000:
STEP.M 0.1250:
NULL. -999.2500:
UWI. DF3047:
~C
DEPT.M :
DEN.GM/CC :
SP.MV :
AC.US/MT :
GR.API :
CALI.CM :
RXO.OHMM :
RI. :
RML.OHMM :
~A
  120.0000     2.2030   -26.8610   433.3470    71.3810    24.8640     7.7650     6.9490     8.6310 
  120.1250     2.1990   -26.3290   433.8660    71.1250    24.8170     7.5980     6.8540     8.4780 
  120.2500     2.1970   -25.4970   433.7150    71.8850    24.9690     7.5520     6.6290     8.1300 
  120.3750     2.2150   -24.4190   432.1500    76.2540    25.1730     7.4940     6.2710     7.5800 
  120.5000     2.2470   -23.1860   427.6330    86.3120    25.3260     7.1800     5.8240     6.9040 
  120.6250     2.2690   -21.9250   418.7110    97.3600    25.5030     6.6330     5.3710     6.2430 
  120.7500     2.2690   -20.7470   407.5200   102.3480    25.7650     6.2390     4.9890     5.7180 
  120.8750     2.2580   -19.7080   397.0070   101.7510    26.0410     6.0480     4.7190     5.3930 
  121.0000     2.2530   -18.8560   389.7710   101.8800    26.2200     5.8770     4.5830     5.2980 
  121.1250     2.2640   -18.2610   386.7590   106.4210    26.2540     5.6480     4.6110     5.4580 
  121.2500     2.2760   -17.9070   385.2640   109.7240    26.2370     5.6010     4.7560     5.7770 
  121.3750     2.2730   -17.7670   383.3020   106.6710    26.2140     6.0510     4.9780     6.1690 
  121.5000     2.2610   -17.7510   380.3140    98.0510    26.1910     7.0680     5.2250     6.5390 
  121.6250     2.2560   -17.7690   377.2060    92.7480    26.1540     7.9030     5.4180     6.7570 
  121.7500     2.2670   -17.7470   375.0070    95.0480    26.1200     7.7890     5.4920     6.7540 
  121.8750     2.2830   -17.6600   373.9820    99.6880    26.1110     7.0390     5.4230     6.5270 
  122.0000     2.2960   -17.5060   374.1450   100.9670    26.1320     6.5110     5.2440     6.1660 
  122.1250     2.3090   -17.2940   376.0150    99.3660    26.1860     6.4290     5.0430     5.8340 
  122.2500     2.3280   -17.0830   379.6980    99.6200    26.2950     6.2860     4.8990     5.6430 
  122.3750     2.3460   -16.9170   385.0140   101.3840    26.5150     6.1010     4.8460     5.6270 
  122.5000     2.3490   -16.8400   391.1180   101.0340    26.7730     6.2010     4.8840     5.7630 
  122.6250     2.3330   -16.8620   396.4760    99.5950    26.8250     6.5170     5.0020     6.0050 
  122.7500     2.3050   -16.9660   400.0420    99.5520    26.6720     6.5860     5.1630     6.2810 
  122.8750     2.2700   -17.1440   401.4670    98.9380    26.5000     6.4570     5.3420     6.5460 
  123.0000     2.2360   -17.3590   400.9030    95.6020    26.4190     6.5830     5.5100     6.7610 
  123.1250     2.2230   -17.5540   398.7070    91.2020    26.3500     7.1780     5.6180     6.8620 
  123.2500     2.2360   -17.6800   396.1500    90.4420    26.2360     7.6620     5.6460     6.8370 
  123.3750     2.2620   -17.7340   394.4970    92.9130    26.1200     7.6210     5.5860     6.6830 
  123.5000     2.2800   -17.7360   394.8560    95.1980    26.0460     7.1240     5.4450     6.4170 
  123.6250     2.2760   -17.7260   397.6780    95.8520    26.0570     6.6380     5.2400     6.0860 
  123.7500     2.2670   -17.7440   401.2360    96.6540    26.1140     6.3960     5.0340     5.7890 
  123.8750     2.2660   -17.8160   403.6790    97.4970    26.2170     6.2570     4.8850     5.6100 
  124.0000     2.2710   -17.9820   403.6010    96.4270    26.4830     6.0310     4.8330     5.6020 
  124.1250     2.2620   -18.2780   400.2460    96.5050    26.8840     5.8960     4.9230     5.8200 
  124.2500     2.2330   -18.6610   394.7580    99.1710    27.0030     6.2430     5.1450     6.2470 
  124.3750     2.2020   -19.0480   387.8030    98.3350    26.6290     8.0800     5.4990     6.8670 
  124.5000     2.1920   -19.3470   379.8600    90.6950    26.0370     9.3220     5.9400     7.5820 
  124.6250     2.2210   -19.4740   371.8010    84.4330    25.7660     9.6250     6.3230     8.1240 
  124.7500     2.2670   -19.4270   365.3860    86.7650    25.8130     9.9970     6.4810     8.2340 
  124.8750     2.3060   -19.2050   362.3150    98.2230    25.9680    10.4050     6.3360     7.8260 
  125.0000     2.3260   -18.8340   363.3160   113.9110    26.1220     9.8100     5.9450     7.0590 
  125.1250     2.3270   -18.3460   367.8620   121.0680    26.2920     7.8780     5.4680     6.2730 
  125.2500     2.3150   -17.7930   373.5020   115.8120    26.4420     6.2800     5.0680     5.7200 
  125.3750     2.2920   -17.2270   379.1700   108.9430    26.4870     5.8520     4.7990     5.4430 
  125.5000     2.2700   -16.6930   384.9100   108.0600    26.3890     6.0970     4.6490     5.3710 
  125.6250     2.2780   -16.2410   391.2570   109.4660    26.2440     6.1250     4.5780     5.3680 
  125.7500     2.3130   -15.8810   397.5940   110.7370    26.2090     5.8580     4.5110     5.2970 
  125.8750     2.3460   -15.6300   402.4630   112.7940    26.3250     5.5770     4.4210     5.1290 
  126.0000     2.3540   -15.4850   404.4950   114.1940    26.5270     5.4080     4.3150     4.9230 
  126.1250     2.3420   -15.4670   402.8890   110.4200    26.7380     5.3530     4.2420     4.7910 
  126.2500     2.3340   -15.5900   399.2270   108.3210    26.8790     5.4100     4.2450     4.8020 
  126.3750     2.3270   -15.8740   395.0210   110.3010    26.8080     5.5680     4.3600     4.9940 
  126.5000     2.3030   -16.3270   391.7070   111.9980    26.4340     5.7360     4.6020     5.3800 
  126.6250     2.2610   -16.9380   390.6220   108.7000    25.8860     5.9670     4.9930     5.9840 
  126.7500     2.2270   -17.6230   391.4650    97.5750    25.4460     6.4540     5.4770     6.7180 
  126.8750     2.2160   -18.2800   393.3450    82.0440    25.1820     7.1660     5.9870     7.4600 
  127.0000     2.2240   -18.8160   395.0300    70.9170    25.0160     7.7940     6.4210     8.0490 
  127.1250     2.2380   -19.1390   395.5240    71.6360    24.9140     7.9400     6.6300     8.2630 
  127.2500     2.2520   -19.2550   395.2520    77.9210    24.9180     7.7010     6.5800     8.0860 
  127.3750     2.2660   -19.1520   394.9440    82.8790    25.0470     7.3240     6.2870     7.5760 
  127.5000     2.2810   -18.8530   395.0740    87.4110    25.2220     7.0480     5.8340     6.8770 
  127.6250     2.2940   -18.3720   395.5490    94.0250    25.3580     6.8640     5.3410     6.1580 
  127.7500     2.3000   -17.8080   395.5200   100.1840    25.4710     6.6070     4.9220     5.5700 
  127.8750     2.3020   -17.2350   393.4910   103.1140    25.6180     6.3460     4.6640     5.2560 
  128.0000     2.3090   -16.7150   386.9820   100.9640    25.7880     6.3430     4.6560     5.3700 
  128.1250     2.3470   -16.2880   371.4640    95.5050    25.8960     7.3440     5.0600     6.1650 
  128.2500     2.4210   -15.9410   347.1540    89.7530    25.9630    10.2910     5.8960     7.6280 
  128.3750     2.5100   -15.6990   317.3980    83.5850    26.0880    15.8150     7.1410     9.6330 
  128.5000     2.5760   -15.5590   289.5240    78.1980    26.3120    22.0670     8.5450    11.6310 
  128.6250     2.5650   -15.5120   275.0550    79.1430    26.5080    23.2590     9.3750    12.1570 
  128.7500     2.4940   -15.5110   277.3820    86.3570    26.5810    18.8330     9.1900    10.7100 
  128.8750     2.4040   -15.5460   294.5030    93.5740    26.5340    12.8340     8.1920     8.1960 
  129.0000     2.3360   -15.6030   319.6430    96.5430    26.3730     9.0220     6.9610     5.9540 
  129.1250     2.3130   -15.6760   343.8220    97.8440    26.0900     8.0270     6.0160     4.8600 
  129.2500     2.3220   -15.7450   361.5640    99.6270    25.8260     7.7460     5.4540     4.6940 
  129.3750     2.3470   -15.8090   372.0200   100.4840    25.7750     7.3180     5.2240     5.1140 
  129.5000     2.3650   -15.8700   377.0100    98.2190    25.9790     7.1500     5.2170     5.7190 
  129.6250     2.3570   -15.9240   379.2710    92.1200    26.1900     8.0720     5.3000     6.1070 
  129.7500     2.3380   -15.9700   381.3490    86.1940    26.1820     9.3260     5.3430     6.2020 
  129.8750     2.3290   -16.0140   383.6160    84.3270    26.0460     9.6960     5.3140     6.1230 
