~V
VERS. 2.00: Ver 2.00
~W
STRT.M 60.0000:
STOP.M 280.0000:
STEP.M 0.1250:
NULL. -999.2500:
UWI. DF3041:
~C
DEPT.M :
SP.MV :
GR.API :
RML.OHMM :
RI. :
RXO.OHMM :
CALI.CM :
DEN.GM/CC :
~A
# ...
  240.0000   -15.8020    71.4080    90.0840    75.3230    63.4400    23.5220     2.3310 
  240.1250   -15.7270    71.7590    94.0280    77.1680    64.6190    23.7130     2.3360 
  240.2500   -15.6590    71.5820   100.4740    81.7130    72.2650    23.7330     2.3230 
  240.3750   -15.5810    70.5060   106.7060    87.1190    80.5760    23.5630     2.2940 
  240.5000   -15.5090    70.8180   109.4970    90.8600    95.1970    23.5500     2.2630 
  240.6250   -15.4660    74.3640   105.0330    89.5820   105.4340    23.5320     2.2480 
  240.7500   -15.4510    77.7160    94.3230    83.0960   112.9140    23.5180     2.2520 
  240.8750   -15.4360    77.4960    80.2830    72.8660   113.3160    23.4150     2.2700 
  241.0000   -15.4480    75.4000    66.9970    61.8220    91.6300    23.3990     2.2890 
  241.1250   -15.4340    75.4260    58.5630    53.7040    65.0940    23.5000     2.2980 
  241.2500   -15.4420    77.2280    55.6880    50.0910    50.1460    23.6030     2.2940 
  241.3750   -15.4950    77.3960    58.5390    51.5170    47.3050    23.6000     2.2810 
  241.5000   -15.6010    75.4900    66.6990    57.6930    53.2660    23.5190     2.2670 
  241.6250   -15.7550    74.1990    79.2100    67.7970    69.5480    23.5320     2.2610 
  241.7500   -15.9550    72.7360    92.4410    78.7920    92.9450    23.5700     2.2630 
  241.8750   -16.1730    69.3510   102.8950    87.9730   108.8680    23.6090     2.2670 
  242.0000   -16.3940    66.8220   107.4810    92.9900   112.0810    23.6260     2.2640 
  242.1250   -16.6530    68.4760   103.8690    91.7990   102.2730    23.6230     2.2520 
  242.2500   -16.8980    71.5380    94.9160    85.9650    94.5890    23.6180     2.2340 
  242.3750   -17.1330    74.0740    83.4790    77.2450    92.6070    23.6060     2.2200 
  242.5000   -17.3280    76.3290    72.3770    67.8060    93.9150    23.6230     2.2180 
  242.6250   -17.4960    79.3520    64.6070    60.3520    88.8510    23.6690     2.2260 
  242.7500   -17.6300    80.2300    61.5400    56.6540    67.0310    23.6870     2.2380 
  242.8750   -17.7410    78.2550    64.2350    57.9350    52.9670    23.5780     2.2480 
  243.0000   -17.8340    76.0560    73.0190    64.5830    57.8840    23.4960     2.2530 
  243.1250   -17.9140    73.5160    87.5290    76.2590    78.9600    23.4620     2.2580 
  243.2500   -17.9810    69.7830   103.7580    89.5560   111.3370    23.5050     2.2650 
  243.3750   -18.0210    66.6180   117.5460   101.2020   137.6910    23.5720     2.2760 
  243.5000   -18.0480    67.9970   124.9420   108.2500   144.9180    23.4320     2.2910 
  243.6250   -18.0340    76.1990   123.1480   108.5320   135.9290    23.4080     2.3050 
  243.7500   -17.9810    85.9250   115.9370   104.4300   118.6000    23.4850     2.3150 
  243.8750   -17.8770    92.1890   106.7640    98.2350   104.5470    23.6120     2.3180 
  244.0000   -17.7250    92.5680    98.0820    91.8060    96.1650    23.6430     2.3140 
  244.1250   -17.4880    88.1970    91.5470    86.4810    91.7720    23.6140     2.3040 
  244.2500   -17.2270    82.3970    87.4380    82.6580    84.7670    23.5250     2.2930 
  244.3750   -16.9750    77.7760    85.8240    80.4680    79.3670    23.4480     2.2840 
  244.5000   -16.7170    75.4670    86.3690    79.7710    80.5100    23.4530     2.2780 
  244.6250   -16.4660    75.1780    88.3910    80.2970    85.1060    23.5680     2.2730 
  244.7500   -16.1930    73.4120    90.4420    81.2260    93.6900    23.6410     2.2670 
  244.8750   -15.9330    69.1050    91.4720    81.9170    97.9740    23.6720     2.2610 
  245.0000   -15.6980    66.1910    90.7820    81.8470    95.9040    23.6640     2.2550 
  245.1250   -15.5240    66.1300    87.8030    80.6560    93.7630    23.6460     2.2510 
  245.2500   -15.3750    67.6300    83.8440    78.8190    93.3560    23.6400     2.2480 
  245.3750   -15.2300    70.0370    80.0220    77.0670    92.9560    23.6320     2.2490 
  245.5000   -15.1000    73.1500    78.7390    76.5230    91.9590    23.5870     2.2500 
  245.6250   -14.9750    74.7490    81.8610    79.1620    91.5260    23.5070     2.2510 
  245.7500   -14.9110    73.6350    90.7330    85.5100    93.7470    23.4530     2.2490 
  245.8750   -14.9020    71.7980   103.6920    94.9760    99.6770    23.4800     2.2450 
  246.0000   -14.9170    71.0480   114.4500   105.0420   114.7530    23.5280     2.2400 
  246.1250   -14.9110    70.3330   118.8000   110.1640   143.2770    23.5520     2.2420 
  246.2500   -14.8860    70.7570   113.5740   106.5530   179.9350    23.5220     2.2540 
  246.3750   -14.8390    75.8560    98.2760    93.4150   197.1240    23.4610     2.2800 
  246.5000   -14.7950    84.9480    77.1480    74.1330   178.2820    23.3710     2.3180 
  246.6250   -14.8190    92.4510    57.4710    55.2200   110.9730    23.4290     2.3570 
  246.7500   -14.8960    96.1070    42.9960    41.0240    57.0830    23.4630     2.3900 
  246.8750   -15.0090    98.2760    33.9720    32.2270    34.6220    23.4680     2.4090 
  247.0000   -15.1670    99.3820    29.7220    28.1380    29.6080    23.4430     2.4090 
  247.1250   -15.4160    95.7280    30.5570    28.8570    31.3710    23.5520     2.3920 
  247.2500   -15.7290    89.1590    35.8760    33.8050    38.5630    23.7190     2.3590 
  247.3750   -16.0870    83.0500    45.6960    43.0620    52.3990    23.7980     2.3150 
  247.5000   -16.4610    78.2450    59.2140    55.8170    70.6520    23.5780     2.2730 
  247.6250   -16.8060    73.4450    74.0200    69.5280    93.9830    23.4460     2.2410 
  247.7500   -17.0960    68.3780    86.0350    80.2200   113.6740    23.3790     2.2240 
  247.8750   -17.3080    66.0600    92.1950    85.1730   121.5760    23.4080     2.2200 
  248.0000   -17.4560    68.3650    91.7050    83.9100   120.9540    23.4780     2.2240 
  248.1250   -17.5370    72.4150    86.7150    78.3990   115.1680    23.6110     2.2300 
  248.2500   -17.5450    74.1980    81.9070    72.8300   109.6450    23.6460     2.2340 
  248.3750   -17.5110    73.9610    79.4160    69.2340    95.9960    23.6250     2.2360 
  248.5000   -17.4130    73.0210    79.7800    68.2420    79.6350    23.5740     2.2350 
  248.6250   -17.2200    72.5650    82.8570    69.8730    78.2310    23.5050     2.2310 
  248.7500   -16.9770    72.2960    87.2060    72.9780    84.4440    23.4520     2.2270 
  248.8750   -16.7110    72.5190    91.7340    76.7780    92.6520    23.4380     2.2250 
  249.0000   -16.4310    73.5740    95.3720    80.4480    96.0350    23.3870     2.2370 
  249.1250   -16.1270    74.1410    96.8020    82.8080    96.7030    23.4240     2.2700 
  249.2500   -15.7990    74.0760    95.7600    83.1510   100.0570    23.4760     2.3220 
  249.3750   -15.4570    73.7880    92.3260    81.1030   101.6820    23.4700     2.3770 
  249.5000   -15.1310    73.3620    87.2120    76.9200   100.1670    23.3750     2.4070 
  249.6250   -14.8210    72.2730    81.7270    71.4800    91.0220    23.3560     2.4050 
  249.7500   -14.5290    72.0400    77.3080    66.3740    71.9320    23.4120     2.3880 
  249.8750   -14.2650    73.6250    74.7230    62.6650    61.5380    23.4930     2.3790 
  250.0000   -13.9950    76.7660    74.1260    60.9190    61.7770    23.5290     2.3990 
  250.1250   -13.7220    77.8020    75.2820    61.3860    65.2930    23.5940     2.4400 
  250.2500   -13.4580    77.0600    77.2460    63.2670    72.8360    23.6720     2.4830 
  250.3750   -13.1810    78.9560    79.7430    66.2050    79.9420    23.5080     2.5120 
  250.5000   -12.9030    85.3700    83.1570    70.2610    90.6210    23.2710     2.5190 
  250.6250   -12.6590    92.7370    88.6750    76.2060    87.7900    23.2020     2.5170 
  250.7500   -12.4110    94.0720    96.0770    83.7810    84.0590    23.1910     2.5200 
  250.8750   -12.1410    90.2560   103.5160    91.4910    83.9720    23.1780     2.5400 
  251.0000   -11.8710    84.3970   107.1980    96.2230   104.8620    23.2600     2.5810 
  251.1250   -11.5860    78.0390   101.5730    92.7380   143.5250    23.2970     2.6280 
