~V
VERS. 2.00: Ver 2.00
~W
STRT.M 60.0000:
STOP.M 251.0000:
STEP.M 0.1250:
NULL. -999.2500:
UWI. DF3020:
~C
DEPT.M :
GR.API :
RML.OHMM :
RI. :
RXO.OHMM :
CALI.CM :
DEN.GM/CC :
SP.MV :
~A
# ...
  161.2500    65.0110   157.5780   147.1330   100.1710    26.2320     2.2550   -15.3230 
  161.3750    69.0340   154.1480   142.8280    86.5180    26.2700     2.2610   -14.7120 
  161.5000    72.6750   155.1410   143.1310    89.2220    26.3230     2.2630   -14.2430 
  161.6250    74.4220   156.9190   145.3200   117.3140    26.3310     2.2590   -13.8600 
  161.7500    73.9910   155.6530   145.5700   147.6750    26.3330     2.2540   -13.6080 
  161.8750    71.3340   150.1490   142.1730   162.6570    26.3330     2.2530   -13.3700 
  162.0000    68.3450   141.9460   135.7490   149.4720    26.3300     2.2560   -13.1750 
  162.1250    66.7690   134.9860   129.6380   118.1130    26.3050     2.2620   -12.9380 
  162.2500    65.4290   133.5400   127.9170    99.1010    26.2320     2.2640   -12.7360 
  162.3750    63.7950   140.0450   133.4570    96.3080    26.1480     2.2590   -12.5690 
  162.5000    62.7250   157.6540   147.9910   108.2850    26.0590     2.2480   -12.4060 
  162.6250    63.0430   188.6220   173.5970   130.4720    25.9380     2.2330   -12.3050 
  162.7500    62.8710   232.4030   207.5860   159.3150    25.8350     2.2200   -12.2350 
  162.8750    61.6920   285.8110   247.4850   179.1730    25.7380     2.2080   -12.3070 
  163.0000    60.1540   339.8230   289.7530   188.3170    25.6600     2.2000   -12.4850 
  163.1250    58.7250   390.6470   329.4120   195.7060    25.5670     2.1940   -12.8380 
  163.2500    57.0960   432.7310   362.3270   211.5330    25.4810     2.1910   -13.2540 
  163.3750    56.2140   459.8180   384.6900   216.3220    25.4570     2.1870   -13.6890 
  163.5000    57.6560   466.0590   392.6760   209.5980    25.3970     2.1820   -14.1520 
  163.6250    59.3660   442.6350   379.4750   196.9780    25.3220     2.1750   -14.5970 
  163.7500    57.9720   394.6670   347.1100   187.0450    25.2680     2.1690   -14.9480 
  163.8750    54.8350   330.9280   299.7860   179.0120    25.2230     2.1690   -15.1300 
  164.0000    54.3670   265.8010   246.6190   175.9100    25.2030     2.1790   -15.1460 
  164.1250    57.5020   214.9130   200.2200   168.9950    25.2070     2.1990   -14.9330 
  164.2500    60.0450   180.6270   166.5540   148.9580    25.2490     2.2200   -14.5150 
  164.3750    62.4630   160.9970   146.3760   120.0030    25.3650     2.2330   -13.9780 
  164.5000    66.4460   152.7340   137.7220   103.4900    25.4710     2.2350   -13.3030 
  164.6250    69.9950   153.7030   138.7450   116.1760    25.5850     2.2300   -12.4960 
  164.7500    70.2180   159.5760   144.9020   142.0840    25.6320     2.2270   -11.6430 
  164.8750    67.1650   167.8260   153.6150   157.6710    25.6700     2.2280   -10.8220 
  165.0000    63.1230   175.8670   162.3680   146.2980    25.7170     2.2300   -10.1050 
  165.1250    61.3480   180.3870   168.0540   132.1700    25.6170     2.2300    -9.5850 
  165.2500    62.3460   179.8640   169.1330   141.7780    25.6130     2.2250    -9.3020 
  165.3750    64.8980   173.8330   164.9810   148.6850    25.6140     2.2210    -9.2670 
  165.5000    68.6740   163.1690   156.1530   141.0520    25.6180     2.2200    -9.5190 
  165.6250    72.2910   149.7820   144.0610   132.0140    25.6220     2.2250   -10.1420 
  165.7500    72.9270   136.8390   131.6960   121.1740    25.6180     2.2300   -11.0750 
  165.8750    70.4860   126.3800   121.1340   108.3160    25.6200     2.2350   -12.2700 
  166.0000    69.0560   119.7020   113.8490    97.6650    25.6290     2.2380   -13.6510 
  166.1250    70.9160   118.3930   111.5110    91.0560    25.6280     2.2420   -15.1690 
  166.2500    73.3950   122.3210   114.0520    88.6740    25.6240     2.2470   -16.6690 
  166.3750    74.9170   131.8850   121.8120    89.0230    25.6500     2.2500   -18.0180 
  166.5000    74.0070   146.8990   134.5950    94.9510    25.7280     2.2490   -19.1930 
  166.6250    70.6890   166.3510   151.5250   113.1730    25.8770     2.2400   -20.1850 
  166.7500    67.3220   186.3570   169.1660   130.4400    25.9750     2.2290   -20.9600 
  166.8750    65.5900   203.3230   184.4110   146.0390    26.0090     2.2180   -21.5340 
  167.0000    64.4400   213.9240   194.8410   148.9520    26.0120     2.2120   -21.9270 
  167.1250    63.5440   217.6300   199.6380   138.3220    26.0120     2.2130   -22.1430 
  167.2500    64.7720   220.2920   203.3790   130.3100    26.0120     2.2170   -22.2750 
  167.3750    66.4840   230.6970   212.1760   136.7670    26.0120     2.2170   -22.4450 
  167.5000    64.6470   254.8620   232.2150   134.8760    26.0120     2.2120   -22.6230 
  167.6250    57.6220   298.6910   267.6020   138.9300    26.0120     2.1990   -22.7540 
  167.7500    51.6420   346.4270   308.5200   154.3900    26.0120     2.1850   -22.9040 
  167.8750    51.1280   374.7900   339.4480   184.8750    26.0010     2.1720   -23.0630 
  168.0000    54.8960   363.6140   341.6840   214.6150    25.9650     2.1660   -23.2090 
  168.1250    59.1520   299.8590   296.5000   224.4430    25.8940     2.1690   -23.3560 
  168.2500    61.8010   213.3400   223.0750   224.3040    25.8420     2.1820   -23.4840 
  168.3750    65.2300   138.0900   149.4930   203.9950    25.7600     2.2040   -23.5800 
  168.5000    69.8380    90.0610    96.2980   135.4920    25.6150     2.2300   -23.6120 
  168.6250    72.2380    68.5290    69.6620    61.4160    25.5270     2.2490   -23.6520 
  168.7500    72.3750    61.3430    59.1220    37.1730    25.4970     2.2540   -23.6060 
  168.8750    73.2580    63.8770    59.1970    38.2400    25.4950     2.2490   -23.5010 
  169.0000    75.7900    72.9600    66.1160    53.5970    25.4950     2.2400   -23.3070 
  169.1250    76.7740    86.1530    77.4590    80.3200    25.4950     2.2370   -23.0830 
  169.2500    76.4280    99.7500    89.9640   100.7860    25.4950     2.2430   -22.8090 
  169.3750    77.3080   111.4710   101.6890   102.8090    25.4950     2.2540   -22.4720 
  169.5000    78.5100   119.5500   111.5040   104.8560    25.4950     2.2640   -22.1410 
  169.6250    77.3720   124.6870   119.1000   106.7490    25.4950     2.2660   -21.7980 
  169.7500    75.5660   129.4340   125.4070   108.3230    25.4950     2.2620   -21.4970 
  169.8750    75.0550   135.9200   130.6630   110.8880    25.4950     2.2560   -21.2380 
  170.0000    74.8820   141.6250   134.6630   119.3590    25.4950     2.2500   -21.0790 
  170.1250    73.5060   145.7360   136.8750   122.9100    25.4630     2.2460   -20.9600 
  170.2500    71.6830   147.9860   137.6430   120.1290    25.3850     2.2440   -20.9020 
  170.3750    70.0070   148.3470   137.3510   115.3720    25.4060     2.2410   -20.8990 
  170.5000    69.6380   146.4240   136.4420   114.9140    25.4630     2.2380   -20.9330 
  170.6250    71.2280   143.2060   135.1780   116.7800    25.5090     2.2350   -20.9750 
  170.7500    72.3240   140.1810   133.6370   115.1960    25.5950     2.2320   -21.0060 
  170.8750    71.1430   138.8410   131.7310   111.7560    25.6540     2.2320   -20.9810 
  171.0000    70.0060   136.9160   129.5140   112.9410    25.7300     2.2350   -20.8590 
  171.1250    70.6570   135.0850   127.4880   116.2170    25.7900     2.2390   -20.6490 
  171.2500    69.9490   134.4030   126.4990   112.3360    25.8050     2.2420   -20.3920 
  171.3750    68.0040   135.8910   127.4470   108.0730    25.8450     2.2430   -20.0720 
  171.5000    68.0620   140.3530   131.0690   107.7820    25.8630     2.2410   -19.6630 
  171.6250    71.5180   148.6040   138.1320   113.0350    25.8670     2.2360   -19.2170 
  171.7500    73.9350   159.3910   147.5270   124.3480    25.8670     2.2330   -18.7320 
  171.8750    73.2200   171.1000   157.8250   139.5480    25.8670     2.2310   -18.3070 
  172.0000    71.0530   181.5080   167.0540   155.6940    25.8670     2.2330   -17.9050 
  172.1250    72.0010   187.6790   172.6090   162.9320    25.8770     2.2360   -17.6120 
  172.2500    76.4960   189.2780   174.1120   165.0550    25.9370     2.2400   -17.3560 
  172.3750    79.7200   187.3270   172.3370   160.8330    26.0100     2.2410   -17.1360 
