~V
VERS. 2.00: Ver 2.00
~W
STRT.M 105.0000:
STOP.M 279.0000:
STEP.M 0.1250:
NULL. -999.2500:
UWI. DF3027:
~C
DEPT.M :
DEN.GM/CC :
AC.US/MT :
GR.API :
CALI.CM :
RXO.OHMM :
RI. :
RML.OHMM :
SP.MV :
~A
# ...
  195.0000     2.4300   349.3430    90.8610    25.1140    12.1120     8.7360    13.1800   -26.1400 
  195.1250     2.4210   343.9100    92.6730    25.1000    11.9890     8.9530    13.4780   -26.5340 
  195.2500     2.4260   339.8680    90.6650    25.0930    12.6280     9.2330    13.9250   -26.5000 
  195.3750     2.4360   339.4280    87.3580    25.1280    13.9800     9.4380    14.2080   -26.0000 
  195.5000     2.4390   343.8320    86.8240    25.2140    15.1210     9.3720    13.9550   -25.0420 
  195.6250     2.4230   353.3750    89.5510    25.2970    14.4120     8.8190    12.8490   -23.6130 
  195.7500     2.3790   365.5960    92.5580    25.5630    11.9800     7.9350    11.2380   -21.8720 
  195.8750     2.2970   378.8620    90.3380    25.7940     8.9970     6.9560     9.5680   -19.9450 
  196.0000     2.1800   391.8670    81.3470    25.7470     6.7060     6.1100     8.2280   -17.9600 
  196.1250     2.0390   402.9260    70.4430    25.6190     5.7380     5.5760     7.4870   -16.0230 
  196.2500     1.9010   410.6880    63.7400    25.4540     5.4790     5.3190     7.2050   -14.2430 
  196.3750     1.7940   413.9170    60.5450    25.3010     5.4000     5.2760     7.2200   -12.7100 
  196.5000     1.7550   412.2590    60.5700    25.1920     5.3350     5.3550     7.3370   -11.4890 
  196.6250     1.8200   406.3330    64.1040    25.1400     5.4300     5.4510     7.3700   -10.6410 
  196.7500     1.9550   399.1810    70.3050    25.1180     5.5890     5.5050     7.2830   -10.0830 
  196.8750     2.1200   392.9140    74.7950    25.1060     5.5940     5.5230     7.1380    -9.7670 
  197.0000     2.2710   388.6310    78.2970    25.0900     5.4310     5.5370     7.0190    -9.6220 
  197.1250     2.3640   386.1730    84.5180    25.1060     5.3790     5.5840     6.9900    -9.6320 
  197.2500     2.4010   383.8140    91.0780    25.1760     5.5950     5.6670     7.0420    -9.7480 
  197.3750     2.4080   380.3650    93.1430    25.2680     5.9330     5.7750     7.1530    -9.9440 
  197.5000     2.4090   375.5290    91.7270    25.3290     6.1460     5.8910     7.2990   -10.2000 
  197.6250     2.4180   370.2310    91.1110    25.1850     6.2200     5.9950     7.4620   -10.5080 
  197.7500     2.4340   366.1410    91.7420    25.2230     6.4210     6.0790     7.6210   -10.8390 
  197.8750     2.4500   364.3070    92.3840    25.3220     6.7860     6.1390     7.7470   -11.1680 
  198.0000     2.4600   364.9780    94.9930    25.4420     7.0880     6.1670     7.8120   -11.4810 
  198.1250     2.4550   367.7220    99.4690    25.5560     7.1170     6.1500     7.7870   -11.7900 
  198.2500     2.4450   371.1310   100.8340    25.6530     7.0100     6.0940     7.7010   -12.1110 
  198.3750     2.4340   374.6040    96.7720    25.7450     6.9010     6.0270     7.6210   -12.4510 
  198.5000     2.4300   377.9600    92.8310    25.8360     6.8620     6.0030     7.6510   -12.7990 
  198.6250     2.4290   380.8250    93.8230    25.9280     7.0300     6.1180     7.9410   -13.1610 
  198.7500     2.4260   382.6400    95.5660    26.0410     7.7830     6.4150     8.5270   -13.5570 
  198.8750     2.4160   383.0790    92.3430    26.1850     9.4850     6.9410     9.4440   -13.9900 
  199.0000     2.4090   382.4860    87.3470    26.3220    11.8180     7.7300    10.6990   -14.4790 
  199.1250     2.4080   381.8700    85.1310    26.4080    13.5780     8.8530    12.3430   -15.0240 
  199.2500     2.4040   382.0030    84.4630    26.4840    14.8010    10.2990    14.3760   -15.6040 
  199.3750     2.3840   382.7440    83.3010    26.5950    16.8770    12.1490    16.9670   -16.2200 
  199.5000     2.3540   383.3670    82.0900    26.7440    21.2310    14.5670    20.3980   -16.8620 
  199.6250     2.3270   382.9450    79.9280    26.9090    28.6410    18.0360    25.3330   -17.5190 
  199.7500     2.3100   381.3680    75.0440    27.0870    37.8670    22.8490    32.0210   -18.1900 
  199.8750     2.2960   378.9010    69.2580    27.2830    47.1610    29.3360    40.7110   -18.8670 
  200.0000     2.2860   376.1510    65.7730    27.4780    55.1620    37.4860    51.2450   -19.5410 
  200.1250     2.2800   373.7340    64.8950    27.6650    62.1220    46.7180    62.8020   -20.2010 
  200.2500     2.2770   371.1300    65.5290    27.8550    68.2590    55.6140    73.7000   -20.8420 
  200.3750     2.2830   366.8710    65.6710    28.0390    72.1090    63.1890    82.7970   -21.4490 
  200.5000     2.3080   359.6410    65.8410    28.1930    74.1890    69.1150    89.8500   -22.0190 
  200.6250     2.3510   349.7550    66.8960    28.3120    80.6950    73.6780    95.4250   -22.5530 
  200.7500     2.3800   340.9350    67.6700    28.4300    95.5840    77.7510   100.5510   -23.0540 
  200.8750     2.3730   336.7700    67.4550    28.5430   113.2580    81.5670   105.3260   -23.5310 
  201.0000     2.3310   339.1230    67.4650    28.6200   123.4220    84.9690   109.3820   -23.9840 
  201.1250     2.2850   347.1970    68.2490    28.6850   124.3560    87.6630   112.3350   -24.3890 
  201.2500     2.2630   355.8350    67.8210    28.7820   126.0240    89.9950   114.8690   -24.7560 
  201.3750     2.2710   361.3000    67.1020    28.9010   128.2680    92.5860   117.9640   -25.0820 
  201.5000     2.2920   362.0080    67.8380    29.0020   126.5820    96.1400   122.5720   -25.3780 
  201.6250     2.3040   359.0490    69.5350    29.0940   122.8400   101.3470   129.5200   -25.6250 
  201.7500     2.2990   356.5210    68.9880    29.2170   124.3990   107.8560   138.1570   -25.8160 
  201.8750     2.2860   357.0570    66.7790    29.3510   134.6600   115.0980   147.6030   -25.9580 
  202.0000     2.2730   361.3090    65.7150    29.4450   151.2280   122.2760   156.7200   -26.0480 
  202.1250     2.2620   367.6570    66.1300    29.4810   162.6220   128.3400   164.0970   -26.1100 
  202.2500     2.2540   372.8710    65.6840    29.5030   162.9070   132.9070   169.4340   -26.1580 
  202.3750     2.2540   375.2870    63.7240    29.5340   157.9730   135.9800   172.9510   -26.1890 
  202.5000     2.2590   374.7610    61.7270    29.5600   154.9290   137.9000   175.2220   -26.2020 
  202.6250     2.2620   372.2310    62.3290    29.5620   153.2730   138.9740   176.6030   -26.2150 
  202.7500     2.2600   369.6750    64.7270    29.5320   150.2520   139.4410   177.1480   -26.2460 
  202.8750     2.2530   368.4700    64.7950    29.4800   146.1520   139.0860   176.4160   -26.2910 
  203.0000     2.2400   369.5980    63.1190    29.4010   141.6720   137.6420   174.0190   -26.3560 
  203.1250     2.2270   373.6090    63.8000    29.3030   137.2480   134.9010   169.7030   -26.4330 
  203.2500     2.2210   379.0110    66.4310    29.2240   133.1500   131.3600   164.1900   -26.5080 
  203.3750     2.2220   384.2530    65.9430    29.1840   129.4980   127.4590   158.0610   -26.5830 
  203.5000     2.2250   388.0850    62.8310    29.1540   126.6250   123.6830   151.9490   -26.6520 
  203.6250     2.2210   389.8820    61.6150    29.0530   123.8640   120.6090   146.6090   -26.7230 
  203.7500     2.2130   390.5870    62.8280    28.9080   119.7040   118.3680   142.2390   -26.7820 
  203.8750     2.2060   391.0660    63.2960    28.7750   115.0360   116.8290   138.6480   -26.8240 
  204.0000     2.2050   391.9490    62.7200    28.6810   113.5430   115.5320   135.2330   -26.8350 
  204.1250     2.2130   393.4940    60.4990    28.6050   117.6730   113.6000   130.9390   -26.8200 
  204.2500     2.2220   395.3340    59.4600    28.5120   120.6360   110.4460   125.2350   -26.7880 
  204.3750     2.2190   397.0510    63.1450    28.3930   115.6660   105.8820   118.1170   -26.7310 
  204.5000     2.2090   398.2330    68.9690    28.2500   102.6840   100.0840   109.9690   -26.6410 
  204.6250     2.2140   398.5200    70.7140    28.1030    88.7050    93.3210   101.2680   -26.4870 
  204.7500     2.2390   398.0130    69.5430    27.9600    79.1440    86.1890    92.6310   -26.2970 
  204.8750     2.2720   396.3250    70.8850    27.8100    73.4580    79.1960    84.6140   -26.0850 
