~V
VERS. 2.00: Ver 2.00
~W
STRT.M 63.0000:
STOP.M 257.0000:
STEP.M 0.1250:
NULL. -999.2500:
UWI. DF3070:
~C
DEPT.M :
DEN.GM/CC :
GR.API :
RML.OHMM :
RI. :
RXO.OHMM :
CALI.CM :
SP.MV :
~A
# ...
  186.7500     2.3390    59.6660     6.5250     6.7070     5.1520    24.0350   -13.4460 
  186.8750     2.3350    56.8160     6.4980     6.6400     5.1650    24.0310   -13.4690 
  187.0000     2.3360    56.4600     6.4490     6.5100     5.2350    24.0340   -13.4460 
  187.1250     2.3400    57.6960     6.4170     6.3570     5.3150    24.0840   -13.5010 
  187.2500     2.3450    55.9250     6.4350     6.2310     5.3750    24.1300   -13.5220 
  187.3750     2.3510    52.2260     6.5290     6.1640     5.4270    24.0570   -13.6580 
  187.5000     2.3600    50.1070     6.7110     6.1770     5.4980    23.8520   -13.7940 
  187.6250     2.3730    53.4030     6.9870     6.2850     5.6620    23.6990   -14.0700 
  187.7500     2.3880    60.9820     7.3110     6.4520     5.9360    23.7380   -14.3680 
  187.8750     2.4040    69.1490     7.6430     6.6470     6.2790    23.8570   -14.7570 
  188.0000     2.4170    76.0740     7.9450     6.8350     6.6130    23.8850   -15.1980 
  188.1250     2.4290    81.6280     8.1890     6.9860     6.8860    23.7950   -15.6590 
  188.2500     2.4400    87.6650     8.3950     7.1060     7.1340    23.7160   -16.2050 
  188.3750     2.4500    95.5260     8.6020     7.2200     7.3510    23.7030   -16.7690 
  188.5000     2.4540   102.0660     8.8560     7.3600     7.5160    23.7110   -17.4130 
  188.6250     2.4500   104.1820     9.1920     7.5560     7.7080    23.7080   -18.0620 
  188.7500     2.4370   104.0310     9.5810     7.7950     7.9680    23.7090   -18.7800 
  188.8750     2.4210   104.4360     9.9770     8.0490     8.2520    23.7400   -19.5220 
  189.0000     2.4040   104.2310    10.3300     8.2870     8.6430    23.8510   -20.3000 
  189.1250     2.3920   101.1940    10.5980     8.4780     9.3900    24.0390   -21.1100 
  189.2500     2.3870    98.1040    10.8010     8.6280    10.2880    24.1850   -21.9660 
  189.3750     2.3890    98.3100    10.9580     8.7450    10.8870    24.2200   -22.8090 
  189.5000     2.3950   100.8980    11.0910     8.8400    10.9420    24.1420   -23.6390 
  189.6250     2.3990   101.7900    11.2090     8.9190    10.5550    24.0000   -24.4520 
  189.7500     2.3950    98.8470    11.3320     9.0020    10.3830    23.8700   -25.1740 
  189.8750     2.3830    95.2440    11.4920     9.1150    10.8700    23.8030   -25.8320 
  190.0000     2.3680    93.3260    11.7310     9.2930    11.8570    23.7750   -26.3920 
  190.1250     2.3590    95.8280    12.1020     9.5870    12.6870    23.8150   -26.8580 
  190.2500     2.3590    99.2680    12.5790     9.9880    13.2910    24.0870   -27.2160 
  190.3750     2.3670    97.7910    13.1210    10.4770    14.1290    24.3920   -27.4120 
  190.5000     2.3780    91.0790    13.6940    11.0240    15.3940    24.3470   -27.5150 
  190.6250     2.3870    85.8110    14.3120    11.6200    16.8700    24.1070   -27.3360 
  190.7500     2.3930    84.8690    14.9990    12.2460    18.2360    24.0860   -27.0290 
  190.8750     2.4030    85.8160    15.7200    12.8560    18.8450    24.2070   -26.5400 
  191.0000     2.4220    87.9060    16.3230    13.3390    18.5130    24.1510   -25.9520 
  191.1250     2.4470    90.5400    16.4470    13.4410    18.3500    23.9950   -25.2670 
  191.2500     2.4690    93.4600    15.9080    13.0430    19.2670    23.9990   -24.5030 
  191.3750     2.4770    96.8640    14.6960    12.1270    20.6800    24.0560   -23.7610 
  191.5000     2.4660    99.9690    13.0670    10.8590    20.4860    24.0880   -22.9550 
  191.6250     2.4380   100.9700    11.5130     9.5720    17.0150    24.0680   -22.2010 
  191.7500     2.4110   101.9560    10.4270     8.5750    13.2440    24.0620   -21.4600 
  191.8750     2.3950   102.8500     9.9530     8.0050    10.7860    24.0850   -20.7600 
  192.0000     2.3960    98.9760    10.0580     7.8830     9.4780    24.1550   -20.1110 
  192.1250     2.4120    90.3980    10.6190     8.1730     8.9800    24.4010   -19.4460 
  192.2500     2.4300    85.4160    11.2820     8.6350     9.1690    24.7030   -18.7930 
  192.3750     2.4380    87.3340    11.7700     9.0670     9.8820    24.8550   -18.1080 
  192.5000     2.4340    93.1180    11.8620     9.2770    10.5330    24.8220   -17.4560 
  192.6250     2.4210    96.3020    11.4120     9.0950    10.5940    24.6790   -16.8330 
  192.7500     2.4080    93.3290    10.6350     8.6200    10.3080    24.4570   -16.2320 
  192.8750     2.3990    84.1750     9.7600     7.9950     9.7260    24.1610   -15.6590 
  193.0000     2.3930    71.1750     8.9950     7.3790     8.6630    23.9710   -15.1120 
  193.1250     2.3900    59.1230     8.5000     6.9180     7.3390    24.0520   -14.6100 
  193.2500     2.3900    52.6990     8.2460     6.6310     6.3650    24.1390   -14.1450 
  193.3750     2.3920    50.5210     8.1820     6.5060     5.9050    24.0940   -13.7620 
  193.5000     2.3940    49.0040     8.2380     6.5030     5.7780    23.9740   -13.4150 
  193.6250     2.3930    49.4870     8.3470     6.5820     5.7620    24.0490   -13.1670 
  193.7500     2.3910    54.6580     8.4450     6.6840     5.7510    24.3030   -12.9240 
  193.8750     2.3910    62.6200     8.5100     6.7820     5.7560    24.3940   -12.7820 
  194.0000     2.3950    70.4320     8.5350     6.8610     5.8070    24.1750   -12.6040 
  194.1250     2.4010    75.2030     8.5160     6.9050     5.9210    23.9170   -12.5120 
  194.2500     2.4050    77.5950     8.4720     6.9180     6.0620    23.8810   -12.4270 
  194.3750     2.4030    79.9960     8.4220     6.9090     6.2070    23.9260   -12.3730 
  194.5000     2.3980    84.9300     8.3850     6.8910     6.3170    23.8490   -12.3170 
  194.6250     2.3960    91.1010     8.3670     6.8760     6.3900    23.7470   -12.2730 
  194.7500     2.4010    94.5170     8.3490     6.8550     6.4980    23.7250   -12.2800 
  194.8750     2.4110    95.1580     8.3000     6.8120     6.6630    23.7890   -12.2920 
  195.0000     2.4190    94.0850     8.1960     6.7280     6.8380    23.9110   -12.3720 
  195.1250     2.4170    93.3990     8.0370     6.6010     6.9610    24.1330   -12.5050 
  195.2500     2.4040    96.4470     7.8840     6.4750     7.0000    24.4680   -12.7140 
  195.3750     2.3820   100.9850     7.8080     6.4030     6.9050    24.8680   -12.9730 
  195.5000     2.3580   104.0450     7.8670     6.4360     6.6910    25.0750   -13.3180 
  195.6250     2.3430   106.1480     8.1010     6.6240     6.5640    24.8240   -13.7630 
  195.7500     2.3390   107.8260     8.4420     6.9330     6.7360    24.4050   -14.2580 
  195.8750     2.3470   105.8920     8.8200     7.3180     7.2940    24.1450   -14.7800 
  196.0000     2.3610   100.8150     9.1670     7.7280     8.0990    24.1140   -15.3080 
  196.1250     2.3740    98.6990     9.4560     8.1220     8.8240    24.1370   -15.7960 
  196.2500     2.3810   100.7720     9.7390     8.5110     9.3320    24.1330   -16.2110 
  196.3750     2.3800   102.7940    10.0910     8.9320     9.7710    24.1320   -16.5570 
  196.5000     2.3730   102.2790    10.5590     9.4210    10.3380    24.1310   -16.8030 
  196.6250     2.3670    99.2570    11.1300     9.9780    11.1060    24.1780   -17.0010 
  196.7500     2.3680    93.8530    11.6770    10.5150    11.9820    24.3050   -17.1450 
  196.8750     2.3790    87.0140    12.0650    10.9250    13.0390    24.4680   -17.3020 
  197.0000     2.3950    81.4300    12.1970    11.1190    14.1320    24.5720   -17.4500 
  197.1250     2.4100    83.0200    12.0500    11.0430    14.5070    24.5710   -17.6130 
  197.2500     2.4200    89.5840    11.7760    10.8330    14.0080    24.5440   -17.8620 
  197.3750     2.4230    93.9040    11.4410    10.6440    13.3470    24.5350   -18.1330 
  197.5000     2.4240    92.3480    11.3420    10.6730    13.2360    24.5340   -18.4690 
  197.6250     2.4270    88.8720    12.0660    11.3430    13.9280    24.5320   -18.7990 
  197.7500     2.4310    87.8740    14.5430    13.1310    15.5590    24.5310   -19.1920 
  197.8750     2.4290    88.1680    19.8420    16.8510    19.1030    24.5300   -19.5910 
