~V
VERS. 2.00: Ver 2.00
~W
STRT.M 56.0000:
STOP.M 270.0000:
STEP.M 0.1250:
NULL. -999.2500:
UWI. DF3053:
~C
DEPT.M :
GR.API :
CALI.CM :
RXO.OHMM :
RI. :
RML.OHMM :
DEN.GM/CC :
SP.MV :
~A
# ...
  145.8750    81.4090    23.0540     7.0360     6.2620     6.4660     2.2300    -7.7140 
  146.0000    82.7250    23.0520     7.0160     5.8760     5.8130     2.2180    -7.6340 
  146.1250    79.9380    23.1350     7.0780     5.7620     5.5860     2.2080    -7.5430 
  146.2500    79.1200    23.3280     6.7370     5.7660     5.6350     2.2010    -7.4400 
  146.3750    82.4470    23.5900     6.3430     5.8220     5.8650     2.1980    -7.3410 
  146.5000    86.6200    23.8200     6.4670     5.8910     6.1760     2.2000    -7.2630 
  146.6250    85.2000    23.9240     6.7780     5.9280     6.4280     2.2070    -7.1940 
  146.7500    80.8090    23.9400     6.9830     5.9030     6.5200     2.2240    -7.0990 
  146.8750    78.9740    23.9410     6.6950     5.7990     6.4150     2.2490    -6.9610 
  147.0000    79.9830    23.9950     6.1290     5.6250     6.1260     2.2700    -6.7900 
  147.1250    81.4400    24.0890     5.9550     5.4080     5.7100     2.2750    -6.6230 
  147.2500    83.0190    24.1600     5.9660     5.1940     5.3060     2.2740    -6.4870 
  147.3750    84.3690    24.1850     6.0320     5.0110     5.0180     2.2800    -6.3870 
  147.5000    84.1380    24.1810     6.0090     4.8810     4.9040     2.2910    -6.3190 
  147.6250    81.9040    24.1570     5.8240     4.8340     4.9850     2.2930    -6.2830 
  147.7500    81.2000    24.1330     5.6260     4.8630     5.1890     2.2810    -6.2910 
  147.8750    81.2330    24.1150     5.7790     4.9580     5.4650     2.2650    -6.3580 
  148.0000    80.1370    24.0830     6.3380     5.0940     5.7530     2.2570    -6.4880 
  148.1250    77.9340    24.0230     6.8430     5.2350     5.9840     2.2600    -6.6780 
  148.2500    75.8070    23.9670     6.9110     5.3590     6.1490     2.2650    -6.9030 
  148.3750    75.8800    23.9320     7.0890     5.4700     6.2850     2.2640    -7.1490 
  148.5000    79.7530    23.9130     7.1060     5.5880     6.4390     2.2550    -7.4080 
  148.6250    84.4780    23.9090     7.1680     5.7470     6.6430     2.2430    -7.6660 
  148.7500    85.1520    23.9190     7.2910     5.9500     6.8810     2.2310    -7.8970 
  148.8750    81.9670    23.8960     7.6200     6.1740     7.1200     2.2230    -8.0700 
  149.0000    78.6500    23.7680     7.7290     6.3590     7.3210     2.2220    -8.1750 
  149.1250    76.3600    23.5310     7.4750     6.3980     7.4100     2.2290    -8.2210 
  149.2500    74.5580    23.3500     7.2180     6.2620     7.3100     2.2380    -8.2550 
  149.3750    75.7390    23.3550     6.8910     5.9650     6.9830     2.2440    -8.2890 
  149.5000    80.2540    23.5620     6.4990     5.5660     6.4800     2.2410    -8.3150 
  149.6250    85.1430    23.8500     5.8930     5.1470     5.9200     2.2290    -8.2880 
  149.7500    88.3910    24.0630     5.3050     4.7810     5.4540     2.2160    -8.2150 
  149.8750    90.0730    24.1650     4.9880     4.5070     5.1510     2.2100    -8.1050 
  150.0000    90.5070    24.1990     4.9150     4.3540     5.0210     2.2170    -7.9710 
  150.1250    89.7000    24.2290     4.8320     4.3780     5.0750     2.2320    -7.8160 
  150.2500    89.3400    24.2530     5.0780     4.5810     5.2860     2.2490    -7.6590 
  150.3750    88.6530    24.2510     5.8310     4.9750     5.6680     2.2730    -7.5190 
  150.5000    86.1070    24.2220     6.8760     5.5360     6.1930     2.3100    -7.4280 
  150.6250    82.4410    24.1840     8.6390     6.1840     6.7410     2.3410    -7.3990 
  150.7500    79.7040    24.1560     9.7750     6.7440     7.1230     2.3400    -7.3980 
  150.8750    78.2040    24.1400     9.4330     7.0720     7.2150     2.3100    -7.3810 
  151.0000    77.4170    24.1350     8.3750     7.1170     7.0510     2.2740    -7.3430 
  151.1250    77.5940    24.0920     7.8850     6.9340     6.8210     2.2620    -7.3140 
  151.2500    78.1120    23.9600     7.9280     6.7100     6.7020     2.2760    -7.3320 
  151.3750    79.3480    23.7610     8.0170     6.5290     6.7100     2.3000    -7.3950 
  151.5000    81.7620    23.5860     7.8790     6.3960     6.7400     2.3140    -7.4850 
  151.6250    84.1720    23.5290     7.6610     6.2540     6.6340     2.3050    -7.5760 
  151.7500    84.5850    23.5090     8.1410     6.0810     6.4260     2.2920    -7.6770 
  151.8750    83.3630    23.4600     7.9860     5.9490     6.2980     2.2920    -7.7950 
  152.0000    81.8250    23.4480     7.0680     5.9710     6.4580     2.3050    -7.9190 
  152.1250    80.9350    23.6220     7.1700     6.2820     7.0910     2.3320    -8.0020 
  152.2500    79.6770    23.8990     9.7330     6.8660     8.0880     2.3670    -8.0250 
  152.3750    76.3920    24.1060    15.5050     7.6860     9.2790     2.3990    -7.9950 
  152.5000    70.8790    24.1620    20.9940     8.6650    10.4360     2.4120    -7.9520 
  152.6250    66.6360    24.1470    18.1020     9.7170    11.4410     2.4080    -7.9330 
  152.7500    65.3050    24.1540    14.3580    10.8360    12.5260     2.4110    -7.9440 
  152.8750    63.1230    24.1680    16.5610    12.1490    14.0400     2.4280    -7.9680 
  153.0000    57.9920    24.1570    24.7030    13.8210    16.2770     2.4540    -7.9880 
  153.1250    51.9030    24.1280    28.0170    16.0130    19.3800     2.4870    -7.9990 
  153.2500    47.6150    24.1110    28.9690    18.4350    22.7050     2.5150    -8.0150 
  153.3750    45.0220    24.1080    28.4380    20.5430    25.3150     2.5250    -8.0460 
  153.5000    43.2410    24.1140    26.4380    21.7610    26.4030     2.5110    -8.0920 
  153.6250    42.3220    24.1130    25.5780    21.8430    25.8870     2.4920    -8.1330 
  153.7500    41.9400    24.0770    25.7590    21.3740    24.8380     2.4880    -8.1580 
  153.8750    42.1960    24.0190    26.1000    20.7640    23.9210     2.4960    -8.1710 
  154.0000    43.1910    23.9720    25.0890    20.3080    23.5430     2.5030    -8.1930 
  154.1250    43.0410    23.9120    23.2220    20.2610    23.9800     2.5040    -8.2540 
  154.2500    42.0800    23.8000    23.3650    20.5990    25.0060     2.5050    -8.3500 
  154.3750    41.3820    23.6710    25.5970    21.2320    26.3490     2.5110    -8.4660 
  154.5000    40.5820    23.5940    28.2550    22.0030    27.6530     2.5200    -8.5930 
  154.6250    40.7410    23.5480    29.5000    22.7030    28.4650     2.5310    -8.7300 
  154.7500    42.7990    23.4870    27.9740    23.2160    28.7440     2.5480    -8.8710 
  154.8750    45.8800    23.4330    25.3710    23.5850    28.7270     2.5710    -9.0050 
  155.0000    47.2560    23.3990    24.0110    23.9220    28.6880     2.5940    -9.1230 
  155.1250    45.7090    23.3700    25.7590    24.2490    28.6410     2.5940    -9.2350 
  155.2500    45.5560    23.3080    26.7520    24.4330    28.3550     2.5700    -9.3600 
  155.3750    47.1620    23.1960    26.1570    24.3310    27.6880     2.5370    -9.5070 
  155.5000    47.4430    23.0190    24.7670    23.9260    26.7660     2.5130    -9.6660 
  155.6250    44.9400    22.7890    21.6000    23.3820    26.0600     2.5060    -9.8060 
  155.7500    43.3320    22.5860    19.1610    22.9610    25.8580     2.5070    -9.9230 
  155.8750    43.7210    22.4550    19.5580    22.6690    25.9400     2.5090   -10.0250 
  156.0000    43.9440    22.3980    22.2620    22.2270    25.6550     2.5040   -10.1270 
  156.1250    43.9740    22.3870    22.9940    21.2190    24.2730     2.4730   -10.2190 
  156.2500    46.0350    22.3560    20.5770    19.8050    22.1800     2.4240   -10.2950 
  156.3750    48.2920    22.2870    16.7670    18.3970    20.0950     2.3850   -10.3370 
  156.5000    49.0880    22.2080    13.6100    17.4000    18.6830     2.3870   -10.3500 
  156.6250    49.0160    22.1860    14.0970    17.1700    18.4560     2.4330   -10.3360 
  156.7500    48.4400    22.2530    18.9970    17.5890    19.1640     2.4710   -10.3040 
  156.8750    48.4150    22.4080    24.3040    18.4390    20.4430     2.4660   -10.2390 
  157.0000    49.4150    22.6220    25.2750    19.3660    21.7580     2.4250   -10.1370 
