~V
VERS. 2.00: Ver 2.00
~W
STRT.M 110.0000:
STOP.M 266.0000:
STEP.M 0.1250:
NULL. -999.2500:
UWI. DF309:
~C
DEPT.M :
DEN.GM/CC :
SP.MV :
AC.US/MT :
GR.API :
CALI.CM :
RXO.OHMM :
RI. :
RML.OHMM :
~A
# ...
  230.0000     2.3570   -33.9500   369.0210    87.1330    24.7690    29.8050    29.3030    34.6010 
  230.1250     2.3610   -34.1150   368.8470    81.7790    24.7690    30.6650    31.6090    37.4430 
  230.2500     2.3570   -34.2830   370.3100    79.5480    24.7690    32.6520    34.3760    40.7190 
  230.3750     2.3460   -34.4380   372.4270    80.1110    24.7690    35.8520    37.3430    44.1090 
  230.5000     2.3280   -34.5820   374.3300    77.7030    24.7690    39.6060    40.3130    47.4170 
  230.6250     2.3090   -34.7160   375.5750    72.0780    24.7690    43.1320    43.0320    50.3950 
  230.7500     2.2950   -34.8320   376.2110    69.1790    24.7690    46.5350    45.2980    52.8330 
  230.8750     2.2920   -34.9220   376.0720    70.2810    24.7690    50.5450    46.9970    54.6020 
  231.0000     2.2970   -34.9990   375.1880    71.0930    24.7690    53.5700    48.1680    55.7680 
  231.1250     2.3080   -35.0400   374.3420    70.0300    24.7690    52.0930    48.9860    56.5610 
  231.2500     2.3200   -35.0900   374.1420    69.1310    24.7690    49.6050    49.8360    57.4470 
  231.3750     2.3290   -35.1510   373.5000    68.2130    24.7690    49.5600    50.9690    58.7310 
  231.5000     2.3280   -35.1910   370.2910    67.0580    24.7660    52.0290    52.4680    60.5130 
  231.6250     2.3190   -35.1940   364.0430    72.2580    24.7610    56.4590    54.2130    62.6360 
  231.7500     2.3170   -35.1860   359.2660    80.0330    24.7590    60.6100    55.8350    64.6070 
  231.8750     2.3250   -35.1820   360.0830    82.1940    24.7590    62.1240    57.0800    66.0640 
  232.0000     2.3310   -35.1470   366.7800    76.4090    24.7590    60.6580    57.9430    66.9620 
  232.1250     2.3230   -35.1020   374.5270    71.8660    24.7590    59.1390    58.7390    67.6990 
  232.2500     2.3140   -35.0260   378.0010    71.4020    24.7590    59.0810    59.8650    68.8240 
  232.3750     2.3120   -34.9140   376.5580    70.1240    24.7590    60.6070    61.4620    70.5380 
  232.5000     2.3180   -34.7790   372.9800    68.3350    24.7590    63.5740    63.3990    72.6610 
  232.6250     2.3230   -34.6420   371.3010    68.1480    24.7590    67.5610    65.2170    74.5430 
  232.7500     2.3230   -34.4910   372.4880    69.5650    24.7590    69.9800    66.4470    75.5390 
  232.8750     2.3180   -34.3030   375.1110    71.5420    24.7590    70.0020    66.8160    75.3210 
  233.0000     2.3110   -34.0990   377.1310    71.9450    24.7590    68.5420    66.2160    73.8370 
  233.1250     2.3020   -33.8830   377.5390    68.3980    24.7590    66.8340    64.5890    71.1480 
  233.2500     2.2970   -33.6510   377.4090    63.2180    24.7590    65.3780    62.4120    67.9070 
  233.3750     2.2970   -33.4230   377.4790    61.6600    24.7580    63.0670    60.1010    64.6270 
  233.5000     2.3000   -33.2040   377.7320    66.4780    24.7550    58.7320    58.0550    61.7620 
  233.6250     2.2980   -32.9830   377.7420    71.6600    24.7500    53.5070    56.6250    59.7280 
  233.7500     2.2980   -32.7560   377.5540    70.9200    24.7480    51.6390    55.6320    58.3250 
  233.8750     2.3040   -32.5460   377.3800    67.4220    24.7480    52.4400    54.7200    57.1670 
  234.0000     2.3170   -32.3420   376.6560    67.4130    24.7480    52.8760    53.4740    55.7720 
  234.1250     2.3260   -32.1570   373.1520    72.5300    24.7470    51.1320    51.5630    53.7150 
  234.2500     2.3280   -32.0040   366.5390    77.3670    24.7390    46.9590    49.2950    51.2640 
  234.3750     2.3280   -31.8720   359.4930    79.6440    24.6870    41.0400    47.2080    48.9990 
  234.5000     2.3270   -31.7650   356.4540    80.1220    24.5630    36.3170    45.9210    47.6090 
  234.6250     2.3240   -31.6620   360.7380    78.4010    24.3850    34.5230    46.2940    48.0160 
  234.7500     2.3190   -31.5620   368.6390    75.1070    24.3090    36.1510    48.7000    50.5490 
  234.8750     2.3120   -31.4620   375.9250    70.7350    24.2910    41.1580    53.7660    55.7590 
  235.0000     2.2980   -31.3590   379.9550    66.7020    24.2910    48.7420    62.2260    64.2880 
  235.1250     2.2810   -31.2150   380.1540    64.8470    24.2910    59.3630    75.6550    77.6890 
  235.2500     2.2700   -31.0350   378.7390    65.0520    24.2890    74.3840    93.6250    95.9360 
  235.3750     2.2670   -30.8060   377.5620    67.2500    24.2750    92.1540   114.5270   118.2090 
  235.5000     2.2700   -30.5080   378.1410    70.5910    24.2440   110.2370   133.4520   139.7710 
  235.6250     2.2760   -30.1760   380.2710    73.7070    24.2130   123.7090   139.6000   146.7750 
  235.7500     2.2830   -29.8190   380.0200    76.2140    24.1550   124.9760   129.5180   133.8850 
  235.8750     2.2940   -29.4290   374.5680    78.9990    23.9900   107.4200   107.8880   108.8510 
  236.0000     2.3050   -29.0370   366.0770    81.8410    23.6810    77.9970    84.3360    84.0920 
  236.1250     2.3130   -28.6510   362.7580    82.9990    23.4310    51.2120    67.2510    67.3980 
  236.2500     2.3190   -28.2570   367.7760    80.9160    23.2920    35.5400    57.3370    57.9230 
  236.3750     2.3230   -27.8510   377.1020    75.8320    23.2530    30.9270    53.5080    54.3860 
  236.5000     2.3230   -27.4340   384.6350    72.8000    23.2590    34.8100    54.5220    55.7040 
  236.6250     2.2990   -27.0140   387.1330    77.0850    23.3080    44.1180    60.0270    61.6580 
  236.7500     2.2780   -26.5800   385.7250    80.5010    23.4170    53.7440    67.9570    70.2410 
  236.8750     2.2850   -26.1220   377.5800    76.8730    23.6140    61.2610    75.6820    78.7940 
  237.0000     2.3280   -25.6500   357.7680    70.1560    23.9310    68.3490    79.4990    83.1930 
  237.1250     2.3840   -25.2020   326.8590    67.1050    24.2910    79.1280    75.1090    78.4390 
  237.2500     2.4220   -24.7790   300.1940    66.1360    24.4600    84.5110    64.5910    67.0120 
  237.3750     2.4440   -24.3810   289.9760    65.6540    24.4050    71.2920    51.8180    53.3250 
  237.5000     2.4530   -24.0410   297.6390    66.6750    24.0770    44.8090    40.4410    41.2020 
  237.6250     2.4430   -23.7450   314.8950    70.4640    23.5690    27.2070    32.6100    32.8170 
  237.7500     2.4030   -23.4950   332.4860    73.9590    23.3060    21.0160    27.6250    27.5210 
  237.8750     2.3500   -23.2980   349.2100    76.3000    23.5010    21.4090    24.8270    24.7050 
  238.0000     2.3060   -23.1190   364.7870    81.8780    23.9710    24.0480    23.5560    23.6500 
  238.1250     2.2840   -22.9400   377.8670    88.4880    24.3990    23.9440    23.2700    23.6700 
  238.2500     2.2750   -22.7760   387.9620    88.3140    24.5540    21.9470    23.2340    23.8660 
  238.3750     2.2590   -22.6440   393.0180    80.9020    24.5850    20.2800    23.0390    23.7650 
  238.5000     2.2380   -22.5150   390.9690    74.5960    24.5850    19.8500    22.4850    23.1710 
  238.6250     2.2260   -22.3750   383.6990    75.4300    24.5850    19.7100    21.5650    22.1230 
  238.7500     2.2370   -22.2240   377.9030    75.8080    24.5850    19.1700    20.5150    20.9300 
  238.8750     2.2580   -22.0980   375.6910    73.9770    24.5850    18.2440    19.5010    19.7880 
  239.0000     2.2780   -22.0040   375.4440    71.0170    24.5840    17.3470    18.6960    18.8830 
  239.1250     2.2920   -21.9090   375.6180    69.7130    24.5820    16.9060    18.3890    18.5540 
  239.2500     2.3050   -21.8310   374.6300    72.2540    24.5820    16.7330    18.7090    18.9580 
  239.3750     2.3300   -21.7940   369.4420    75.1510    24.5830    16.6910    19.7450    20.1940 
  239.5000     2.3750   -21.8070   356.2120    73.2230    24.5850    17.4250    21.4410    22.1810 
  239.6250     2.4270   -21.8790   333.8370    69.2310    24.5830    20.8970    23.4270    24.4930 
  239.7500     2.4570   -22.0150   312.7340    69.1000    24.5720    26.6370    24.8550    26.2150 
  239.8750     2.4540   -22.1920   305.0450    72.9730    24.5260    30.9110    24.9770    26.5320 
