~V
VERS. 2.00: Ver 2.00
~W
STRT.M 125.0000:
STOP.M 247.0000:
STEP.M 0.1250:
NULL. -999.2500:
UWI. DF3017:
~C
DEPT.M :
DEN.GM/CC :
GR.API :
RML.OHMM :
RI. :
RXO.OHMM :
CALI.CM :
SP.MV :
~A
# ...
  203.7500     2.1940    65.9270   135.7040   128.5650   112.5520    24.7900   -17.4710 
  203.8750     2.2010    66.1670   135.4640   127.7620   109.2080    24.8350   -17.7670 
  204.0000     2.2100    63.7670   138.4170   129.8310   111.2260    24.7580   -18.0480 
  204.1250     2.2160    62.2490   144.3070   134.7090   115.7770    24.5130   -18.2620 
  204.2500     2.2130    63.7390   151.3910   140.8310   121.7320    24.4750   -18.3680 
  204.3750     2.2010    66.4680   158.3860   146.9970   127.4040    24.4670   -18.4200 
  204.5000     2.1850    67.1970   164.3050   152.2630   128.0770    24.4670   -18.4510 
  204.6250     2.1670    65.7160   168.3180   155.8510   126.1230    24.4670   -18.4740 
  204.7500     2.1580    65.0360   170.5200   157.8680   131.8420    24.4670   -18.4540 
  204.8750     2.1600    66.3760   170.9150   158.3710   138.2590    24.4670   -18.3930 
  205.0000     2.1700    68.3210   169.6520   157.5160   141.7320    24.4670   -18.2920 
  205.1250     2.1850    68.9440   166.8310   155.3580   146.2010    24.4670   -18.1900 
  205.2500     2.1960    68.3000   162.8370   152.2270   144.6840    24.4670   -18.0880 
  205.3750     2.1990    67.9160   157.4600   147.9770   136.1050    24.4640   -17.9990 
  205.5000     2.1960    68.5040   150.1450   142.1130   126.8470    24.4560   -17.9200 
  205.6250     2.1900    68.4170   139.7020   133.5290   120.5820    24.4060   -17.8450 
  205.7500     2.1870    66.5140   126.8470   122.4320   111.9920    24.4060   -17.8250 
  205.8750     2.1870    65.5710   112.7510   109.5960   103.8570    24.4060   -17.8370 
  206.0000     2.1900    68.4940    99.1120    96.4970    95.7220    24.4060   -17.8710 
  206.1250     2.1940    72.0860    87.9260    85.1430    82.6390    24.4010   -17.9320 
  206.2500     2.1990    71.6280    78.7660    76.3910    69.0100    24.3940   -18.0020 
  206.3750     2.2010    69.5070    72.6940    70.4520    62.0680    24.3960   -18.0770 
  206.5000     2.2000    68.7100    69.2880    67.0670    60.7840    24.4020   -18.1820 
  206.6250     2.1980    68.1640    68.2760    66.0360    61.4110    24.4060   -18.3440 
  206.7500     2.2040    66.1410    68.6950    66.4250    61.4970    24.4060   -18.4840 
  206.8750     2.2230    65.1000    69.9890    67.6840    61.2610    24.4060   -18.5790 
  207.0000     2.2510    66.8800    71.5600    69.2300    63.1420    24.4060   -18.6650 
  207.1250     2.2790    68.8380    72.6620    70.3500    68.3480    24.4060   -18.7440 
  207.2500     2.2940    68.7920    72.8920    70.6410    72.9170    24.4060   -18.8450 
  207.3750     2.2950    67.6120    72.2410    70.0530    74.3220    24.4060   -18.9220 
  207.5000     2.2840    66.7030    71.1680    68.9460    71.7540    24.4060   -18.9450 
  207.6250     2.2670    66.6470    70.6950    68.1820    70.5260    24.4060   -18.9090 
  207.7500     2.2430    67.5390    71.6030    68.5360    69.3250    24.4060   -18.8630 
  207.8750     2.2130    68.4350    74.1250    70.3260    68.7340    24.4060   -18.8260 
  208.0000     2.1800    68.3190    77.8450    73.3040    68.8260    24.2330   -18.7560 
  208.1250     2.1510    68.3860    81.6350    76.6060    71.2070    24.2150   -18.6450 
  208.2500     2.1380    68.2280    84.1600    79.0220    76.9070    24.2490   -18.4880 
  208.3750     2.1430    67.0800    84.6310    79.7690    83.5760    24.3600   -18.3350 
  208.5000     2.1610    67.0970    82.9510    78.6140    83.7290    24.4530   -18.1880 
  208.6250     2.1850    71.1930    79.5920    75.7950    77.8980    24.4880   -18.0740 
  208.7500     2.2050    75.3490    75.8260    72.4200    72.2570    24.5420   -17.9900 
  208.8750     2.2170    76.0100    72.3820    69.2110    68.0710    24.6310   -17.9200 
  209.0000     2.2260    74.8280    69.6770    66.6400    65.4880    24.7160   -17.8650 
  209.1250     2.2310    75.3140    68.0640    65.1050    64.1270    24.7360   -17.8660 
  209.2500     2.2320    75.0240    67.4930    64.5570    61.7640    24.7670   -17.8950 
  209.3750     2.2300    71.3520    68.0400    65.0340    59.5990    24.7950   -17.9290 
  209.5000     2.2250    66.5490    69.7040    66.5080    59.9540    24.8030   -17.9750 
  209.6250     2.2190    65.9010    72.4620    68.9450    60.6410    24.8230   -18.0110 
  209.7500     2.2150    67.8700    75.8000    71.8910    62.6090    24.8670   -18.0080 
  209.8750     2.2120    70.0690    79.3010    74.9810    64.7750    24.9110   -18.0100 
  210.0000     2.2110    71.0610    82.5440    77.8450    65.6860    24.9300   -18.0110 
  210.1250     2.2090    71.4880    85.0960    80.1050    66.1510    24.9330   -18.0130 
  210.2500     2.2030    71.2010    87.0210    81.8210    69.6840    24.9330   -18.0450 
  210.3750     2.1930    69.4930    88.6640    83.3000    72.1710    24.9330   -18.1320 
  210.5000     2.1800    67.6650    90.7610    85.1810    72.9730    24.9330   -18.2560 
  210.6250     2.1720    67.1260    94.7670    88.7370    71.7700    24.9330   -18.4050 
  210.7500     2.1790    68.4030   101.5380    94.7270    72.5150    24.9330   -18.6250 
  210.8750     2.2000    69.3930   111.5410   103.5930    75.5390    24.9330   -18.8810 
  211.0000     2.2310    68.8770   124.3600   115.0340    84.7930    24.9330   -19.1830 
  211.1250     2.2630    67.9680   138.1680   127.5720   104.6640    24.9330   -19.4660 
  211.2500     2.2860    67.4240   149.5630   138.2460   122.5760    24.9330   -19.7170 
  211.3750     2.3050    67.3830   155.4980   144.3530   129.7000    24.9330   -19.8730 
  211.5000     2.3280    66.6610   154.1380   144.1310   134.1870    24.9300   -19.9520 
  211.6250     2.3540    65.8030   145.2290   136.9600   138.9320    24.9110   -19.9370 
  211.7500     2.3680    66.0870   133.2750   126.5100   144.4640    24.8670   -19.8390 
  211.8750     2.3570    65.6780   121.9610   116.0200   135.6010    24.8100   -19.7100 
  212.0000     2.3220    63.0310   114.2550   108.4110   109.0050    24.7370   -19.5740 
  212.1250     2.2770    60.2510   113.2220   106.7910    95.3010    24.4230   -19.4560 
  212.2500     2.2490    60.9300   118.8980   111.2910    90.3550    24.2360   -19.3390 
  212.3750     2.2470    63.2110   130.9010   121.4470    93.7420    24.2010   -19.2720 
  212.5000     2.2650    62.6110   147.1920   135.2790   106.9820    24.1890   -19.2380 
  212.6250     2.2900    59.3070   163.1450   148.5620   138.2580    24.1470   -19.2240 
  212.7500     2.3000    56.6240   172.9580   156.5670   178.0950    24.1680   -19.2020 
  212.8750     2.2890    57.7670   173.1250   156.4930   185.2490    24.1970   -19.1600 
  213.0000     2.2630    62.8350   163.4250   148.3880   156.8660    24.2140   -19.0550 
  213.1250     2.2370    67.5470   147.8500   134.9530   134.8170    24.2850   -18.8660 
  213.2500     2.2240    69.8470   132.0560   121.2530   123.9320    24.3680   -18.6220 
  213.3750     2.2210    69.9970   118.6140   109.5610   111.2440    24.4060   -18.3780 
  213.5000     2.2240    69.1680   108.9960   100.4000    98.1830    24.4060   -18.1760 
  213.6250     2.2280    67.4700   101.8110    93.5250    94.9850    24.4060   -18.0480 
  213.7500     2.2300    65.1540    95.8410    87.9890    97.7420    24.4060   -18.0050 
  213.8750     2.2310    63.0870    91.0300    83.6320    91.6620    24.4060   -18.0270 
  214.0000     2.2300    62.6250    87.5390    80.5250    79.0550    24.4060   -18.1030 
  214.1250     2.2300    64.7730    85.6630    78.8940    69.5750    24.4060   -18.2540 
  214.2500     2.2340    67.3410    84.9200    78.2840    70.3200    24.4060   -18.5060 
  214.3750     2.2410    67.7510    84.8460    78.2700    74.5430    24.4060   -18.8170 
  214.5000     2.2450    67.2050    84.8930    78.3530    81.1220    24.4060   -19.1650 
  214.6250     2.2380    67.9610    84.5270    78.0190    82.3620    24.4060   -19.4990 
  214.7500     2.2170    69.7540    83.7000    77.1890    79.0080    24.4060   -19.8120 
  214.8750     2.1940    71.5250    82.6120    76.0140    74.6320    24.4060   -20.1200 
