~V
VERS. 2.00: Ver 2.00
~W
STRT.M 64.0000:
STOP.M 278.0000:
STEP.M 0.1250:
NULL. -999.2500:
UWI. DF3056:
~C
DEPT.M :
SP.MV :
GR.API :
CALI.CM :
RXO.OHMM :
RI. :
RML.OHMM :
DEN.GM/CC :
~A
# ...
  244.0000   -19.0930    84.3550    24.6780    18.4940    25.1550    24.6260     2.3420 
  244.1250   -19.0530    87.9080    24.5960    20.6180    25.4890    25.2900     2.3580 
  244.2500   -19.0110    87.8780    24.4750    25.3570    26.7460    26.8910     2.3590 
  244.3750   -18.9630    84.2740    24.6200    28.3420    28.9380    29.4520     2.3510 
  244.5000   -18.8980    80.6020    24.7320    28.7050    32.0800    32.9580     2.3390 
  244.6250   -18.8540    77.5950    24.7440    26.0260    36.1400    37.3100     2.3340 
  244.7500   -18.7760    75.3520    24.7130    34.2010    40.5250    41.9160     2.3400 
  244.8750   -18.6890    74.1140    24.6010    53.4920    44.8250    46.4130     2.3420 
  245.0000   -18.5810    73.6460    24.8860    72.5990    48.7470    50.6290     2.3290 
  245.1250   -18.4830    71.8170    24.8150    70.1310    52.1480    54.6310     2.3110 
  245.2500   -18.3850    68.6910    24.8130    57.8800    55.9510    59.2250     2.3170 
  245.3750   -18.2740    67.8780    24.7970    48.6480    60.9880    65.1720     2.3630 
  245.5000   -18.1660    70.6100    24.7110    51.5280    67.7550    72.9250     2.4470 
  245.6250   -18.0290    72.0750    24.5980    65.1380    76.5410    82.8920     2.5420 
  245.7500   -17.9000    70.5400    23.9590    98.2980    86.3690    94.1540     2.5980 
  245.8750   -17.7860    68.4070    23.4530   157.8070    95.5260   104.8470     2.6060 
  246.0000   -17.6900    67.6030    24.1130   201.7120   101.7410   112.0380     2.5900 
  246.1250   -17.5880    69.2180    24.2010   183.2170   102.2120   112.1000     2.5740 
  246.2500   -17.5130    72.4570    24.0750   152.8380    97.9030   106.4770     2.5520 
  246.3750   -17.4570    77.1450    24.0280   136.4010    90.7050    97.9690     2.5210 
  246.5000   -17.4090    79.4330    24.1120   111.8620    83.5770    90.3090     2.4960 
  246.6250   -17.3700    76.8320    24.2040    75.6820    79.3460    86.4470     2.4940 
  246.7500   -17.3480    72.9030    24.3080    64.0610    78.9740    86.7260     2.5180 
  246.8750   -17.3130    70.0860    24.1850    63.0330    82.9040    91.0160     2.5560 
  247.0000   -17.2940    69.0850    24.1140    70.7750    90.7240    98.6800     2.5990 
  247.1250   -17.2840    68.0200    24.2090    96.0000   100.7080   107.6660     2.6370 
  247.2500   -17.2690    67.1040    24.4160   167.9270   108.6180   113.5120     2.6560 
  247.3750   -17.2580    67.1790    24.5440   275.5950   109.8250   111.2750     2.6620 
  247.5000   -17.2450    68.3260    24.4740   385.0800   100.7740    98.5400     2.6630 
  247.6250   -17.2260    68.4530    24.4600   322.1500    81.7280    77.8000     2.6610 
  247.7500   -17.1990    65.2700    24.4330   192.4670    60.4900    56.8350     2.6430 
  247.8750   -17.1760    58.6780    24.4010   101.5720    42.0630    39.6070     2.5980 
  248.0000   -17.1290    51.6550    24.3700    80.7610    28.4120    27.1240     2.5270 
  248.1250   -17.0540    48.2070    24.2240    63.8260    19.9620    19.3120     2.4520 
  248.2500   -16.9520    47.3460    24.0020    39.8920    14.7790    14.3960     2.4070 
  248.3750   -16.8410    48.2710    24.0080    20.4390    11.6660    11.4470     2.3930 
  248.5000   -16.7260    51.7800    24.0140    10.3250     9.8230     9.8000     2.3940 
  248.6250   -16.6230    56.1720    24.0830     9.6020     8.8600     9.0430     2.3860 
  248.7500   -16.4970    58.1070    24.1200     8.8850     8.3730     8.7280     2.3710 
  248.8750   -16.3590    58.1440    24.2370     8.0310     8.1740     8.6270     2.3700 
  249.0000   -16.2080    57.8640    24.1630     7.6640     8.1130     8.6060     2.3880 
  249.1250   -16.0480    55.9930    24.1760     7.6700     8.0840     8.5730     2.4070 
  249.2500   -15.8910    53.9250    24.1050     7.7360     8.0310     8.4940     2.4080 
  249.3750   -15.7380    54.7510    24.0920     7.7520     7.9470     8.3990     2.3950 
  249.5000   -15.5920    56.9880    24.1100     7.7520     7.8300     8.3060     2.3830 
  249.6250   -15.4620    57.0200    24.2420     7.2760     7.6840     8.2270     2.3800 
  249.7500   -15.3750    55.7530    24.1560     6.3270     7.5320     8.1690     2.3910 
  249.8750   -15.3290    56.7180    24.1580     5.9550     7.4020     8.1510     2.4120 
  250.0000   -15.3350    59.2680    24.2810     5.8490     7.3130     8.1960     2.4330 
  250.1250   -15.4010    57.8560    24.1550     5.9210     7.2850     8.3250     2.4460 
  250.2500   -15.5340    51.9970    24.1460     6.1610     7.3190     8.5240     2.4500 
  250.3750   -15.7070    47.6480    24.1550     6.6000     7.4050     8.7630     2.4550 
  250.5000   -15.9030    50.0690    24.2770     6.8020     7.5370     9.0340     2.4620 
  250.6250   -16.0920    54.8300    24.1350     6.8920     7.7020     9.3260     2.4610 
  250.7500   -16.2720    55.2950    24.1240     7.1060     7.8650     9.6170     2.4480 
  250.8750   -16.4470    52.8610    24.1330     7.6640     8.0080     9.8860     2.4320 
  251.0000   -16.6160    52.1700    24.1350     8.8040     8.1240    10.1090     2.4230 
  251.1250   -16.7700    53.0450    24.1180     9.0990     8.1970    10.2580     2.4230 
  251.2500   -16.8850    52.2930    24.0380     9.2070     8.2400    10.3770     2.4280 
  251.3750   -16.9670    50.4780    24.0990     9.6540     8.2760    10.4830     2.4390 
  251.5000   -17.0250    49.8470    24.3040     9.9160     8.3320    10.5890     2.4590 
  251.6250   -17.0750    51.0060    24.3130     9.3180     8.4150    10.7160     2.4760 
  251.7500   -17.1110    52.3280    24.2590     8.9650     8.5230    10.8570     2.4750 
  251.8750   -17.1270    51.9720    24.2630     9.1360     8.6510    11.0120     2.4590 
  252.0000   -17.0980    49.7820    24.3010     8.8820     8.7790    11.1650     2.4460 
  252.1250   -17.0400    48.6180    24.1390     8.4680     8.8980    11.2960     2.4480 
  252.2500   -16.9610    49.6830    24.1760     8.4250     8.9980    11.4000     2.4560 
  252.3750   -16.8770    51.9650    24.1860     8.7590     9.0820    11.4710     2.4540 
  252.5000   -16.8060    52.6830    24.2170     8.8030     9.1560    11.5170     2.4430 
  252.6250   -16.7280    50.0530    24.2190     8.8180     9.2190    11.5420     2.4350 
  252.7500   -16.6410    46.7980    24.2150     8.9790     9.2800    11.5510     2.4390 
  252.8750   -16.5360    45.1430    24.1780     9.5980     9.3410    11.5540     2.4470 
  253.0000   -16.4330    45.7850    24.2080    10.5350     9.3930    11.5380     2.4480 
  253.1250   -16.3450    46.8010    24.2910    11.4380     9.4200    11.4820     2.4420 
  253.2500   -16.2690    47.1280    24.2220    11.4690     9.4250    11.4200     2.4400 
  253.3750   -16.1880    47.4510    24.2040    10.6130     9.4150    11.3640     2.4510 
  253.5000   -16.0980    48.5020    24.1410     9.8830     9.3850    11.3050     2.4680 
  253.6250   -16.0200    49.7700    24.0820     9.8220     9.3500    11.2370     2.4780 
  253.7500   -15.9640    49.5520    23.9260     9.3970     9.3010    11.1610     2.4710 
  253.8750   -15.9210    48.2180    23.8600     9.3200     9.2280    11.0630     2.4630 
  254.0000   -15.9150    48.8890    23.8180     9.9450     9.1400    10.9510     2.4620 
  254.1250   -15.9010    51.8210    23.7190    10.0030     9.0410    10.8270     2.4600 
  254.2500   -15.8910    52.2010    23.1630     9.5020     8.9340    10.6840     2.4500 
  254.3750   -15.8750    50.4380    22.5290     9.4600     8.8300    10.5460     2.4400 
  254.5000   -15.8660    49.8750    22.4480     9.6850     8.7510    10.4590     2.4350 
  254.6250   -15.8580    50.9530    23.2430     9.3050     8.7400    10.4430     2.4370 
  254.7500   -15.8660    51.5540    23.8650     9.2340     8.7950    10.5110     2.4430 
  254.8750   -15.9060    52.1470    24.2200     9.4900     8.9120    10.6440     2.4530 
  255.0000   -15.9390    52.0790    24.2700     9.4650     9.0660    10.8050     2.4640 
  255.1250   -15.9910    50.1180    24.1380     9.0230     9.2360    10.9720     2.4710 
