~V
VERS. 2.00: Ver 2.00
~W
STRT.M 60.0000:
STOP.M 238.0000:
STEP.M 0.1250:
NULL. -999.2500:
UWI. DF308:
~C
DEPT.M :
DEN.GM/CC :
SP.MV :
AC.US/MT :
GR.API :
CALI.CM :
RXO.OHMM :
RI. :
RML.OHMM :
~A
# ...
   70.0000  -999.2500   -32.0190  -999.2500    81.5100    21.7930     7.9920     5.8460     5.6120 
   70.1250  -999.2500   -30.9240  -999.2500    88.3900    22.0520     7.1030     5.7600     5.4900 
   70.2500  -999.2500   -29.8500  -999.2500    89.7130    22.2630     6.6290     5.7340     5.4890 
   70.3750  -999.2500   -28.7900  -999.2500    89.5380    22.3350     6.7430     5.7780     5.6190 
   70.5000  -999.2500   -27.7730  -999.2500    91.7960    22.2800     6.8890     5.8590     5.8090 
   70.6250  -999.2500   -26.8480  -999.2500    97.2760    22.1960     6.8420     5.8890     5.9110 
   70.7500  -999.2500   -25.9980  -999.2500   107.9500    22.2090     6.6710     5.8020     5.8200 
   70.8750  -999.2500   -25.2310  -999.2500   121.8200    22.3140     6.2370     5.5780     5.5230 
   71.0000  -999.2500   -24.5890  -999.2500   131.0460    22.6180     5.5080     5.2530     5.0970 
   71.1250  -999.2500   -24.1480  -999.2500   127.2130    23.2540     4.9130     4.9110     4.6790 
   71.2500  -999.2500   -23.8630  -999.2500   119.8630    23.8100     4.7340     4.6250     4.3710 
   71.3750  -999.2500   -23.7840  -999.2500   116.5710    24.0640     4.8240     4.4340     4.2150 
   71.5000  -999.2500   -23.9490  -999.2500   117.3960    24.1070     4.9480     4.3660     4.2440 
   71.6250  -999.2500   -24.4110  -999.2500   118.1390    24.0790     5.0590     4.4730     4.5310 
   71.7500  -999.2500   -25.1260  -999.2500   115.3040    24.0330     5.3330     4.7490     5.0520 
   71.8750  -999.2500   -26.0650  -999.2500   105.7360    23.9370     5.8960     5.1840     5.7820 
   72.0000  -999.2500   -27.1390  -999.2500    90.6420    23.6600     6.8320     5.7340     6.6340 
   72.1250  -999.2500   -28.2480  -999.2500    76.8090    23.1740     7.8170     6.3010     7.4240 
   72.2500  -999.2500   -29.3100  -999.2500    67.6810    22.6790     8.4240     6.7530     7.9590 
   72.3750  -999.2500   -30.2680  -999.2500    64.2930    22.3630     8.4440     7.0050     8.1470 
   72.5000  -999.2500   -31.0790  -999.2500    67.6350    22.1400     8.1870     7.0420     8.0290 
   72.6250  -999.2500   -31.6730  -999.2500    73.9820    22.0930     8.1860     6.9060     7.7580 
   72.7500  -999.2500   -32.0890  -999.2500    76.3220    22.1390     8.4950     6.7170     7.5280 
   72.8750  -999.2500   -32.3680  -999.2500    74.8820    22.2450     8.6870     6.5440     7.4230 
   73.0000  -999.2500   -32.5430  -999.2500    73.2460    22.1900     8.4580     6.4250     7.4480 
   73.1250  -999.2500   -32.6990  -999.2500    71.8790    21.9250     7.9550     6.3770     7.5660 
   73.2500  -999.2500   -32.9310  -999.2500    69.7930    21.7860     7.7050     6.3750     7.7040 
   73.3750  -999.2500   -33.2540  -999.2500    67.0720    21.8610     7.8730     6.4020     7.8360 
   73.5000  -999.2500   -33.6410  -999.2500    62.5290    21.9960     8.1590     6.4470     7.9560 
   73.6250  -999.2500   -34.0620  -999.2500    57.6550    22.0710     8.2530     6.5000     8.0660 
   73.7500  -999.2500   -34.4740  -999.2500    57.3360    22.1340     8.2480     6.5560     8.1750 
   73.8750  -999.2500   -34.8310  -999.2500    62.5100    22.0570     8.6070     6.6180     8.2930 
   74.0000  -999.2500   -35.1180  -999.2500    67.1410    21.8470     9.2760     6.6880     8.4280 
   74.1250  -999.2500   -35.2840  -999.2500    66.6270    21.7270     9.9140     6.7630     8.5710 
   74.2500  -999.2500   -35.3530  -999.2500    65.0190    21.7560    10.2870     6.8290     8.6950 
   74.3750  -999.2500   -35.3250  -999.2500    64.2940    21.8640    10.4120     6.8720     8.7720 
   74.5000  -999.2500   -35.2090  -999.2500    63.7450    21.9610    10.3080     6.8840     8.7820 
   74.6250  -999.2500   -35.0660  -999.2500    61.8780    21.9780    10.0300     6.8570     8.7090 
   74.7500  -999.2500   -34.9320  -999.2500    60.0720    21.9910     9.7510     6.8060     8.5850 
   74.8750  -999.2500   -34.8020  -999.2500    58.6330    22.0390     9.5400     6.7430     8.4430 
   75.0000  -999.2500   -34.6850  -999.2500    56.4330    22.1150     9.3880     6.6840     8.3260 
   75.1250  -999.2500   -34.5790  -999.2500    55.8380    22.1080     9.2920     6.6490     8.2780 
   75.2500  -999.2500   -34.4410  -999.2500    58.4290    22.0320     9.2640     6.6420     8.2930 
   75.3750  -999.2500   -34.2930  -999.2500    60.8350    21.9670     9.3240     6.6570     8.3450 
   75.5000  -999.2500   -34.1540  -999.2500    59.0450    21.9750     9.3950     6.6770     8.3940 
   75.6250  -999.2500   -34.0030  -999.2500    54.5650    22.0710     9.3600     6.6790     8.3930 
   75.7500  -999.2500   -33.8210  -999.2500    54.4060    22.1440     9.2770     6.6520     8.3310 
   75.8750  -999.2500   -33.6450  -999.2500    57.5510    22.1530     9.2220     6.5990     8.2200 
   76.0000  -999.2500   -33.4770  -999.2500    61.4060    22.1160     9.2570     6.5380     8.0960 
   76.1250  -999.2500   -33.3030  -999.2500    64.0320    22.1150     9.3760     6.4990     8.0270 
   76.2500  -999.2500   -33.1260  -999.2500    64.2580    22.1060     9.4610     6.5000     8.0610 
   76.3750  -999.2500   -32.9170  -999.2500    62.6670    22.0030     9.4210     6.5490     8.2200 
   76.5000  -999.2500   -32.6720  -999.2500    62.5900    21.8180     9.2700     6.6330     8.4710 
   76.6250  -999.2500   -32.3910  -999.2500    64.4240    21.6880     9.1730     6.6990     8.6880 
   76.7500  -999.2500   -32.1130  -999.2500    64.4490    21.6030     9.1740     6.6770     8.7000 
   76.8750  -999.2500   -31.7990  -999.2500    61.6890    21.4660     9.1890     6.5150     8.3890 
   77.0000  -999.2500   -31.4030  -999.2500    57.7460    21.3500     9.1130     6.2220     7.7880 
   77.1250  -999.2500   -30.8630  -999.2500    57.3830    21.3450     8.9680     5.9280     7.1790 
   77.2500  -999.2500   -30.2010  -999.2500    62.0270    21.4250     8.9000     5.8090     6.9150 
   77.3750  -999.2500   -29.4250  -999.2500    69.1410    21.5120     9.3850     5.9790     7.2010 
   77.5000  -999.2500   -28.5360  -999.2500    72.5260    21.6080    11.5440     6.5130     8.1390 
   77.6250  -999.2500   -27.5520  -999.2500    71.4920    22.0510    16.9530     7.5130     9.7940 
   77.7500  -999.2500   -26.5410  -999.2500    72.8250    22.8100    20.3920     8.8240    11.7530 
   77.8750  -999.2500   -25.5570  -999.2500    77.4340    23.4540    19.0960    10.1670    13.4570 
   78.0000  -999.2500   -24.6620  -999.2500    79.6090    23.7630    16.9590    11.1250    14.2800 
   78.1250  -999.2500   -23.9680  -999.2500    76.8270    23.8800    18.0190    11.2060    13.6930 
   78.2500  -999.2500   -23.4480  -999.2500    75.6470    23.9420    17.0760    10.5370    12.1780 
   78.3750  -999.2500   -23.0700  -999.2500    80.6570    23.8090    12.9770     9.4210    10.3110 
   78.5000  -999.2500   -22.8080  -999.2500    89.3910    23.3770     8.9150     8.2030     8.5890 
   78.6250  -999.2500   -22.6600  -999.2500    95.0870    23.0250     7.0470     7.1430     7.3280 
   78.7500  -999.2500   -22.5820  -999.2500    98.7580    23.2270     6.2070     6.3160     6.4950 
   78.8750  -999.2500   -22.5640  -999.2500   104.5400    23.6710     5.8040     5.7330     6.0200 
   79.0000  -999.2500   -22.5820  -999.2500   113.9340    23.9750     5.5820     5.3500     5.7460 
   79.1250  -999.2500   -22.6170  -999.2500   117.9480    24.0580     5.4610     5.1020     5.4930 
   79.2500  -999.2500   -22.7010  -999.2500   113.1000    24.1120     5.4070     4.9500     5.2620 
   79.3750  -999.2500   -22.9130  -999.2500   106.0910    24.1660     5.4500     4.9570     5.2340 
   79.5000  -999.2500   -23.3080  -999.2500   100.5900    24.1860     5.7110     5.2110     5.6250 
   79.6250  -999.2500   -23.8940  -999.2500    94.0450    24.1760     6.9730     5.8340     6.6590 
   79.7500  -999.2500   -24.6010  -999.2500    87.2650    24.1060     9.7920     6.7530     8.1550 
   79.8750  -999.2500   -25.4190  -999.2500    82.2180    23.9760    12.4480     7.8010     9.7470 
