~V
VERS. 2.00: Ver 2.00
~W
STRT.M 85.0000:
STOP.M 235.0000:
STEP.M 0.1250:
NULL. -999.2500:
UWI. DF305:
~C
DEPT.M :
DEN.GM/CC :
SP.MV :
AC.US/MT :
GR.API :
CALI.CM :
RXO.OHMM :
RI. :
RML.OHMM :
~A
# ...
  125.0000     2.2530   -24.8270   407.7380    82.9870    24.2110     6.2730     6.3630     7.9200 
  125.1250     2.2340   -24.9670   418.0990    82.6550    24.1040     6.8390     7.0250     8.9800 
  125.2500     2.2370   -25.0410   425.0350    86.0330    24.0990     8.5580     7.7430    10.1440 
  125.3750     2.2550   -25.0590   430.8970    87.5440    24.2090    11.3690     8.2230    10.8350 
  125.5000     2.2770   -25.0220   436.2040    84.1880    24.3790    13.9530     8.2230    10.5720 
  125.6250     2.2960   -24.9340   439.1660    89.9540    24.4480    12.9700     7.8100     9.5570 
  125.7500     2.2950   -24.8180   437.1340   106.6860    24.4410     9.6870     7.5120     8.8210 
  125.8750     2.2660   -24.6970   431.8810   113.5790    24.3970     7.5530     7.7210     8.9840 
  126.0000     2.2240   -24.6010   428.2760    96.8450    24.3680     9.2620     8.6470    10.2910 
  126.1250     2.2100   -24.5300   427.2960    73.1590    24.3590    14.3290    10.3220    12.7570 
  126.2500     2.2340   -24.4790   428.3140    63.3710    24.3570    20.0880    11.9930    15.2160 
  126.3750     2.2760   -24.4520   430.1980    66.3430    24.3520    22.8710    12.5780    15.8560 
  126.5000     2.3110   -24.4430   431.6290    73.7900    24.3490    19.9260    11.4660    13.7090 
  126.6250     2.3270   -24.4350   431.4340    83.7730    24.3570    12.7880     9.3180    10.2750 
  126.7500     2.3360   -24.4340   430.1720    92.2420    24.3780     7.6570     7.3980     7.6020 
  126.8750     2.3400   -24.4500   428.9780    95.2750    24.4010     5.7490     6.0630     6.0140 
  127.0000     2.3420   -24.4730   428.9470    93.2090    24.4240     5.5020     5.2950     5.2870 
  127.1250     2.3420   -24.5080   430.5050    94.7220    24.4340     5.8100     5.0180     5.1810 
  127.2500     2.3480   -24.5710   431.4150    98.0790    24.4520     6.1230     5.0330     5.3620 
  127.3750     2.3670   -24.6420   426.9060    96.1670    24.4870     6.2950     5.2870     5.7490 
  127.5000     2.4050   -24.7050   410.6520    89.1300    24.5140     6.3080     5.7830     6.3760 
  127.6250     2.4560   -24.7520   379.6550    84.1240    24.5270     6.4250     6.5740     7.3740 
  127.7500     2.4870   -24.8060   348.5430    82.0470    24.5450     7.6210     7.5520     8.6400 
  127.8750     2.4750   -24.8540   334.2390    79.7760    24.5970    10.5630     8.5080     9.8850 
  128.0000     2.4250   -24.9060   344.8600    80.5160    24.7020    13.3030     9.1140    10.6070 
  128.1250     2.3720   -24.9730   372.3210    85.2900    24.7690    12.3090     8.9980    10.2570 
  128.2500     2.3380   -25.0280   395.8480    87.8900    24.8100     9.2770     8.4220     9.2890 
  128.3750     2.3230   -25.0740   407.2970    86.4130    24.8230     7.2090     7.7760     8.3320 
  128.5000     2.3170   -25.1140   408.4810    84.8210    24.8260     6.5210     7.3620     7.8010 
  128.6250     2.3080   -25.1580   405.5180    85.3030    24.8260     6.9790     7.3450     7.8510 
  128.7500     2.2980   -25.1960   403.8670    85.6320    24.8250     8.4050     7.6030     8.2470 
  128.8750     2.3030   -25.2300   404.3120    91.2080    24.8240    10.4190     8.0370     8.8130 
  129.0000     2.3490   -25.2600   402.1950   101.3680    24.8220    11.4070     8.5820     9.4480 
  129.1250     2.4310   -25.3100   385.8670   100.3090    24.8240    10.1420     9.2550    10.2060 
  129.2500     2.4990   -25.3940   356.0110    85.7300    24.8250     9.4780    10.0040    11.0980 
  129.3750     2.5180   -25.5190   327.3150    73.2700    24.8250    12.0900    10.6380    11.9180 
  129.5000     2.4890   -25.6870   320.3330    75.6100    24.8240    16.5470    10.8150    12.1840 
  129.6250     2.4430   -25.9250   346.8090    83.8290    24.8250    16.9490    10.1350    11.2720 
  129.7500     2.4050   -26.2150   384.8500    89.3800    24.8580    12.5400     8.8840     9.5600 
  129.8750     2.3740   -26.5550   413.8450    93.5420    24.9750     7.9230     7.5050     7.7180 
  130.0000     2.3490   -26.9380   424.9060    98.5170    25.1540     5.7270     6.3900     6.3220 
  130.1250     2.3380   -27.3330   421.3250    98.4390    25.2450     5.5600     5.8240     5.7310 
  130.2500     2.3460   -27.7120   413.7150    97.0470    25.0820     5.9310     5.7570     5.7900 
  130.3750     2.3680   -28.0780   404.9790    97.5630    24.9010     6.3500     6.1680     6.4070 
  130.5000     2.3990   -28.4380   393.4020    92.6990    24.7630     7.2330     7.0430     7.5300 
  130.6250     2.4370   -28.7680   372.9760    83.7210    24.5740     9.3830     8.4580     9.2410 
  130.7500     2.4840   -29.0660   343.2300    82.3950    24.2930    11.7430    10.3270    11.4690 
  130.8750     2.5290   -29.3470   310.9110    85.3530    24.0700    14.1480    12.5620    14.1410 
  131.0000     2.5390   -29.6090   289.1710    81.1630    23.9470    17.0160    14.8740    16.9370 
  131.1250     2.4850   -29.8610   293.2970    72.5550    24.0740    19.2230    16.5300    18.9170 
  131.2500     2.4080   -30.1130   317.4670    73.4070    24.1840    19.1000    17.0560    19.4070 
  131.3750     2.3560   -30.3460   348.0150    78.0910    24.3160    17.0170    16.5130    18.5090 
  131.5000     2.3520   -30.5550   369.5270    75.7990    24.5620    14.5440    15.4340    17.0040 
  131.6250     2.3670   -30.7260   372.0680    70.7450    24.8500    12.9850    14.4860    15.8330 
  131.7500     2.3560   -30.8630   365.8850    69.1980    24.9550    12.8300    14.0060    15.3830 
  131.8750     2.3080   -30.9320   363.5780    71.9260    24.9410    14.3170    14.0320    15.6410 
  132.0000     2.2440   -30.9090   372.4580    74.8310    24.9170    16.8030    14.4320    16.3750 
  132.1250     2.2020   -30.7620   389.6740    75.9320    24.9470    17.8640    14.9960    17.2180 
  132.2500     2.1950   -30.4660   404.1480    77.9360    25.0220    17.4650    15.5070    17.8670 
  132.3750     2.2130   -30.0060   411.1740    79.1310    25.0840    16.4100    15.9330    18.3070 
  132.5000     2.2350   -29.3470   412.1780    77.9540    25.1080    15.8300    16.3780    18.7390 
  132.6250     2.2400   -28.4630   411.6100    77.5700    25.1080    16.3750    17.0370    19.4860 
  132.7500     2.2280   -27.4200   412.3040    77.1220    25.1080    17.3340    17.9280    20.5820 
  132.8750     2.2100   -26.3170   413.7380    74.3100    25.1080    18.3400    18.9180    21.8400 
  133.0000     2.1970   -25.2300   414.3950    70.1420    25.1080    19.5240    19.7640    22.9170 
  133.1250     2.1990   -24.2020   413.4170    70.6630    25.1080    21.1560    20.1700    23.3900 
  133.2500     2.2070   -23.2840   412.0480    72.9980    25.1080    21.6790    20.2010    23.3310 
  133.3750     2.2120   -22.5030   410.9030    74.5020    25.1080    20.7450    20.0810    23.0490 
  133.5000     2.2080   -21.8870   409.3300    75.9630    25.1080    19.7910    20.1040    22.9570 
  133.6250     2.2040   -21.4630   406.2770    75.1490    25.1080    20.5920    20.5860    23.5000 
  133.7500     2.2180   -21.1700   400.9950    71.8980    25.1060    22.0000    21.5580    24.7180 
  133.8750     2.2680   -20.9370   390.3640    69.4150    25.0950    22.5400    22.9540    26.5220 
  134.0000     2.3510   -20.7280   369.6980    69.7580    25.0690    22.8080    24.5610    28.6180 
  134.1250     2.4450   -20.5390   336.8540    73.6380    25.0370    24.2730    25.9010    30.3480 
  134.2500     2.5230   -20.3560   302.5170    79.5740    24.9740    26.3470    26.5210    31.0750 
  134.3750     2.5750   -20.1860   278.1510    83.8480    24.8770    27.5090    26.2210    30.5260 
  134.5000     2.5980   -20.0450   269.9500    82.9740    24.7780    26.6590    25.1480    28.9430 
  134.6250     2.5830   -19.9350   276.1140    78.0480    24.6600    24.0740    23.7230    26.9660 
  134.7500     2.5450   -19.8590   285.7480    72.7660    24.5640    20.8420    22.4930    25.3410 
  134.8750     2.5090   -19.8230   293.6890    69.1160    24.5270    19.0990    21.7280    24.4090 
