~V
VERS. 2.00: Ver 2.00
~W
STRT.M 64.0000:
STOP.M 262.0000:
STEP.M 0.1250:
NULL. -999.2500:
UWI. DF3019:
~C
DEPT.M :
GR.API :
RML.OHMM :
RI. :
RXO.OHMM :
CALI.CM :
DEN.GM/CC :
SP.MV :
~A
# ...
  187.7500    70.9260    65.9540    56.8430    54.4450    23.6560     2.5100   -25.4950 
  187.8750    67.5280    63.2920    54.2120    61.0590    23.5080     2.5540   -25.2020 
  188.0000    62.6080    57.2880    49.3440    75.4850    23.4440     2.5490   -24.9550 
  188.1250    60.8580    48.7570    42.6280    79.2210    23.5010     2.5130   -24.6700 
  188.2500    60.9550    39.5480    35.8680    55.4580    23.6080     2.4860   -24.4090 
  188.3750    61.9450    31.5930    30.2080    31.5610    23.6890     2.4870   -24.1940 
  188.5000    64.9540    27.0420    26.0250    22.7740    23.8100     2.5160   -23.9540 
  188.6250    68.4910    24.4070    23.1940    22.7690    23.9670     2.5500   -23.7850 
  188.7500    68.9480    22.3890    20.9900    25.0960    24.1100     2.5670   -23.5360 
  188.8750    68.4850    20.5640    19.0650    24.1560    24.1750     2.5580   -23.3700 
  189.0000    71.6070    18.7710    17.2740    21.4110    24.2140     2.5300   -23.2030 
  189.1250    75.6890    17.1420    15.7070    18.2280    24.2910     2.4980   -23.0550 
  189.2500    74.4690    15.8700    14.4730    14.7840    24.3910     2.4740   -23.0080 
  189.3750    69.7350    15.0590    13.6430    12.6280    24.4320     2.4630   -22.8870 
  189.5000    64.3930    14.6910    13.2030    12.2400    24.4270     2.4680   -22.8800 
  189.6250    59.4900    14.6890    13.1040    13.0790    24.4030     2.4890   -22.8450 
  189.7500    57.7260    14.8230    13.1450    12.7470    24.3980     2.5170   -22.8980 
  189.8750    59.0190    14.9320    13.1770    11.9240    24.4350     2.5390   -22.9420 
  190.0000    59.1680    14.8930    13.0770    11.4300    24.4440     2.5400   -22.9770 
  190.1250    54.9620    14.6150    12.7540    11.7470    24.4550     2.5150   -22.9870 
  190.2500    52.2910    14.1620    12.2700    12.4660    24.4750     2.4770   -22.9260 
  190.3750    54.2820    13.5960    11.6900    12.1230    24.4980     2.4420   -22.9010 
  190.5000    57.5070    12.9820    11.0810    10.3360    24.5100     2.4210   -22.7520 
  190.6250    59.2070    12.3840    10.5070     9.7050    24.5150     2.4180   -22.6720 
  190.7500    61.1730    11.8760    10.0130     9.6520    24.5180     2.4250   -22.5170 
  190.8750    67.4420    11.5430     9.6490     9.6740    24.5180     2.4350   -22.4210 
  191.0000    79.8070    11.4780     9.4680     9.6550    24.5180     2.4450   -22.4340 
  191.1250    94.6560    11.7850     9.5430     9.4610    24.5160     2.4570   -22.4430 
  191.2500   103.9820    12.3570     9.8140     9.4820    24.5020     2.4700   -22.5690 
  191.3750   104.5580    13.0310    10.1920    10.2690    24.4710     2.4820   -22.7440 
  191.5000    99.9750    13.5700    10.5290    11.5840    24.4480     2.4890   -22.9650 
  191.6250    94.9070    13.6860    10.6230    12.6570    24.4420     2.4820   -23.2320 
  191.7500    92.4960    13.3950    10.4410    12.7210    24.4690     2.4620   -23.5240 
  191.8750    93.7670    12.8810    10.0720    11.9840    24.5600     2.4390   -23.7830 
  192.0000    99.2910    12.4660     9.7120    10.7930    24.7110     2.4240   -23.9600 
  192.1250   103.5050    12.5730     9.6530    10.0460    24.7440     2.4340   -24.1490 
  192.2500   100.7020    13.2570     9.9790    10.2330    24.6530     2.4660   -24.3050 
  192.3750    95.0480    14.3590    10.6360    11.3720    24.5560     2.5100   -24.3780 
  192.5000    92.6660    15.5130    11.4170    13.0270    24.5180     2.5490   -24.5030 
  192.6250    93.2600    16.1570    11.9490    14.7950    24.5200     2.5650   -24.4440 
  192.7500    92.4010    16.0380    11.9870    15.7480    24.5370     2.5580   -24.3660 
  192.8750    91.5950    15.1740    11.4790    14.6440    24.5820     2.5380   -24.1970 
  193.0000    94.1890    13.8610    10.5950    12.3860    24.6360     2.5150   -24.0210 
  193.1250    97.9640    12.5530     9.6460    10.4370    24.6600     2.4960   -23.8120 
  193.2500    97.6360    11.5800     8.8970     9.4850    24.6670     2.4790   -23.5080 
  193.3750    93.5180    11.0700     8.4600     9.0700    24.6700     2.4610   -23.2410 
  193.5000    89.9850    11.0920     8.3980     9.0970    24.6700     2.4460   -22.8680 
  193.6250    91.7060    11.8190     8.8420     9.4870    24.6670     2.4460   -22.6230 
  193.7500    95.4940    13.1500     9.7310    10.2290    24.6560     2.4680   -22.3610 
  193.8750    98.4910    14.8830    10.9460    10.9430    24.6130     2.5160   -22.1530 
  194.0000    99.1220    16.5570    12.1840    11.8680    24.4960     2.5790   -21.9400 
  194.1250    94.0010    17.2900    12.8370    13.8870    24.3370     2.6330   -21.6560 
  194.2500    86.6890    16.6370    12.5210    16.6400    24.2040     2.6530   -21.4450 
  194.3750    83.2850    14.6200    11.1790    17.5910    24.1050     2.6280   -21.1800 
  194.5000    87.0360    11.8310     9.1990    14.3560    23.9960     2.5680   -20.9270 
  194.6250    91.2560     9.2510     7.2700    10.4240    23.9130     2.4980   -20.6380 
  194.7500    88.0640     7.4780     5.8360     7.4150    23.8580     2.4450   -20.3220 
  194.8750    77.6940     6.6150     4.9990     5.6620    23.7950     2.4210   -20.0520 
  195.0000    66.0670     6.5090     4.7070     5.0880    23.7510     2.4230   -19.7490 
  195.1250    59.9920     6.9550     4.8980     5.1400    23.7370     2.4410   -19.5660 
  195.2500    58.1510     7.5960     5.3500     5.3290    23.7360     2.4590   -19.3400 
  195.3750    58.2400     8.2240     5.9140     5.4870    23.7280     2.4700   -19.1370 
  195.5000    62.8280     8.6920     6.4500     5.6660    23.7050     2.4750   -19.0530 
  195.6250    73.4660     8.9080     6.8300     5.8870    23.6660     2.4740   -18.9250 
  195.7500    82.9510     8.9540     7.0500     6.1190    23.6490     2.4750   -18.9060 
  195.8750    86.8140     8.9030     7.1400     6.3460    23.6420     2.4790   -18.8520 
  196.0000    87.6200     8.8190     7.1410     6.5950    23.6330     2.4830   -18.8580 
  196.1250    89.3840     8.7410     7.0840     6.8140    23.6910     2.4820   -18.8410 
  196.2500    91.4130     8.6930     7.0030     6.9300    23.8200     2.4680   -18.8580 
  196.3750    92.6650     8.6880     6.9170     6.9990    23.9990     2.4450   -18.9380 
  196.5000    94.2670     8.7400     6.8500     7.0530    24.2080     2.4200   -18.9610 
  196.6250    97.6970     8.8620     6.8350     7.0280    24.3920     2.4080   -19.0710 
  196.7500   100.3880     9.0360     6.8760     7.0480    24.4900     2.4120   -19.1540 
  196.8750    99.4220     9.2410     6.9730     7.2800    24.5160     2.4260   -19.3140 
  197.0000    95.6250     9.4630     7.1210     7.6760    24.5180     2.4400   -19.4370 
  197.1250    92.5600     9.7150     7.3260     8.0590    24.5280     2.4400   -19.7060 
  197.2500    91.2990    10.0230     7.5890     8.4580    24.5520     2.4260   -20.0570 
  197.3750    90.5300    10.4210     7.9200     8.7530    24.5760     2.4040   -20.3530 
  197.5000    90.6390    10.9190     8.3210     9.1220    24.5860     2.3810   -20.7560 
  197.6250    92.5050    11.4910     8.7790     9.6000    24.5860     2.3610   -21.2010 
  197.7500    92.6100    12.0520     9.2430    10.2010    24.5860     2.3470   -21.6650 
  197.8750    90.9730    12.5360     9.6710    10.7950    24.5860     2.3380   -22.1930 
  198.0000    89.5600    12.9110    10.0310    11.3470    24.5860     2.3320   -22.7520 
  198.1250    92.2200    13.1850    10.3070    11.5900    24.5860     2.3310   -23.1710 
  198.2500    96.3820    13.4400    10.5450    11.8100    24.5860     2.3320   -23.5730 
  198.3750    96.6790    13.7490    10.7950    12.1960    24.5860     2.3330   -24.0430 
  198.5000    92.7520    14.1780    11.1140    13.2380    24.5940     2.3330   -24.5090 
  198.6250    89.9680    14.8380    11.5970    14.0060    24.6190     2.3300   -24.8770 
  198.7500    90.0140    15.7710    12.2980    14.5670    24.6540     2.3240   -25.2910 
  198.8750    88.8820    17.0370    13.2770    15.2840    24.6700     2.3140   -25.5850 
