~V
VERS. 2.00: Ver 2.00
~W
STRT.M 130.0000:
STOP.M 271.0000:
STEP.M 0.1250:
NULL. -999.2500:
UWI. DF3076:
~C
DEPT.M :
DEN.GM/CC :
GR.API :
CALI.CM :
RXO.OHMM :
RI. :
RML.OHMM :
SP.MV :
~A
# ...
  186.2500     2.2730    73.8900    24.4960   118.8090   106.4130   121.9830   -36.4600 
  186.3750     2.2760    73.0530    24.4690    98.8330    97.9520   112.0680   -36.4630 
  186.5000     2.2780    71.8650    24.4520    87.9770    92.1250   104.6690   -36.5090 
  186.6250     2.2760    73.1090    24.4500    91.6280    89.1340   100.1950   -36.5970 
  186.7500     2.2750    76.4840    24.4520    95.7550    88.2750    97.9550   -36.7100 
  186.8750     2.2790    78.1700    24.4510    92.9850    89.5790    97.9590   -36.8360 
  187.0000     2.2830    75.7640    24.4630    87.6400    93.4550   100.6100   -36.9780 
  187.1250     2.2820    73.2340    24.5780    90.7380   101.3690   107.4820   -37.1150 
  187.2500     2.2800    73.1950    24.6930   104.5470   113.7590   119.1400   -37.2440 
  187.3750     2.2820    74.1050    24.7380   131.4870   131.1250   136.1360   -37.3400 
  187.5000     2.2840    73.3870    24.7500   175.9950   152.8490   157.7260   -37.3870 
  187.6250     2.2780    69.3970    24.7200   219.7170   175.7320   180.5390   -37.3870 
  187.7500     2.2700    65.6990    24.6640   235.8650   194.1240   199.0450   -37.3440 
  187.8750     2.2680    64.0390    24.6770   225.2310   204.8160   210.1550   -37.2650 
  188.0000     2.2680    63.2900    24.7720   213.3270   208.9340   214.6880   -37.1370 
  188.1250     2.2600    62.4280    24.8880   211.6630   210.6930   216.5680   -36.9580 
  188.2500     2.2440    63.3230    24.9370   212.7220   213.5810   219.7760   -36.7280 
  188.3750     2.2300    66.8640    24.9440   220.1880   216.9130   224.3790   -36.4520 
  188.5000     2.2220    69.1300    24.9300   236.5980   216.8950   227.1650   -36.1430 
  188.6250     2.2230    66.6270    24.8930   248.3640   207.0550   221.5170   -35.8040 
  188.7500     2.2290    62.6960    24.8360   235.9200   188.2880   206.4280   -35.4530 
  188.8750     2.2420    61.9520    24.7540   202.2660   165.2680   185.0320   -35.1070 
  189.0000     2.2600    64.9880    24.6520   160.8090   143.5570   162.7360   -34.7820 
  189.1250     2.2780    67.2890    24.5620   128.4540   127.1870   144.6290   -34.5000 
  189.2500     2.2890    67.7940    24.5060   113.9510   115.3500   131.1940   -34.2610 
  189.3750     2.2870    68.3430    24.4790   116.5080   106.6050   121.2290   -34.0720 
  189.5000     2.2740    69.0860    24.4800   127.4510    99.6230   113.1680   -33.9400 
  189.6250     2.2610    69.3510    24.5060   128.4900    94.2330   106.5270   -33.8720 
  189.7500     2.2580    69.0510    24.5210   115.3850    90.8480   101.7170   -33.8460 
  189.8750     2.2670    68.8760    24.5310    98.4550    90.3940    99.8410   -33.8520 
  190.0000     2.2760    70.1490    24.5460    93.0900    93.6630   102.0070   -33.8920 
  190.1250     2.2680    71.7340    24.5950   109.1170   101.4680   109.4750   -33.9310 
  190.2500     2.2470    69.6440    24.6750   133.8130   112.1580   120.5770   -33.9800 
  190.3750     2.2280    66.1280    24.7090   152.4780   123.6340   133.0660   -34.0240 
  190.5000     2.2270    66.9960    24.6780   157.3180   133.1190   143.9380   -34.0500 
  190.6250     2.2410    70.4520    24.6620   146.2970   137.6620   149.9830   -34.0460 
  190.7500     2.2480    69.2500    24.6930   135.4790   138.0860   151.7240   -34.0230 
  190.8750     2.2430    65.3180    24.7630   133.5150   135.7420   150.3680   -33.9950 
  191.0000     2.2320    63.5850    24.8110   141.6340   131.3610   146.6170   -33.9590 
  191.1250     2.2260    65.4280    24.8210   148.1750   124.1450   139.5670   -33.9530 
  191.2500     2.2210    67.1820    24.8090   141.1150   114.3140   129.4040   -33.9680 
  191.3750     2.2180    68.5760    24.7860   121.2190   102.9200   117.0990   -34.0380 
  191.5000     2.2190    69.6080    24.7170    98.3330    91.8520   104.5680   -34.1720 
  191.6250     2.2260    71.3940    24.5690    83.5270    83.4750    94.3980   -34.3780 
  191.7500     2.2310    75.3220    24.3690    76.1250    78.3650    87.5960   -34.6140 
  191.8750     2.2330    79.5940    24.0790    73.5460    76.4660    84.3380   -34.8460 
  192.0000     2.2380    80.3310    23.7340    74.7410    77.2480    84.1660   -35.0690 
  192.1250     2.2490    77.6600    23.5520    80.6130    80.0580    86.4610   -35.2310 
  192.2500     2.2570    75.3960    23.7470    87.8670    83.3680    89.5680   -35.3040 
  192.3750     2.2540    73.8740    23.9570    91.7860    85.8360    92.0710   -35.2810 
  192.5000     2.2450    71.8190    24.0620    92.4050    86.1620    92.5220   -35.1360 
  192.6250     2.2430    71.4950    24.1130    92.4480    83.4200    89.6090   -34.8490 
  192.7500     2.2560    74.9920    24.1450    91.1320    79.2950    84.7000   -34.4470 
  192.8750     2.2770    78.7170    24.1250    83.3690    75.9710    79.9340   -33.9480 
  193.0000     2.2900    78.4000    23.9530    69.9830    75.6380    77.8020   -33.3300 
  193.1250     2.2770    74.2060    23.6850    62.9430    81.0270    81.6790   -32.6010 
  193.2500     2.2470    70.1870    23.6830    72.4510    92.6510    92.4200   -31.7840 
  193.3750     2.2150    67.6780    24.0120   104.3050   110.6750   109.8040   -30.8660 
  193.5000     2.1960    64.9410    24.2840   151.2950   132.4310   130.4700   -29.8720 
  193.6250     2.1970    62.6250    24.2970   174.2310   147.1190   144.8890   -28.8160 
  193.7500     2.2110    64.0050    24.2480   157.9220   145.1800   145.5450   -27.7370 
  193.8750     2.2330    69.1260    24.2940   122.4140   129.1830   132.9900   -26.6390 
  194.0000     2.2560    74.8950    24.4210    95.5510   110.0110   114.8850   -25.5710 
  194.1250     2.2760    76.4580    24.5510    84.5990    96.3170    99.8960   -24.5880 
  194.2500     2.2870    75.4290    24.6190    82.1810    88.3140    90.3840   -23.7050 
  194.3750     2.2830    74.7090    24.6650    83.6090    84.4630    85.4570   -22.9360 
  194.5000     2.2670    74.7930    24.7250    86.4890    82.9850    83.3950   -22.2650 
  194.6250     2.2510    72.8300    24.7440    88.4020    82.3260    82.6120   -21.7100 
  194.7500     2.2490    69.7610    24.6880    85.5650    81.5140    81.8980   -21.2430 
  194.8750     2.2610    68.2790    24.5480    78.2130    80.7300    81.2570   -20.8320 
  195.0000     2.2760    68.6000    24.3820    71.9950    80.6020    81.2370   -20.4590 
  195.1250     2.2760    68.8540    24.2860    72.1730    81.6530    82.4970   -20.0780 
  195.2500     2.2630    69.6120    24.2770    79.6480    83.0500    84.4310   -19.6850 
  195.3750     2.2490    71.6670    24.2950    90.7980    83.4090    85.7430   -19.2460 
  195.5000     2.2460    72.4080    24.3050    99.3690    81.6660    85.1050   -18.7880 
  195.6250     2.2570    71.1260    24.2680    97.5530    78.3440    82.3200   -18.2560 
  195.7500     2.2910    72.8560    24.1340    88.7670    75.9310    79.8320   -17.6630 
  195.8750     2.3640    76.9590    23.9690    79.3070    75.6930    79.5890   -17.0370 
  196.0000     2.4740    77.9600    23.9490    80.9000    76.5810    81.3280   -16.3790 
  196.1250     2.5910    73.0020    24.1150   106.2380    73.0980    79.9530   -15.6880 
  196.2500     2.6780    67.5590    24.2580   142.7530    60.9610    69.5500   -14.9850 
  196.3750     2.7190    62.8570    24.3120   133.2140    42.7910    50.7380   -14.2910 
  196.5000     2.7150    58.6210    24.2920    70.5830    25.9010    31.2450   -13.6090 
  196.6250     2.6680    56.9330    24.1930    24.8320    15.3190    18.3170   -12.9880 
  196.7500     2.5990    56.9500    24.0020     9.5460     9.3810    10.9690   -12.4380 
  196.8750     2.5330    57.9350    23.7890     5.7410     6.4180     7.1880   -11.9510 
  197.0000     2.4880    58.8700    23.6380     4.9280     5.3420     5.2450   -11.5410 
  197.1250     2.4670    57.0990    23.5670     4.9180     4.7730     5.0740   -11.2330 
  197.2500     2.4530    54.2020    23.5110     5.0010     4.7750     5.3120   -11.0010 
  197.3750     2.4390    55.2390    23.4450     5.1200     5.0780     5.6650   -10.8610 
