~V
VERS. 2.00: Ver 2.00
~W
STRT.M 63.0000:
STOP.M 272.0000:
STEP.M 0.1250:
NULL. -999.2500:
UWI. DF3013:
~C
DEPT.M :
DEN.GM/CC :
SP.MV :
AC.US/MT :
GR.API :
CALI.CM :
RXO.OHMM :
RI. :
RML.OHMM :
~A
# ...
  263.0000     2.4860    -5.6690   266.4060    78.1300    24.6520    31.2120    19.8690    20.6530 
  263.1250     2.4840    -5.6950   266.5190    78.1300    24.6430    28.5030    19.7540    20.6550 
  263.2500     2.5000    -5.6920   261.6920    78.1300    24.6320    26.6970    19.7690    20.8060 
  263.3750     2.5170    -5.6930   253.3950    78.1300    24.6250    29.1540    19.8060    20.9430 
  263.5000     2.5190    -5.7550   250.1750    78.1300    24.5950    34.1160    19.7210    20.8840 
  263.6250     2.5070    -5.9100   259.5930    78.1300    24.5130    33.8170    19.3630    20.4620 
  263.7500     2.5040    -6.0880   272.9560    78.1300    24.4340    27.0920    18.8140    19.8180 
  263.8750     2.5180    -6.2200   278.3280    78.1300    24.4140    22.2870    18.2420    19.1780 
  264.0000     2.5290    -6.2550   270.5090    78.1300    24.4460    22.0820    17.8380    18.7790 
  264.1250     2.5120    -6.1990   258.5310    78.1300    24.4630    24.3600    17.7760    18.8080 
  264.2500     2.4860    -6.1280   255.7020    78.1300    24.4400    24.0740    17.9980    19.1490 
  264.3750     2.4760    -6.0730   263.5540    78.1300    24.4070    22.0940    18.4000    19.6430 
  264.5000     2.4840    -6.0280   274.7440    78.1300    24.4050    19.9540    18.8430    20.1040 
  264.6250     2.4920    -5.9840   278.7030    78.1300    24.4660    18.6840    19.1730    20.3590 
  264.7500     2.4950    -5.9300   275.5140    78.1300    24.5510    16.7310    19.3560    20.4250 
  264.8750     2.5010    -5.8480   269.3210    78.1300    24.6130    16.7020    19.4230    20.3780 
  265.0000     2.5110    -5.7220   263.2430    78.1300    24.6320    17.3710    19.4310    20.3000 
  265.1250     2.5110    -5.5670   260.1830    78.1300    24.6290    17.9410    19.4250    20.2470 
  265.2500     2.5020    -5.4490   261.6200    78.1300    24.6280    18.9200    19.4240    20.2290 
  265.3750     2.4930    -5.4260   266.3390    78.1300    24.6280    19.4310    19.4240    20.2290 
  265.5000     2.4910    -5.5020   272.0070    78.1300    24.6280    18.1010    19.4240    20.2290 
  265.6250     2.4960    -5.6100   277.2610    78.1300    24.6280    17.9960    19.4240    20.2290 
  265.7500     2.5030    -5.6870   283.8910    78.1300    24.6290    19.3120    19.4240    20.2290 
  265.8750     2.5050    -5.7470   292.2700    78.1300    24.6300    20.7910    19.4240    20.2290 
  266.0000     2.5040    -5.8310   298.1200    78.1300    24.6230    22.1380    19.4240    20.2290 
  266.1250     2.5050    -5.9530   297.2790    78.1300    24.6010    24.9020    19.4240    20.2290 
  266.2500     2.5100    -6.0420   292.4940    78.1300    24.5740    27.5570    19.4240    20.2290 
  266.3750     2.5150    -6.0340   289.0710    78.1300    24.5570    30.2690    19.4240    20.2290 
  266.5000     2.5110    -5.9280   287.7370    78.1300    24.5540    32.1200    19.4240    20.2290 
  266.6250     2.5010    -5.7910   285.7890    78.1300    24.5570    30.1090    19.4240    20.2290 
  266.7500     2.5010    -5.7050   283.4180    78.1300    24.5580    24.7720    19.4240    20.2290 
  266.8750     2.5170    -5.6750   281.4760    78.1300    24.5560    21.4750    19.4240    20.2290 
  267.0000     2.5360    -5.6770   278.8810    78.1300    24.5630    22.2530    19.4240    20.2290 
  267.1250     2.5350    -5.7010   274.3500    78.1300    24.5870    25.7160    19.4240    20.2290 
  267.2500     2.5230    -5.7440   268.2570    78.1300    24.6140    26.5950    19.4240    20.2290 
  267.3750     2.5180    -5.7920   260.4220    78.1300    24.6240    24.8880    19.4240    20.2290 
  267.5000     2.5300    -5.8100   252.6280    78.1300    24.6100    22.0210    19.4240    20.2290 
  267.6250     2.5390    -5.7800   249.4210    78.1300    24.5970    20.6360    19.4240    20.2290 
  267.7500     2.5350    -5.7450   250.2040    78.1300    24.6170    20.6580    19.4240    20.2290 
  267.8750     2.5260    -5.7430   251.6020    78.1300    24.6460    21.3310    19.4240    20.2290 
  268.0000     2.5200    -5.7880   251.5780    78.1300    24.6400    21.9740    19.4240    20.2290 
  268.1250     2.5180    -5.8250   248.7320    78.1300    24.5920    21.3460    19.4240    20.2290 
  268.2500     2.5130    -5.7970   243.2740    78.1300    24.5580    22.3530    19.4240    20.2290 
  268.3750     2.5040    -5.6980   237.6990    78.1300    24.5560    26.3920    19.4240    20.2290 
  268.5000     2.4970    -5.5770   234.5360    78.1300    24.5510    28.2240    19.4240    20.2290 
  268.6250     2.4960    -5.4980   233.1890    78.1300    24.4850    24.0510    19.4240    20.2290 
  268.7500     2.4970    -5.4640   232.0220    78.1300    24.3980    18.5570    19.4240    20.2290 
  268.8750     2.4940    -5.4440   232.1430    78.1300    24.3640    16.9370    19.4240    20.2290 
  269.0000     2.4900    -5.4010   233.6760    78.1300    24.4030    18.5720    19.4240    20.2290 
  269.1250     2.4990    -5.3320   234.2780    78.1300    24.4660    20.7020    19.4240    20.2290 
  269.2500     2.5000    -5.2900  -999.2500    78.1300    24.5610    21.8290    19.4240    20.2290 
  269.3750     2.4190    -5.3250  -999.2500    78.1300    24.7290    19.4400    19.4240    20.2290 
  269.5000     2.2160    -5.4520  -999.2500    78.1300    24.1170    13.1320    19.4240    20.2290 
  269.6250     1.9790    -5.6380  -999.2500    78.1300    21.4370     6.9430    19.4240    20.2290 
  269.7500     1.8520    -5.8120  -999.2500    78.1300    17.9910     4.1340    19.4240    20.2290 
  269.8750     1.8510    -5.9560  -999.2500    78.1300    15.6730     3.7940    19.4240    20.2290 
  270.0000     1.8990    -6.0930  -999.2500    78.1300    15.0960     3.7590    19.4240    20.2290 
  270.1250     1.9230    -6.2710  -999.2500    78.1300    15.2320     3.7590    19.4240    20.2290 
  270.2500     1.9240    -6.4800  -999.2500  -999.2500  -999.2500  -999.2500  -999.2500  -999.2500 
  270.3750     1.9170    -6.6650  -999.2500  -999.2500  -999.2500  -999.2500  -999.2500  -999.2500 
  270.5000     1.9280    -6.7550  -999.2500  -999.2500  -999.2500  -999.2500  -999.2500  -999.2500 
  270.6250     1.8570    -6.7550  -999.2500  -999.2500  -999.2500  -999.2500  -999.2500  -999.2500 
  270.7500     2.1020  -999.2500  -999.2500  -999.2500  -999.2500  -999.2500  -999.2500  -999.2500 
  270.8750     2.3680  -999.2500  -999.2500  -999.2500  -999.2500  -999.2500  -999.2500  -999.2500 
  271.0000     1.8390  -999.2500  -999.2500  -999.2500  -999.2500  -999.2500  -999.2500  -999.2500 
  271.1250     0.8530  -999.2500  -999.2500  -999.2500  -999.2500  -999.2500  -999.2500  -999.2500 
  271.2500     0.9020  -999.2500  -999.2500  -999.2500  -999.2500  -999.2500  -999.2500  -999.2500 
  271.3750     2.1130  -999.2500  -999.2500  -999.2500  -999.2500  -999.2500  -999.2500  -999.2500 
  271.5000     3.5980  -999.2500  -999.2500  -999.2500  -999.2500  -999.2500  -999.2500  -999.2500 
  271.6250     4.1620  -999.2500  -999.2500  -999.2500  -999.2500  -999.2500  -999.2500  -999.2500 
  271.7500     3.5960  -999.2500  -999.2500  -999.2500  -999.2500  -999.2500  -999.2500  -999.2500 
  271.8750     2.0640  -999.2500  -999.2500  -999.2500  -999.2500  -999.2500  -999.2500  -999.2500 
  272.0000     0.6830  -999.2500  -999.2500  -999.2500  -999.2500  -999.2500  -999.2500  -999.2500 
