~V
VERS. 2.00: Ver 2.00
~W
STRT.M 90.0000:
STOP.M 264.0000:
STEP.M 0.1250:
NULL. -999.2500:
UWI. DF3021:
~C
DEPT.M :
AC.US/MT :
DEN.GM/CC :
GR.API :
CALI.CM :
RXO.OHMM :
RI. :
RML.OHMM :
SP.MV :
~A
# ...
  250.0000   306.6680     2.1070    60.7940    24.0730     7.1410     7.1140     8.6500    -7.3020 
  250.1250   306.0070     2.1000    61.4450    24.1070     6.9270     7.1380     8.6190    -7.2970 
  250.2500   306.9870     2.0920    61.7580    24.1140     6.4980     7.1590     8.6020    -7.2990 
  250.3750   308.3160     2.1040    61.1210    24.0970     6.1760     7.1640     8.5800    -7.2960 
  250.5000   310.7450     2.1160    62.2780    24.0420     5.9550     7.1460     8.5420    -7.3020 
  250.6250   315.5710     2.1100    64.6870    23.9820     5.8350     7.1020     8.4810    -7.2910 
  250.7500   321.2220     2.1160    64.1590    24.0240     5.8230     7.0460     8.4090    -7.2960 
  250.8750   324.2540     2.1580    60.2810    24.1330     5.8680     6.9920     8.3390    -7.2770 
  251.0000   322.8120     2.2090    56.7110    24.1650     5.9560     6.9580     8.2900    -7.2650 
  251.1250   320.1810     2.2430    57.4240    24.1410     6.2270     6.9740     8.3040    -7.2570 
  251.2500   320.5920     2.2710    59.8640    24.1240     6.6490     7.0540     8.3960    -7.2710 
  251.3750   321.9470     2.3170    61.5220    24.1590     7.0140     7.2090     8.5820    -7.3220 
  251.5000   318.3530     2.3730    61.8150    24.1710     7.2700     7.4520     8.8780    -7.3870 
  251.6250   304.7500     2.4190    61.7680    24.1290     7.8400     7.8210     9.3400    -7.4590 
  251.7500   285.8270     2.4480    63.0410    24.0560     8.7530     8.3250     9.9790    -7.5240 
  251.8750   267.7150     2.4720    63.6320    24.0320    10.0840     8.9840    10.8170    -7.6360 
  252.0000   255.2800     2.4960    62.3840    24.0410    12.3610     9.8010    11.8470    -7.7840 
  252.1250   251.4610     2.5140    60.4980    24.1080    15.3850    10.7560    13.0150    -7.9380 
  252.2500   253.2940     2.5160    59.6040    24.1400    17.9480    11.7270    14.1490    -8.0890 
  252.3750   257.2430     2.5000    59.1530    24.1350    18.8730    12.5980    15.0970    -8.2210 
  252.5000   259.1610     2.4750    58.7010    24.1170    18.4670    13.2830    15.7610    -8.3450 
  252.6250   255.4420     2.4580    59.7260    24.0820    17.7730    13.7360    16.1220    -8.4790 
  252.7500   248.0680     2.4660    62.0060    23.9510    17.6330    14.0710    16.3580    -8.6160 
  252.8750   240.4210     2.4870    62.7030    23.7350    18.8810    14.3860    16.6030    -8.7080 
  253.0000   235.3120     2.5030    60.1810    23.6130    20.6480    14.7440    16.9280    -8.7780 
  253.1250   234.0710     2.5090    60.7050    23.7490    21.7920    15.1600    17.3230    -8.8540 
  253.2500   235.2410     2.5170    65.5900    23.8580    22.6630    15.5710    17.6910    -8.9270 
  253.3750   237.8050     2.5320    67.1870    23.9240    22.9250    15.9090    17.9410    -8.9910 
  253.5000   241.0790     2.5460    61.6580    23.9470    21.4460    16.1180    18.0080    -9.0520 
  253.6250   244.7400     2.5460    61.6580    23.9420    18.8590    16.1590    17.8660    -9.1010 
  253.7500   248.5830     2.5320    61.6580    23.9260    17.3770    16.0970    17.6110    -9.1380 
  253.8750   252.5030     2.5150    61.6580    23.8990    16.3990    16.0050    17.3400    -9.1970 
  254.0000   256.3350     2.5000    61.6580    23.8860    15.5390    15.9580    17.1460    -9.2600 
  254.1250   259.6700     2.4910    61.6580    23.8960    15.3850    16.0250    17.1040    -9.3250 
  254.2500   261.7770     2.4890    61.6580    23.9180    16.1270    16.1920    17.1800    -9.3820 
  254.3750   261.5180     2.4880    61.6580    23.9220    17.7470    16.4190    17.3230    -9.4380 
  254.5000   258.2340     2.4900    61.6580    23.8850    19.5920    16.6440    17.4560    -9.4850 
  254.6250   252.9300     2.4970    61.6580    23.7650    19.9640    16.7830    17.4770    -9.5430 
  254.7500   248.8280     2.5040    61.6580    23.6480    18.6860    16.8130    17.3660    -9.5860 
  254.8750   247.8480     2.5020    61.6580    23.5960    17.3790    16.7480    17.1540    -9.6200 
  255.0000   249.8320     2.4930    61.6580    23.6030    17.1640    16.6350    16.9050    -9.6500 
  255.1250   252.9020     2.4910    61.6580    23.6570    17.6520    16.5510    16.7140    -9.6650 
  255.2500   254.8960     2.5000    61.6580    23.6450    17.7770    16.5570    16.6430    -9.6780 
  255.3750   254.8770     2.5100    61.6580    23.6050    17.4600    16.6810    16.7130    -9.6850 
  255.5000   252.5940     2.5190    61.6580    23.5660    17.1050    16.9180    16.9100    -9.6930 
  255.6250   248.4350     2.5290    61.6580    23.5740    16.8750    17.2530    17.2110    -9.6840 
  255.7500   244.1090     2.5440    61.6580    23.5960    17.0540    17.6360    17.5540    -9.6990 
  255.8750   240.7430     2.5620    61.6580    23.6080    17.6710    18.0400    17.9030    -9.7050 
  256.0000   238.7440     2.5760    61.6580    23.6090    18.3730    18.4430    18.2320    -9.6870 
  256.1250   238.1670     2.5740    61.6580    23.5810    18.9300    18.8150    18.5140    -9.6560 
  256.2500   238.6850     2.5440    61.6580    23.5240    19.4510    19.1330    18.7440    -9.6200 
  256.3750   240.4020     2.5010    61.6580    23.4820    19.8250    19.3750    18.9180    -9.5650 
  256.5000   243.3190     2.4630    61.6580    23.4850    19.4870    19.5360    19.0340    -9.4920 
  256.6250   246.3890     2.4370    61.6580    23.4790    18.5100    19.6130    19.0870    -9.4150 
  256.7500   247.0060     2.4300    61.6580    23.4720    17.7590    19.6430    19.1000    -9.3120 
  256.8750   243.2810     2.4440    61.6580    23.5020    17.7790    19.6510    19.0920    -9.2170 
  257.0000   236.3250     2.4750    61.6580    23.4790    18.4320    19.6510    19.0810    -9.1130 
  257.1250   231.0890     2.5100    61.6580    23.3590    19.9630    19.6530    19.0740    -8.9960 
  257.2500   230.3520     2.5390    61.6580    23.1570    22.1780    19.6560    19.0680    -8.8760 
  257.3750   232.2250     2.5540    61.6580    22.9440    23.8920    19.6640    19.0630    -8.7780 
  257.5000   233.2910     2.5530    61.6580    22.8010    23.9640    19.6750    19.0570    -8.6930 
  257.6250   232.5980     2.5390    61.6580    22.7600    22.7540    19.6880    19.0490    -8.6060 
  257.7500   232.6760     2.5250    61.6580    22.9650    21.0350    19.6990    19.0400    -8.5400 
  257.8750   234.6360     2.5180    61.6580    23.2600    20.0270    19.7070    19.0330    -8.4790 
  258.0000   237.3720     2.5150    61.6580    23.6090    19.9500    19.7080    19.0270    -8.4490 
  258.1250   238.3450     2.5120    61.6580    23.8390    19.9490    19.7000    19.0230    -8.4480 
  258.2500   236.3970     2.5130    61.6580    23.9480    19.5030    19.6880    19.0210    -8.4790 
  258.3750   231.7010     2.5170    61.6580    23.9480    18.8240    19.6750    19.0180    -8.5140 
  258.5000   225.8500     2.5220    61.6580    23.8900    18.9420    19.6620    19.0140    -8.5640 
  258.6250   221.9930     2.5300    61.6580    23.8150    20.5930    19.6520    19.0040    -8.6420 
  258.7500   221.6040     2.5400    61.6580    23.7850    22.7610    19.6450    18.9930    -8.7290 
  258.8750   223.7850     2.5450    61.6580    23.7190    24.3530    19.6440    18.9830    -8.8340 
  259.0000   226.2800     2.5460    61.6580    23.5590    25.4240    19.6470    18.9790    -8.9430 
  259.1250   227.6710     2.5410    61.6580    23.1490    27.6000    19.6520    18.9840    -9.0480 
  259.2500   229.4420     2.5140    61.6580    22.7780    30.3790    19.6550    18.9920    -9.1470 
  259.3750   233.1530     2.4600    61.6580    22.5790    30.6720    19.6530    18.9970    -9.2460 
  259.5000   238.1890     2.4050    61.6580    22.5350    27.4090    19.6530    18.9990    -9.3450 
  259.6250   240.8850     2.3880    61.6580    22.5360    22.1730    19.6530    18.9990    -9.4240 
  259.7500   239.3040     2.4300    61.6580    22.5900    18.5200    19.6530    18.9990    -9.5340 
  259.8750   234.8440     2.4810    61.6580    22.6560    17.6770    19.6530    18.9990    -9.6850 
