~V
VERS. 2.00: Ver 2.00
~W
STRT.M 90.0000:
STOP.M 264.0000:
STEP.M 0.1250:
NULL. -999.2500:
UWI. DF3021:
~C
DEPT.M :
AC.US/MT :
DEN.GM/CC :
GR.API :
CALI.CM :
RXO.OHMM :
RI. :
RML.OHMM :
SP.MV :
~A
# ...
  240.0000   320.6500     2.3950    60.4200    23.6800    10.3040     7.7010     9.2930   -10.2480 
  240.1250   311.7050     2.4310    59.9660    23.8630     8.6170     7.4660     8.9860   -10.2710 
  240.2500   300.9280     2.4390    60.5380    23.9010     7.8250     7.2230     8.7110   -10.2940 
  240.3750   294.9180     2.4310    61.2090    23.7880     7.6780     6.9880     8.4690   -10.3120 
  240.5000   294.5410     2.4240    61.4940    23.7100     7.6120     6.7700     8.2560   -10.3210 
  240.6250   295.8260     2.4240    63.0000    23.7510     6.9210     6.5920     8.0900   -10.2910 
  240.7500   296.1660     2.4220    64.9980    23.8570     6.1140     6.4660     7.9870   -10.2360 
  240.8750   296.9750     2.4100    65.4260    23.9010     5.5560     6.3990     7.9570   -10.1950 
  241.0000   300.5860     2.3910    62.9940    23.9120     5.2660     6.3850     7.9930   -10.1440 
  241.1250   309.0160     2.3750    60.5350    23.8930     5.0870     6.4090     8.0690   -10.0920 
  241.2500   320.5970     2.3700    59.9520    23.7610     4.9780     6.4340     8.1320   -10.0070 
  241.3750   332.2620     2.3710    61.1060    23.5400     4.9830     6.4330     8.1410    -9.9260 
  241.5000   340.4590     2.3730    62.8270    23.3620     5.1040     6.3880     8.0800    -9.8700 
  241.6250   342.9400     2.3670    63.6360    23.3340     5.2420     6.3030     7.9620    -9.8090 
  241.7500   342.3720     2.3490    64.7790    23.3180     5.2830     6.2110     7.8470    -9.7360 
  241.8750   340.8830     2.3330    66.3900    23.2720     5.2980     6.1440     7.7880    -9.6300 
  242.0000   338.9380     2.3290    66.6820    23.1590     5.4860     6.1290     7.8170    -9.5340 
  242.1250   335.1240     2.3350    63.9510    23.3190     6.0310     6.1820     7.9550    -9.4600 
  242.2500   329.0760     2.3350    61.6160    23.6030     6.7000     6.2820     8.1540    -9.3910 
  242.3750   321.9600     2.3320    62.4090    23.8400     7.1840     6.4060     8.3690    -9.3040 
  242.5000   316.0610     2.3300    64.7440    23.9500     7.3660     6.5280     8.5520    -9.1870 
  242.6250   313.5120     2.3300    65.7900    23.9730     7.5400     6.6170     8.6650    -9.0590 
  242.7500   312.7430     2.3260    65.0080    23.9540     7.9060     6.6660     8.7160    -8.9400 
  242.8750   311.3060     2.3190    62.7840    23.9160     8.1630     6.6770     8.7220    -8.8210 
  243.0000   307.9680     2.3130    61.7910    23.8840     7.7940     6.6520     8.6990    -8.6860 
  243.1250   304.7330     2.3170    63.2970    23.8610     6.9940     6.5970     8.6440    -8.5430 
  243.2500   305.4490     2.3300    63.8740    23.8340     6.3840     6.5250     8.5610    -8.4090 
  243.3750   312.0010     2.3440    62.2560    23.7970     6.1940     6.4490     8.4630    -8.2880 
  243.5000   322.9210     2.3550    60.2480    23.7480     6.1990     6.3760     8.3650    -8.1920 
  243.6250   333.6000     2.3690    60.8270    23.6950     6.1230     6.3120     8.2850    -8.1440 
  243.7500   340.1920     2.3860    61.6990    23.7010     6.0850     6.2540     8.2270    -8.1220 
  243.8750   341.8230     2.3960    61.2060    23.7350     6.0360     6.1990     8.1880    -8.1240 
  244.0000   340.4580     2.3920    59.6020    23.7170     5.8890     6.1500     8.1640    -8.1190 
  244.1250   342.0700     2.3860    58.7730    23.6590     5.7040     6.1200     8.1630    -8.0900 
  244.2500   352.3050     2.3940    59.7060    23.6150     5.7390     6.1160     8.1890    -8.0760 
  244.3750   373.6030     2.4070    61.5260    23.6620     5.9970     6.1400     8.2450    -8.0720 
  244.5000   404.6970     2.4100    64.1550    23.7310     6.2960     6.1860     8.3270    -8.0460 
  244.6250   440.5380     2.4040    65.2650    23.7860     6.4590     6.2410     8.4290    -7.9800 
  244.7500   471.3510     2.4000    62.8610    23.8010     6.4840     6.2930     8.5370    -7.8960 
  244.8750   490.6100     2.4040    59.4880    23.8030     6.4220     6.3420     8.6430    -7.8170 
  245.0000   498.2890     2.4050    59.2130    23.7990     6.3550     6.3970     8.7570    -7.7470 
  245.1250   498.6320     2.3960    62.3900    23.7970     6.2930     6.4770     8.9070    -7.6950 
  245.2500   495.1770     2.3890    64.5740    23.7850     6.1690     6.5900     9.1030    -7.6460 
  245.3750   488.1000     2.4010    65.7730    23.7470     5.9810     6.7260     9.3350    -7.5930 
  245.5000   481.2260     2.4260    66.6800    23.6960     5.9270     6.8630     9.5620    -7.5580 
  245.6250   481.1900     2.4460    66.2710    23.6380     6.1070     6.9590     9.7050    -7.5440 
  245.7500   484.5820     2.4390    64.4130    23.6020     6.3050     6.9860     9.7240    -7.5370 
  245.8750   484.2810     2.3990    61.9260    23.6050     6.3420     6.9420     9.6240    -7.5150 
  246.0000   478.3820     2.3240    60.3410    23.6680     6.3980     6.8460     9.4590    -7.5030 
  246.1250   473.1630     2.2330    60.1010    23.7270     7.3990     6.7360     9.3010    -7.5140 
  246.2500   473.4930     2.1710    60.0250    23.8060    10.2080     6.6410     9.1920    -7.5060 
  246.3750   477.0870     2.1530    59.5740    23.9070    13.8110     6.5700     9.1290    -7.5030 
  246.5000   477.6830     2.1630    60.0670    23.9650    15.3360     6.5170     9.0860    -7.5090 
  246.6250   468.4670     2.1880    60.8790    23.9340    13.5510     6.4740     9.0290    -7.5260 
  246.7500   451.8660     2.2310    62.9400    23.9100    11.5180     6.4410     8.9610    -7.5490 
  246.8750   433.2930     2.2810    67.8630    23.9170     9.7500     6.4250     8.9040    -7.5760 
  247.0000   416.8240     2.3250    74.9420    23.9280     7.8430     6.4330     8.8790    -7.5940 
  247.1250   404.3120     2.3530    76.8280    23.9290     6.3010     6.4680     8.8970    -7.6020 
  247.2500   398.7310     2.3650    72.0160    23.9410     5.6350     6.5200     8.9450    -7.6070 
  247.3750   405.6960     2.3680    65.4960    23.9490     5.5110     6.5850     9.0070    -7.6070 
  247.5000   426.9550     2.3700    61.5060    23.9530     5.6770     6.6550     9.0720    -7.6010 
  247.6250   456.5980     2.3790    61.1460    23.9320     5.9260     6.7230     9.1300    -7.5760 
  247.7500   482.6450     2.4000    62.4400    23.9230     6.1410     6.7820     9.1730    -7.5400 
  247.8750   498.5180     2.4250    63.8430    24.0110     6.2450     6.8240     9.1900    -7.4890 
  248.0000   501.2030     2.4480    64.4810    24.1510     6.1790     6.8410     9.1720    -7.4420 
  248.1250   487.8210     2.4600    63.8520    24.1820     6.0180     6.8240     9.1120    -7.3900 
  248.2500   462.6100     2.4480    63.0120    24.0780     5.9120     6.7860     9.0290    -7.3410 
  248.3750   431.4360     2.4160    62.8130    23.9500     5.8630     6.7430     8.9460    -7.2830 
  248.5000   403.8610     2.3860    62.2160    23.9920     5.8420     6.7160     8.8890    -7.2160 
  248.6250   390.4870     2.3780    61.2160    24.1140     6.0460     6.7250     8.8790    -7.1630 
  248.7500   388.2320     2.3870    61.3300    24.1230     6.8940     6.7680     8.9130    -7.1220 
  248.8750   388.4500     2.3770    62.6070    24.0810     8.3490     6.8400     8.9830    -7.1130 
  249.0000   383.1950     2.3190    62.7320    24.1210     9.7990     6.9300     9.0700    -7.1130 
  249.1250   373.3530     2.2120    61.7910    24.1550    11.0210     7.0220     9.1460    -7.1320 
  249.2500   369.8280     2.0890    61.8750    24.1010    12.3120     7.0970     9.1800    -7.1400 
  249.3750   375.3980     2.0010    61.5270    24.0220    13.1410     7.1430     9.1560    -7.1610 
  249.5000   379.1060     1.9680    59.7420    23.9970    12.4490     7.1540     9.0730    -7.1920 
  249.6250   364.2750     1.9850    58.5800    23.9750    10.0020     7.1380     8.9480    -7.2320 
  249.7500   338.2570     2.0330    59.3660    23.9870     8.1600     7.1170     8.8210    -7.2680 
  249.8750   316.3970     2.0820    60.3050    24.0390     7.3750     7.1060     8.7180    -7.2910 
