~V
VERS. 2.00: Ver 2.00
~W
STRT.M 135.0000:
STOP.M 270.0000:
STEP.M 0.1250:
NULL. -999.2500:
UWI. DF3063:
~C
DEPT.M :
SP.MV :
GR.API :
CALI.CM :
RXO.OHMM :
RI. :
RML.OHMM :
DEN.GM/CC :
~A
# ...
  157.5000   -13.2580    59.5750    24.7920    15.8280    14.9800    17.2640     2.5080 
  157.6250   -13.3180    58.3510    24.8560    15.6370    15.0260    17.2770     2.5310 
  157.7500   -13.3470    58.4190    25.0640    15.2880    14.9660    17.1460     2.5480 
  157.8750   -13.3740    58.8770    25.1480    14.6750    14.7160    16.8130     2.5530 
  158.0000   -13.4170    58.9840    25.0260    13.8350    14.2900    16.3590     2.5470 
  158.1250   -13.4500    58.3230    24.9190    12.4800    13.8330    15.9890     2.5440 
  158.2500   -13.4750    58.2870    24.7270    12.0460    13.4850    15.8300     2.5530 
  158.3750   -13.5210    58.3350    24.6420    12.6980    13.3170    15.9370     2.5740 
  158.5000   -13.6000    56.7730    24.3150    13.1600    13.3780    16.3470     2.5980 
  158.6250   -13.6380    55.0830    24.0750    13.3450    13.6750    17.0010     2.6150 
  158.7500   -13.5970    55.1500    24.2300    13.6690    14.1310    17.7200     2.6210 
  158.8750   -13.6120    56.1960    24.4570    14.9480    14.6580    18.4160     2.6180 
  159.0000   -13.6910    58.0600    24.7030    16.8500    15.1580    18.9360     2.6090 
  159.1250   -13.7160    58.3930    24.7030    18.4530    15.5160    19.2200     2.5980 
  159.2500   -13.6700    57.1860    24.7070    18.1730    15.7580    19.3270     2.5890 
  159.3750   -13.6900    56.5610    24.7110    16.3020    15.8690    19.2560     2.5840 
  159.5000   -13.7250    58.2960    24.7320    15.5820    15.8130    18.9870     2.5790 
  159.6250   -13.7510    63.4580    24.7730    16.2910    15.5740    18.5040     2.5720 
  159.7500   -13.7800    68.1850    24.7100    16.8630    15.2310    17.9160     2.5690 
  159.8750   -13.8260    69.5180    24.6730    17.0650    14.8160    17.2570     2.5690 
  160.0000   -13.8680    66.2870    24.6250    17.2570    14.4280    16.6780     2.5680 
  160.1250   -13.9060    63.0370    24.5650    15.9100    14.2870    16.4680     2.5730 
  160.2500   -13.9570    62.4480    24.4370    13.8520    14.3980    16.5370     2.5890 
  160.3750   -14.0470    61.4040    24.4470    13.4950    14.6330    16.7460     2.6030 
  160.5000   -14.1460    60.2950    24.6690    15.0700    14.7870    16.8430     2.5910 
  160.6250   -14.1990    62.1370    24.7640    16.2910    14.4460    16.4010     2.5540 
  160.7500   -14.2860    66.8920    24.8020    17.0010    13.3990    15.2570     2.5190 
  160.8750   -14.4690    72.2010    24.8360    17.0310    11.7220    13.4380     2.4950 
  161.0000   -14.6280    76.8890    24.8470    14.8540     9.7310    11.2260     2.4680 
  161.1250   -14.7450    80.0610    24.8210     9.5060     7.8710     9.1030     2.4270 
  161.2500   -14.8960    79.9670    24.4290     5.5500     6.4940     7.5850     2.3870 
  161.3750   -15.0960    78.9390    24.1840     3.9530     5.7230     6.8760     2.3620 
  161.5000   -15.3080    79.6370    24.3760     3.8150     5.5520     6.9580     2.3500 
  161.6250   -15.5470    81.7740    24.4960     4.2460     6.0400     7.8700     2.3370 
  161.7500   -15.8170    81.6910    24.6350     5.2720     7.0460     9.2670     2.3230 
  161.8750   -16.1130    79.6560    24.7490     8.4180     8.4110    10.8360     2.3140 
  162.0000   -16.3940    78.9310    24.8070    13.2250     9.8460    12.2660     2.3190 
  162.1250   -16.6740    80.2440    24.7150    15.5110    10.8690    13.0860     2.3460 
  162.2500   -17.0250    80.3970    24.6690    13.3260    11.2240    13.1720     2.3830 
  162.3750   -17.4020    80.2150    24.4950    10.0670    10.9130    12.6020     2.4150 
  162.5000   -17.7050    81.9820    24.4380     8.4220    10.1740    11.6730     2.4360 
  162.6250   -17.9680    85.7930    24.4970     8.4760     9.3050    10.6880     2.4520 
  162.7500   -18.2270    89.3960    24.6860     8.1880     8.5760     9.9590     2.4660 
  162.8750   -18.4740    91.5030    24.8210     7.5180     8.1590     9.6950     2.4710 
  163.0000   -18.7450    90.7340    24.9000     6.9760     8.1110     9.9340     2.4690 
  163.1250   -19.0350    88.3740    24.6720     6.8720     8.4960    10.7170     2.4710 
  163.2500   -19.3000    87.7800    24.4810     7.3890     9.2750    12.0220     2.4770 
  163.3750   -19.5750    89.3150    24.6270     8.6160    10.4450    13.7490     2.4800 
  163.5000   -19.8770    89.0830    24.7140    10.4080    11.9080    15.6670     2.4750 
  163.6250   -20.1700    85.6730    24.7380    11.5920    13.4460    17.4190     2.4600 
  163.7500   -20.4960    81.6010    24.6450    12.2250    14.7250    18.6980     2.4420 
  163.8750   -20.8310    79.2170    24.5220    12.6190    15.4670    19.2760     2.4320 
  164.0000   -21.1180    78.4590    24.2040    13.5790    15.6250    19.1970     2.4340 
  164.1250   -21.3770    78.4120    24.2280    14.8400    15.4760    18.9210     2.4420 
  164.2500   -21.6670    77.6480    23.9540    14.6660    15.4290    18.9560     2.4440 
  164.3750   -21.9430    78.6350    23.8110    13.4210    15.6560    19.4900     2.4330 
  164.5000   -22.1950    81.2650    23.7970    13.0840    16.2870    20.6070     2.4070 
  164.6250   -22.4510    80.8090    23.8750    14.0240    17.3310    22.1030     2.3720 
  164.7500   -22.7100    77.6900    23.7930    17.1900    18.5150    23.5160     2.3470 
  164.8750   -22.9660    76.1460    23.7990    25.1400    19.5960    24.5310     2.3450 
  165.0000   -23.2100    76.9490    23.8400    34.2700    20.4150    25.1060     2.3660 
  165.1250   -23.4730    78.3550    24.0840    30.7030    20.9860    25.4770     2.3880 
  165.2500   -23.7590    80.8650    24.3470    22.2670    21.6660    26.2020     2.3930 
  165.3750   -24.0260    83.3850    24.4560    18.4860    22.8940    27.7510     2.3780 
  165.5000   -24.2600    81.3380    24.4770    23.0240    24.9160    30.2970     2.3570 
  165.6250   -24.5160    76.1430    24.7750    31.6340    27.9650    33.9030     2.3430 
  165.7500   -24.8150    74.8620    24.8860    39.1800    31.8660    38.1620     2.3350 
  165.8750   -25.0880    76.1470    24.8640    42.5250    36.2470    42.5110     2.3330 
  166.0000   -25.3240    74.3510    24.8370    44.7050    40.4080    46.1860     2.3330 
  166.1250   -25.5650    70.5750    24.7960    46.0380    43.2550    48.2810     2.3310 
  166.2500   -25.7850    70.0780    24.7190    46.1320    44.7360    49.0340     2.3260 
  166.3750   -26.0030    71.8520    24.7070    47.2560    45.2100    48.8960     2.3230 
  166.5000   -26.2330    71.0360    24.7190    51.4890    45.3590    48.6240     2.3320 
  166.6250   -26.4270    67.5390    24.7940    54.3930    45.7020    48.7760     2.3520 
  166.7500   -26.5780    66.6400    24.9450    52.5420    46.4370    49.5210     2.3680 
  166.8750   -26.7480    70.4970    24.9590    49.9740    47.7600    51.0330     2.3660 
  167.0000   -26.9590    75.6800    24.9600    50.3370    49.8330    53.4180     2.3460 
  167.1250   -27.1420    77.3400    24.9790    57.0660    52.5120    56.3580     2.3220 
  167.2500   -27.3220    76.0280    25.0370    68.9600    55.3430    59.3580     2.3110 
  167.3750   -27.5190    74.6090    25.1980    75.9230    58.0410    62.1740     2.3170 
  167.5000   -27.7060    72.4340    25.2740    68.0410    60.3300    64.5510     2.3290 
  167.6250   -27.8890    69.5660    25.2110    59.5730    62.1330    66.4270     2.3280 
  167.7500   -28.0780    68.5980    25.0410    60.0580    63.8640    68.2850     2.3150 
  167.8750   -28.2720    69.3300    25.0370    63.4520    66.0160    70.6850     2.3000 
  168.0000   -28.4990    69.7860    24.9980    65.4130    69.0250    74.1350     2.2890 
  168.1250   -28.7490    68.9930    24.9590    66.5340    73.6140    79.4280     2.2830 
  168.2500   -28.9140    68.9000    24.8650    73.2060    79.6960    86.1670     2.2830 
  168.3750   -29.0250    69.3130    24.9430    90.4600    86.7880    93.8320     2.2870 
  168.5000   -29.2220    70.6180    25.0340   117.3680    94.3350   101.7870     2.2890 
  168.6250   -29.4550    71.3800    25.1960   126.6300   101.4080   109.0690     2.2890 
