~V
VERS. 2.00: Ver 2.00
~W
STRT.M 110.0000:
STOP.M 277.0000:
STEP.M 0.1250:
NULL. -999.2500:
UWI. DF3015:
~C
DEPT.M :
DEN.GM/CC :
SP.MV :
AC.US/MT :
GR.API :
CALI.CM :
RXO.OHMM :
RI. :
RML.OHMM :
~A
# ...
  160.0000     2.2750   -21.1140   404.2640    68.6520    24.9590   152.0200   157.3610   164.6640 
  160.1250     2.2710   -21.2330   404.3190    70.4180    24.9590   162.7450   161.9590   169.2000 
  160.2500     2.2560   -21.3260   404.1320    73.2370    24.9590   177.0810   164.0420   171.0670 
  160.3750     2.2410   -21.4580   403.7580    71.2990    24.9590   178.5760   163.6600   170.1680 
  160.5000     2.2380   -21.6580   403.2230    65.7070    24.9600   169.8590   160.4380   166.1460 
  160.6250     2.2540   -21.9180   402.4840    62.4410    24.9920   168.7070   154.4560   159.4910 
  160.7500     2.2750   -22.2080   401.6180    64.7830    25.1100   175.9210   147.8520   152.6500 
  160.8750     2.2880   -22.4830   400.8430    70.4020    25.3200   178.1210   142.3250   147.2370 
  161.0000     2.2840   -22.7450   400.4950    72.9330    25.5070   172.1480   138.8900   144.0230 
  161.1250     2.2710   -22.9440   400.8450    70.1200    25.5730   162.4800   138.3060   143.5810 
  161.2500     2.2660   -23.1210   401.5340    64.7490    25.5800   161.6430   140.2090   145.5220 
  161.3750     2.2680   -23.3120   402.2390    65.0480    25.5450   169.2910   144.6720   149.9600 
  161.5000     2.2680   -23.4830   402.9240    70.0730    25.4460   176.6640   151.9310   157.2040 
  161.6250     2.2550   -23.6510   403.9420    71.7300    25.3020   187.5230   163.0740   168.4410 
  161.7500     2.2340   -23.7780   405.4910    65.8290    25.2210   228.2370   178.1510   183.7470 
  161.8750     2.2110   -23.8700   407.2980    58.2810    25.1970   295.0040   196.8680   202.7590 
  162.0000     2.1910   -23.9390   408.5010    55.9290    25.1950   360.3420   216.1790   221.9530 
  162.1250     2.1760   -24.0450   407.4590    56.7360    25.1950   388.3440   225.5960   228.8780 
  162.2500     2.1740   -24.1400   403.7940    57.4030    25.1950   364.6140   216.9310   215.1320 
  162.3750     2.1900   -24.1250   398.1640    59.9940    25.1950   288.8440   190.9160   184.5690 
  162.5000     2.2220   -24.0400   392.3140    64.4490    25.1830   188.8870   157.6690   150.3130 
  162.6250     2.2420   -23.9190   388.9130    68.7240    25.0930   114.4040   129.8000   124.5330 
  162.7500     2.2310   -23.8250   388.8640    71.5370    24.8970    84.1280   111.7580   108.9530 
  162.8750     2.1980   -23.7710   391.6590    72.6500    24.6880    84.1760   103.5060   102.6250 
  163.0000     2.1710   -23.7580   395.7550    73.5460    24.5820    97.7560   103.4400   103.9540 
  163.1250     2.1800   -23.7760   399.3490    72.7400    24.5600   110.5440   110.3720   112.0650 
  163.2500     2.2090   -23.8550   401.7570    68.8550    24.5540   117.7510   120.9900   123.8630 
  163.3750     2.2350   -24.0050   403.1470    62.8110    24.5450   118.3860   132.9790   136.9910 
  163.5000     2.2460   -24.1870   403.9020    60.1540    24.5370   111.4260   144.2520   149.2560 
  163.6250     2.2480   -24.3020   404.1840    63.1590    24.5540   104.5250   153.5180   159.4480 
  163.7500     2.2480   -24.3620   404.1450    68.5250    24.6190   106.5980   161.4840   168.5380 
  163.8750     2.2470   -24.4020   403.9000    70.2080    24.7390   117.5920   168.8750   177.3480 
  164.0000     2.2420   -24.4220   403.6440    68.1020    24.8670   131.0550   176.3080   186.4800 
  164.1250     2.2320   -24.4440   403.6070    65.0890    25.0210   144.4710   184.5450   196.7550 
  164.2500     2.2210   -24.4420   403.8000    65.1400    25.1260   166.4320   193.7050   208.2330 
  164.3750     2.2160   -24.4360   404.0990    65.4280    25.1800   204.4070   202.7110   219.5760 
  164.5000     2.2160   -24.4290   404.2820    61.5020    25.2000   250.7300   208.7850   227.2890 
  164.6250     2.2190   -24.4830   404.1220    57.5690    25.2360   273.8930   206.6820   224.6540 
  164.7500     2.2200   -24.5400   403.6530    59.5850    25.3130   256.7290   195.4860   210.8420 
  164.8750     2.2210   -24.5510   403.0580    65.5920    25.4270   207.7710   177.2720   189.3040 
  165.0000     2.2220   -24.5030   402.6460    68.7710    25.5130   150.4720   156.9390   166.5940 
  165.1250     2.2260   -24.3700   402.6340    69.8500    25.5660   112.5600   140.5480   149.5890 
  165.2500     2.2370   -24.1870   402.7630    70.1020    25.5810    99.5490   130.6330   140.1320 
  165.3750     2.2510   -24.0150   402.6760    66.5820    25.5840   102.4800   128.0140   138.6200 
  165.5000     2.2630   -23.8390   402.1550    62.9550    25.5840   117.0720   132.5810   144.7270 
  165.6250     2.2650   -23.7130   401.2350    63.1990    25.5840   138.7150   143.8000   157.9040 
  165.7500     2.2640   -23.6270   400.2200    65.8820    25.5840   158.0780   157.1740   173.3570 
  165.8750     2.2640   -23.5620   399.2520    66.5030    25.5840   172.8160   167.9070   185.5550 
  166.0000     2.2690   -23.5160   398.3060    64.5120    25.5840   188.3870   171.5250   189.1460 
  166.1250     2.2710   -23.4800   397.3230    62.2760    25.5840   196.6780   165.6780   181.7130 
  166.2500     2.2640   -23.4590   396.4390    61.4500    25.5780   182.8670   155.4570   169.7570 
  166.3750     2.2500   -23.4140   395.7960    62.3880    25.5450   152.7380   145.2420   158.2660 
  166.5000     2.2400   -23.3550   395.2940    62.5040    25.4680   126.2970   137.6270   149.6850 
  166.6250     2.2450   -23.2310   394.4090    61.1300    25.3880   124.6450   133.4480   144.3970 
  166.7500     2.2580   -23.0900   392.8950    59.6170    25.3550   134.8530   131.2050   140.6030 
  166.8750     2.2700   -22.9850   391.0060    59.2050    25.3490   138.0340   129.5590   136.8560 
  167.0000     2.2780   -22.9190   389.2730    58.1950    25.3490   127.4990   127.2280   132.0120 
  167.1250     2.2800   -22.9190   388.1220    57.3630    25.3490   120.4020   123.1830   125.5300 
  167.2500     2.2720   -22.9330   387.3380    60.9780    25.3490   130.9700   117.6800   118.0800 
  167.3750     2.2550   -22.8960   386.6640    67.3550    25.3490   134.5620   110.7340   109.6470 
  167.5000     2.2360   -22.8120   386.0940    70.3620    25.3410   112.2540   101.7640    99.3970 
  167.6250     2.2340   -22.7600   386.0730    70.7450    25.2750    78.7240    89.5690    86.1220 
  167.7500     2.2530   -22.7310   386.8170    73.5230    25.0760    57.0570    75.3000    71.2630 
  167.8750     2.2830   -22.7180   388.1380    79.0720    24.8210    43.2220    61.0470    57.0740 
  168.0000     2.3080   -22.6980   389.6060    81.1660    24.7730    33.5470    48.9840    45.5200 
  168.1250     2.3210   -22.6120   390.9960    80.6190    25.1190    26.9940    40.8660    37.9970 
  168.2500     2.3340   -22.5330   392.6280    79.3140    25.3000    22.8560    36.0780    33.7260 
  168.3750     2.3480   -22.5050   394.8740    77.9200    25.3490    21.6310    34.1230    32.2470 
  168.5000     2.3540   -22.5230   397.7470    76.4470    25.3490    23.1810    34.5420    33.1320 
  168.6250     2.3430   -22.5000   400.6820    74.3510    25.3820    26.5830    37.3620    36.3770 
  168.7500     2.3240   -22.4460   402.8620    72.0940    25.4650    34.4630    42.0500    41.3910 
  168.8750     2.3090   -22.3620   403.9170    72.3430    25.5630    50.2720    48.2990    47.8410 
  169.0000     2.3020   -22.2620   404.0650    74.2080    25.6330    67.3350    55.5280    55.1680 
  169.1250     2.2990   -22.1910   404.0870    74.9210    25.6520    74.7790    62.7520    62.4220 
  169.2500     2.2960   -22.1070   404.6380    73.5100    25.6570    74.3470    68.7610    68.4420 
  169.3750     2.2970   -22.0440   405.6490    71.7380    25.6570    69.6060    72.5660    72.3150 
  169.5000     2.3070   -22.0130   406.6550    70.3130    25.6650    62.8540    73.8220    73.8290 
  169.6250     2.3190   -22.0390   407.2010    69.1340    25.7020    58.2840    72.9310    73.5590 
  169.7500     2.3190   -22.0940   407.4300    68.1880    25.7630    55.4640    71.3810    72.9480 
  169.8750     2.3060   -22.1590   407.6370    67.8560    25.8060    52.4330    70.1000    72.8580 
