~V
VERS. 2.00: Ver 2.00
~W
STRT.M 65.0000:
STOP.M 273.0000:
STEP.M 0.1250:
NULL. -999.2500:
UWI. DF3011:
~C
DEPT.M :
DEN.GM/CC :
GR.API :
RML.OHMM :
RI. :
RXO.OHMM :
CALI.CM :
AC.US/MT :
SP.MV :
~A
# ...
  105.0000  -999.2500   115.9660     4.8680     4.2020     4.5990    25.6780  -999.2500    -2.1420 
  105.1250  -999.2500   109.1230     5.1010     4.2560     4.7530    25.6130  -999.2500    -2.1210 
  105.2500  -999.2500   102.0420     5.3610     4.3910     4.9980    25.4540  -999.2500    -2.1880 
  105.3750  -999.2500   101.4870     5.5390     4.5210     5.2150    25.2730  -999.2500    -2.2920 
  105.5000  -999.2500   105.5260     5.5750     4.5910     5.2850    25.1220  -999.2500    -2.3990 
  105.6250  -999.2500   104.6250     5.4780     4.5830     5.1540    25.0870  -999.2500    -2.4860 
  105.7500  -999.2500    99.3050     5.3630     4.5440     4.9020    25.0570  -999.2500    -2.5570 
  105.8750  -999.2500    98.4840     5.3130     4.5210     4.8360    25.0210  -999.2500    -2.6380 
  106.0000  -999.2500   103.8520     5.3610     4.5460     4.9370    25.0020  -999.2500    -2.7220 
  106.1250  -999.2500   108.8210     5.4860     4.6280     5.2320    24.9800  -999.2500    -2.8020 
  106.2500  -999.2500   109.6820     5.6160     4.7260     5.5490    24.8700  -999.2500    -2.8530 
  106.3750  -999.2500   107.3450     5.7110     4.8090     5.6960    24.6300  -999.2500    -2.8920 
  106.5000  -999.2500   104.4830     5.7710     4.8570     5.6830    24.4030  -999.2500    -2.9540 
  106.6250  -999.2500   103.6740     5.8300     4.8760     5.6200    24.3300  -999.2500    -3.0730 
  106.7500  -999.2500   105.6560     5.9290     4.9020     5.4840    24.3320  -999.2500    -3.2230 
  106.8750  -999.2500   108.6790     6.0770     4.9680     5.4930    24.3240  -999.2500    -3.4360 
  107.0000  -999.2500   109.5340     6.2570     5.0820     5.7410    24.2810  -999.2500    -3.7230 
  107.1250  -999.2500   106.4380     6.4190     5.2250     6.1150    24.0500  -999.2500    -4.0250 
  107.2500  -999.2500   102.0980     6.5080     5.3440     6.4040    23.7770  -999.2500    -4.3150 
  107.3750  -999.2500    99.1600     6.4900     5.3930     6.6820    23.5640  -999.2500    -4.6330 
  107.5000  -999.2500    98.2310     6.3610     5.3460     6.9020    23.3720  -999.2500    -4.9740 
  107.6250  -999.2500    96.5480     6.1560     5.2020     6.9360    23.1660  -999.2500    -5.3010 
  107.7500  -999.2500    94.4930     5.9770     5.0350     6.9770    23.0740  -999.2500    -5.6580 
  107.8750  -999.2500    96.1110     5.9080     4.9190     7.0710    23.1530  -999.2500    -6.0200 
  108.0000  -999.2500   103.2440     5.9900     4.9180     7.4480    23.3180  -999.2500    -6.4090 
  108.1250  -999.2500   108.7650     6.2090     5.0680     8.3180    23.5630  -999.2500    -6.9050 
  108.2500  -999.2500   104.5230     6.4600     5.3150     9.4200    23.7780  -999.2500    -7.4710 
  108.3750  -999.2500    91.3340     6.7220     5.6290    10.5770    24.0020  -999.2500    -8.0320 
  108.5000  -999.2500    76.9480     7.0470     6.0370    11.5200    24.1880  -999.2500    -8.5820 
  108.6250  -999.2500    73.0440     7.8190     6.7390    11.6250    24.0440  -999.2500    -9.1370 
  108.7500  -999.2500    76.7410     9.2150     7.9080    11.6890    23.7730  -999.2500    -9.7020 
  108.8750  -999.2500    80.4740    11.3000     9.6050    15.1630    23.6070  -999.2500   -10.2840 
  109.0000  -999.2500    79.0600    13.7330    11.6250    22.5930    23.8540  -999.2500   -10.8280 
  109.1250  -999.2500    72.5240    15.3010    13.3090    31.2410    24.4890  -999.2500   -11.3430 
  109.2500  -999.2500    66.9720    15.4920    13.9550    37.3110    25.0060  -999.2500   -11.9200 
  109.3750  -999.2500    66.6110    14.0370    13.2020    35.4740    25.1180  -999.2500   -12.6430 
  109.5000  -999.2500    72.3880    11.5510    11.3250    23.2270    24.9500  -999.2500   -13.4770 
  109.6250  -999.2500    81.3860     9.3010     9.1860    12.5090    24.8950  -999.2500   -14.3070 
  109.7500  -999.2500    87.5580     7.8930     7.5420     8.7960    24.9800  -999.2500   -15.0630 
  109.8750  -999.2500    90.3770     7.3020     6.5730     8.0640    25.0790  -999.2500   -15.7240 
  110.0000  -999.2500    90.5040     7.3430     6.2250     8.2780    25.1050  -999.2500   -16.3150 
  110.1250  -999.2500    88.3680     7.8390     6.4160     8.7230    25.1480  -999.2500   -16.7430 
  110.2500  -999.2500    84.4840     8.4830     6.8860     9.2480    25.2720  -999.2500   -16.9950 
  110.3750  -999.2500    77.1090     9.0930     7.4760     9.7450    25.4280  -999.2500   -17.0500 
  110.5000  -999.2500    67.5000     9.5540     8.0560    10.1780    25.5470  -999.2500   -16.8940 
  110.6250  -999.2500    60.3770     9.8270     8.5270    10.4810    25.6460  -999.2500   -16.5370 
  110.7500  -999.2500    57.0690    10.0100     8.8870    10.7090    25.6900  -999.2500   -16.0000 
  110.8750  -999.2500    55.9530    10.1710     9.1540    10.8580    25.7030  -999.2500   -15.2890 
  111.0000  -999.2500    54.7210    10.3470     9.3350    10.8890    25.7190  -999.2500   -14.4590 
  111.1250  -999.2500    55.7550    10.4540     9.3810    10.6810    25.7870  -999.2500   -13.5510 
  111.2500  -999.2500    61.3110    10.3670     9.2340    10.3950    25.8950  -999.2500   -12.5400 
  111.3750  -999.2500    68.7000     9.9310     8.8260    10.0190    25.9590  -999.2500   -11.3950 
  111.5000  -999.2500    74.5200     9.1260     8.1400     9.4840    25.8870  -999.2500   -10.1500 
  111.6250  -999.2500    80.8740     7.9320     7.2230     8.5880    25.5900  -999.2500    -8.9020 
  111.7500  -999.2500    91.8650     6.6910     6.2670     7.3650    25.2220  -999.2500    -7.7550 
  111.8750  -999.2500   102.4650     5.7310     5.4160     6.0780    25.0030  -999.2500    -6.7760 
  112.0000  -999.2500   106.9270     5.1500     4.7740     5.1120    24.9190  -999.2500    -5.9140 
  112.1250  -999.2500   105.8380     4.9510     4.4370     4.8580    24.7930  -999.2500    -5.1910 
  112.2500  -999.2500   104.0370     5.0730     4.3690     4.8960    24.4940  -999.2500    -4.6780 
  112.3750  -999.2500    98.8970     5.4770     4.5550     5.0910    24.0110  -999.2500    -4.4270 
  112.5000  -999.2500    91.0500     6.0790     4.9530     5.4930    23.3220  -999.2500    -4.4310 
  112.6250  -999.2500    87.8820     6.7220     5.4750     6.1540    22.6760  -999.2500    -4.6100 
  112.7500  -999.2500    88.9010     7.1830     5.9380     6.9100    22.5750  -999.2500    -4.8190 
  112.8750  -999.2500    89.5370     7.2850     6.1800     7.4520    23.0010  -999.2500    -4.9870 
  113.0000  -999.2500    89.2040     6.9550     6.0940     7.4860    23.3030  -999.2500    -5.1390 
  113.1250  -999.2500    91.9210     6.2650     5.6540     6.8090    23.3440  -999.2500    -5.3070 
  113.2500  -999.2500    97.7760     5.5490     5.0840     5.5710    23.5300  -999.2500    -5.4530 
  113.3750  -999.2500   103.9590     5.0350     4.5710     4.6440    24.0450  -999.2500    -5.5080 
  113.5000  -999.2500   109.7680     4.8220     4.2410     4.3050    24.8860  -999.2500    -5.4320 
  113.6250  -999.2500   112.4410     4.9150     4.1640     4.3970    25.2980  -999.2500    -5.3070 
  113.7500  -999.2500   112.7790     5.1490     4.2490     4.6480    25.4270  -999.2500    -5.1880 
  113.8750  -999.2500   111.8270     5.4000     4.4100     4.9300    25.4300  -999.2500    -5.0370 
  114.0000  -999.2500   108.1140     5.5650     4.5560     5.0570    25.4300  -999.2500    -4.8520 
  114.1250  -999.2500   103.3220     5.5730     4.6060     4.9890    25.4280  -999.2500    -4.5780 
  114.2500  -999.2500   102.7570     5.4730     4.5590     4.8420    25.4090  -999.2500    -4.2820 
  114.3750  -999.2500   107.8450     5.3160     4.4420     4.6850    25.3510  -999.2500    -4.0410 
  114.5000  -999.2500   113.6840     5.1330     4.2850     4.5580    25.2350  -999.2500    -3.9120 
  114.6250  -999.2500   115.6630     4.9220     4.1140     4.4830    25.0370  -999.2500    -3.9000 
  114.7500  -999.2500   117.2540     4.7280     3.9610     4.4720    24.6930  -999.2500    -3.9760 
  114.8750  -999.2500   118.6930     4.6190     3.8720     4.4930    24.3060  -999.2500    -4.2040 
