~V
VERS. 2.00: Ver 2.00
~W
STRT.M 64.0000:
STOP.M 264.0000:
STEP.M 0.1250:
NULL. -999.2500:
UWI. DF3031:
~C
DEPT.M :
DEN.GM/CC :
AC.US/MT :
GR.API :
CALI.CM :
RXO.OHMM :
RI. :
RML.OHMM :
SP.MV :
~A
# ...
  164.0000     2.1780   381.2610    66.7140    26.2890   102.3970   147.6230   172.4980   -20.7160 
  164.1250     2.1690   380.2840    63.3260    26.2940   118.0040   168.7470   196.8870   -20.8780 
  164.2500     2.1650   380.3910    63.4450    26.3370   124.7940   185.6620   215.5740   -21.0230 
  164.3750     2.1730   381.6270    67.6250    26.4380   124.0850   194.5210   223.8570   -21.1580 
  164.5000     2.1890   383.8290    73.5710    26.5650   121.0020   194.2500   220.9910   -21.2500 
  164.6250     2.1990   386.8350    74.5960    26.6460   117.7250   186.1440   209.4960   -21.3110 
  164.7500     2.2010   390.1760    71.1370    26.6710   113.4180   174.9880   195.2650   -21.3450 
  164.8750     2.1950   393.3290    69.6640    26.6710   108.0360   163.3040   181.1040   -21.3270 
  165.0000     2.1840   395.4830    72.8310    26.6710   103.5220   152.7320   168.7230   -21.2870 
  165.1250     2.1730   395.2040    75.5590    26.6700   101.5480   144.8630   159.8420   -21.2440 
  165.2500     2.1730   392.1090    73.7630    26.6440    99.8510   140.1350   154.7500   -21.2060 
  165.3750     2.1910   386.3540    71.2440    26.5800    97.5570   138.9730   153.7750   -21.1900 
  165.5000     2.2140   378.9680    71.5520    26.4910    96.4370   141.4180   156.7990   -21.1910 
  165.6250     2.2180   371.9740    71.7830    26.4060    96.1290   147.2520   163.3820   -21.2150 
  165.7500     2.2050   367.3860    68.2320    26.3420    92.2880   154.3500   171.0640   -21.2740 
  165.8750     2.1880   366.4790    64.0510    26.3000    86.5770   160.6260   177.4800   -21.3650 
  166.0000     2.1750   369.6610    65.3200    26.2910    86.3230   164.1750   180.5930   -21.4700 
  166.1250     2.1670   376.7670    69.9520    26.3280    96.0420   163.8240   179.5030   -21.5830 
  166.2500     2.1680   385.5740    70.1580    26.3940   105.4590   161.6500   176.9470   -21.7090 
  166.3750     2.1870   394.2210    67.3110    26.4010   104.6610   160.1100   175.7330   -21.8220 
  166.5000     2.2180   400.8980    67.2320    26.2120    93.6530   161.4610   178.1250   -21.9450 
  166.6250     2.2420   403.5160    70.7830    25.8240    83.0630   167.7360   185.9670   -22.0540 
  166.7500     2.2470   402.0630    72.7390    25.4960    79.5880   178.0080   197.8890   -22.1390 
  166.8750     2.2430   396.9620    73.4820    25.3570    82.0510   190.6610   211.7340   -22.2300 
  167.0000     2.2420   389.3900    73.7750    25.3510    85.9130   202.4790   223.4540   -22.3150 
  167.1250     2.2540   381.1560    71.7650    25.3430    85.0340   207.3140   225.7320   -22.3870 
  167.2500     2.2690   374.1860    69.7250    25.3280    79.9510   202.5430   216.7060   -22.4500 
  167.3750     2.2790   369.4990    70.4440    25.3610    74.4460   189.2110   199.0580   -22.5000 
  167.5000     2.2750   367.3500    73.6070    25.4870    70.2620   171.7050   178.6200   -22.5350 
  167.6250     2.2590   367.5830    75.5900    25.6910    66.6530   155.5980   161.4740   -22.5770 
  167.7500     2.2460   369.0730    73.9410    25.8680    64.4560   143.6730   149.5090   -22.6170 
  167.8750     2.2420   371.3040    71.0840    25.9620    65.1050   136.1930   142.4740   -22.6350 
  168.0000     2.2470   374.0170    69.0360    25.9840    67.1830   132.3230   139.2950   -22.6410 
  168.1250     2.2530   377.0420    66.8340    25.9800    67.1710   131.5150   139.3670   -22.6300 
  168.2500     2.2580   379.9110    63.5350    25.9790    64.6210   132.9670   141.9180   -22.6080 
  168.3750     2.2620   382.0860    60.7200    25.9790    61.2410   137.0710   147.5390   -22.5750 
  168.5000     2.2610   383.1720    61.3800    25.9790    59.4240   144.8420   157.4810   -22.5310 
  168.6250     2.2470   383.1160    63.4210    25.9810    62.7760   158.5690   174.3800   -22.4760 
  168.7500     2.2240   382.7760    64.7950    25.9820    71.5830   178.0300   198.0370   -22.4210 
  168.8750     2.2040   382.9300    65.8550    25.9820    83.9510   202.2400   227.5710   -22.3660 
  169.0000     2.1950   384.1130    65.9370    25.9800    97.6470   228.5940   260.1990   -22.3260 
  169.1250     2.1960   386.6190    66.7540    25.9790   112.4980   252.0830   290.0290   -22.2930 
  169.2500     2.1960   390.0420    68.3330    25.9790   124.6720   268.4690   311.4970   -22.2640 
  169.3750     2.1920   394.1860    69.1430    25.9790   126.7220   275.3910   321.3930   -22.2650 
  169.5000     2.1820   398.9480    66.4850    25.9790   117.6350   272.8220   319.5440   -22.2750 
  169.6250     2.1720   404.2850    64.0020    25.9790   106.3680   262.0340   307.5310   -22.2890 
  169.7500     2.1680   409.7680    66.3370    25.9790    99.5590   247.7580   291.2020   -22.3100 
  169.8750     2.1760   414.8580    69.8360    25.9790    95.9900   232.7130   273.7760   -22.3300 
  170.0000     2.1920   418.9510    69.8350    25.9780    94.4750   218.4450   256.9650   -22.3300 
  170.1250     2.2120   421.3950    68.0450    25.9790    96.1720   205.7610   241.6080   -22.3400 
  170.2500     2.2250   422.4850    68.8810    25.9940   100.1360   194.7560   227.9940   -22.3420 
  170.3750     2.2270   422.5780    73.3910    26.0220   103.7690   185.9830   216.9030   -22.3040 
  170.5000     2.2170   421.9890    78.8330    26.0480   105.2820   180.0880   209.0980   -22.2530 
  170.6250     2.2000   420.5220    81.4690    26.0600   106.0360   177.2690   204.5070   -22.1700 
  170.7500     2.1850   417.7750    79.6830    26.0620   108.6950   174.6250   199.5250   -22.0640 
  170.8750     2.1750   413.2510    74.0100    26.0630   112.4080   168.6050   190.1020   -21.9500 
  171.0000     2.1710   406.8970    68.6380    26.0600   114.6980   156.6140   173.8090   -21.8320 
  171.1250     2.1810   399.3040    68.3520    26.0610   111.7150   138.6210   151.7770   -21.6840 
  171.2500     2.2030   391.9040    72.3850    26.0550   100.0570   119.4460   129.7800   -21.5280 
  171.3750     2.2310   385.6600    76.7900    25.9740    80.8730   102.5120   111.2800   -21.3700 
  171.5000     2.2590   381.0240    79.2400    25.7780    62.5390    89.4950    97.5430   -21.1950 
  171.6250     2.2830   378.1410    80.0010    25.5590    53.6280    81.0480    88.9420   -21.0370 
  171.7500     2.2980   376.4520    78.7300    25.4420    51.0720    75.8140    83.9130   -20.8820 
  171.8750     2.2990   375.8930    76.4890    25.4290    50.1430    73.2820    81.9110   -20.7170 
  172.0000     2.2840   376.6670    75.1390    25.4320    48.2520    73.1830    82.6970   -20.5620 
  172.1250     2.2700   379.3160    75.1800    25.3710    46.8300    75.9890    86.8670   -20.4220 
  172.2500     2.2690   383.5620    74.3040    25.2540    48.3610    81.3530    93.9680   -20.3020 
  172.3750     2.2760   389.0020    72.7200    25.1280    52.4870    88.8580   103.4010   -20.2230 
  172.5000     2.2830   394.9470    72.5850    25.0520    56.5040    97.3570   113.6790   -20.1670 
  172.6250     2.2890   400.4210    74.4460    25.0510    57.5900   104.5520   121.8570   -20.1140 
  172.7500     2.2910   404.7590    76.5450    25.1040    56.3670   108.5750   125.8120   -20.0790 
  172.8750     2.2780   407.7040    75.8390    25.2060    53.8610   108.8400   125.1200   -20.0690 
  173.0000     2.2480   409.4790    71.8640    25.3280    50.8670   106.3010   121.2780   -20.0570 
  173.1250     2.2260   410.8000    69.5730    25.4060    48.1590   102.8820   116.7590   -20.0560 
  173.2500     2.2320   412.5930    71.0080    25.4320    46.0170   100.2730   113.2910   -20.0400 
  173.3750     2.2580   415.1320    74.9430    25.4400    45.1230    98.7200   110.8200   -19.9950 
  173.5000     2.2800   418.0450    77.2550    25.4620    46.2430    97.2290   107.9020   -19.9360 
  173.6250     2.2830   420.4250    76.0920    25.4910    48.9900    93.2520   101.5610   -19.8590 
  173.7500     2.2870   421.9250    74.1970    25.5110    49.6520    85.5820    91.0710   -19.7620 
  173.8750     2.3020   422.9540    72.6820    25.5030    45.7120    74.9700    77.9250   -19.6540 
