~V
VERS. 2.00: Ver 2.00
~W
STRT.M 62.0000:
STOP.M 282.0000:
STEP.M 0.1250:
NULL. -999.2500:
UWI. DF3054:
~C
DEPT.M :
DEN.GM/CC :
GR.API :
CALI.CM :
RXO.OHMM :
RI. :
RML.OHMM :
SP.MV :
~A
# ...
  129.5000     2.3600    91.8620    24.0580     6.9040     6.2090     7.0410    -9.7360 
  129.6250     2.3540    85.2920    23.8760     7.5640     6.6880     7.7020    -9.9320 
  129.7500     2.3230    80.4040    23.5680     8.3680     7.3070     8.4750   -10.2250 
  129.8750     2.2790    77.9050    23.2370     8.9690     7.9750     9.2250   -10.5440 
  130.0000     2.2450    76.9050    22.9160     9.1210     8.6170     9.8760   -10.9170 
  130.1250     2.2400    76.4520    22.6740     9.3140     9.2010    10.4050   -11.3410 
  130.2500     2.2510    76.5410    22.6360    10.6960     9.7510    10.8580   -11.8590 
  130.3750     2.2530    75.7380    22.9980    13.8660    10.2590    11.2090   -12.4080 
  130.5000     2.2350    72.6740    23.7020    17.1570    10.6530    11.3680   -12.9630 
  130.6250     2.2070    71.0080    24.3470    16.9420    10.7630    11.1760   -13.4700 
  130.7500     2.1930    72.3820    24.6620    13.8550    10.5610    10.7080   -13.9360 
  130.8750     2.1980    75.1380    24.6500    10.9660    10.1260    10.1400   -14.3720 
  131.0000     2.2080    76.4290    24.5100     9.7250     9.6260     9.6970   -14.7810 
  131.1250     2.2090    74.4930    24.4630     9.4840     9.2380     9.5750   -15.1940 
  131.2500     2.2080    71.2450    24.5220     9.3670     9.0080     9.6910   -15.5730 
  131.3750     2.2110    69.2010    24.5840     9.3160     8.9120     9.8900   -15.9020 
  131.5000     2.2180    69.2600    24.5830     9.3410     8.8970    10.0060   -16.1700 
  131.6250     2.2210    70.0730    24.5370     9.3040     8.9130     9.9150   -16.3600 
  131.7500     2.2190    71.1400    24.5090     9.1610     8.9280     9.6840   -16.4520 
  131.8750     2.2190    73.6400    24.4830     9.0670     8.9290     9.4150   -16.4990 
  132.0000     2.2210    76.0490    24.4360     9.0940     8.9150     9.2140   -16.5400 
  132.1250     2.2190    74.7250    24.3800     9.2480     8.9160     9.1790   -16.5330 
  132.2500     2.2170    72.0870    24.3070     9.4230     8.9750     9.3080   -16.4860 
  132.3750     2.2140    71.1900    24.2000     9.5820     9.1200     9.5850   -16.4440 
  132.5000     2.2130    72.3920    24.1070     9.8410     9.3480     9.9730   -16.4190 
  132.6250     2.2070    73.5940    24.1070    10.2120     9.6270    10.3980   -16.4190 
  132.7500     2.2010    73.6740    24.1710    10.4310     9.8910    10.7530   -16.4690 
  132.8750     2.1990    71.9130    24.2480    10.3600    10.0840    10.9830   -16.5600 
  133.0000     2.1970    69.8790    24.3200    10.2470    10.1760    11.0990   -16.6470 
  133.1250     2.1900    70.2780    24.4700    10.3430    10.1760    11.1710   -16.7590 
  133.2500     2.1790    71.6370    24.6710    10.6120    10.1610    11.2730   -16.9050 
  133.3750     2.1670    70.3800    24.8130    10.8330    10.1920    11.4030   -17.0610 
  133.5000     2.1580    66.0740    24.8160    10.9770    10.2930    11.5190   -17.1900 
  133.6250     2.1590    62.6150    24.6760    11.2330    10.4490    11.5940   -17.2760 
  133.7500     2.1640    61.5920    24.5080    11.6280    10.6060    11.6950   -17.3110 
  133.8750     2.1630    61.8300    24.3750    11.8810    10.7470    11.9150   -17.2910 
  134.0000     2.1560    62.2890    24.3230    11.7160    10.8760    12.3030   -17.2370 
  134.1250     2.1550    63.4870    24.3420    11.4190    11.0040    12.8030   -17.1790 
  134.2500     2.1640    65.3710    24.4190    11.3380    11.1090    13.2230   -17.0960 
  134.3750     2.1740    67.2530    24.5700    11.5560    11.1550    13.4150   -16.9690 
  134.5000     2.1750    67.6850    24.7210    11.7160    11.1080    13.3100   -16.8280 
  134.6250     2.1720    67.8100    24.7720    11.3960    10.9400    12.9010   -16.6520 
  134.7500     2.1730    68.7850    24.6450    10.8150    10.6940    12.3090   -16.4360 
  134.8750     2.1770    69.9080    24.4250    10.3890    10.4050    11.5950   -16.1790 
  135.0000     2.1770    70.6610    24.2800    10.2560    10.1050    10.8230   -15.9090 
  135.1250     2.1730    69.8360    24.2490    10.2800     9.8290    10.1330   -15.6150 
  135.2500     2.1720    68.4240    24.2800    10.1360     9.6220     9.6830   -15.2910 
  135.3750     2.1770    68.0410    24.3070     9.8440     9.5560     9.5920   -14.9580 
  135.5000     2.1800    69.5580    24.3240     9.5830     9.6950     9.8710   -14.5870 
  135.6250     2.1710    70.2530    24.3140     9.7850    10.0280    10.3620   -14.1990 
  135.7500     2.1720    67.9410    24.2750    10.6260    10.3270    10.6760   -13.8050 
  135.8750     2.2060    66.2160    24.3080    11.9980    10.3340    10.5360   -13.4160 
  136.0000     2.2780    67.1460    24.4250    12.8970     9.8600     9.9130   -13.0300 
  136.1250     2.3500    70.6790    24.6530    10.9990     8.9060     9.1120   -12.5890 
  136.2500     2.3740    77.0120    24.8680     8.5090     7.8640     8.4310   -12.1750 
  136.3750     2.3430    85.5190    25.1090     7.3130     6.9900     7.8680   -11.8410 
  136.5000     2.2870    92.5110    25.1030     7.0770     6.4030     7.3880   -11.6350 
  136.6250     2.2490    93.9190    24.9850     7.0440     6.1700     7.1140   -11.4920 
  136.7500     2.2410    92.7950    24.8510     6.8650     6.1920     7.0980   -11.4160 
  136.8750     2.2570    92.3290    24.7510     6.6630     6.3750     7.2570   -11.4570 
  137.0000     2.2800    92.6080    24.6940     6.4860     6.6050     7.4740   -11.5880 
  137.1250     2.2920    91.5050    24.6690     6.6430     6.7700     7.6260   -11.8410 
  137.2500     2.2890    89.6560    24.6440     6.9900     6.7920     7.6240   -12.1210 
  137.3750     2.2780    88.7050    24.6510     7.0490     6.5930     7.3960   -12.3260 
  137.5000     2.2760    88.5190    24.7340     6.6540     6.1300     6.9220   -12.4060 
  137.6250     2.2900    88.4860    24.9820     6.1450     5.4510     6.2590   -12.4380 
  137.7500     2.3060    91.0110    25.2830     5.7490     4.7910     5.6320   -12.4970 
  137.8750     2.3150    95.8950    25.4910     5.4430     4.3810     5.2500   -12.5500 
  138.0000     2.3240    98.5190    25.5900     5.5120     4.4220     5.3360   -12.6010 
  138.1250     2.3410    93.8700    25.6300     7.2370     5.2360     6.4150   -12.6900 
  138.2500     2.3710    85.6510    25.6330    12.2590     6.9260     8.6460   -12.8790 
  138.3750     2.4230    77.0010    25.5350    19.7780     9.5360    11.7740   -13.2300 
  138.5000     2.4900    71.0640    25.3810    25.0850    12.5760    14.8500   -13.8090 
  138.6250     2.5220    69.6270    25.1690    22.6020    14.4710    16.3120   -14.6560 
  138.7500     2.4770    68.2640    24.8670    17.0190    14.4850    15.9250   -15.6370 
  138.8750     2.3690    65.1540    24.5560    12.9870    13.2680    14.3500   -16.7040 
  139.0000     2.2560    62.2800    24.3680    11.3310    11.8540    12.6400   -17.8080 
  139.1250     2.1910    63.4800    24.3440    10.9820    10.9220    11.6300   -18.8750 
  139.2500     2.1710    66.2780    24.3640    10.9630    10.4900    11.2980   -19.8040 
  139.3750     2.1760    68.2090    24.3560    10.9640    10.4310    11.4340   -20.5820 
  139.5000     2.1890    69.9420    24.3270    10.8810    10.5870    11.7960   -21.1630 
  139.6250     2.1960    70.0260    24.3070    10.7860    10.8130    12.1660   -21.4860 
  139.7500     2.1940    66.2830    24.3030    10.8160    11.0090    12.4350   -21.6020 
  139.8750     2.1910    60.9170    24.3060    10.9640    11.1350    12.5990   -21.5470 
  140.0000     2.1860    57.4260    24.3080    11.1130    11.1720    12.6920   -21.3710 
  140.1250     2.1790    59.4320    24.3060    11.1680    11.0960    12.7220   -21.1120 
  140.2500     2.1740    63.1290    24.3090    11.1470    10.9380    12.6860   -20.8470 
  140.3750     2.1750    66.2260    24.3180    11.0620    10.7470    12.5970   -20.5620 
  140.5000     2.1790    68.1220    24.3190    10.9370    10.5960    12.5340   -20.2500 
  140.6250     2.1880    69.8990    24.2640    10.8280    10.6080    12.6650   -19.8960 
