~V
VERS. 2.00: Ver 2.00
~W
STRT.M 57.0000:
STOP.M 272.0000:
STEP.M 0.1250:
NULL. -999.2500:
UWI. DF3055:
~C
DEPT.M :
SP.MV :
GR.API :
RML.OHMM :
RI. :
RXO.OHMM :
CALI.CM :
DEN.GM/CC :
~A
# ...
  102.0000   -26.6550    56.5010    18.9420    18.0880    35.5570    24.1810     2.4320 
  102.1250   -26.6720    58.1140    15.8920    15.3690    20.0750    24.1790     2.3870 
  102.2500   -26.7210    59.3530    13.6450    12.3240    13.2350    24.2870     2.3210 
  102.3750   -26.7760    61.3230    11.3340     9.9670    11.4360    24.4900     2.2640 
  102.5000   -26.8180    64.2560     9.7440     8.4440    11.1040    24.7430     2.2270 
  102.6250   -26.8500    65.6500     8.9010     7.5870    11.2330    24.9810     2.2100 
  102.7500   -26.8530    65.8810     8.4890     7.1910    11.2260    25.1330     2.2090 
  102.8750   -26.8170    68.0810     8.2300     6.9690    10.8190    25.1960     2.2110 
  103.0000   -26.7400    70.6750     8.0360     6.8060    10.0260    25.2010     2.2130 
  103.1250   -26.6920    72.4360     7.8870     6.6690     9.0560    25.1840     2.2110 
  103.2500   -26.6300    73.0540     7.7460     6.5950     8.3190    25.1550     2.2050 
  103.3750   -26.5890    72.9220     7.7480     6.6140     8.4280    25.1350     2.1980 
  103.5000   -26.5530    73.0380     7.8940     6.7240     9.3350    25.1130     2.1900 
  103.6250   -26.5230    73.6390     8.1090     6.8800    10.1530    25.0700     2.1850 
  103.7500   -26.4910    72.7740     8.2530     6.9930    10.4810    25.0010     2.1820 
  103.8750   -26.4470    71.5050     8.2260     7.0000    10.3710    24.9370     2.1800 
  104.0000   -26.3980    71.6720     8.0090     6.8860    10.0070    24.9020     2.1790 
  104.1250   -26.3220    72.3160     7.6790     6.6880     9.4650    24.8870     2.1780 
  104.2500   -26.2460    70.5610     7.3970     6.4930     9.0550    24.8840     2.1800 
  104.3750   -26.1640    69.8370     7.2830     6.3750     8.8910    24.8840     2.1840 
  104.5000   -26.0820    71.8020     7.3660     6.3640     9.0580    24.8870     2.1890 
  104.6250   -26.0000    73.4170     7.6060     6.4540     9.5740    24.8900     2.1950 
  104.7500   -25.9140    71.7220     7.8920     6.6260    10.1560    24.8980     2.1980 
  104.8750   -25.8440    68.6940     8.1200     6.8200    10.5890    24.9030     2.2010 
  105.0000   -25.7790    66.0390     8.2290     6.9960    10.7940    24.9000     2.2000 
  105.1250   -25.7080    64.1870     8.2190     7.1300    10.8870    24.8850     2.1970 
  105.2500   -25.6190    64.3120     8.2130     7.2020    11.0400    24.8780     2.1920 
  105.3750   -25.4980    64.8520     8.2100     7.2310    11.1470    24.8770     2.1880 
  105.5000   -25.3530    64.1360     8.2110     7.2320    11.1810    24.8770     2.1870 
  105.6250   -25.1900    63.8330     8.2090     7.2210    11.2160    24.8760     2.1860 
  105.7500   -25.0190    64.7700     8.2090     7.2100    11.2890    24.8730     2.1800 
  105.8750   -24.8240    65.2760     8.2080     7.2030    11.4460    24.8740     2.1680 
  106.0000   -24.5920    64.1740     8.2120     7.2010    11.6280    24.8720     2.1510 
  106.1250   -24.3300    63.2000     8.2180     7.1980    11.7740    24.8310     2.1370 
  106.2500   -24.0180    63.2530     8.2440     7.1960    11.7810    24.6700     2.1350 
  106.3750   -23.6960    62.4540     8.2840     7.2000    11.6790    24.4020     2.1440 
  106.5000   -23.3700    60.6170     8.3240     7.2130    11.4850    24.1140     2.1620 
  106.6250   -23.0490    60.2400     8.3620     7.2310    11.2760    23.8840     2.1830 
  106.7500   -22.7700    64.2700     8.3510     7.2230    10.9700    23.7550     2.2030 
  106.8750   -22.4910    70.1880     8.2320     7.1450    10.5760    23.7330     2.2200 
  107.0000   -22.2080    75.3370     7.9760     6.9610     9.9810    23.7890     2.2330 
  107.1250   -21.9400    77.8120     7.6000     6.6550     9.1350    23.9090     2.2390 
  107.2500   -21.7230    78.1030     7.1470     6.2410     8.1760    24.0990     2.2350 
  107.3750   -21.5370    80.5800     6.6870     5.7950     6.9300    24.3280     2.2260 
  107.5000   -21.4110    85.8900     6.2440     5.3680     5.6490    24.5780     2.2160 
  107.6250   -21.3120    91.9660     5.8400     4.9890     4.7140    24.7490     2.2110 
  107.7500   -21.2110    94.8640     5.4830     4.6810     4.4140    24.7970     2.2170 
  107.8750   -21.1600    96.2550     5.1920     4.4310     4.3530    24.7970     2.2310 
  108.0000   -21.1860    98.2910     4.9870     4.2450     4.2740    24.7840     2.2500 
  108.1250   -21.2520   101.5080     4.8920     4.1410     4.1270    24.7520     2.2660 
  108.2500   -21.4430   105.0330     4.9940     4.1650     4.2810    24.6940     2.2720 
  108.3750   -21.6860   103.8770     5.2020     4.3260     4.8380    24.6120     2.2630 
  108.5000   -21.8920    97.9320     5.5120     4.6330     5.6560    24.5210     2.2440 
  108.6250   -22.0770    90.5330     5.9240     5.0750     6.6370    24.4190     2.2230 
  108.7500   -22.3610    83.3060     6.4090     5.6200     7.6870    24.3320     2.2100 
  108.8750   -22.8040    75.2890     7.0380     6.1780     8.5610    24.2940     2.2050 
  109.0000   -23.3200    69.5690     7.5860     6.6700     9.2930    24.3070     2.2040 
  109.1250   -23.8660    69.1950     7.9820     7.0350    10.1840    24.3750     2.2000 
  109.2500   -24.3090    69.7150     8.1680     7.2160    10.9260    24.5500     2.1890 
  109.3750   -24.7030    66.0140     8.2040     7.2620    11.0860    24.7880     2.1750 
  109.5000   -25.0690    61.9710     8.1460     7.2190    10.8310    24.9510     2.1620 
  109.6250   -25.3930    62.6680     8.0530     7.1400    10.6190    24.9800     2.1540 
  109.7500   -25.5760    68.8700     7.9750     7.0710    10.5650    24.9300     2.1480 
  109.8750   -25.5760    75.1400     7.9380     7.0360    10.5460    24.8720     2.1430 
  110.0000   -25.4580    77.3210     7.9450     7.0400    10.5990    24.8200     2.1420 
  110.1250   -25.2900    73.0670     7.9870     7.0760    10.7350    24.7450     2.1440 
  110.2500   -25.1040    65.2140     8.0490     7.1320    10.8950    24.6320     2.1490 
  110.3750   -24.9060    61.5760     8.1160     7.1930    10.9430    24.5430     2.1550 
  110.5000   -24.7350    62.8390     8.1810     7.2510    10.9410    24.5240     2.1590 
  110.6250   -24.6070    64.8720     8.2390     7.3040    10.9750    24.5380     2.1630 
  110.7500   -24.5020    63.2620     8.2860     7.3460    11.1390    24.5490     2.1680 
  110.8750   -24.3670    61.7050     8.3190     7.3770    11.2600    24.5540     2.1750 
  111.0000   -24.2310    63.6680     8.3370     7.3960    11.3690    24.5550     2.1790 
  111.1250   -24.0840    66.0340     8.3430     7.4030    11.4820    24.5620     2.1790 
  111.2500   -23.9240    64.7390     8.3460     7.4060    11.5150    24.5940     2.1720 
  111.3750   -23.7480    62.9240     8.3550     7.4110    11.4620    24.6650     2.1620 
  111.5000   -23.5460    62.0780     8.3720     7.4220    11.4600    24.7810     2.1530 
  111.6250   -23.3280    59.1040     8.3850     7.4320    11.5280    24.9430     2.1490 
  111.7500   -23.0960    55.5300     8.3780     7.4260    11.7270    25.1270     2.1490 
  111.8750   -22.8670    56.3050     8.3430     7.4000    11.7700    25.1500     2.1510 
  112.0000   -22.6070    60.2040     8.2870     7.3600    11.5830    24.9990     2.1480 
  112.1250   -22.3150    64.2150     8.2330     7.3350    11.2490    24.7330     2.1370 
  112.2500   -22.0120    66.7120     8.2120     7.3510    10.8820    24.3930     2.1240 
  112.3750   -21.6720    67.2760     8.2310     7.4090    10.7180    24.0530     2.1160 
  112.5000   -21.3140    66.0890     8.2730     7.4810    10.6630    23.8160     2.1170 
  112.6250   -20.9250    65.2850     8.2950     7.4820    10.5630    23.7150     2.1230 
  112.7500   -20.4720    64.8550     8.2240     7.3410    10.2790    23.9120     2.1280 
  112.8750   -20.0040    63.4730     8.0290     7.0960     9.6670    24.3130     2.1300 
  113.0000   -19.5260    64.0930     7.7130     6.7880     8.6830    24.6680     2.1350 
  113.1250   -19.0280    70.7840     7.3100     6.4270     7.5870    24.7740     2.1470 
