~V
VERS. 2.00: Ver 2.00
~W
STRT.M 63.0000:
STOP.M 257.0000:
STEP.M 0.1250:
NULL. -999.2500:
UWI. DF3070:
~C
DEPT.M :
DEN.GM/CC :
GR.API :
RML.OHMM :
RI. :
RXO.OHMM :
CALI.CM :
SP.MV :
~A
# ...
  141.7500     2.3880    84.9260     9.4910     8.3330     9.5090    24.5480   -20.6360 
  141.8750     2.4400    85.5260    11.5590     9.7170    10.2520    24.2150   -20.6130 
  142.0000     2.4950    80.0440    13.7640    11.1800    11.8010    23.8200   -20.6240 
  142.1250     2.5320    71.4860    14.6340    12.2140    15.3190    23.6670   -20.5960 
  142.2500     2.5340    65.8480    14.5340    12.5250    20.0200    23.7810   -20.6330 
  142.3750     2.4990    65.9180    13.6870    12.1490    22.7440    23.9250   -20.7290 
  142.5000     2.4480    71.4370    12.7400    11.4860    19.0030    23.9510   -20.8430 
  142.6250     2.4140    77.1760    12.4570    11.1140    13.3300    23.9330   -20.9880 
  142.7500     2.4090    77.9630    12.8710    11.2210    11.4930    23.9630   -21.1820 
  142.8750     2.4200    74.2650    13.6380    11.6690    13.1130    24.0090   -21.4170 
  143.0000     2.4250    69.4610    14.2400    12.1310    16.7010    24.0460   -21.6190 
  143.1250     2.4020    67.7680    14.1100    12.1760    18.6280    24.0600   -21.8000 
  143.2500     2.3640    69.7610    13.3470    11.7530    16.4670    24.0510   -21.9330 
  143.3750     2.3330    74.4590    12.3720    11.0840    12.8350    24.1310   -21.8830 
  143.5000     2.3290    80.2680    11.6970    10.5320    10.4090    24.2850   -21.8200 
  143.6250     2.3600    80.9380    11.7780    10.4960    10.0600    24.3310   -21.5870 
  143.7500     2.4070    76.9220    12.5700    11.0390    11.4850    24.1990   -21.3590 
  143.8750     2.4550    73.8690    13.9610    12.1330    14.3070    24.0010   -21.0590 
  144.0000     2.4950    75.8240    15.7430    13.6440    16.4260    23.8970   -20.6850 
  144.1250     2.5260    75.7700    17.5810    15.3170    16.1560    23.9150   -20.3260 
  144.2500     2.5480    69.6900    19.0660    16.7750    16.9440    23.9930   -19.8790 
  144.3750     2.5580    63.2160    19.9220    17.7530    20.0110    24.0650   -19.5190 
  144.5000     2.5510    61.3210    20.1050    18.1650    23.5620    24.0580   -19.0670 
  144.6250     2.5290    64.1260    19.8720    18.1480    23.5400    24.0010   -18.6250 
  144.7500     2.5070    68.1950    19.7850    18.1340    20.8590    23.9670   -18.0450 
  144.8750     2.4960    72.0160    20.2030    18.4240    18.9410    23.9880   -17.4010 
  145.0000     2.4990    73.5840    21.2300    19.1610    19.5890    24.0440   -16.8270 
  145.1250     2.5130    71.3260    22.6590    20.2660    22.7800    24.0650   -16.2350 
  145.2500     2.5290    68.2280    23.9290    21.3330    25.4830    24.0250   -15.7440 
  145.3750     2.5440    67.2760    24.6490    22.0410    25.3440    23.9360   -15.3030 
  145.5000     2.5540    68.7560    24.6870    22.2300    23.6700    23.8280   -14.9350 
  145.6250     2.5600    69.1840    24.2060    21.9400    22.6020    23.7620   -14.7280 
  145.7500     2.5640    69.2460    23.6970    21.5330    21.5660    23.7740   -14.6510 
  145.8750     2.5660    70.4300    23.4070    21.2260    20.8480    23.8400   -14.6900 
  146.0000     2.5640    71.7290    23.3750    21.1000    21.1320    23.8980   -14.7030 
  146.1250     2.5590    70.2360    23.5160    21.1320    22.3080    23.8820   -14.7460 
  146.2500     2.5490    68.3210    23.6690    21.2080    22.8790    23.8440   -14.8220 
  146.3750     2.5360    68.2750    23.7570    21.2580    22.1060    24.1090   -14.8070 
  146.5000     2.5240    67.5170    23.7520    21.2450    20.8460    24.5570   -14.8560 
  146.6250     2.5200    65.1200    23.6700    21.1690    20.4600    24.6390   -14.8120 
  146.7500     2.5230    63.7440    23.5620    21.0710    20.9340    24.4400   -14.8250 
  146.8750     2.5300    64.1830    23.4480    20.9670    21.8260    24.2400   -14.8300 
  147.0000     2.5330    64.9130    23.3330    20.8640    22.5280    23.9780   -14.7890 
  147.1250     2.5260    65.0090    23.2270    20.7680    22.8660    23.3560   -14.8220 
  147.2500     2.5100    64.9860    23.1480    20.6910    22.8090    23.0060   -14.7670 
  147.3750     2.4930    64.7980    23.1090    20.6470    22.1300    23.5090   -14.7810 
  147.5000     2.4800    64.4350    23.1040    20.6370    21.1570    24.3750   -14.7280 
  147.6250     2.4770    65.4060    23.0900    20.6370    20.8190    24.6710   -14.7340 
  147.7500     2.4790    66.5110    23.0060    20.5980    21.2580    24.4290   -14.6610 
  147.8750     2.4850    67.9080    22.8090    20.4800    21.7730    24.1720   -14.6150 
  148.0000     2.4940    68.7280    22.4750    20.2460    21.6240    24.1640   -14.5810 
  148.1250     2.5060    66.2040    21.9550    19.8350    20.7940    24.1840   -14.4650 
  148.2500     2.5180    62.7390    21.2530    19.2440    20.0980    24.1580   -14.4440 
  148.3750     2.5290    62.1450    20.3760    18.4780    19.6980    24.1270   -14.3400 
  148.5000     2.5330    65.1790    19.3710    17.5850    19.2140    24.1080   -14.3070 
  148.6250     2.5290    67.4070    18.3520    16.6600    18.1090    24.1060   -14.2820 
  148.7500     2.5190    66.1670    17.4570    15.8260    16.4240    24.1140   -14.2360 
  148.8750     2.5070    63.7010    16.7840    15.1700    14.7430    24.1270   -14.2230 
  149.0000     2.4970    62.5010    16.3690    14.7340    13.7300    24.1270   -14.2270 
  149.1250     2.4950    62.4820    16.2190    14.5510    13.5760    24.1120   -14.2320 
  149.2500     2.5000    61.8050    16.2380    14.5490    13.8720    24.1050   -14.2180 
  149.3750     2.5100    60.9760    16.3820    14.6940    14.3370    24.1120   -14.2550 
  149.5000     2.5230    62.3640    16.6250    14.9510    14.7380    24.1130   -14.3070 
  149.6250     2.5340    65.4350    16.9450    15.2880    14.8910    24.1020   -14.2520 
  149.7500     2.5410    65.4030    17.2520    15.6170    15.1830    24.0970   -14.3130 
  149.8750     2.5430    62.7230    17.4400    15.8470    15.9830    24.0950   -14.3050 
  150.0000     2.5410    61.4030    17.4060    15.8830    17.0090    24.0910   -14.3550 
  150.1250     2.5370    63.7360    17.0790    15.6460    17.2730    24.0630   -14.4130 
  150.2500     2.5340    67.3160    16.6030    15.2400    16.6780    23.9830   -14.4710 
  150.3750     2.5310    68.8740    16.1370    14.8010    15.9180    24.0080   -14.5390 
  150.5000     2.5320    68.2010    15.8200    14.4610    15.3100    24.2230   -14.5690 
  150.6250     2.5390    66.2690    15.7400    14.3330    14.5920    24.4120   -14.6850 
  150.7500     2.5480    63.4930    15.8130    14.3760    14.2010    24.3720   -14.7400 
  150.8750     2.5550    60.7270    15.9520    14.5270    14.5550    24.2270   -14.8500 
  151.0000     2.5550    61.0850    16.0810    14.7150    15.2270    24.1880   -14.8620 
  151.1250     2.5440    65.9760    16.1750    14.8960    14.9830    24.2180   -14.9470 
  151.2500     2.5250    70.8340    16.2690    15.0780    14.2200    24.3070   -14.9780 
  151.3750     2.5030    73.9920    16.4050    15.2910    13.9200    24.6560   -15.0540 
  151.5000     2.4770    76.1220    16.6020    15.5500    14.1330    24.9770   -15.1120 
  151.6250     2.4490    76.0710    16.8410    15.8450    14.4090    24.7700   -15.1110 
  151.7500     2.4230    76.2360    17.0460    16.1050    14.4870    24.2600   -15.2010 
  151.8750     2.4060    78.4560    17.1430    16.2580    14.3340    23.7280   -15.2130 
  152.0000     2.4010    80.0750    17.0850    16.2500    14.1290    23.4080   -15.3010 
  152.1250     2.4070    78.8630    16.8630    16.0560    14.1690    23.5990   -15.3750 
  152.2500     2.4150    79.6690    16.5630    15.7600    14.4910    24.1130   -15.4390 
  152.3750     2.4180    82.3710    16.2510    15.4300    14.8160    24.4570   -15.5580 
  152.5000     2.4120    83.7810    16.0060    15.1350    15.1240    24.4490   -15.7100 
  152.6250     2.4010    83.6270    15.9090    14.9800    16.1300    24.5520   -15.9650 
  152.7500     2.3920    83.7800    16.0140    15.0710    17.7090    24.8010   -16.1650 
  152.8750     2.3860    83.1200    16.6430    15.5910    18.9370    24.8750   -16.4790 
