~V
VERS. 2.00: Ver 2.00
~W
STRT.M 56.0000:
STOP.M 263.0000:
STEP.M 0.1250:
NULL. -999.2500:
UWI. DF3034:
~C
DEPT.M :
DEN.GM/CC :
GR.API :
RML.OHMM :
RI. :
RXO.OHMM :
CALI.CM :
SP.MV :
~A
# ...
  179.7500     2.1850    65.9610   315.8050   269.3200   224.6390    24.7180   -28.1250 
  179.8750     2.1700    65.2750   333.6880   280.5360   231.2350    24.7460   -27.9140 
  180.0000     2.1630    65.0730   334.0000   277.3030   229.4270    24.7680   -27.7100 
  180.1250     2.1640    65.2540   326.0420   267.1040   219.4900    24.7850   -27.5150 
  180.2500     2.1720    65.9180   324.2870   261.5440   196.3260    24.7760   -27.2770 
  180.3750     2.1810    67.7460   333.9970   265.5590   179.4020    24.6840   -27.0290 
  180.5000     2.1880    69.9460   351.7520   277.5770   186.5330    24.5180   -26.7520 
  180.6250     2.1850    69.4120   363.7880   288.1620   231.9310    24.4140   -26.5400 
  180.7500     2.1750    67.4500   353.9880   284.9090   268.1390    24.3790   -26.2820 
  180.8750     2.1650    65.0290   313.8410   259.9900   269.9650    24.4170   -26.0100 
  181.0000     2.1610    61.3040   247.6720   214.5710   249.6720    24.4670   -25.7450 
  181.1250     2.1750    59.1290   178.0090   160.8800   218.0410    24.4060   -25.4390 
  181.2500     2.2030    62.0460   122.2040   115.1340   159.5900    24.2460   -25.2200 
  181.3750     2.2400    68.1730    84.2110    82.8850    92.4450    24.1520   -25.0180 
  181.5000     2.2740    73.2640    64.6410    63.1800    52.5210    24.1290   -24.8050 
  181.6250     2.2920    76.9740    55.9680    53.6260    43.4420    24.1310   -24.6380 
  181.7500     2.2930    80.1590    52.3650    49.4110    41.0680    24.1430   -24.5120 
  181.8750     2.2830    80.8370    52.0520    48.5910    41.5830    24.1700   -24.4990 
  182.0000     2.2720    77.9500    53.6520    49.7750    43.6630    24.1830   -24.5240 
  182.1250     2.2670    73.5750    56.0280    51.8600    46.1870    24.2000   -24.6280 
  182.2500     2.2690    71.5270    58.2430    53.8430    48.6380    24.1780   -24.7250 
  182.3750     2.2710    71.7850    60.0770    55.4120    50.8360    24.1820   -24.8460 
  182.5000     2.2700    73.6290    61.7550    56.6770    53.0750    24.2590   -25.0120 
  182.6250     2.2650    75.3320    63.9450    58.1440    53.8350    24.4190   -25.1690 
  182.7500     2.2580    75.6070    67.1620    60.3060    54.1820    24.5630   -25.3260 
  182.8750     2.2540    75.0450    71.6490    63.4110    58.1180    24.6770   -25.4520 
  183.0000     2.2540    74.3250    77.2850    67.4030    64.1970    24.7270   -25.5190 
  183.1250     2.2560    73.4490    83.5760    71.9220    70.8710    24.7090   -25.5950 
  183.2500     2.2580    74.1260    89.5030    76.1940    75.6140    24.6780   -25.6220 
  183.3750     2.2570    75.9550    94.1400    79.5210    79.2390    24.6640   -25.6640 
  183.5000     2.2550    76.4980    96.6770    81.2840    82.9710    24.5250   -25.6770 
  183.6250     2.2530    73.9290    96.1630    80.7420    85.4510    24.4020   -25.7370 
  183.7500     2.2560    71.1390    93.1160    78.2350    84.7580    24.3110   -25.7290 
  183.8750     2.2620    68.9610    88.1430    74.1740    81.2390    24.2740   -25.7080 
  184.0000     2.2700    67.4550    82.1460    69.2130    75.8850    24.2410   -25.7140 
  184.1250     2.2760    69.5340    76.1120    64.1040    68.5130    24.2240   -25.6910 
  184.2500     2.2790    74.2410    70.7470    59.4630    60.7490    24.2260   -25.6800 
  184.3750     2.2800    77.4550    66.4820    55.6690    55.5210    24.2690   -25.6330 
  184.5000     2.2800    79.1200    63.7260    53.0700    54.2240    24.3890   -25.6220 
  184.6250     2.2780    81.6220    63.2930    52.3250    54.6650    24.5450   -25.5630 
  184.7500     2.2740    85.5080    65.2510    53.5040    51.3660    24.6720   -25.5890 
  184.8750     2.2680    87.7690    69.7090    56.7180    47.0990    24.7360   -25.5920 
  185.0000     2.2610    86.0250    76.3990    61.7850    48.3370    24.7280   -25.6100 
  185.1250     2.2540    80.3780    84.6690    68.2200    63.7320    24.6250   -25.5940 
  185.2500     2.2480    73.8750    92.9700    74.7830    77.4890    24.4690   -25.6190 
  185.3750     2.2420    70.8580   100.0820    80.4990    86.3850    24.5120   -25.6360 
  185.5000     2.2380    72.1350   105.1390    84.6670    91.5350    24.7080   -25.6040 
  185.6250     2.2370    73.9050   107.6340    86.8570    94.6620    24.7890   -25.5650 
  185.7500     2.2380    72.8340   108.6070    87.8400    96.5990    24.7600   -25.4670 
  185.8750     2.2420    71.0660   108.9610    88.3040    97.3530    24.6880   -25.3920 
  186.0000     2.2480    72.7940   109.4990    88.8750    96.4910    24.7940   -25.3230 
  186.1250     2.2540    75.3990   110.8090    90.0470    94.9770    24.8670   -25.2440 
  186.2500     2.2580    74.4800   112.5440    91.6310    95.5420    24.9070   -25.1710 
  186.3750     2.2600    71.7010   113.6990    92.9490    97.9250    24.9090   -25.0790 
  186.5000     2.2580    72.1810   112.6850    92.8480   101.2800    24.9090   -25.0060 
  186.6250     2.2490    75.8370   107.1130    89.4630   105.1490    24.8030   -24.8750 
  186.7500     2.2370    78.6840    97.1990    82.6770   105.1740    24.5560   -24.8140 
  186.8750     2.2270    79.3400    84.3740    73.2750   100.1430    24.2990   -24.7120 
  187.0000     2.2240    79.6430    71.1600    63.0080    91.7290    24.1670   -24.6280 
  187.1250     2.2330    80.3290    60.5070    54.2270    81.5110    24.2050   -24.5650 
  187.2500     2.2490    82.0770    53.3640    48.0900    69.1760    24.4030   -24.4870 
  187.3750     2.2660    84.2230    49.9090    44.9860    53.3700    24.6640   -24.4510 
  187.5000     2.2760    83.6500    49.7990    44.7710    38.3770    24.8250   -24.4080 
  187.6250     2.2730    81.6350    52.4770    47.0840    36.2060    24.8640   -24.4230 
  187.7500     2.2640    81.1150    55.9750    50.2740    41.4370    24.7840   -24.4020 
  187.8750     2.2580    79.9920    58.5210    52.8150    51.9450    24.6310   -24.4220 
  188.0000     2.2610    77.3000    58.4550    53.2060    62.0200    24.4180   -24.4200 
  188.1250     2.2730    77.3570    54.5160    50.1720    70.5450    24.2720   -24.4570 
  188.2500     2.2880    81.3610    48.4450    45.0260    64.4090    24.1050   -24.5060 
  188.3750     2.2960    82.8340    42.5160    39.6240    51.0620    24.1940   -24.6180 
  188.5000     2.2940    79.5660    39.0250    35.9580    41.2830    24.5370   -24.8110 
  188.6250     2.2790    79.3100    40.4770    36.3000    39.4860    24.6940   -25.0780 
  188.7500     2.2600    83.0850    47.0550    41.0710    39.4700    24.6730   -25.3720 
  188.8750     2.2430    84.2900    58.6790    50.3870    50.0360    24.5240   -25.7310 
  189.0000     2.2310    81.6560    74.2840    63.4210    68.7360    24.3780   -26.1290 
  189.1250     2.2250    78.9130    91.5130    78.1220    91.0470    24.1750   -26.5870 
  189.2500     2.2230    76.2280   106.7760    91.2140   105.5410    24.1170   -27.0290 
  189.3750     2.2220    72.7270   117.8640   100.7010   115.4880    24.1820   -27.4440 
  189.5000     2.2230    69.9470   124.7260   106.4650   114.5110    24.3200   -27.8010 
  189.6250     2.2260    70.7670   130.0560   110.6290   114.5780    24.5240   -28.1630 
  189.7500     2.2280    71.5590   137.9510   116.6210   122.5180    24.6400   -28.4510 
  189.8750     2.2270    70.0820   150.6980   126.4470   126.8110    24.5830   -28.7350 
  190.0000     2.2230    67.5330   168.6310   140.5730   132.9910    24.2630   -28.9490 
  190.1250     2.2180    67.0850   189.3990   157.3910   168.1280    24.1260   -29.1010 
  190.2500     2.2140    67.2340   207.0550   172.2880   195.9360    24.0780   -29.2210 
  190.3750     2.2140    64.4940   216.1040   181.0020   211.8010    24.0810   -29.2850 
  190.5000     2.2190    59.0100   213.2220   180.7820   224.9080    24.1850   -29.3210 
  190.6250     2.2270    56.2700   198.5520   171.0380   222.9860    24.3640   -29.2800 
  190.7500     2.2360    58.9280   180.0860   157.2990   189.8610    24.4410   -29.2540 
  190.8750     2.2420    63.8300   163.0130   143.5910   137.7610    24.4840   -29.1500 
