~V
VERS. 2.00: Ver 2.00
~W
STRT.M 60.0000:
STOP.M 277.0000:
STEP.M 0.1250:
NULL. -999.2500:
UWI. DF3048:
~C
DEPT.M :
SP.MV :
GR.API :
RML.OHMM :
RI. :
RXO.OHMM :
CALI.CM :
DEN.GM/CC :
~A
# ...
  127.5000   -17.8040    75.1940    10.5360    10.0420    11.4400    22.7350     2.1830 
  127.6250   -17.8630    76.0960    10.4370    10.1300    12.1150    22.7870     2.1840 
  127.7500   -17.9350    77.8600    10.1290    10.0150    12.3200    22.8190     2.1900 
  127.8750   -17.9470    77.5630     9.7320     9.7760    11.6450    22.8290     2.1990 
  128.0000   -17.9630    75.4790     9.3690     9.5070    10.7210    22.8290     2.2080 
  128.1250   -17.9580    75.8430     9.1420     9.2890    10.3750    22.8290     2.2160 
  128.2500   -17.9780    78.6690     9.0440     9.1380    10.1780    22.8290     2.2220 
  128.3750   -17.9840    81.6170     9.0430     9.0410     9.9060    22.8290     2.2250 
  128.5000   -17.9870    81.4330     9.0850     8.9730     9.8030    22.8400     2.2250 
  128.6250   -18.0600    79.0540     9.1090     8.9140     9.6900    22.8990     2.2210 
  128.7500   -18.1240    77.8980     9.0800     8.8530     9.7020    23.0020     2.2140 
  128.8750   -18.2200    77.2380     8.9990     8.7960     9.7470    23.0820     2.2050 
  129.0000   -18.2980    76.5540     8.8950     8.7570     9.6470    23.1370     2.1970 
  129.1250   -18.4020    76.3760     8.8150     8.7510     9.4120    23.2180     2.2010 
  129.2500   -18.4510    77.8780     8.7880     8.7740     9.2880    23.3480     2.2190 
  129.3750   -18.5680    79.1370     8.8120     8.8070     9.2610    23.4100     2.2480 
  129.5000   -18.7190    77.2870     8.8680     8.8270     9.2400    23.2310     2.2740 
  129.6250   -18.8290    73.1140     8.9300     8.8060     9.0210    23.0210     2.2810 
  129.7500   -18.9030    71.0120     8.9800     8.7480     8.8830    23.0090     2.2710 
  129.8750   -18.9760    71.9270     9.0140     8.6630     8.8200    23.0920     2.2510 
  130.0000   -19.0190    72.3450     9.0280     8.5640     8.8400    23.1620     2.2340 
  130.1250   -19.0780    71.2350     8.9970     8.4520     9.0240    23.2250     2.2240 
  130.2500   -19.1100    70.9920     8.9050     8.3180     9.3650    23.2820     2.2140 
  130.3750   -19.1280    71.8580     8.7490     8.1640     9.6310    23.3130     2.1970 
  130.5000   -19.0920    72.8140     8.5160     8.0280     9.8680    23.3280     2.1730 
  130.6250   -19.0830    73.7400     8.4500     8.0680    10.2770    23.3240     2.1560 
  130.7500   -19.0550    75.6510     8.8280     8.4690    10.8960    23.2490     2.1670 
  130.8750   -19.0050    76.2910    10.0710     9.4170    11.8200    23.0650     2.2200 
  131.0000   -18.9030    74.2650    12.1810    10.9900    13.3560    22.9380     2.3130 
  131.1250   -18.7150    70.5480    15.3730    13.0890    16.1930    23.0760     2.4200 
  131.2500   -18.5150    67.2160    18.5320    15.1490    20.9430    23.4620     2.4990 
  131.3750   -18.3240    65.3640    20.2690    16.5680    28.6560    23.8700     2.5300 
  131.5000   -18.1820    66.4320    20.0350    16.8510    33.3900    24.1730     2.5170 
  131.6250   -18.1080    67.8940    18.2110    15.7690    25.4250    23.6040     2.4730 
  131.7500   -18.1150    67.8200    15.9040    14.0510    17.3260    22.9500     2.4160 
  131.8750   -18.1590    67.5390    13.9140    12.3160    14.2480    22.4460     2.3540 
  132.0000   -18.2620    68.5970    12.6500    10.9820    13.3150    22.2730     2.2970 
  132.1250   -18.4170    71.3270    12.2380    10.2760    12.9390    22.3130     2.2530 
  132.2500   -18.6130    75.1610    12.3090    10.0180    12.5340    22.3450     2.2260 
  132.3750   -18.8170    79.0430    12.5830    10.0380    12.0590    22.3570     2.2120 
  132.5000   -18.9820    79.7380    12.8060    10.1520    11.8550    22.3640     2.2090 
  132.6250   -19.0320    74.9000    12.7700    10.1750    11.7650    22.3750     2.2120 
  132.7500   -19.0460    70.2610    12.4990    10.0460    11.6320    22.3870     2.2190 
  132.8750   -19.0190    68.7780    12.0800     9.7840    11.3490    22.4290     2.2280 
  133.0000   -18.9940    70.1120    11.5960     9.4410    11.0180    22.5230     2.2360 
  133.1250   -18.9610    72.8920    11.0730     9.0470    10.8270    22.7580     2.2420 
  133.2500   -18.8720    76.1130    10.5270     8.6320    10.7600    23.0240     2.2480 
  133.3750   -18.7420    78.0320    10.0080     8.2380    10.6280    23.3240     2.2510 
  133.5000   -18.5790    77.8240     9.6170     7.9360    10.2330    23.4740     2.2480 
  133.6250   -18.4570    78.1580     9.5290     7.8560     9.4930    23.5300     2.2300 
  133.7500   -18.3200    78.4390     9.7760     8.0320     9.2070    23.6610     2.2000 
  133.8750   -18.2330    76.5380    10.3390     8.4680    10.1120    23.8580     2.1630 
  134.0000   -18.1950    72.1850    11.1130     9.0990    12.6790    23.9960     2.1320 
  134.1250   -18.1850    68.7330    11.8860     9.7730    15.7540    23.8800     2.1210 
  134.2500   -18.1700    68.9050    12.3920    10.2680    16.1920    23.5510     2.1290 
  134.3750   -18.1180    71.2060    12.4260    10.4030    13.2250    23.3920     2.1540 
  134.5000   -18.0050    73.3500    11.8930    10.0760    11.2790    23.4130     2.1880 
  134.6250   -17.7520    74.1960    10.8220     9.2750    11.0260    23.4440     2.2240 
  134.7500   -17.3520    78.4610     9.5700     8.2680    11.0520    23.5060     2.2570 
  134.8750   -16.8060    85.9320     8.4190     7.2750     9.8350    23.6640     2.2830 
  135.0000   -16.1250    91.4280     7.5790     6.4720     8.0010    23.9940     2.2980 
  135.1250   -15.3950    93.4940     7.2160     6.0070     6.7760    23.9940     2.3010 
  135.2500   -14.7190    94.5380     7.2260     5.8380     6.6470    24.0030     2.2980 
  135.3750   -14.1390    93.7470     7.4930     5.9040     6.7100    23.9560     2.2940 
  135.5000   -13.6470    89.7240     7.8580     6.1100     6.8130    23.9080     2.2930 
  135.6250   -13.3090    87.7000     8.1210     6.3230     7.2170    23.9030     2.2950 
  135.7500   -13.0460    89.8240     8.1730     6.4260     7.3840    23.8970     2.2990 
  135.8750   -12.8840    90.6670     7.9850     6.3660     7.3090    23.9250     2.3040 
  136.0000   -12.7930    87.7900     7.5970     6.1380     7.2450    24.0080     2.3090 
  136.1250   -12.6920    85.3430     7.0870     5.7700     6.9050    24.1530     2.3170 
  136.2500   -12.6250    85.9730     6.5970     5.3740     6.4740    24.2290     2.3260 
  136.3750   -12.5760    88.9420     6.2550     5.0560     6.1380    24.2770     2.3320 
  136.5000   -12.6530    93.2930     6.1910     4.9250     5.9230    24.2900     2.3320 
  136.6250   -12.8220    96.0470     6.5720     5.1260     5.8110    24.2950     2.3210 
  136.7500   -13.2140    93.5460     7.3440     5.6390     6.0870    24.3620     2.3030 
  136.8750   -13.7800    86.3930     8.3950     6.4070     6.9940    24.4040     2.2830 
  137.0000   -14.5260    79.9070     9.5210     7.2950     8.3200    24.2610     2.2650 
  137.1250   -15.4530    76.1870    10.3960     8.0680     9.9690    23.7790     2.2530 
  137.2500   -16.3970    73.3680    10.8250     8.5390    11.0450    23.4470     2.2440 
  137.3750   -17.3190    71.2100    10.7530     8.6220    10.6510    23.1940     2.2350 
  137.5000   -18.1090    70.7240    10.2660     8.3460    10.0420    23.0830     2.2230 
  137.6250   -18.7700    74.5560     9.5190     7.8060     9.7880    23.0920     2.2060 
  137.7500   -19.2080    79.7220     8.7660     7.2140     9.5850    23.1320     2.1880 
  137.8750   -19.4530    83.1150     8.2280     6.7480     9.1280    23.2150     2.1820 
  138.0000   -19.4580    83.3050     8.1800     6.6160     8.7400    23.3810     2.2040 
  138.1250   -19.3080    81.9180     9.0550     7.1610     8.8480    23.6890     2.2760 
  138.2500   -19.0520    79.8910    10.8130     8.4150     9.5890    23.9870     2.3850 
  138.3750   -18.7770    76.7740    13.1830    10.2550    11.5040    23.9580     2.4960 
  138.5000   -18.5360    74.7840    15.5440    12.2780    14.7710    23.8160     2.5630 
  138.6250   -18.4550    73.6270    16.8200    13.6900    20.5730    23.6660     2.5380 
