~V
VERS. 2.00: Ver 2.00
~W
STRT.M 125.0000:
STOP.M 256.0000:
STEP.M 0.1250:
NULL. -999.2500:
UWI. DF3030:
~C
DEPT.M :
GR.API :
RML.OHMM :
RI. :
RXO.OHMM :
CALI.CM :
DEN.GM/CC :
SP.MV :
~A
# ...
  248.7500    82.5930    13.4310    10.5810    10.6500    24.2380     2.4610   -14.5020 
  248.8750    82.5930    13.0440    10.2840    10.8310    24.2380     2.4450   -14.5190 
  249.0000    82.5930    12.7340    10.0210    10.8900    24.2380     2.4320   -14.5630 
  249.1250    82.5930    12.5580     9.8460    10.5830    24.2380     2.4360   -14.5600 
  249.2500    82.5930    12.4860     9.7500     9.8140    24.2380     2.4570   -14.5720 
  249.3750    82.5930    12.4770     9.7100     9.0370    24.2380     2.4880   -14.5800 
  249.5000    82.5930    12.4900     9.7020     8.7570    24.2390     2.5130   -14.6000 
  249.6250    82.5930    12.5000     9.7030     8.9960    24.2410     2.5150   -14.5370 
  249.7500    82.5930    12.5020     9.7040     9.3550    24.2420     2.4960   -14.5540 
  249.8750    82.5930    12.5020     9.7040     9.3000    24.2410     2.4710   -14.6210 
  250.0000    82.5930    12.5050     9.7030     8.8700    24.2420     2.4550   -14.6000 
  250.1250    82.5930    12.5160     9.7020     8.4920    24.2400     2.4560   -14.6030 
  250.2500    82.5930    12.5330     9.7010     8.2620    24.2390     2.4670   -14.6420 
  250.3750    82.5930    12.5530     9.7020     8.2000    24.2320     2.4760   -14.7090 
  250.5000    82.5930    12.5690     9.7030     8.2870    24.2120     2.4800   -14.7830 
  250.6250    82.5930    12.5730     9.7040     8.5010    24.1720     2.4800   -14.8180 
  250.7500    82.5930    12.5670     9.7060     8.8020    24.1550     2.4840   -14.8350 
  250.8750    82.5930    12.5570     9.7070     9.1390    24.1500     2.4950   -14.9110 
  251.0000    82.5930    12.5490     9.7070     9.6760    24.1500     2.5080   -15.0820 
  251.1250    82.5930    12.5490     9.7070    10.6530    24.1490     2.5160   -15.1570 
  251.2500    82.5930    12.5490     9.7070    11.7190    24.1370     2.5160   -15.1150 
  251.3750    82.5930    12.5490     9.7070    12.3790    24.1090     2.5100   -15.0280 
  251.5000    82.5930    12.5490     9.7070    12.3550    24.0890     2.5010   -14.9230 
  251.6250    82.5930    12.5490     9.7070    11.5620    24.0950     2.4920   -14.8880 
  251.7500    82.5930    12.5490     9.7070    11.0760    24.1110     2.4840   -14.9260 
  251.8750    82.5930    12.5490     9.7070    12.2340    24.2010     2.4790   -14.8320 
  252.0000    82.5930    12.5490     9.7070    14.2990    24.2070     2.4790   -14.7400 
  252.1250    82.5930    12.5490     9.7070    16.1550    24.1690     2.4820   -14.7290 
  252.2500    82.5930    12.5490     9.7070    16.4060    24.1180     2.4850   -14.7370 
  252.3750    82.5930    12.5490     9.7070    15.0910    24.0890     2.4870   -14.7220 
  252.5000    82.5930    12.5490     9.7070    13.1670    24.0820     2.4860   -14.7030 
  252.6250    82.5930    12.5490     9.7070    12.0770    24.0820     2.4860   -14.7600 
  252.7500    82.5930    12.5490     9.7070    12.1420    24.0760     2.4880   -14.7340 
  252.8750    82.5930    12.5490     9.7070    13.0060    24.0570     2.4930   -14.7670 
  253.0000    82.5930    12.5490     9.7070    14.1160    24.0160     2.5010   -14.7520 
  253.1250    82.5930    12.5490     9.7070    14.3900    23.9860     2.5130   -14.6730 
  253.2500    82.5930    12.5490     9.7070    14.5290    23.9200     2.5260   -14.6610 
  253.3750    82.5930    12.5490     9.7070    15.1400    23.5540     2.5370   -14.6850 
  253.5000    82.5930    12.5490     9.7070    15.1450    22.6500     2.5450   -14.7220 
  253.6250    82.5930    12.5490     9.7070    13.6980    21.5160     2.5420   -14.7520 
  253.7500    82.5930    12.5490     9.7070    11.2840    20.7330     2.5270   -14.8350 
  253.8750    82.5930    12.5490     9.7070     8.9450    19.9560     2.5000   -14.8800 
  254.0000    82.5930    12.5490     9.7070     7.3240    18.4260     2.4680   -14.9840 
  254.1250    82.5930    12.5490     9.7070     6.2240    16.2770     2.4380   -15.1240 
  254.2500    82.5930    12.5490     9.7070     5.6370    14.8630     2.4130   -15.2620 
  254.3750    82.5930    12.5490     9.7070     5.4370    14.4020     2.3940   -15.3400 
  254.5000    82.5930    12.5490     9.7070     5.4180    14.3890     2.3800   -15.4420 
  254.6250    82.5930    12.5490     9.7070     5.4170    14.3780     2.3700   -15.4970 
  254.7500    82.5930    12.5490     9.7070     5.4170    14.3720     2.3630   -15.4600 
  254.8750    82.5930    12.5490     9.7070     5.4180    14.3700     2.3590   -15.4970 
  255.0000    82.5930    12.5490     9.7070     5.4190    14.3680     2.3570   -15.5090 
  255.1250    82.5930    12.5490     9.7070     5.4200    14.3610     2.3580   -15.5090 
  255.2500    82.5930    12.5490     9.7070     5.4200    14.3540     2.3600  -999.2500 
  255.3750    82.5930    12.5490     9.7070     5.4190    14.3510     2.3620  -999.2500 
  255.5000    82.5930    12.5490     9.7070     5.4180    14.3500     2.3640  -999.2500 
  255.6250    82.5930    12.5490     9.7070     5.4170    14.3450     2.3650  -999.2500 
  255.7500    82.5930    12.5490     9.7070     5.4180    14.3330     2.3650  -999.2500 
  255.8750    82.5930    12.5040     9.6720     5.4190    14.3300     2.3640  -999.2500 
  256.0000  -999.2500  -999.2500  -999.2500  -999.2500  -999.2500     2.3630  -999.2500 
