~V
VERS. 2.00: Ver 2.00
~W
STRT.M 60.0000:
STOP.M 250.0000:
STEP.M 0.1250:
NULL. -999.2500:
UWI. DF3018:
~C
DEPT.M :
DEN.GM/CC :
GR.API :
RML.OHMM :
RI. :
RXO.OHMM :
CALI.CM :
SP.MV :
~A
# ...
   93.7500  -999.2500    70.7580    11.1010     8.9140    10.8430    23.3590   -21.3870 
   93.8750  -999.2500    72.8330    10.7570     8.6430    10.6860    23.3920   -20.9530 
   94.0000  -999.2500    75.2660    10.3500     8.3130    10.4380    23.4200   -20.5500 
   94.1250  -999.2500    78.3150    10.0050     8.0020    10.2590    23.4290   -20.2470 
   94.2500  -999.2500    81.2470     9.8100     7.7780     9.7650    23.3770   -20.0440 
   94.3750  -999.2500    82.4760     9.7890     7.6780     9.1090    23.2470   -19.9510 
   94.5000  -999.2500    79.9580     9.9140     7.7010     9.0870    23.0940   -20.0010 
   94.6250  -999.2500    75.8450    10.1170     7.8210     9.3460    23.0230   -20.2100 
   94.7500  -999.2500    74.7780    10.2950     7.9610     9.2850    22.9790   -20.5020 
   94.8750  -999.2500    75.5330    10.3910     8.0690     9.0930    22.9140   -20.8390 
   95.0000  -999.2500    74.3970    10.3790     8.1090     9.2950    22.8650   -21.1850 
   95.1250  -999.2500    70.6650    10.2680     8.0620     9.4060    22.8680   -21.4870 
   95.2500  -999.2500    68.6420    10.1280     7.9680     9.3780    22.8980   -21.7350 
   95.3750  -999.2500    70.8910    10.0140     7.8680     9.3470    22.9130   -21.9220 
   95.5000  -999.2500    75.0720     9.9740     7.8040     9.4220    22.9180   -22.0460 
   95.6250  -999.2500    75.8460    10.0530     7.8180     9.4660    22.9040   -22.1100 
   95.7500  -999.2500    74.8730    10.2240     7.9050     9.4410    22.8570   -22.1500 
   95.8750  -999.2500    74.3640    10.4440     8.0470     9.4300    22.7720   -22.1480 
   96.0000  -999.2500    74.4460    10.6640     8.2120     9.6530    22.6770   -22.1250 
   96.1250  -999.2500    74.1480    10.8320     8.3690    10.1080    22.6080   -22.0920 
   96.2500  -999.2500    73.2720    10.9470     8.5030    10.2530    22.6010   -22.0310 
   96.3750  -999.2500    70.6870    11.0280     8.6190    10.1660    22.6700   -21.9280 
   96.5000  -999.2500    67.5840    11.1000     8.7280    10.1490    22.7980   -21.7470 
   96.6250  -999.2500    67.4730    11.1760     8.8350    10.4010    22.9160   -21.4390 
   96.7500  -999.2500    70.0410    11.2290     8.9210    10.7240    22.9880   -21.0360 
   96.8750  -999.2500    72.0850    11.2120     8.9510    10.8570    23.0160   -20.5140 
   97.0000  -999.2500    73.4660    11.0850     8.8940    10.7950    23.0210   -19.8300 
   97.1250  -999.2500    76.0900    10.8250     8.7230    10.6060    23.0180   -19.0230 
   97.2500  -999.2500    80.7080    10.4970     8.4770    10.0910    23.0110   -18.1490 
   97.3750  -999.2500    86.0350    10.1530     8.1880     9.1120    22.9980   -17.2420 
   97.5000  -999.2500    88.8590     9.8170     7.8830     7.9960    22.9740   -16.3330 
   97.6250  -999.2500    87.5910     9.4750     7.5700     7.3630    22.9310   -15.4560 
   97.7500  -999.2500    85.8540     9.1050     7.2510     6.9410    22.9070   -14.6240 
   97.8750  -999.2500    87.0230     8.7150     6.9390     6.6570    22.9060   -13.9210 
   98.0000  -999.2500    92.2520     8.3500     6.6560     6.3600    22.9520   -13.4400 
   98.1250  -999.2500    97.0730     8.1020     6.4550     5.9210    23.0750   -13.1620 
   98.2500  -999.2500    97.5670     8.0280     6.3710     5.5530    23.1110   -13.0310 
   98.3750  -999.2500    95.5160     8.1590     6.4300     5.6070    23.0470   -12.9910 
   98.5000  -999.2500    94.0830     8.4860     6.6340     5.9340    23.0310   -13.0610 
   98.6250  -999.2500    92.9170     8.9370     6.9420     6.3450    23.1060   -13.2370 
   98.7500  -999.2500    89.7710     9.3240     7.2250     6.8640    23.2190   -13.4800 
   98.8750  -999.2500    86.3820     9.4600     7.3530     7.5510    23.4180   -13.7310 
   99.0000  -999.2500    84.9680     9.1990     7.2170     8.1350    23.5830   -13.9280 
   99.1250  -999.2500    86.3560     8.5070     6.7740     7.6560    23.6330   -14.0750 
   99.2500  -999.2500    88.1190     7.7350     6.2410     7.3630    23.6400   -14.1970 
   99.3750  -999.2500    88.9470     7.2820     5.8820     7.4390    23.7270   -14.3690 
   99.5000  -999.2500    90.2850     7.5270     5.9800     7.5990    23.9640   -14.6120 
   99.6250  -999.2500    91.1160     8.8470     6.8780     7.7850    24.2450   -15.0070 
   99.7500  -999.2500    86.5620    10.9730     8.4850     9.3590    24.3570   -15.5150 
   99.8750  -999.2500    78.3420    13.4600    10.5620    12.6480    24.3060   -16.1650 
  100.0000  -999.2500    73.2930    15.6180    12.6210    14.6700    24.2210   -16.9620 
  100.1250  -999.2500    73.7720    16.4700    13.8590    14.3810    24.1540   -17.8500 
  100.2500  -999.2500    74.2290    15.8940    13.9520    13.3880    24.0310   -18.7800 
  100.3750  -999.2500    72.6150    14.3320    13.0500    11.8860    23.7980   -19.6790 
  100.5000  -999.2500    71.4590    12.5860    11.6980    11.1120    23.4970   -20.4890 
  100.6250  -999.2500    72.2610    11.3710    10.4970    10.8560    23.3090   -21.1030 
  100.7500  -999.2500    73.1880    10.7600     9.6860    11.0250    23.2170   -21.5640 
  100.8750  -999.2500    73.0840    10.6390     9.2730    10.8780    23.1870   -21.8690 
  101.0000  -999.2500    72.3970    10.8210     9.1680    10.6450    23.1860   -22.0150 
  101.1250  -999.2500    71.3190    11.0960     9.2470    10.5850    23.2010   -22.0440 
  101.2500  -999.2500    70.5440    11.2720     9.3360    10.6160    23.2070   -21.9970 
  101.3750  -999.2500    71.1480    11.2770     9.3540    10.6220    23.1960   -21.9360 
  101.5000  -999.2500    72.9840    11.1160     9.2730    10.4100    23.1630   -21.8630 
  101.6250  -999.2500    73.7320    10.8610     9.1180    10.0350    23.1500   -21.7670 
  101.7500  -999.2500    72.6310    10.6340     8.9650     9.7970    23.1700   -21.6580 
  101.8750  -999.2500    71.3120    10.5190     8.8750     9.8020    23.2070   -21.5320 
  102.0000  -999.2500    71.0150    10.5560     8.8820    10.0870    23.2480   -21.4170 
  102.1250  -999.2500    72.4350    10.7690     9.0140    10.5870    23.3190   -21.3030 
  102.2500  -999.2500    73.9750    11.0890     9.2270    10.9740    23.3810   -21.1670 
  102.3750  -999.2500    73.7910    11.4500     9.4740    11.2360    23.4030   -20.9810 
  102.5000  -999.2500    72.3800    11.7610     9.6870    11.4170    23.4100   -20.7760 
  102.6250  -999.2500    71.6250    11.8720     9.7510    11.5210    23.4220   -20.5470 
  102.7500  -999.2500    71.6830    11.7150     9.6090    11.4080    23.4020   -20.3370 
  102.8750  -999.2500    72.9010    11.2780     9.2450    11.0920    23.3470   -20.1170 
  103.0000  -999.2500    74.6480    10.6510     8.7180    10.6280    23.2820   -19.8970 
  103.1250  -999.2500    76.7040    10.0280     8.1650    10.0900    23.2250   -19.7710 
  103.2500  -999.2500    77.0590     9.6030     7.7420     9.3510    23.2010   -19.7300 
  103.3750  -999.2500    75.3140     9.4750     7.5340     8.6130    23.1870   -19.7710 
  103.5000  -999.2500    72.1930     9.6430     7.5640     8.3040    23.1640   -19.8240 
  103.6250  -999.2500    69.4240    10.0440     7.8250     9.3840    23.1880   -19.9050 
  103.7500  -999.2500    68.7100    10.5150     8.2040    10.4550    23.2600   -19.9580 
  103.8750  -999.2500    69.3150    10.9650     8.6230    11.1820    23.3600   -20.0160 
  104.0000  -999.2500    70.1430    11.3430     9.0190    11.5370    23.4630   -20.0500 
  104.1250  -999.2500    71.3630    11.6250     9.3410    11.5670    23.5750   -19.9450 
  104.2500  -999.2500    72.1010    11.8400     9.5870    11.3530    23.6820   -19.7810 
  104.3750  -999.2500    73.1670    11.9880     9.7480    11.0650    23.7610   -19.5680 
  104.5000  -999.2500    74.7540    12.0360     9.8030    10.7880    23.8090   -19.3480 
  104.6250  -999.2500    75.5770    11.9170     9.7080    10.7110    23.7750   -19.1440 
  104.7500  -999.2500    73.3630    11.6420     9.4840    10.7840    23.6460   -18.9730 
  104.8750  -999.2500    69.9270    11.2490     9.1620    10.8160    23.4430   -18.8060 
