~V
VERS. 2.00: Ver 2.00
~W
STRT.M 59.0000:
STOP.M 281.0000:
STEP.M 0.1250:
NULL. -999.2500:
UWI. DF3005:
~C
DEPT.M :
DEN.GM/CC :
SP.MV :
AC.US/MT :
GR.API :
CALI.CM :
RXO.OHMM :
RI. :
RML.OHMM :
~A
# ...
  239.0000     2.3840   -31.4160   317.6530    79.8150    23.5400    69.2410    87.2430    90.2440 
  239.1250     2.3590   -31.3250   321.6030    77.4560    23.5410    59.8910    83.9290    88.2320 
  239.2500     2.3370   -31.1930   328.6660    75.7920    23.5610    53.9980    78.7840    83.9010 
  239.3750     2.3160   -31.0070   340.8500    73.7340    23.7140    52.0750    72.5380    77.9210 
  239.5000     2.2930   -30.8050   354.2080    71.1440    24.0800    52.1830    65.9870    71.2460 
  239.6250     2.2810   -30.6230   362.8590    70.6040    24.5300    53.6610    60.0430    64.9870 
  239.7500     2.2900   -30.4510   361.1200    73.7720    24.7980    54.2130    55.2160    59.8380 
  239.8750     2.3140   -30.2900   351.9700    78.4090    24.8330    51.1670    51.7810    56.1430 
  240.0000     2.3340   -30.1270   341.9750    81.3610    24.7670    45.6340    49.8600    54.0450 
  240.1250     2.3340   -29.9100   340.0070    78.4730    24.7370    49.1960    49.7090    53.7960 
  240.2500     2.3180   -29.6440   353.4280    72.3720    24.7650    53.6800    50.9930    55.0170 
  240.3750     2.2950   -29.3820   373.9320    67.2170    24.8360    58.0950    53.6140    57.5960 
  240.5000     2.2730   -29.1800   390.9420    65.0110    24.9270    63.2210    57.4090    61.4350 
  240.6250     2.2630   -29.0600   397.9480    64.1540    24.9680    65.6170    62.0370    66.4230 
  240.7500     2.2620   -28.9820   395.2620    63.5130    24.9340    68.5730    66.2320    71.4550 
  240.8750     2.2630   -28.9130   391.3220    63.2650    24.8740    73.5780    67.9750    74.5800 
  241.0000     2.2600   -28.8050   390.7910    63.5160    24.8340    81.0620    65.0660    73.3120 
  241.1250     2.2560   -28.6120   394.2600    64.2000    24.7770    83.3680    56.8300    65.9640 
  241.2500     2.2560   -28.3490   396.7820    66.8840    24.6540    74.0010    47.3940    56.0990 
  241.3750     2.2610   -28.0500   394.5410    72.2470    24.5160    52.2270    39.9650    47.2250 
  241.5000     2.2680   -27.7660   390.4460    77.3410    24.4480    31.2400    36.2090    41.7300 
  241.6250     2.2670   -27.5630   390.2230    78.7660    24.4920    27.3400    37.0250    41.3060 
  241.7500     2.2540   -27.4530   396.3240    77.0520    24.5840    51.2120    41.0000    44.8810 
  241.8750     2.2390   -27.3810   402.8610    73.1660    24.5680    86.6900    46.5500    50.9770 
  242.0000     2.2310   -27.2470   405.7290    68.7790    24.3370   106.9090    51.0550    56.8350 
  242.1250     2.2390   -26.9990   404.6680    67.2960    23.9970    99.3530    50.8710    58.2300 
  242.2500     2.2520   -26.7140   401.9380    68.9030    23.7760    74.7370    46.6440    54.8580 
  242.3750     2.2630   -26.4580   399.9080    71.0090    23.7020    50.0230    41.0910    49.1000 
  242.5000     2.2680   -26.2440   399.3130    71.4630    23.6940    39.3700    36.6350    43.7910 
  242.6250     2.2670   -26.0520   399.7600    69.9420    23.7150    40.4560    34.2000    40.4900 
  242.7500     2.2620   -25.8840   399.6510    68.1370    23.7490    41.7210    32.7870    38.4340 
  242.8750     2.2600   -25.7340   397.8530    68.5480    23.7670    41.6830    31.6370    36.8020 
  243.0000     2.2670   -25.5950   395.0530    71.9510    23.7850    41.9000    30.4200    35.1300 
  243.1250     2.2800   -25.5000   393.1460    74.1910    23.7980    36.1670    29.4640    33.6010 
  243.2500     2.2790   -25.4490   393.6520    74.5700    23.7910    29.0860    29.4050    32.8780 
  243.3750     2.2580   -25.4060   395.0830    74.5930    23.8950    28.1590    30.7460    33.6370 
  243.5000     2.2290   -25.3350   395.2390    74.4040    24.2240    36.2210    33.6510    36.2480 
  243.6250     2.2130   -25.2290   392.7850    72.2510    24.6440    46.8370    37.9870    40.7530 
  243.7500     2.2140   -25.0760   388.8950    70.3080    24.8790    56.0970    42.6820    45.9450 
  243.8750     2.2290   -24.8720   387.2420    72.2290    24.8910    61.2310    46.7320    50.5970 
  244.0000     2.2510   -24.6690   389.4910    75.1040    24.8110    60.0280    49.4970    53.7860 
  244.1250     2.2650   -24.5340   393.4860    73.4970    24.7550    53.2740    51.1640    55.4320 
  244.2500     2.2650   -24.4340   394.7840    68.1470    24.7650    54.6140    52.8290    56.7350 
  244.3750     2.2490   -24.3270   393.5980    65.3740    24.8110    60.0370    54.9180    58.3350 
  244.5000     2.2190   -24.2090   393.8760    68.8170    24.8240    66.6260    57.1070    60.1550 
  244.6250     2.1790   -24.0710   399.5500    73.9590    24.8020    71.5400    58.2740    61.2760 
  244.7500     2.1530   -23.9290   408.0010    74.1830    24.8130    70.2870    57.7260    60.9050 
  244.8750     2.1610   -23.8310   406.3970    69.8290    24.8380    65.0560    55.5240    58.8810 
  245.0000     2.1980   -23.7950   390.2880    65.8400    24.8120    62.6720    52.5480    55.8510 
  245.1250     2.2400   -23.7580   376.1890    66.6760    24.7290    55.7750    50.1950    53.0830 
  245.2500     2.2650   -23.6520   380.4130    69.4010    24.6570    52.1320    49.1810    51.4930 
  245.3750     2.2700   -23.4870   390.3560    70.0330    24.6190    51.6570    49.5120    51.2890 
  245.5000     2.2600   -23.3030   393.1540    68.0290    24.6110    53.8450    50.7470    52.1930 
  245.6250     2.2500   -23.1330   391.0280    67.5820    24.6270    59.9420    52.3620    53.8110 
  245.7500     2.2530   -22.9970   395.3590    69.5940    24.6360    62.2300    53.9300    55.5900 
  245.8750     2.2720   -22.8740   401.0960    70.7530    24.6170    56.3710    55.2480    57.1260 
  246.0000     2.3060   -22.7020   395.5950    69.3850    24.6170    49.6150    56.1200    58.0460 
  246.1250     2.3560   -22.4270   369.9670    68.1020    24.7020    55.9220    56.1440    57.9340 
  246.2500     2.4060   -22.0960   331.5930    69.8750    24.7770    71.8490    55.3020    56.9270 
  246.3750     2.4350   -21.7760   306.0990    72.7120    24.7420    75.0890    53.9000    55.3190 
  246.5000     2.4320   -21.5020   300.3460    73.8690    24.6140    64.3880    52.6260    53.6830 
  246.6250     2.4140   -21.2620   301.3340    75.1710    24.4750    50.5400    52.3290    52.7720 
  246.7500     2.4140   -21.0270   291.0020    79.5620    24.3430    57.5680    53.1020    52.8350 
  246.8750     2.4350   -20.7740   272.2540    84.7410    24.2490    68.2310    54.7650    53.9110 
  247.0000     2.4660   -20.4890   256.4480    85.6460    24.2840    74.4400    56.9780    55.8700 
  247.1250     2.4910   -20.1540   248.9040    82.1500    24.4330    65.2660    59.5460    58.6390 
  247.2500     2.5160   -19.7720   245.7700    77.7580    24.5200    52.5550    62.6800    62.2220 
  247.3750     2.5430   -19.3580   240.4650    73.1890    24.4840    51.1660    67.0800    67.1710 
  247.5000     2.5670   -18.9440   231.4000    68.8300    24.4070    65.8230    73.5130    74.1650 
  247.6250     2.5750   -18.5990   221.3820    67.5250    24.3590    84.1210    81.9780    82.2270 
  247.7500     2.5670   -18.3500   209.5390    67.9300    24.3230   114.3290    88.2000    89.5040 
  247.8750     2.5500   -18.1620   189.5100    67.7880    24.3070   138.6930    84.6780    89.3520 
  248.0000     2.5290   -17.9700   169.9170    69.1890    24.3320   125.4070    67.9680    77.3500 
  248.1250     2.4920   -17.7470   175.0390    74.3070    24.3490   103.7220    46.3390    56.4130 
  248.2500     2.4380   -17.5450   212.7900    77.3050    24.3070    74.7580    29.5190    36.9320 
  248.3750     2.3840   -17.4050   247.2900    74.4740    24.2040    43.6580    18.6610    23.0860 
  248.5000     2.3510   -17.3250   258.4900    68.9650    24.0800    21.7690    12.2840    14.7740 
  248.6250     2.3460   -17.2890   259.6290    64.6420    24.0130    26.0990     9.0730    10.6180 
  248.7500     2.3540   -17.2470   280.4610    62.2120    24.0290    25.3370     7.4150     8.3540 
  248.8750     2.3640   -17.1550   318.9790    62.3720    24.0890    13.7070     6.7080     7.1760 
