~V
VERS. 2.00: Ver 2.00
~W
STRT.M 64.0000:
STOP.M 278.0000:
STEP.M 0.1250:
NULL. -999.2500:
UWI. DF3056:
~C
DEPT.M :
SP.MV :
GR.API :
CALI.CM :
RXO.OHMM :
RI. :
RML.OHMM :
DEN.GM/CC :
~A
# ...
  255.2500   -16.0400    49.9130    24.1560     8.5620     9.3940    11.1360     2.4650 
  255.3750   -16.0930    52.7300    23.9340     8.1350     9.5300    11.2730     2.4510 
  255.5000   -16.1350    55.8220    23.8360     8.6000     9.6380    11.3840     2.4450 
  255.6250   -16.1500    55.2310    23.9590     9.2490     9.7250    11.4800     2.4500 
  255.7500   -16.1160    52.1260    24.2660     9.6000     9.7940    11.5520     2.4550 
  255.8750   -16.0320    48.9160    24.3790    10.0800     9.8470    11.6020     2.4510 
  256.0000   -15.9210    47.5300    24.4000    11.1800     9.8830    11.6390     2.4440 
  256.1250   -15.7820    49.8460    24.4210    11.7190     9.8770    11.6230     2.4430 
  256.2500   -15.6370    52.3340    24.4260    12.6790     9.8170    11.5330     2.4510 
  256.3750   -15.4880    52.7880    24.5410    15.0410     9.7090    11.3890     2.4630 
  256.5000   -15.3290    51.1930    24.5700    15.9610     9.5940    11.2510     2.4690 
  256.6250   -15.1620    49.2130    24.4820    12.9510     9.5000    11.1580     2.4560 
  256.7500   -14.9940    48.2580    24.4610    10.1360     9.4540    11.1340     2.4220 
  256.8750   -14.8260    49.5320    24.4260    10.0190     9.4700    11.1930     2.3970 
  257.0000   -14.6520    52.7430    24.4250    10.9550     9.5390    11.3130     2.4020 
  257.1250   -14.4920    53.5280    24.4680    11.8590     9.6520    11.4840     2.4330 
  257.2500   -14.3230    53.5540    24.5870    12.1340     9.7800    11.6670     2.4570 
  257.3750   -14.1440    54.9380    24.5980    12.2490     9.8820    11.8090     2.4570 
  257.5000   -13.9870    55.4660    24.5750    12.4430     9.9150    11.8580     2.4380 
  257.6250   -13.8580    51.6290    24.4220    11.9340     9.8580    11.7830     2.4160 
  257.7500   -13.7370    49.6080    24.4030    11.2330     9.7340    11.6420     2.4020 
  257.8750   -13.6400    53.2480    24.4280    11.8140     9.5740    11.4770     2.4050 
  258.0000   -13.5730    58.3570    24.5950    13.6430     9.4240    11.3350     2.4270 
  258.1250   -13.5360    58.4180    24.7070    13.5450     9.3500    11.2950     2.4560 
  258.2500   -13.5210    55.9160    24.7120    12.1600     9.3850    11.3950     2.4810 
  258.3750   -13.5240    54.6790    24.6990    11.0940     9.5530    11.6520     2.5060 
  258.5000   -13.5050    56.6240    24.6960    10.4400     9.8510    12.0470     2.5390 
  258.6250   -13.4760    59.2160    24.6970     9.7950    10.2260    12.4930     2.5690 
  258.7500   -13.4510    58.8230    24.7020     9.1420    10.5840    12.8680     2.5780 
  258.8750   -13.4200    57.1460    24.7350     8.6270    10.8440    13.0870     2.5730 
  259.0000   -13.3710    56.5390    24.7520     8.2160    10.9420    13.1020     2.5640 
  259.1250   -13.2580    55.2600    24.7540     8.0180    10.8320    12.8790     2.5560 
  259.2500   -13.1150    52.1030    24.7320     7.6640    10.5700    12.5010     2.5420 
  259.3750   -12.9760    50.0050    24.7040     7.5050    10.2090    12.0610     2.5180 
  259.5000   -12.8710    52.3760    24.7080     7.3110     9.8130    11.6180     2.4850 
  259.6250   -12.7900    57.1750    24.7620     6.8720     9.4470    11.2400     2.4490 
  259.7500   -12.7310    58.8180    24.7650     6.3460     9.1440    10.9520     2.4280 
  259.8750   -12.6940    57.3770    24.7670     6.1010     8.9230    10.7640     2.4260 
  260.0000   -12.6820    56.0080    24.7460     6.5280     8.7910    10.6670     2.4380 
  260.1250   -12.7370    55.7950    24.8670     9.3470     8.7770    10.7100     2.4490 
  260.2500   -12.8400    54.2280    24.7460    10.7120     8.8470    10.8330     2.4500 
  260.3750   -12.9760    51.8130    24.7790    10.3020     8.9760    11.0050     2.4450 
  260.5000   -13.1150    51.9540    24.7940     9.3630     9.1390    11.1990     2.4490 
  260.6250   -13.2640    55.1340    24.7780     8.2900     9.2830    11.3860     2.4610 
  260.7500   -13.4230    57.5080    24.7410     7.3270     9.3730    11.4960     2.4760 
  260.8750   -13.5590    58.2940    24.7780     6.8470     9.3870    11.5160     2.4860 
  261.0000   -13.6580    58.9970    24.7930     6.5380     9.3190    11.4490     2.4890 
  261.1250   -13.6730    59.0070    24.7880     6.5800     9.1960    11.3350     2.4800 
  261.2500   -13.6460    57.0160    24.8270     7.0770     9.0780    11.2420     2.4610 
  261.3750   -13.5860    54.0090    24.7970     7.5140     9.0040    11.2210     2.4530 
  261.5000   -13.5480    53.7320    24.8010     7.9880     8.9940    11.2630     2.4620 
  261.6250   -13.5500    57.4110    24.7610     9.5900     9.0610    11.3830     2.4740 
  261.7500   -13.5690    59.5030    24.7720    11.4280     9.1790    11.5430     2.4760 
  261.8750   -13.5940    58.3730    24.8720    11.9160     9.3110    11.7050     2.4780 
  262.0000   -13.5850    57.5090    24.7590    11.0830     9.4260    11.8470     2.4860 
  262.1250   -13.5690    58.7490    24.8010    10.5310     9.5000    11.9600     2.4960 
  262.2500   -13.5540    59.0420    24.8070     9.7200     9.5460    12.0460     2.4980 
  262.3750   -13.5480    57.8230    24.9110     9.6190     9.5810    12.1230     2.4940 
  262.5000   -13.5480    58.0690    24.9410    10.3400     9.6380    12.2150     2.4870 
  262.6250   -13.5360    58.2020    24.8440    11.8770     9.7120    12.3300     2.4760 
  262.7500   -13.4780    55.5200    24.8760    13.3920     9.7940    12.4470     2.4640 
  262.8750   -13.3610    52.7660    24.7930    13.1570     9.8690    12.5400     2.4570 
  263.0000   -13.2490    52.7270    24.8080    11.5530     9.9130    12.5730     2.4540 
  263.1250   -13.1880    54.6170    24.8180    11.1980     9.8850    12.5170     2.4520 
  263.2500   -13.1790    54.2570    24.8730    11.5260     9.8020    12.4170     2.4400 
  263.3750   -13.2200    51.3740    24.7880    11.4990     9.7030    12.3090     2.4130 
  263.5000   -13.2490    49.9160    24.7460    11.2400     9.6240    12.2250     2.3800 
  263.6250   -13.2130    51.4940    24.8540    11.0610     9.5970    12.2070     2.3670 
  263.7500   -13.1210    54.5820    24.8620    11.5140     9.6290    12.2340     2.3870 
  263.8750   -13.0620    56.4630    24.8040    11.3220     9.6750    12.2830     2.4060 
  264.0000   -13.0540    56.2360    24.9380    10.2190     9.7150    12.3120     2.4040 
  264.1250   -13.1170    55.0150    24.8580     8.8700     9.7070    12.2540     2.3920 
  264.2500   -13.2060    54.0190    24.7980     8.3770     9.6150    12.0800     2.4030 
  264.3750   -13.2370    53.6680    24.8870     8.5140     9.4340    11.8080     2.4350 
  264.5000   -13.1940    53.6340    24.8560     8.2660     9.2050    11.4920     2.4670 
  264.6250   -13.1200    55.2590    24.8710     7.5170     8.9830    11.1890     2.4840 
  264.7500   -13.1240    56.9270    24.8220     7.1260     8.8200    10.9750     2.4800 
  264.8750   -13.2340    55.6870    24.8870     7.9980     8.7540    10.9100     2.4680 
  265.0000   -13.3410    52.9090    24.7670     9.2730     8.8040    11.0030     2.4560 
  265.1250   -13.3040    52.9940    24.8790    10.5600     8.9570    11.2290     2.4520 
  265.2500   -13.1790    55.2520    24.8970    10.8060     9.1540    11.5100     2.4570 
  265.3750   -13.1000    56.0590    24.9090    10.4540     9.3420    11.7520     2.4590 
  265.5000   -13.1090    54.3410    24.7450     9.9860     9.4610    11.8900     2.4550 
  265.6250   -13.1290    52.7800    24.7660    10.4960     9.4550    11.8760     2.4430 
  265.7500   -13.0750    52.6770    24.7850    11.0370     9.3640    11.7560     2.4310 
  265.8750   -12.9850    53.3850    24.7390    10.4450     9.2210    11.5750     2.4300 
  266.0000   -12.9500    54.3750    24.7210     9.2000     9.0600    11.3880     2.4410 
  266.1250   -12.9200    57.1500    24.7680     8.6480     8.9170    11.2450     2.4550 
  266.2500   -12.9110    60.4520    24.7920     8.3240     8.8000    11.1420     2.4650 
  266.3750   -12.9290    61.5270    24.7520     7.6010     8.6950    11.0730     2.4700 
